{"type":"FeatureCollection","data_type":"Dataset","url_type":null,"permissions":[{"permissions":{"download":true,"view":true},"group_id":"everyone"}],"classification":null,"title":"Company Headquarters","count":653,"stream_id":376904,"contributor":{"url":"http://geocommons.com/users/2968","name":"alexismadrigal"},"data_attributes":null,"calculation_params":null,"icon_link":null,"link":"http://geocommons.com/overlays/376904.json","extent":[-122.267,37.2514,15.1843,44.8638],"geometry_types":["point"],"unique_name":null,"name":"Company Headquarters","feature_count":653,"description":"","next_feature":null,"is_raster":false,"short_classification":"Y","stats":{"latitude":{"max":37.497558,"variance":0.00126530011847193,"mean":37.3847131255743,"stdev":0.0355710573145068,"min":37.25135,"median":37.388726},"longitude":{"max":-121.912514,"variance":0.00287051638282754,"mean":-122.013839229709,"stdev":0.0535772002145273,"min":-122.267337,"median":-122.012237}},"features":[{"properties":{"company":"Merlin Engineering Works","zip":"94303","latitude":37.452777,"longitude":-122.114679,"id":"afpfl45fl7kk","address":"1880 Embarcadero Road"},"type":"Feature","geometry":{"type":"Point","coordinates":[-122.114679,37.452777]}},{"properties":{"company":"Go Power Corp.","zip":"94303","latitude":37.452907,"longitude":-122.114474,"id":"afpfl4ef5att","address":"1890 Embarcadero Road"},"type":"Feature","geometry":{"type":"Point","coordinates":[-122.114474,37.452907]}},{"properties":{"company":"Pearson Electronics Inc.","zip":"94303","latitude":37.452517,"longitude":-122.115088,"id":"afpfl4bz5lrg","address":"1860 Embarcadero Road"},"type":"Feature","geometry":{"type":"Point","coordinates":[-122.115088,37.452517]}},{"properties":{"company":"Lecroy Research Systems","zip":"94303","latitude":37.451815,"longitude":-122.116196,"id":"afpfl420ddp4","address":"1806 Embarcadero Road"},"type":"Feature","geometry":{"type":"Point","coordinates":[-122.116196,37.451815]}},{"properties":{"company":"Quadracast Systems Inc","zip":"94303","latitude":37.448261,"longitude":-122.119733,"id":"afpfl451fr3j","address":"2446 Watson Court"},"type":"Feature","geometry":{"type":"Point","coordinates":[-122.119733,37.448261]}},{"properties":{"company":"Ico-Rally","zip":"94303","latitude":37.44465,"longitude":-122.117683,"id":"afpfl44u8780","address":"2575 E. Bayshore Road"},"type":"Feature","geometry":{"type":"Point","coordinates":[-122.117683,37.44465]}},{"properties":{"company":"Nielsen Dataquest","zip":"94303","latitude":37.443382,"longitude":-122.117679,"id":"afpfl47cecem","address":"2800 W. Bayshore Road"},"type":"Feature","geometry":{"type":"Point","coordinates":[-122.117679,37.443382]}},{"properties":{"company":"Promedics Data Corp.","zip":"94303","latitude":37.431851,"longitude":-122.103733,"id":"afpfl4b36pie","address":"1032 Elwell Court, #240"},"type":"Feature","geometry":{"type":"Point","coordinates":[-122.103733,37.431851]}},{"properties":{"company":"Western Telephone Equip. Co.","zip":"94303","latitude":37.429672,"longitude":-122.101254,"id":"afpfl4aw2lwp","address":"3975 E. Bayshore Road"},"type":"Feature","geometry":{"type":"Point","coordinates":[-122.101254,37.429672]}},{"properties":{"company":"Dolphin Multimedia Inc.","zip":"94303","latitude":37.431721,"longitude":-122.100331,"id":"afpfl4g3lg3o","address":"1135 San Antonio Road"},"type":"Feature","geometry":{"type":"Point","coordinates":[-122.100331,37.431721]}},{"properties":{"company":"Stangenes Industries Inc.","zip":"94303","latitude":37.431343,"longitude":-122.109339,"id":"afpfl497dx7h","address":"1052 E. Meadow Circle"},"type":"Feature","geometry":{"type":"Point","coordinates":[-122.109339,37.431343]}},{"properties":{"company":"Digital Pathways Inc.","zip":"94303","latitude":37.430998,"longitude":-122.109707,"id":"afpfl489gd5h","address":"1060 E. Meadow Circle"},"type":"Feature","geometry":{"type":"Point","coordinates":[-122.109707,37.430998]}},{"properties":{"company":"Crystal Technology Inc.","zip":"94303","latitude":37.431892,"longitude":-122.108286,"id":"afpfl4gurdlm","address":"1035 E. Meadow Circle"},"type":"Feature","geometry":{"type":"Point","coordinates":[-122.108286,37.431892]}},{"properties":{"company":"Elma Engineering Inc.","zip":"94303","latitude":37.430673,"longitude":-122.109806,"id":"afpfl41brocx","address":"1066 E. Meadow Circle"},"type":"Feature","geometry":{"type":"Point","coordinates":[-122.109806,37.430673]}},{"properties":{"company":"Datacopy Corp.","zip":"94303","latitude":37.430443,"longitude":-122.109721,"id":"afpfl4bbxtdw","address":"1070 E. Meadow Circle"},"type":"Feature","geometry":{"type":"Point","coordinates":[-122.109721,37.430443]}},{"properties":{"company":"Remote Computing Corp.","zip":"94303","latitude":37.430209,"longitude":-122.109419,"id":"afpfl49y6vby","address":"1076 E. Meadow Circle"},"type":"Feature","geometry":{"type":"Point","coordinates":[-122.109419,37.430209]}},{"properties":{"company":"Lexel Corp.","zip":"94303","latitude":37.428775,"longitude":-122.107045,"id":"afpfl4hbvver","address":"928 E. Meadow Drive"},"type":"Feature","geometry":{"type":"Point","coordinates":[-122.107045,37.428775]}},{"properties":{"company":"Arbor Labs","zip":"94303","latitude":37.429669,"longitude":-122.104186,"id":"afpfl4an1lxo","address":"3784 Fabian Way"},"type":"Feature","geometry":{"type":"Point","coordinates":[-122.104186,37.429669]}},{"properties":{"company":"Ford Aerospace &amp; Comm.","zip":"94303","latitude":37.423144,"longitude":-122.104175,"id":"afpfl4h34lop","address":"3939 Fabian Way"},"type":"Feature","geometry":{"type":"Point","coordinates":[-122.104175,37.423144]}},{"properties":{"company":"Saronix","zip":"94303","latitude":37.425827,"longitude":-122.100173,"id":"afpfl4ggyjl5","address":"4010 Transport Street"},"type":"Feature","geometry":{"type":"Point","coordinates":[-122.100173,37.425827]}},{"properties":{"company":"Diffraction Optics Inc.","zip":"94303","latitude":37.425497,"longitude":-122.099792,"id":"afpfl46bk0l2","address":"4035 Transport Street"},"type":"Feature","geometry":{"type":"Point","coordinates":[-122.099792,37.425497]}},{"properties":{"company":"Micro Magnetics Industries","zip":"94303","latitude":37.424621,"longitude":-122.098891,"id":"afpfl48nlyuu","address":"4083 Transport Street"},"type":"Feature","geometry":{"type":"Point","coordinates":[-122.098891,37.424621]}},{"properties":{"company":"Techne Electronics Ltd.","zip":"94303","latitude":37.423802,"longitude":-122.100012,"id":"afpfl4h27m2d","address":"916 Commercial Street"},"type":"Feature","geometry":{"type":"Point","coordinates":[-122.100012,37.423802]}},{"properties":{"company":"K-F Development Co.","zip":"94303","latitude":37.423332,"longitude":-122.100092,"id":"afpfl4ej568e","address":"883 Commercial Street"},"type":"Feature","geometry":{"type":"Point","coordinates":[-122.100092,37.423332]}},{"properties":{"company":"Microfab Systems Corp.","zip":"94303","latitude":37.423381,"longitude":-122.104193,"id":"afpfl433edcr","address":"3960 Fabian Way"},"type":"Feature","geometry":{"type":"Point","coordinates":[-122.104193,37.423381]}},{"properties":{"company":"Advalloy","zip":"94303","latitude":37.421954,"longitude":-122.10321,"id":"afpfl446qq07","address":"844 E. Charleston Road"},"type":"Feature","geometry":{"type":"Point","coordinates":[-122.10321,37.421954]}},{"properties":{"company":"Image Technology Inc.","zip":"94303","latitude":37.420984,"longitude":-122.102009,"id":"afpfl4hgoa9x","address":"821 San Antonio Road"},"type":"Feature","geometry":{"type":"Point","coordinates":[-122.102009,37.420984]}},{"properties":{"company":"Vectel Corp.","zip":"94303","latitude":37.421188,"longitude":-122.102884,"id":"afpfl45f8kn3","address":"4074 Fabian Way"},"type":"Feature","geometry":{"type":"Point","coordinates":[-122.102884,37.421188]}},{"properties":{"company":"Giltronix Inc.","zip":"94303","latitude":37.412629,"longitude":-122.105407,"id":"afpfl4b0c76l","address":"450 San Antonio Road"},"type":"Feature","geometry":{"type":"Point","coordinates":[-122.105407,37.412629]}},{"properties":{"company":"Design Automated Systems","zip":"94301","latitude":37.444973,"longitude":-122.160502,"id":"afpfl4d0193u","address":"285 Hamilton Ave, #420"},"type":"Feature","geometry":{"type":"Point","coordinates":[-122.160502,37.444973]}},{"properties":{"company":"Jones Photocolor Inc.","zip":"94306","latitude":37.42721,"longitude":-122.140825,"id":"afpfl4giqy1j","address":"2635 Park Blvd."},"type":"Feature","geometry":{"type":"Point","coordinates":[-122.140825,37.42721]}},{"properties":{"company":"Ausone Corp.","zip":"94304","latitude":37.420056,"longitude":-122.144463,"id":"afpfl4b7e07m","address":"835 Page Mill Rd. #11"},"type":"Feature","geometry":{"type":"Point","coordinates":[-122.144463,37.420056]}},{"properties":{"company":"Alza Corp.","zip":"94304","latitude":37.419496,"longitude":-122.144927,"id":"afpfl4ehm627","address":"925 Page Mill Rd."},"type":"Feature","geometry":{"type":"Point","coordinates":[-122.144927,37.419496]}},{"properties":{"company":"Swiss Craft Co.","zip":"94306","latitude":37.422962,"longitude":-122.135028,"id":"afpfl4bnqeik","address":"291 Lambert Ave."},"type":"Feature","geometry":{"type":"Point","coordinates":[-122.135028,37.422962]}},{"properties":{"company":"Varian Associates","zip":"94301","latitude":37.420397,"longitude":-122.138419,"id":"afpfl4adf58d","address":"611 Hansen Way"},"type":"Feature","geometry":{"type":"Point","coordinates":[-122.138419,37.420397]}},{"properties":{"company":"Hewlett Packard","zip":"94304","latitude":37.416111,"longitude":-122.144814,"id":"afpfl4dszy8b","address":"3000 Hanover St."},"type":"Feature","geometry":{"type":"Point","coordinates":[-122.144814,37.416111]}},{"properties":{"company":"TAB Products","zip":"94304","latitude":37.417853,"longitude":-122.148205,"id":"afpfl439dyje","address":"2690 Hanover St."},"type":"Feature","geometry":{"type":"Point","coordinates":[-122.148205,37.417853]}},{"properties":{"company":"A.E.A.","zip":"94304","latitude":37.417893,"longitude":-122.14828,"id":"afpfl4am0jys","address":"2680 Hanover St."},"type":"Feature","geometry":{"type":"Point","coordinates":[-122.14828,37.417893]}},{"properties":{"company":"Watkins-Johnson Co.","zip":"94304","latitude":37.407057,"longitude":-122.145295,"id":"afpfl49lu2x9","address":"3333 Hillview Ave."},"type":"Feature","geometry":{"type":"Point","coordinates":[-122.145295,37.407057]}},{"properties":{"company":"Teledyne Microwave Elect.","zip":"94304","latitude":37.408359,"longitude":-122.150948,"id":"afpfl4b0nctt","address":"3165 Porter Dr."},"type":"Feature","geometry":{"type":"Point","coordinates":[-122.150948,37.408359]}},{"properties":{"company":"Coherent Inc.","zip":"94304","latitude":37.407759,"longitude":-122.149805,"id":"afpfl44r6lcq","address":"3210 Porter Dr."},"type":"Feature","geometry":{"type":"Point","coordinates":[-122.149805,37.407759]}},{"properties":{"company":"Telesensory Systems Inc.","zip":"94304","latitude":37.400412,"longitude":-122.145013,"id":"afpfl4c8fkma","address":"3408 Hillview Ave."},"type":"Feature","geometry":{"type":"Point","coordinates":[-122.145013,37.400412]}},{"properties":{"company":"EPRI","zip":"94304","latitude":37.400029,"longitude":-122.14488,"id":"afpfl4dch98a","address":"3412 Hillview Ave."},"type":"Feature","geometry":{"type":"Point","coordinates":[-122.14488,37.400029]}},{"properties":{"company":"Syva Co.","zip":"94306","latitude":37.395732,"longitude":-122.140906,"id":"afpfl49jp5zq","address":"900 Arastradero Rd."},"type":"Feature","geometry":{"type":"Point","coordinates":[-122.140906,37.395732]}},{"properties":{"company":"Computer Curriculum Corp.","zip":"94306","latitude":37.393712,"longitude":-122.145309,"id":"afpfl47n6yon","address":"1070 Arastradero Rd."},"type":"Feature","geometry":{"type":"Point","coordinates":[-122.145309,37.393712]}},{"properties":{"company":"Dialog Information Service","zip":"94304","latitude":37.395904,"longitude":-122.143584,"id":"afpfl49gjnib","address":"3460 Hillview Ave."},"type":"Feature","geometry":{"type":"Point","coordinates":[-122.143584,37.395904]}},{"properties":{"company":"International Masting Services","zip":"94043","latitude":37.431394,"longitude":-122.100375,"id":"afpfl4ebnoux","address":"1157 San Antonio Rd."},"type":"Feature","geometry":{"type":"Point","coordinates":[-122.100375,37.431394]}},{"properties":{"company":"Perkin-Elmer/Plasma Prod.","zip":"94043","latitude":37.432257,"longitude":-122.099798,"id":"afpfl443s8mj","address":"2690 Casey Ave."},"type":"Feature","geometry":{"type":"Point","coordinates":[-122.099798,37.432257]}},{"properties":{"company":"Scientific Technology Inc.","zip":"94043","latitude":37.432391,"longitude":-122.100193,"id":"afpfl41ljvod","address":"1201 N. San Antonio Rd."},"type":"Feature","geometry":{"type":"Point","coordinates":[-122.100193,37.432391]}},{"properties":{"company":"Aedeco Corp.","zip":"94043","latitude":37.432132,"longitude":-122.098623,"id":"afpfl4c3ri1l","address":"2551 Casey Ave., Bldg C"},"type":"Feature","geometry":{"type":"Point","coordinates":[-122.098623,37.432132]}},{"properties":{"company":"Straube Associates","zip":"94043","latitude":37.432132,"longitude":-122.098623,"id":"afpfl4a5sw34","address":"2551 Casey Ave"},"type":"Feature","geometry":{"type":"Point","coordinates":[-122.098623,37.432132]}},{"properties":{"company":"Maromatic","zip":"94043","latitude":37.426405,"longitude":-122.094568,"id":"afpfl44wvrl3","address":"2591 Garcia Ave."},"type":"Feature","geometry":{"type":"Point","coordinates":[-122.094568,37.426405]}},{"properties":{"company":"Kapco Tool and Engineering","zip":"94043","latitude":37.426405,"longitude":-122.094568,"id":"afpfl4bf3dan","address":"2591 Garcia Ave."},"type":"Feature","geometry":{"type":"Point","coordinates":[-122.094568,37.426405]}},{"properties":{"company":"Grid Systems Corp.","zip":"94043","latitude":37.426109,"longitude":-122.094313,"id":"afpfl4f17mki","address":"2535 Garcia Ave."},"type":"Feature","geometry":{"type":"Point","coordinates":[-122.094313,37.426109]}},{"properties":{"company":"Activision","zip":"94043","latitude":37.424925,"longitude":-122.097273,"id":"afpfl439z4ar","address":"2350 Bayshore Frontage Rd."},"type":"Feature","geometry":{"type":"Point","coordinates":[-122.097273,37.424925]}},{"properties":{"company":"Becton Dickinson","zip":"94043","latitude":37.425412,"longitude":-122.093368,"id":"afpfl4eqy6nm","address":"2375 Garcia Ave."},"type":"Feature","geometry":{"type":"Point","coordinates":[-122.093368,37.425412]}},{"properties":{"company":"Minimatics","zip":"94043","latitude":37.421634,"longitude":-122.097593,"id":"afpfl436p5on","address":"2470 Charleston Rd."},"type":"Feature","geometry":{"type":"Point","coordinates":[-122.097593,37.421634]}},{"properties":{"company":"Norcal Tech. Inc.","zip":"94043","latitude":37.421606,"longitude":-122.097063,"id":"afpfl4h7vuwf","address":"2420 Charleston Rd."},"type":"Feature","geometry":{"type":"Point","coordinates":[-122.097063,37.421606]}},{"properties":{"company":"Tencor Instruments","zip":"94043","latitude":37.42161,"longitude":-122.097148,"id":"afpfl43w81b6","address":"2428 Charleston Rd."},"type":"Feature","geometry":{"type":"Point","coordinates":[-122.097148,37.42161]}},{"properties":{"company":"Precision Data Inc.","zip":"94043","latitude":37.421542,"longitude":-122.096148,"id":"afpfl448fojz","address":"2370 Charleston Rd."},"type":"Feature","geometry":{"type":"Point","coordinates":[-122.096148,37.421542]}},{"properties":{"company":"Davila Intl. Circuits Inc.","zip":"94043","latitude":37.421543,"longitude":-122.096381,"id":"afpfl440kwi1","address":"2349 Charleston Rd."},"type":"Feature","geometry":{"type":"Point","coordinates":[-122.096381,37.421543]}},{"properties":{"company":"Symtron Corp.","zip":"94043","latitude":37.421587,"longitude":-122.097033,"id":"afpfl49w1v9m","address":"2415 E. Charleston Rd."},"type":"Feature","geometry":{"type":"Point","coordinates":[-122.097033,37.421587]}},{"properties":{"company":"Drexler Tech. Corp.","zip":"94043","latitude":37.421727,"longitude":-122.099484,"id":"afpfl469btdz","address":"2557 Charleston Rd."},"type":"Feature","geometry":{"type":"Point","coordinates":[-122.099484,37.421727]}},{"properties":{"company":"Precision Photoglass Inc.","zip":"94043","latitude":37.421727,"longitude":-122.099484,"id":"afpfl4dj8b8t","address":"2557 Charleston Rd."},"type":"Feature","geometry":{"type":"Point","coordinates":[-122.099484,37.421727]}},{"properties":{"company":"Custom Circuits Intl.","zip":"94043","latitude":37.419464,"longitude":-122.101404,"id":"afpfl4faubf0","address":"2570 Leghorn St."},"type":"Feature","geometry":{"type":"Point","coordinates":[-122.101404,37.419464]}},{"properties":{"company":"G.H.I. Inc.","zip":"94043","latitude":37.419883,"longitude":-122.096921,"id":"afpfl4gnved4","address":"1050 Independence Ave."},"type":"Feature","geometry":{"type":"Point","coordinates":[-122.096921,37.419883]}},{"properties":{"company":"Autotron Equipment Corp.","zip":"94043","latitude":37.420122,"longitude":-122.096879,"id":"afpfl4ghe9vc","address":"1077 Independence Ave. #B"},"type":"Feature","geometry":{"type":"Point","coordinates":[-122.096879,37.420122]}},{"properties":{"company":"Ramlor Printed Circuits","zip":"94043","latitude":37.417863,"longitude":-122.097115,"id":"afpfl41gnzpk","address":"918 Independence Ave."},"type":"Feature","geometry":{"type":"Point","coordinates":[-122.097115,37.417863]}},{"properties":{"company":"Automated Simulations Inc.","zip":"94043","latitude":37.418828,"longitude":-122.09153,"id":"afpfl44ruyfi","address":"1988 Leghorn St."},"type":"Feature","geometry":{"type":"Point","coordinates":[-122.09153,37.418828]}},{"properties":{"company":"Sierra Scientific Corp.","zip":"94043","latitude":37.418976,"longitude":-122.094532,"id":"afpfl4fc1x50","address":"2189 Leghorn St."},"type":"Feature","geometry":{"type":"Point","coordinates":[-122.094532,37.418976]}},{"properties":{"company":"Strobe Inc.","zip":"94043","latitude":37.417565,"longitude":-122.097125,"id":"afpfl4a3xmf9","address":"897 Independence Ave."},"type":"Feature","geometry":{"type":"Point","coordinates":[-122.097125,37.417565]}},{"properties":{"company":"Barrett Electronics Corp.","zip":"94043","latitude":37.416466,"longitude":-122.097226,"id":"afpfl4fjx8j1","address":"849 Independence Ave."},"type":"Feature","geometry":{"type":"Point","coordinates":[-122.097226,37.416466]}},{"properties":{"company":"Stored Energy Systems","zip":"94043","latitude":37.416908,"longitude":-122.099759,"id":"afpfl4dydv2i","address":"2520 Wyandotte St."},"type":"Feature","geometry":{"type":"Point","coordinates":[-122.099759,37.416908]}},{"properties":{"company":"Clement Design Labs","zip":"94043","latitude":37.416947,"longitude":-122.10046,"id":"afpfl4dudq3x","address":"2560 Wyandotte St."},"type":"Feature","geometry":{"type":"Point","coordinates":[-122.10046,37.416947]}},{"properties":{"company":"Printex Corp.","zip":"94043","latitude":37.415765,"longitude":-122.08864,"id":"afpfl4ahew90","address":"1950 Colony St."},"type":"Feature","geometry":{"type":"Point","coordinates":[-122.08864,37.415765]}},{"properties":{"company":"Turner Designs Inc.","zip":"94043","latitude":37.409962,"longitude":-122.07365,"id":"afpfl4e1ttzm","address":"2247 Old Middlefield Wy."},"type":"Feature","geometry":{"type":"Point","coordinates":[-122.07365,37.409962]}},{"properties":{"company":"Ray Larry Photography","zip":"94043","latitude":37.409962,"longitude":-122.07365,"id":"afpfl40zh18g","address":"2239 Old Middlefield Wy."},"type":"Feature","geometry":{"type":"Point","coordinates":[-122.07365,37.409962]}},{"properties":{"company":"Ceta Corp","zip":"94043","latitude":37.409962,"longitude":-122.07365,"id":"afpfl4cphh4v","address":"2224 Old Middlefield Wy."},"type":"Feature","geometry":{"type":"Point","coordinates":[-122.07365,37.409962]}},{"properties":{"company":"Teleware Inc.","zip":"94043","latitude":37.409962,"longitude":-122.07365,"id":"afpfl43hky9b","address":"2166 Old Middlefield Wy."},"type":"Feature","geometry":{"type":"Point","coordinates":[-122.07365,37.409962]}},{"properties":{"company":"Zambre Co. Inc.","zip":"94043","latitude":37.409962,"longitude":-122.07365,"id":"afpfl49bzlqw","address":"2134 Old Middlefield Wy."},"type":"Feature","geometry":{"type":"Point","coordinates":[-122.07365,37.409962]}},{"properties":{"company":"Vitalink Comm. Corp.","zip":"94043","latitude":37.420648,"longitude":-122.074778,"id":"afpfl448cj6v","address":"1330 Charleston Rd."},"type":"Feature","geometry":{"type":"Point","coordinates":[-122.074778,37.420648]}},{"properties":{"company":"Information Design Inc.","zip":"94043","latitude":37.420741,"longitude":-122.073683,"id":"afpfl422vaak","address":"1300 Charleston Rd."},"type":"Feature","geometry":{"type":"Point","coordinates":[-122.073683,37.420741]}},{"properties":{"company":"Quanta-Ray Inc.","zip":"94043","latitude":37.420741,"longitude":-122.073683,"id":"afpfl4hbl7zm","address":"1300 Charleston Rd."},"type":"Feature","geometry":{"type":"Point","coordinates":[-122.073683,37.420741]}},{"properties":{"company":"Artec International Inc.","zip":"94043","latitude":37.420397,"longitude":-122.071916,"id":"afpfl4298bgl","address":"1250 Charleston Rd."},"type":"Feature","geometry":{"type":"Point","coordinates":[-122.071916,37.420397]}},{"properties":{"company":"Microvertics","zip":"94043","latitude":37.420068,"longitude":-122.070985,"id":"afpfl4b2pfp7","address":"1220 Charleston Rd."},"type":"Feature","geometry":{"type":"Point","coordinates":[-122.070985,37.420068]}},{"properties":{"company":"3-COM","zip":"94043","latitude":37.418518,"longitude":-122.077032,"id":"afpfl4e7wkgr","address":"1394 Shorebird Way"},"type":"Feature","geometry":{"type":"Point","coordinates":[-122.077032,37.418518]}},{"properties":{"company":"Acuson","zip":"94043","latitude":37.418502,"longitude":-122.076767,"id":"afpfl4bmo790","address":"1383 Shorebird Way"},"type":"Feature","geometry":{"type":"Point","coordinates":[-122.076767,37.418502]}},{"properties":{"company":"Applied Medical Tech.","zip":"94043","latitude":37.418502,"longitude":-122.076988,"id":"afpfl4ahxgtz","address":"1393 Shorebird Way"},"type":"Feature","geometry":{"type":"Point","coordinates":[-122.076988,37.418502]}},{"properties":{"company":"Technology for Comm. Intl.","zip":"94043","latitude":37.418502,"longitude":-122.077076,"id":"afpfl465lsu2","address":"1397 Shorebird Way"},"type":"Feature","geometry":{"type":"Point","coordinates":[-122.077076,37.418502]}},{"properties":{"company":"Tranex Inc.","zip":"94043","latitude":37.40955,"longitude":-122.077999,"id":"afpfl4ds2rf9","address":"1675 Stierlin Rd."},"type":"Feature","geometry":{"type":"Point","coordinates":[-122.077999,37.40955]}},{"properties":{"company":"Trio Tech. Intl.","zip":"94043","latitude":37.40955,"longitude":-122.077999,"id":"afpfl4adbrmi","address":"1599 Stierlin Rd."},"type":"Feature","geometry":{"type":"Point","coordinates":[-122.077999,37.40955]}},{"properties":{"company":"Setcom Corp.","zip":"94043","latitude":37.40955,"longitude":-122.078119,"id":"afpfl44wfoj2","address":"1400 Stierlin Rd."},"type":"Feature","geometry":{"type":"Point","coordinates":[-122.078119,37.40955]}},{"properties":{"company":"Microwave General","zip":"94043","latitude":37.40955,"longitude":-122.078119,"id":"afpfl4cjq1gy","address":"1400 Stierlin Rd."},"type":"Feature","geometry":{"type":"Point","coordinates":[-122.078119,37.40955]}},{"properties":{"company":"Innovatex","zip":"94043","latitude":37.413233,"longitude":-122.072491,"id":"afpfl4c32aua","address":"1100 L'Avenida"},"type":"Feature","geometry":{"type":"Point","coordinates":[-122.072491,37.413233]}},{"properties":{"company":"T.B.S. Inc.","zip":"94043","latitude":37.413188,"longitude":-122.071575,"id":"afpfl4bt16bs","address":"1080A L'Avenida"},"type":"Feature","geometry":{"type":"Point","coordinates":[-122.071575,37.413188]}},{"properties":{"company":"Huntington Mechanical Labs","zip":"94043","latitude":37.413136,"longitude":-122.070563,"id":"afpfl4c9cuz2","address":"1040 L'Avenida"},"type":"Feature","geometry":{"type":"Point","coordinates":[-122.070563,37.413136]}},{"properties":{"company":"Dann Services","zip":"94070","latitude":37.497558,"longitude":-122.267337,"id":"afpfl43blrxr","address":"2624 Fayette Dr."},"type":"Feature","geometry":{"type":"Point","coordinates":[-122.267337,37.497558]}},{"properties":{"company":"Rucker and Kolls Mfg. Corp.","zip":"94043","latitude":37.40947,"longitude":-122.080143,"id":"afpfl4f6eerc","address":"1305 Terra Bella Ave."},"type":"Feature","geometry":{"type":"Point","coordinates":[-122.080143,37.40947]}},{"properties":{"company":"Oximetrix Inc.","zip":"94043","latitude":37.408556,"longitude":-122.07898,"id":"afpfl4b9lsg4","address":"1212 Terra Bella Ave"},"type":"Feature","geometry":{"type":"Point","coordinates":[-122.07898,37.408556]}},{"properties":{"company":"Precision EPI Corp.","zip":"94043","latitude":37.408551,"longitude":-122.07903,"id":"afpfl4aicns5","address":"1215 Terra Bella Ave"},"type":"Feature","geometry":{"type":"Point","coordinates":[-122.07903,37.408551]}},{"properties":{"company":"Mardix Security Systems","zip":"94043","latitude":37.407424,"longitude":-122.078091,"id":"afpfl4c3nrlc","address":"900 Stierlin Rd."},"type":"Feature","geometry":{"type":"Point","coordinates":[-122.078091,37.407424]}},{"properties":{"company":"Wescorp","zip":"94043","latitude":37.408457,"longitude":-122.076892,"id":"afpfl4c0e2iu","address":"1155 Terra Bella Ave."},"type":"Feature","geometry":{"type":"Point","coordinates":[-122.076892,37.408457]}},{"properties":{"company":"Davong Systems Inc.","zip":"94043","latitude":37.408452,"longitude":-122.074432,"id":"afpfl447153e","address":"1061 Terra Bella Ave."},"type":"Feature","geometry":{"type":"Point","coordinates":[-122.074432,37.408452]}},{"properties":{"company":"Aqua Velop Inc.","zip":"94043","latitude":37.406754,"longitude":-122.070342,"id":"afpfl4fy4b4p","address":"922 San Leandro Ave."},"type":"Feature","geometry":{"type":"Point","coordinates":[-122.070342,37.406754]}},{"properties":{"company":"L.G.M. Mfg. Co.","zip":"94043","latitude":37.40479,"longitude":-122.078084,"id":"afpfl4cppvh0","address":"723 Stierlin Rd."},"type":"Feature","geometry":{"type":"Point","coordinates":[-122.078084,37.40479]}},{"properties":{"company":"Beamco Inc.","zip":"94043","latitude":37.399683,"longitude":-122.083318,"id":"afpfl48jnhgj","address":"280 Polaris Ave."},"type":"Feature","geometry":{"type":"Point","coordinates":[-122.083318,37.399683]}},{"properties":{"company":"Time Lapse Inc.","zip":"94043","latitude":37.399268,"longitude":-122.083571,"id":"afpfl41x40sx","address":"250 Polaris Ave."},"type":"Feature","geometry":{"type":"Point","coordinates":[-122.083571,37.399268]}},{"properties":{"company":"Cubit","zip":"94043","latitude":37.399129,"longitude":-122.083655,"id":"afpfl4224nqc","address":"240 Polaris Ave."},"type":"Feature","geometry":{"type":"Point","coordinates":[-122.083655,37.399129]}},{"properties":{"company":"Atmosphere Control Prod.","zip":"94043","latitude":37.399861,"longitude":-122.083184,"id":"afpfl4eo13lk","address":"295 Polaris Ave."},"type":"Feature","geometry":{"type":"Point","coordinates":[-122.083184,37.399861]}},{"properties":{"company":"Inner Conn. tech. Inc.","zip":"94043","latitude":37.398104,"longitude":-122.076039,"id":"afpfl4dwj2ku","address":"327 Moffett Blvd"},"type":"Feature","geometry":{"type":"Point","coordinates":[-122.076039,37.398104]}},{"properties":{"company":"Hy-Pac","zip":"94043","latitude":37.398266,"longitude":-122.075863,"id":"afpfl47zifs4","address":"341 Moffett Blvd"},"type":"Feature","geometry":{"type":"Point","coordinates":[-122.075863,37.398266]}},{"properties":{"company":"Rothenberg Info. Systems","zip":"94041","latitude":37.390751,"longitude":-122.080953,"id":"afpfl44girk6","address":"444 Castro St, #820"},"type":"Feature","geometry":{"type":"Point","coordinates":[-122.080953,37.390751]}},{"properties":{"company":"Atac-Analytical Tech.","zip":"94041","latitude":37.390751,"longitude":-122.080953,"id":"afpfl49sf91d","address":"444 Castro St."},"type":"Feature","geometry":{"type":"Point","coordinates":[-122.080953,37.390751]}},{"properties":{"company":"Bacti-Lab Inc.","zip":"94042","latitude":37.38802,"longitude":-122.07431,"id":"afpfl48di45x","address":"300A Pioneer Way"},"type":"Feature","geometry":{"type":"Point","coordinates":[-122.07431,37.38802]}},{"properties":{"company":"Medsonics Inc.","zip":"94042","latitude":37.38802,"longitude":-122.07431,"id":"afpfl4adbwyg","address":"340 Pioneer Way"},"type":"Feature","geometry":{"type":"Point","coordinates":[-122.07431,37.38802]}},{"properties":{"company":"Nicolet Tech.","zip":"94043","latitude":37.387217,"longitude":-122.066808,"id":"afpfl43x4nu7","address":"145 E. Dana St."},"type":"Feature","geometry":{"type":"Point","coordinates":[-122.066808,37.387217]}},{"properties":{"company":"Foonly Inc.","zip":"94041","latitude":37.386643,"longitude":-122.064228,"id":"afpfl45zourw","address":"160 S. Whisman Rd."},"type":"Feature","geometry":{"type":"Point","coordinates":[-122.064228,37.386643]}},{"properties":{"company":"Calif. Magnetics Corp.","zip":"94041","latitude":37.386655,"longitude":-122.064183,"id":"afpfl41p6cfj","address":"144 S. Whisman Rd."},"type":"Feature","geometry":{"type":"Point","coordinates":[-122.064183,37.386655]}},{"properties":{"company":"Acro Mfg.","zip":"94040","latitude":37.389687,"longitude":-122.064678,"id":"afpfl4f12b1i","address":"145 E. Evelyn Ave."},"type":"Feature","geometry":{"type":"Point","coordinates":[-122.064678,37.389687]}},{"properties":{"company":"Mechanization Assoc.","zip":"94040","latitude":37.389424,"longitude":-122.064018,"id":"afpfl49f8duq","address":"181 E. Evelyn Ave."},"type":"Feature","geometry":{"type":"Point","coordinates":[-122.064018,37.389424]}},{"properties":{"company":"Pacific Western Systems Inc.","zip":"94040","latitude":37.386965,"longitude":-122.056818,"id":"afpfl4d683pl","address":"505 E. Evelyn Ave."},"type":"Feature","geometry":{"type":"Point","coordinates":[-122.056818,37.386965]}},{"properties":{"company":"Gastech Inc.","zip":"94043","latitude":37.404854,"longitude":-122.055469,"id":"afpfl4ebdho6","address":"331 Fairchild Dr."},"type":"Feature","geometry":{"type":"Point","coordinates":[-122.055469,37.404854]}},{"properties":{"company":"Sealectro Corp.","zip":"94043","latitude":37.40351,"longitude":-122.051989,"id":"afpfl4fzk0vx","address":"465 Fairchild Dr. #112"},"type":"Feature","geometry":{"type":"Point","coordinates":[-122.051989,37.40351]}},{"properties":{"company":"Xetex Inc.","zip":"94043","latitude":37.403097,"longitude":-122.053778,"id":"afpfl4ah6q9w","address":"660 National Ave."},"type":"Feature","geometry":{"type":"Point","coordinates":[-122.053778,37.403097]}},{"properties":{"company":"Fairchild Camera &amp; Instru.","zip":"94043","latitude":37.399681,"longitude":-122.052352,"id":"afpfl485cz43","address":"464 Ellis St."},"type":"Feature","geometry":{"type":"Point","coordinates":[-122.052352,37.399681]}},{"properties":{"company":"Baumbach Engineering Co.","zip":"94043","latitude":37.402681,"longitude":-122.053936,"id":"afpfl41xxkea","address":"640 National Ave."},"type":"Feature","geometry":{"type":"Point","coordinates":[-122.053936,37.402681]}},{"properties":{"company":"Daytron Inc.","zip":"94043","latitude":37.402556,"longitude":-122.053979,"id":"afpfl46gt8e2","address":"634 National Ave."},"type":"Feature","geometry":{"type":"Point","coordinates":[-122.053979,37.402556]}},{"properties":{"company":"Vykra Corp.","zip":"94043","latitude":37.400739,"longitude":-122.049249,"id":"afpfl465uuni","address":"650 Clyde Ct."},"type":"Feature","geometry":{"type":"Point","coordinates":[-122.049249,37.400739]}},{"properties":{"company":"Acurex Corp.","zip":"94043","latitude":37.399437,"longitude":-122.046632,"id":"afpfl425luka","address":"555 Clyde Ave."},"type":"Feature","geometry":{"type":"Point","coordinates":[-122.046632,37.399437]}},{"properties":{"company":"Optimetrix Corp.","zip":"94043","latitude":37.401254,"longitude":-122.051776,"id":"afpfl46zi41t","address":"500 Ellis St."},"type":"Feature","geometry":{"type":"Point","coordinates":[-122.051776,37.401254]}},{"properties":{"company":"Rok Industries Inc.","zip":"94043","latitude":37.401636,"longitude":-122.05161,"id":"afpfl4bp42vi","address":"555 Ellis St."},"type":"Feature","geometry":{"type":"Point","coordinates":[-122.05161,37.401636]}},{"properties":{"company":"Promex","zip":"94043","latitude":37.399924,"longitude":-122.052264,"id":"afpfl4br06ol","address":"476 Ellis St."},"type":"Feature","geometry":{"type":"Point","coordinates":[-122.052264,37.399924]}},{"properties":{"company":"Recortex Inc.","zip":"94043","latitude":37.399696,"longitude":-122.052325,"id":"afpfl47350mx","address":"475 Ellis St."},"type":"Feature","geometry":{"type":"Point","coordinates":[-122.052325,37.399696]}},{"properties":{"company":"Personal Microcomputers","zip":"94043","latitude":37.39874,"longitude":-122.052673,"id":"afpfl44cikl3","address":"425 Ellis St."},"type":"Feature","geometry":{"type":"Point","coordinates":[-122.052673,37.39874]}},{"properties":{"company":"Microsette Co.","zip":"94043","latitude":37.399696,"longitude":-122.052325,"id":"afpfl49mn8k3","address":"475 Ellis St."},"type":"Feature","geometry":{"type":"Point","coordinates":[-122.052325,37.399696]}},{"properties":{"company":"Nissei Sangyo Intru.","zip":"94043","latitude":37.396355,"longitude":-122.055768,"id":"afpfl4co1anx","address":"460 E. Middlefield Rd."},"type":"Feature","geometry":{"type":"Point","coordinates":[-122.055768,37.396355]}},{"properties":{"company":"Echo Science Corp.","zip":"94043","latitude":37.395954,"longitude":-122.054181,"id":"afpfl4h38e00","address":"485 E. Middlefield Rd."},"type":"Feature","geometry":{"type":"Point","coordinates":[-122.054181,37.395954]}},{"properties":{"company":"TRI Data Corp.","zip":"94043","latitude":37.395793,"longitude":-122.053714,"id":"afpfl46k5jbn","address":"505 E. Middlefield Rd."},"type":"Feature","geometry":{"type":"Point","coordinates":[-122.053714,37.395793]}},{"properties":{"company":"Electronic Arrays Inc.","zip":"94043","latitude":37.395148,"longitude":-122.05255,"id":"afpfl4340pck","address":"550 E. Middlefield Rd."},"type":"Feature","geometry":{"type":"Point","coordinates":[-122.05255,37.395148]}},{"properties":{"company":"Calif. Circuit Assemb.","zip":"94042","latitude":37.38802,"longitude":-122.07431,"id":"afpfl43cgo31","address":"320 Logue Ave"},"type":"Feature","geometry":{"type":"Point","coordinates":[-122.07431,37.38802]}},{"properties":{"company":"Icot Corp.","zip":"94043","latitude":37.396681,"longitude":-122.049137,"id":"afpfl44pfdhm","address":"830 Maude Ave"},"type":"Feature","geometry":{"type":"Point","coordinates":[-122.049137,37.396681]}},{"properties":{"company":"NCR Corp.","zip":"94043","latitude":37.398085,"longitude":-122.049927,"id":"afpfl412eeuc","address":"520 Logue Ave"},"type":"Feature","geometry":{"type":"Point","coordinates":[-122.049927,37.398085]}},{"properties":{"company":"Commercial Electronics Inc.","zip":"94043","latitude":37.395805,"longitude":-122.047991,"id":"afpfl4btgl8c","address":"880 Maude Ave"},"type":"Feature","geometry":{"type":"Point","coordinates":[-122.047991,37.395805]}},{"properties":{"company":"Martex Circuits Inc.","zip":"94043","latitude":37.395788,"longitude":-122.048006,"id":"afpfl429183t","address":"885 Maude Ave"},"type":"Feature","geometry":{"type":"Point","coordinates":[-122.048006,37.395788]}},{"properties":{"company":"S.M.S.","zip":"94043","latitude":37.391039,"longitude":-122.048496,"id":"afpfl4bwypxc","address":"777 E. Middlefield Rd."},"type":"Feature","geometry":{"type":"Point","coordinates":[-122.048496,37.391039]}},{"properties":{"company":"National Advanced Systems","zip":"94043","latitude":37.390323,"longitude":-122.047918,"id":"afpfl45zwuuk","address":"800 E. Middlefield Rd."},"type":"Feature","geometry":{"type":"Point","coordinates":[-122.047918,37.390323]}},{"properties":{"company":"Wiltron Company","zip":"94043","latitude":37.390253,"longitude":-122.048037,"id":"afpfl42afg5s","address":"805 E. Middlefield Rd."},"type":"Feature","geometry":{"type":"Point","coordinates":[-122.048037,37.390253]}},{"properties":{"company":"Advent Systems Inc.","zip":"94043","latitude":37.389333,"longitude":-122.054102,"id":"afpfl4bor17m","address":"355 Ravendale Dr."},"type":"Feature","geometry":{"type":"Point","coordinates":[-122.054102,37.389333]}},{"properties":{"company":"Benson Inc.","zip":"94043","latitude":37.389528,"longitude":-122.053817,"id":"afpfl41dh9gu","address":"385 Ravendale Dr."},"type":"Feature","geometry":{"type":"Point","coordinates":[-122.053817,37.389528]}},{"properties":{"company":"Trigon","zip":"94043","latitude":37.389048,"longitude":-122.054519,"id":"afpfl48oz9zb","address":"311 Ravendale Dr."},"type":"Feature","geometry":{"type":"Point","coordinates":[-122.054519,37.389048]}},{"properties":{"company":"Viking Labs Inc.","zip":"94043","latitude":37.389071,"longitude":-122.050156,"id":"afpfl48szvgt","address":"440 N. Bernardo Ave."},"type":"Feature","geometry":{"type":"Point","coordinates":[-122.050156,37.389071]}},{"properties":{"company":"Reliability West Inc.","zip":"94043","latitude":37.389125,"longitude":-122.050027,"id":"afpfl4bfs5u9","address":"455 N. Bernardo Ave."},"type":"Feature","geometry":{"type":"Point","coordinates":[-122.050027,37.389125]}},{"properties":{"company":"3-M Inc.","zip":"94043","latitude":37.388973,"longitude":-122.050319,"id":"afpfl46izb9t","address":"420 N. Bernardo Ave"},"type":"Feature","geometry":{"type":"Point","coordinates":[-122.050319,37.388973]}},{"properties":{"company":"Telco Systems","zip":"94043","latitude":37.388645,"longitude":-122.050905,"id":"afpfl43vieot","address":"350 Bernardo Ave"},"type":"Feature","geometry":{"type":"Point","coordinates":[-122.050905,37.388645]}},{"properties":{"company":"Cromemco Inc.","zip":"94043","latitude":37.388277,"longitude":-122.051447,"id":"afpfl455fkr9","address":"280 Bernardo Ave"},"type":"Feature","geometry":{"type":"Point","coordinates":[-122.051447,37.388277]}},{"properties":{"company":"Genus Inc.","zip":"94043","latitude":37.40129,"longitude":-122.05174,"id":"afpfl49pr4a0","address":"515 Ellis St"},"type":"Feature","geometry":{"type":"Point","coordinates":[-122.05174,37.40129]}},{"properties":{"company":"Lockheed Missiles &amp; Space Co.","zip":"94086","latitude":37.371042,"longitude":-122.023851,"id":"afpfl41m5grc","address":"1111 Lockheed Way"},"type":"Feature","geometry":{"type":"Point","coordinates":[-122.023851,37.371042]}},{"properties":{"company":"Koltron Corporation","zip":"94086","latitude":37.41584,"longitude":-122.023002,"id":"afpfl45ewlia","address":"1380 Bordeaux Dr."},"type":"Feature","geometry":{"type":"Point","coordinates":[-122.023002,37.41584]}},{"properties":{"company":"Technitron Inc.","zip":"94086","latitude":37.415699,"longitude":-122.022305,"id":"afpfl496qf3g","address":"1366 Bordeaux Dr"},"type":"Feature","geometry":{"type":"Point","coordinates":[-122.022305,37.415699]}},{"properties":{"company":"Zyng Enterprises","zip":"94086","latitude":37.415643,"longitude":-122.022112,"id":"afpfl473ivoj","address":"1362 Bordeaux Dr."},"type":"Feature","geometry":{"type":"Point","coordinates":[-122.022112,37.415643]}},{"properties":{"company":"Dialogic Systems Corp.","zip":"94086","latitude":37.413354,"longitude":-122.021951,"id":"afpfl4fts2z8","address":"1300 Bordeaux Dr."},"type":"Feature","geometry":{"type":"Point","coordinates":[-122.021951,37.413354]}},{"properties":{"company":"ILC Technology Inc.","zip":"94086","latitude":37.410104,"longitude":-122.012186,"id":"afpfl468dr38","address":"399 Java Dr."},"type":"Feature","geometry":{"type":"Point","coordinates":[-122.012186,37.410104]}},{"properties":{"company":"Geometrics Inc.","zip":"94086","latitude":37.410139,"longitude":-122.012237,"id":"afpfl42m1136","address":"395 Java Dr."},"type":"Feature","geometry":{"type":"Point","coordinates":[-122.012237,37.410139]}},{"properties":{"company":"Exidy Inc.","zip":"94086","latitude":37.410145,"longitude":-122.012621,"id":"afpfl44ql22e","address":"390 Java Dr."},"type":"Feature","geometry":{"type":"Point","coordinates":[-122.012621,37.410145]}},{"properties":{"company":"Supertex Inc.","zip":"94086","latitude":37.410567,"longitude":-122.022901,"id":"afpfl4cbv9st","address":"1225 Bordeaux Dr."},"type":"Feature","geometry":{"type":"Point","coordinates":[-122.022901,37.410567]}},{"properties":{"company":"Comdial Semiconductor Inc.","zip":"94086","latitude":37.410692,"longitude":-122.022836,"id":"afpfl42kkjk4","address":"1230 Bordeaux Dr."},"type":"Feature","geometry":{"type":"Point","coordinates":[-122.022836,37.410692]}},{"properties":{"company":"Stanford Telecommunications","zip":"94086","latitude":37.408902,"longitude":-122.023474,"id":"afpfl41b1i0g","address":"1195 Bordeaux Dr."},"type":"Feature","geometry":{"type":"Point","coordinates":[-122.023474,37.408902]}},{"properties":{"company":"Mircotest Systems Inc.","zip":"94086","latitude":37.408617,"longitude":-122.023549,"id":"afpfl4beqg70","address":"1188 Bordeaux Dr."},"type":"Feature","geometry":{"type":"Point","coordinates":[-122.023549,37.408617]}},{"properties":{"company":"Sytek","zip":"94086","latitude":37.406983,"longitude":-122.023239,"id":"afpfl4cdsdfe","address":"1153 Bordeaux Dr."},"type":"Feature","geometry":{"type":"Point","coordinates":[-122.023239,37.406983]}},{"properties":{"company":"Centrigram Corp.","zip":"94086","latitude":37.404068,"longitude":-122.023328,"id":"afpfl4g883qi","address":"155 Moffett Park Dr."},"type":"Feature","geometry":{"type":"Point","coordinates":[-122.023328,37.404068]}},{"properties":{"company":"Design Optics","zip":"94086","latitude":37.404068,"longitude":-122.023328,"id":"afpfl48qec1f","address":"155 Moffett Park Dr."},"type":"Feature","geometry":{"type":"Point","coordinates":[-122.023328,37.404068]}},{"properties":{"company":"CAS Systems","zip":"94086","latitude":37.406353,"longitude":-122.019761,"id":"afpfl4e25f36","address":"1169 Borregas Ave."},"type":"Feature","geometry":{"type":"Point","coordinates":[-122.019761,37.406353]}},{"properties":{"company":"Control Data Corp.","zip":"94086","latitude":37.404869,"longitude":-122.019349,"id":"afpfl4clzoxn","address":"215 Moffett Park Dr."},"type":"Feature","geometry":{"type":"Point","coordinates":[-122.019349,37.404869]}},{"properties":{"company":"Atari Inc.","zip":"94086","latitude":37.409574,"longitude":-122.018712,"id":"afpfl41tye8z","address":"1265 Borregas Ave"},"type":"Feature","geometry":{"type":"Point","coordinates":[-122.018712,37.409574]}},{"properties":{"company":"Cavro Scientific Instrument Inc.","zip":"94086","latitude":37.408051,"longitude":-122.017897,"id":"afpfl426zopi","address":"242 Humboldt Ct."},"type":"Feature","geometry":{"type":"Point","coordinates":[-122.017897,37.408051]}},{"properties":{"company":"Rasor Associates Inc.","zip":"94086","latitude":37.408018,"longitude":-122.01766,"id":"afpfl4hdqo94","address":"253 Humboldt Ct."},"type":"Feature","geometry":{"type":"Point","coordinates":[-122.01766,37.408018]}},{"properties":{"company":"G.C.A. Corp/IC Sys. Group","zip":"94086","latitude":37.408194,"longitude":-122.018457,"id":"afpfl49esuq9","address":"217 Humboldt Ct."},"type":"Feature","geometry":{"type":"Point","coordinates":[-122.018457,37.408194]}},{"properties":{"company":"Cermetek Microsystems Inc.","zip":"94086","latitude":37.412265,"longitude":-122.017804,"id":"afpfl43tt175","address":"1308 Borregas Ave."},"type":"Feature","geometry":{"type":"Point","coordinates":[-122.017804,37.412265]}},{"properties":{"company":"Rexnord Gas Detection Products","zip":"94086","latitude":37.411632,"longitude":-122.01735,"id":"afpfl4cawx29","address":"207 E. Java Dr."},"type":"Feature","geometry":{"type":"Point","coordinates":[-122.01735,37.411632]}},{"properties":{"company":"Racal-Vadic Inc.","zip":"94086","latitude":37.413666,"longitude":-122.016157,"id":"afpfl46f2puj","address":"222 Caspian Dr."},"type":"Feature","geometry":{"type":"Point","coordinates":[-122.016157,37.413666]}},{"properties":{"company":"Ball A.C. Company","zip":"94086","latitude":37.414072,"longitude":-122.017977,"id":"afpfl4d4aux9","address":"141 Caspian Ct."},"type":"Feature","geometry":{"type":"Point","coordinates":[-122.017977,37.414072]}},{"properties":{"company":"Microwave Associates Inc.","zip":"94086","latitude":37.414735,"longitude":-122.016988,"id":"afpfl48bnjjw","address":"1362 Borregas Ave."},"type":"Feature","geometry":{"type":"Point","coordinates":[-122.016988,37.414735]}},{"properties":{"company":"R.O. Associates Inc.","zip":"94086","latitude":37.413507,"longitude":-122.015393,"id":"afpfl48qvvf4","address":"246 Caspian Dr."},"type":"Feature","geometry":{"type":"Point","coordinates":[-122.015393,37.413507]}},{"properties":{"company":"Handar","zip":"94086","latitude":37.371042,"longitude":-122.023851,"id":"afpfl4cvsd0j","address":"1380 Borregas Rd."},"type":"Feature","geometry":{"type":"Point","coordinates":[-122.023851,37.371042]}},{"properties":{"company":"Liconix Inc.","zip":"94086","latitude":37.416107,"longitude":-122.016521,"id":"afpfl4dzbhi2","address":"1390 Borregas Ave."},"type":"Feature","geometry":{"type":"Point","coordinates":[-122.016521,37.416107]}},{"properties":{"company":"Ladcor","zip":"94086","latitude":37.416589,"longitude":-122.01501,"id":"afpfl4dy6xer","address":"230 Caribbean Dr."},"type":"Feature","geometry":{"type":"Point","coordinates":[-122.01501,37.416589]}},{"properties":{"company":"Gasonics","zip":"94086","latitude":37.416544,"longitude":-122.014783,"id":"afpfl41kifb7","address":"238 Caribbean Dr."},"type":"Feature","geometry":{"type":"Point","coordinates":[-122.014783,37.416544]}},{"properties":{"company":"Calif. Computer Systems Inc","zip":"94086","latitude":37.416477,"longitude":-122.014443,"id":"afpfl44v71q4","address":"250 Caribbean Dr."},"type":"Feature","geometry":{"type":"Point","coordinates":[-122.014443,37.416477]}},{"properties":{"company":"Prentice Corp.","zip":"94086","latitude":37.413374,"longitude":-122.014756,"id":"afpfl4g28o6n","address":"266 Caspian Dr."},"type":"Feature","geometry":{"type":"Point","coordinates":[-122.014756,37.413374]}},{"properties":{"company":"Savin","zip":"94086","latitude":37.411573,"longitude":-122.013791,"id":"afpfl45gx87q","address":"1313 Geneva Dr. #B"},"type":"Feature","geometry":{"type":"Point","coordinates":[-122.013791,37.411573]}},{"properties":{"company":"E.S.L. Inc.","zip":"94086","latitude":37.409075,"longitude":-122.011215,"id":"afpfl4a1h1gt","address":"495 Java Dr."},"type":"Feature","geometry":{"type":"Point","coordinates":[-122.011215,37.409075]}},{"properties":{"company":"GRW Systems Inc.","zip":"94086","latitude":37.410297,"longitude":-122.014183,"id":"afpfl44ymedl","address":"1274 Geneva Dr."},"type":"Feature","geometry":{"type":"Point","coordinates":[-122.014183,37.410297]}},{"properties":{"company":"E.P.I.D.","zip":"94086","latitude":37.409443,"longitude":-122.014928,"id":"afpfl43ofzzd","address":"328 Gibraltar Dr."},"type":"Feature","geometry":{"type":"Point","coordinates":[-122.014928,37.409443]}},{"properties":{"company":"Structural Dynamics","zip":"94086","latitude":37.409824,"longitude":-122.016687,"id":"afpfl4eeivwv","address":"256 Gibraltar Dr. #B7"},"type":"Feature","geometry":{"type":"Point","coordinates":[-122.016687,37.409824]}},{"properties":{"company":"B.R. Communications","zip":"94086","latitude":37.407538,"longitude":-122.01382,"id":"afpfl4bguv8x","address":"1249 Innsbruck Dr."},"type":"Feature","geometry":{"type":"Point","coordinates":[-122.01382,37.407538]}},{"properties":{"company":"Spectra Logic Corp","zip":"94086","latitude":37.406998,"longitude":-122.013998,"id":"afpfl4h8b0qo","address":"1227 Innsbruck Dr."},"type":"Feature","geometry":{"type":"Point","coordinates":[-122.013998,37.406998]}},{"properties":{"company":"Barry Research Corp.","zip":"94086","latitude":37.407375,"longitude":-122.013853,"id":"afpfl45yi39g","address":"1242 Innsbruck Dr."},"type":"Feature","geometry":{"type":"Point","coordinates":[-122.013853,37.407375]}},{"properties":{"company":"Pizza Time Theater","zip":"94086","latitude":37.406654,"longitude":-122.014111,"id":"afpfl43rqhnh","address":"1213 Innsbruck Dr."},"type":"Feature","geometry":{"type":"Point","coordinates":[-122.014111,37.406654]}},{"properties":{"company":"T.R.W./Vidar Corp.","zip":"94086","latitude":37.413305,"longitude":-122.009385,"id":"afpfl41q84t6","address":"1344 Crossman Ave."},"type":"Feature","geometry":{"type":"Point","coordinates":[-122.009385,37.413305]}},{"properties":{"company":"Triad Systems Corp.","zip":"94086","latitude":37.409225,"longitude":-122.00745,"id":"afpfl4ahthle","address":"1252 Orleans Dr."},"type":"Feature","geometry":{"type":"Point","coordinates":[-122.00745,37.409225]}},{"properties":{"company":"Allied Media Technology","zip":"94086","latitude":37.371042,"longitude":-122.023851,"id":"afpfl4ffumpg","address":"1262 N. Lawrence Stat. Rd."},"type":"Feature","geometry":{"type":"Point","coordinates":[-122.023851,37.371042]}},{"properties":{"company":"Direct Inc.","zip":"94086","latitude":37.367105,"longitude":-121.996054,"id":"afpfl447huj5","address":"1279 Lawrence Stat. Rd."},"type":"Feature","geometry":{"type":"Point","coordinates":[-121.996054,37.367105]}},{"properties":{"company":"Alternate Design Inc.","zip":"94086","latitude":37.367105,"longitude":-121.996054,"id":"afpfl44cpcdc","address":"1270 Lawrence Stat. Rd."},"type":"Feature","geometry":{"type":"Point","coordinates":[-121.996054,37.367105]}},{"properties":{"company":"Mercator Business Systems","zip":"94086","latitude":37.367105,"longitude":-121.996054,"id":"afpfl4d8jvnr","address":"1294 Lawrence Stat. Rd."},"type":"Feature","geometry":{"type":"Point","coordinates":[-121.996054,37.367105]}},{"properties":{"company":"Equatorial Communications","zip":"94086","latitude":37.367105,"longitude":-121.996054,"id":"afpfl4aohvx9","address":"1294 Lawrence Stat Rd."},"type":"Feature","geometry":{"type":"Point","coordinates":[-121.996054,37.367105]}},{"properties":{"company":"Timbertech","zip":"94086","latitude":37.367105,"longitude":-121.996054,"id":"afpfl4e7lq1y","address":"1287 Lawrence Stat. Rd."},"type":"Feature","geometry":{"type":"Point","coordinates":[-121.996054,37.367105]}},{"properties":{"company":"Amtel Systems Corp.","zip":"94086","latitude":37.409313,"longitude":-121.99379,"id":"afpfl4b0wyhq","address":"1293 Anvilwood Ave."},"type":"Feature","geometry":{"type":"Point","coordinates":[-121.99379,37.409313]}},{"properties":{"company":"International Leadframe","zip":"94086","latitude":37.371042,"longitude":-122.023851,"id":"afpfl444rw8j","address":"1160 Old Mt.View-Alviso Rd."},"type":"Feature","geometry":{"type":"Point","coordinates":[-122.023851,37.371042]}},{"properties":{"company":"Krytar","zip":"94086","latitude":37.408972,"longitude":-121.993413,"id":"afpfl4dho2yj","address":"1260 Anvilwood Ct."},"type":"Feature","geometry":{"type":"Point","coordinates":[-121.993413,37.408972]}},{"properties":{"company":"Domako","zip":"94086","latitude":37.4058,"longitude":-121.994749,"id":"afpfl4a55o71","address":"1260 Alderwood Ave."},"type":"Feature","geometry":{"type":"Point","coordinates":[-121.994749,37.4058]}},{"properties":{"company":"J.H.L. Inc.","zip":"94086","latitude":37.405299,"longitude":-121.994738,"id":"afpfl41xz9gc","address":"1214 Alderwood Ave."},"type":"Feature","geometry":{"type":"Point","coordinates":[-121.994738,37.405299]}},{"properties":{"company":"Brandt Electronics","zip":"94086","latitude":37.405364,"longitude":-121.994739,"id":"afpfl4fvqwtj","address":"1220 Alderwood Ave."},"type":"Feature","geometry":{"type":"Point","coordinates":[-121.994739,37.405364]}},{"properties":{"company":"Eurosil Inc.","zip":"94086","latitude":37.405256,"longitude":-121.994753,"id":"afpfl48d0tr3","address":"1211 Alderwood Ave."},"type":"Feature","geometry":{"type":"Point","coordinates":[-121.994753,37.405256]}},{"properties":{"company":"Wilman Industries","zip":"94086","latitude":37.403518,"longitude":-121.993934,"id":"afpfl4h5hyd8","address":"1155 Tasman Dr."},"type":"Feature","geometry":{"type":"Point","coordinates":[-121.993934,37.403518]}},{"properties":{"company":"Science Applications Inc.","zip":"94086","latitude":37.40365,"longitude":-121.988873,"id":"afpfl4cif0uo","address":"1257 Tasman Dr."},"type":"Feature","geometry":{"type":"Point","coordinates":[-121.988873,37.40365]}},{"properties":{"company":"Westak","zip":"94086","latitude":37.409205,"longitude":-121.991994,"id":"afpfl46ypabl","address":"1274 Forgewood Ave."},"type":"Feature","geometry":{"type":"Point","coordinates":[-121.991994,37.409205]}},{"properties":{"company":"H&amp;D Corp","zip":"94086","latitude":37.409786,"longitude":-121.991977,"id":"afpfl4dp0dye","address":"1292 Forgewood Ave."},"type":"Feature","geometry":{"type":"Point","coordinates":[-121.991977,37.409786]}},{"properties":{"company":"Imtec Products Inc.","zip":"94086","latitude":37.40985,"longitude":-121.991991,"id":"afpfl48kpnah","address":"1295 Forgewood Ave."},"type":"Feature","geometry":{"type":"Point","coordinates":[-121.991991,37.40985]}},{"properties":{"company":"Logical Machine Corp.","zip":"94086","latitude":37.409806,"longitude":-121.990393,"id":"afpfl4ezjwni","address":"1294 Hammerwood Ave."},"type":"Feature","geometry":{"type":"Point","coordinates":[-121.990393,37.409806]}},{"properties":{"company":"3-H Electronics","zip":"94086","latitude":37.409464,"longitude":-121.990399,"id":"afpfl4ggt5q6","address":"1290 Hammerwood Ave."},"type":"Feature","geometry":{"type":"Point","coordinates":[-121.990399,37.409464]}},{"properties":{"company":"Solectron Corp.","zip":"94086","latitude":37.406404,"longitude":-121.990048,"id":"afpfl4eav3y0","address":"1225 Elko Dr."},"type":"Feature","geometry":{"type":"Point","coordinates":[-121.990048,37.406404]}},{"properties":{"company":"Western Microwave Labs","zip":"94086","latitude":37.406874,"longitude":-121.98854,"id":"afpfl46fpclv","address":"1271 Reamwood Ave"},"type":"Feature","geometry":{"type":"Point","coordinates":[-121.98854,37.406874]}},{"properties":{"company":"Laselco Pacific Company","zip":"94086","latitude":37.406927,"longitude":-121.988541,"id":"afpfl4avkyx7","address":"1273 Reamwood Ave"},"type":"Feature","geometry":{"type":"Point","coordinates":[-121.988541,37.406927]}},{"properties":{"company":"H. Square Co.","zip":"94086","latitude":37.407348,"longitude":-121.988544,"id":"afpfl47j8ugs","address":"1289 Reamwood Ave."},"type":"Feature","geometry":{"type":"Point","coordinates":[-121.988544,37.407348]}},{"properties":{"company":"C.C.E. Inc.","zip":"94086","latitude":37.407317,"longitude":-121.988527,"id":"afpfl4f9t1bg","address":"1292 Reamwood Ave."},"type":"Feature","geometry":{"type":"Point","coordinates":[-121.988527,37.407317]}},{"properties":{"company":"American Scientific Corp.","zip":"94086","latitude":37.371042,"longitude":-122.023851,"id":"afpfl43eq2uw","address":"1283 Mt. View-Alviso Rd. #C"},"type":"Feature","geometry":{"type":"Point","coordinates":[-122.023851,37.371042]}},{"properties":{"company":"Versatile Integrated Modules","zip":"94086","latitude":37.371042,"longitude":-122.023851,"id":"afpfl4e2w5l5","address":"1283 Mt.-View-Alviso Rd. #A"},"type":"Feature","geometry":{"type":"Point","coordinates":[-122.023851,37.371042]}},{"properties":{"company":"Falco Data Products","zip":"94086","latitude":37.367105,"longitude":-121.996054,"id":"afpfl46l21cr","address":"1286 Lawrence Stat Rd."},"type":"Feature","geometry":{"type":"Point","coordinates":[-121.996054,37.367105]}},{"properties":{"company":"Arrow Electronics","zip":"94086","latitude":37.396626,"longitude":-122.015601,"id":"afpfl4h5kf69","address":"521 Weddell Dr."},"type":"Feature","geometry":{"type":"Point","coordinates":[-122.015601,37.396626]}},{"properties":{"company":"Precision Circuit Masters","zip":"94086","latitude":37.397393,"longitude":-122.014911,"id":"afpfl4c4bdkx","address":"539 Weddell Dr."},"type":"Feature","geometry":{"type":"Point","coordinates":[-122.014911,37.397393]}},{"properties":{"company":"Inet Corp","zip":"94086","latitude":37.396929,"longitude":-122.015074,"id":"afpfl41s75dc","address":"536 Weddell Dr."},"type":"Feature","geometry":{"type":"Point","coordinates":[-122.015074,37.396929]}},{"properties":{"company":"Aztec Design and Development","zip":"94086","latitude":37.397502,"longitude":-122.014874,"id":"afpfl4d5r6o2","address":"541 Weddell Dr."},"type":"Feature","geometry":{"type":"Point","coordinates":[-122.014874,37.397502]}},{"properties":{"company":"Oxbridge Inc.","zip":"94086","latitude":37.39772,"longitude":-122.014801,"id":"afpfl4ce06lv","address":"545 Weddell Dr."},"type":"Feature","geometry":{"type":"Point","coordinates":[-122.014801,37.39772]}},{"properties":{"company":"Aztec Engineering Inc.","zip":"94086","latitude":37.397555,"longitude":-122.014835,"id":"afpfl44kzjgq","address":"550 Weddell Dr."},"type":"Feature","geometry":{"type":"Point","coordinates":[-122.014835,37.397555]}},{"properties":{"company":"Centronics Data Computer Corp.","zip":"94086","latitude":37.397555,"longitude":-122.014835,"id":"afpfl4fbo2si","address":"550 WEDDELL DR."},"type":"Feature","geometry":{"type":"Point","coordinates":[-122.014835,37.397555]}},{"properties":{"company":"COMPUTEVAC INC.","zip":"94086","latitude":37.398975,"longitude":-122.01336,"id":"afpfl457hjmt","address":"586 WEDDELL DR."},"type":"Feature","geometry":{"type":"Point","coordinates":[-122.01336,37.398975]}},{"properties":{"company":"CEDAR CIRCUITS OF CA.","zip":"94086","latitude":37.398368,"longitude":-122.014561,"id":"afpfl4ajki6e","address":"568 WEDDELL DR."},"type":"Feature","geometry":{"type":"Point","coordinates":[-122.014561,37.398368]}},{"properties":{"company":"VIKO TECHNOLOGY INC.","zip":"94086","latitude":37.39897,"longitude":-122.014103,"id":"afpfl43a1gkc","address":"574 WEDDELL DR."},"type":"Feature","geometry":{"type":"Point","coordinates":[-122.014103,37.39897]}},{"properties":{"company":"DTI SECURITY INC.","zip":"94086","latitude":37.399402,"longitude":-122.013114,"id":"afpfl4606dcj","address":"1034 KIEL CT."},"type":"Feature","geometry":{"type":"Point","coordinates":[-122.013114,37.399402]}},{"properties":{"company":"THREE DELTA CORP.","zip":"94086","latitude":37.399446,"longitude":-122.013101,"id":"afpfl44uu0ej","address":"1038 KIEL CT."},"type":"Feature","geometry":{"type":"Point","coordinates":[-122.013101,37.399446]}},{"properties":{"company":"AQUA MEDIA LTD.","zip":"94086","latitude":37.399623,"longitude":-122.013069,"id":"afpfl4gvfxc1","address":"1049 KIEL CT."},"type":"Feature","geometry":{"type":"Point","coordinates":[-122.013069,37.399623]}},{"properties":{"company":"NETCOM PRODUCTS INC.","zip":"94086","latitude":37.400397,"longitude":-122.015408,"id":"afpfl44doiqc","address":"430 TOYAMA DR."},"type":"Feature","geometry":{"type":"Point","coordinates":[-122.015408,37.400397]}},{"properties":{"company":"TELEVIDEO SYSTEMS INC.","zip":"94086","latitude":37.402499,"longitude":-122.015714,"id":"afpfl4c8khnl","address":"1150 MORSE AVE."},"type":"Feature","geometry":{"type":"Point","coordinates":[-122.015714,37.402499]}},{"properties":{"company":"DEVELCO INC.","zip":"94086","latitude":37.403895,"longitude":-122.015063,"id":"afpfl4doc70n","address":"404 TASMAN DR."},"type":"Feature","geometry":{"type":"Point","coordinates":[-122.015063,37.403895]}},{"properties":{"company":"PACIFIC MEASUREMENTS INC.","zip":"94086","latitude":37.403596,"longitude":-122.013663,"id":"afpfl48m8rdo","address":"488 TASMAN DR."},"type":"Feature","geometry":{"type":"Point","coordinates":[-122.013663,37.403596]}},{"properties":{"company":"SYNCAL CORP.","zip":"94086","latitude":37.405522,"longitude":-122.014105,"id":"afpfl42d2cew","address":"430 PERSIAN DR."},"type":"Feature","geometry":{"type":"Point","coordinates":[-122.014105,37.405522]}},{"properties":{"company":"EMCO HIGH VOLTAGE","zip":"94086","latitude":37.371042,"longitude":-122.023851,"id":"afpfl41lvxei","address":"445 WEDDELL DR."},"type":"Feature","geometry":{"type":"Point","coordinates":[-122.023851,37.371042]}},{"properties":{"company":"VERSATRONEX","zip":"94086","latitude":37.402278,"longitude":-122.010604,"id":"afpfl47xopnu","address":"1131 N. FAIR OAKS AVE."},"type":"Feature","geometry":{"type":"Point","coordinates":[-122.010604,37.402278]}},{"properties":{"company":"METARAMICS INC.","zip":"94086","latitude":37.401047,"longitude":-122.011011,"id":"afpfl4decpup","address":"1107 N. FAIR OAKS AVE."},"type":"Feature","geometry":{"type":"Point","coordinates":[-122.011011,37.401047]}},{"properties":{"company":"ENVIRONMENTAL MEASUREMENTS INC.","zip":"94086","latitude":37.399609,"longitude":-122.011491,"id":"afpfl4eqp6yc","address":"1037 N. FAIR OAKS AVE."},"type":"Feature","geometry":{"type":"Point","coordinates":[-122.011491,37.399609]}},{"properties":{"company":"APPLIED TECH/ITEK","zip":"94086","latitude":37.394577,"longitude":-122.045437,"id":"afpfl441eibt","address":"1101 MAUDE AVE."},"type":"Feature","geometry":{"type":"Point","coordinates":[-122.045437,37.394577]}},{"properties":{"company":"MAUPAS S. N. CO.","zip":"94086","latitude":37.393936,"longitude":-122.043471,"id":"afpfl4ebidu8","address":"1034 W. MAUDE AVE . #603"},"type":"Feature","geometry":{"type":"Point","coordinates":[-122.043471,37.393936]}},{"properties":{"company":"SCIENTIFIC SOFTWARE &amp; INSTRUMENT","zip":"94086","latitude":37.393885,"longitude":-122.043315,"id":"afpfl4e3x4u9","address":"1028 W. MAUDE AVE. #402"},"type":"Feature","geometry":{"type":"Point","coordinates":[-122.043315,37.393885]}},{"properties":{"company":"LITTON-MELLONICS","zip":"94086","latitude":37.393485,"longitude":-122.042034,"id":"afpfl4gkyqle","address":"1001 W. MAUDE AVE."},"type":"Feature","geometry":{"type":"Point","coordinates":[-122.042034,37.393485]}},{"properties":{"company":"UVEXS INC.","zip":"94086","latitude":37.390437,"longitude":-122.042392,"id":"afpfl45417b2","address":"485 MACARA AVE. #905"},"type":"Feature","geometry":{"type":"Point","coordinates":[-122.042392,37.390437]}},{"properties":{"company":"INNOWAVE INC.","zip":"94086","latitude":37.390437,"longitude":-122.042392,"id":"afpfl4fl75zn","address":"485 MACARA AVE."},"type":"Feature","geometry":{"type":"Point","coordinates":[-122.042392,37.390437]}},{"properties":{"company":"DELPHIAN CORP.","zip":"94086","latitude":37.390309,"longitude":-122.042434,"id":"afpfl42inyh0","address":"473 MACARA AVE. #704"},"type":"Feature","geometry":{"type":"Point","coordinates":[-122.042434,37.390309]}},{"properties":{"company":"NANOMETRICS","zip":"94086","latitude":37.392743,"longitude":-122.03982,"id":"afpfl41xt99v","address":"930 W. MAUDE AVE."},"type":"Feature","geometry":{"type":"Point","coordinates":[-122.03982,37.392743]}},{"properties":{"company":"COMPU/THINK","zip":"94086","latitude":37.393029,"longitude":-122.040639,"id":"afpfl4dmfpcc","address":"965 W. MAUDE AVE."},"type":"Feature","geometry":{"type":"Point","coordinates":[-122.040639,37.393029]}},{"properties":{"company":"CANDELA ELECTRONICS","zip":"94086","latitude":37.392713,"longitude":-122.039726,"id":"afpfl4da8poh","address":"926 W. MAUDE AVE."},"type":"Feature","geometry":{"type":"Point","coordinates":[-122.039726,37.392713]}},{"properties":{"company":"ADCOTECH CORP.","zip":"94086","latitude":37.393236,"longitude":-122.039033,"id":"afpfl47bcg2i","address":"575 MAUDE CT ."},"type":"Feature","geometry":{"type":"Point","coordinates":[-122.039033,37.393236]}},{"properties":{"company":"ROBINTON PRODUCTS INC.","zip":"94086","latitude":37.393265,"longitude":-122.039002,"id":"afpfl45e4x1m","address":"580 MAUDE CT."},"type":"Feature","geometry":{"type":"Point","coordinates":[-122.039002,37.393265]}},{"properties":{"company":"FRANKLIN ELECTRIC CO. INC.","zip":"94086","latitude":37.371042,"longitude":-122.023851,"id":"afpfl45jr4hv","address":"995 BENICIA AVE."},"type":"Feature","geometry":{"type":"Point","coordinates":[-122.023851,37.371042]}},{"properties":{"company":"GEO RELIABILITY SERVICES","zip":"94086","latitude":37.371042,"longitude":-122.023851,"id":"afpfl45obtkp","address":"975 BENICIA AVE ."},"type":"Feature","geometry":{"type":"Point","coordinates":[-122.023851,37.371042]}},{"properties":{"company":"PRAGMATIC DESIGNS INC .","zip":"94086","latitude":37.371042,"longitude":-122.023851,"id":"afpfl4cz968k","address":"950 BENICIA AVE."},"type":"Feature","geometry":{"type":"Point","coordinates":[-122.023851,37.371042]}},{"properties":{"company":"AERCOM","zip":"94086","latitude":37.371042,"longitude":-122.023851,"id":"afpfl4d5ly7l","address":"955 BENICIA AVE."},"type":"Feature","geometry":{"type":"Point","coordinates":[-122.023851,37.371042]}},{"properties":{"company":"H.D. E. SYSTEMS INC.","zip":"94086","latitude":37.393288,"longitude":-122.036927,"id":"afpfl428zfsy","address":"615 N. MARY AVE."},"type":"Feature","geometry":{"type":"Point","coordinates":[-122.036927,37.393288]}},{"properties":{"company":"YIG-TEK/EATON","zip":"94086","latitude":37.393234,"longitude":-122.036925,"id":"afpfl45o9r74","address":"610 N. MARY AVE ."},"type":"Feature","geometry":{"type":"Point","coordinates":[-122.036925,37.393234]}},{"properties":{"company":"VALID LOGIC SYSTEMS","zip":"94086","latitude":37.393612,"longitude":-122.036783,"id":"afpfl4fb1ahf","address":"650 N. MARY AVE ."},"type":"Feature","geometry":{"type":"Point","coordinates":[-122.036783,37.393612]}},{"properties":{"company":"EATON CORP./SEMICON. EQUIP. INC.","zip":"94086","latitude":37.39624,"longitude":-122.035931,"id":"afpfl46y8avw","address":"749 N. MARY AVE ."},"type":"Feature","geometry":{"type":"Point","coordinates":[-122.035931,37.39624]}},{"properties":{"company":"INTEGRATED CIRCUITS PACKAGING","zip":"94086","latitude":37.396286,"longitude":-122.035896,"id":"afpfl45qbhf1","address":"750 N. MARY AVE."},"type":"Feature","geometry":{"type":"Point","coordinates":[-122.035896,37.396286]}},{"properties":{"company":"PACIFIC RELIABILITY CORP.","zip":"94086","latitude":37.396738,"longitude":-122.035774,"id":"afpfl43869gp","address":"765 N. MARY AVE."},"type":"Feature","geometry":{"type":"Point","coordinates":[-122.035774,37.396738]}},{"properties":{"company":"CALIF. MICROWAVE INC.","zip":"94086","latitude":37.398131,"longitude":-122.034974,"id":"afpfl4fky1xs","address":"990 ALMANOR AVE."},"type":"Feature","geometry":{"type":"Point","coordinates":[-122.034974,37.398131]}},{"properties":{"company":"ADDINGTON PROCESSING LAB","zip":"94086","latitude":37.397062,"longitude":-122.033908,"id":"afpfl464prqs","address":"783 PALOMAR AVE."},"type":"Feature","geometry":{"type":"Point","coordinates":[-122.033908,37.397062]}},{"properties":{"company":"CIRCADIAN INC.","zip":"94086","latitude":37.396949,"longitude":-122.033941,"id":"afpfl43nc5aw","address":"777 PALOMAR AVE."},"type":"Feature","geometry":{"type":"Point","coordinates":[-122.033941,37.396949]}},{"properties":{"company":"EXAR-INTEGRATED SYS. INC.","zip":"94086","latitude":37.396446,"longitude":-122.034068,"id":"afpfl4b9j6yp","address":"750 PALOMAR AVE."},"type":"Feature","geometry":{"type":"Point","coordinates":[-122.034068,37.396446]}},{"properties":{"company":"SYSTRON DONNER CORP.","zip":"94086","latitude":37.396163,"longitude":-122.034172,"id":"afpfl43567jj","address":"735 PALOMAR AVE."},"type":"Feature","geometry":{"type":"Point","coordinates":[-122.034172,37.396163]}},{"properties":{"company":"PRAGMA DATA SYS.","zip":"94086","latitude":37.393841,"longitude":-122.034916,"id":"afpfl4be1x80","address":"610 PALOMAR AVE."},"type":"Feature","geometry":{"type":"Point","coordinates":[-122.034916,37.393841]}},{"properties":{"company":"MEMORY DISC. MFG.","zip":"94086","latitude":37.393931,"longitude":-122.034906,"id":"afpfl45ezvxj","address":"615 PALOMAR AVE. ( EAST)"},"type":"Feature","geometry":{"type":"Point","coordinates":[-122.034906,37.393931]}},{"properties":{"company":"ADVANCED LSI TECH. INC .","zip":"94086","latitude":37.394065,"longitude":-122.033259,"id":"afpfl4dqlhku","address":"639 N. PASTORIA AVE ."},"type":"Feature","geometry":{"type":"Point","coordinates":[-122.033259,37.394065]}},{"properties":{"company":"PROBE SYSTEMS INC.","zip":"94086","latitude":37.394365,"longitude":-122.033157,"id":"afpfl432mkbs","address":"655 N. PASTORIA AVE ."},"type":"Feature","geometry":{"type":"Point","coordinates":[-122.033157,37.394365]}},{"properties":{"company":"APPLIED ELECTROCHEMISTRY INC .","zip":"94086","latitude":37.395863,"longitude":-122.032654,"id":"afpfl47zbcl4","address":"735 N. PASTORIA AVE ."},"type":"Feature","geometry":{"type":"Point","coordinates":[-122.032654,37.395863]}},{"properties":{"company":"BEAM ENGINEERING","zip":"94086","latitude":37.395809,"longitude":-122.032649,"id":"afpfl49ral7i","address":"732 N. PASTORIA AVE."},"type":"Feature","geometry":{"type":"Point","coordinates":[-122.032649,37.395809]}},{"properties":{"company":"C.M.C. TECHNOLOGY CORP.","zip":"94086","latitude":37.395825,"longitude":-122.032665,"id":"afpfl4583ch6","address":"733 N. PASTORIA AVE ."},"type":"Feature","geometry":{"type":"Point","coordinates":[-122.032665,37.395825]}},{"properties":{"company":"STEP ENGINEERING INC.","zip":"94086","latitude":37.396277,"longitude":-122.032527,"id":"afpfl450ak0q","address":"757 PASTORIA AVE ."},"type":"Feature","geometry":{"type":"Point","coordinates":[-122.032527,37.396277]}},{"properties":{"company":"MICRO MASK INC.","zip":"94086","latitude":37.394829,"longitude":-122.031621,"id":"afpfl47hpebb","address":"695 VAQUEROS AVE ."},"type":"Feature","geometry":{"type":"Point","coordinates":[-122.031621,37.394829]}},{"properties":{"company":"CHRONOMIX","zip":"94086","latitude":37.393992,"longitude":-122.031871,"id":"afpfl414ae8f","address":"650 VAQUEROS AVE ."},"type":"Feature","geometry":{"type":"Point","coordinates":[-122.031871,37.393992]}},{"properties":{"company":"TELECOMMUNICATION TECH. INC.","zip":"94086","latitude":37.392525,"longitude":-122.03205,"id":"afpfl47xweis","address":"555 DEL REY AVE."},"type":"Feature","geometry":{"type":"Point","coordinates":[-122.03205,37.392525]}},{"properties":{"company":"ATC MEDICAL TECH. INC.","zip":"94086","latitude":37.392694,"longitude":-122.032923,"id":"afpfl42epufq","address":"570 DEL REY AVE ."},"type":"Feature","geometry":{"type":"Point","coordinates":[-122.032923,37.392694]}},{"properties":{"company":"DATAPOINT PERIPHERAL PRODUCT INC.","zip":"94086","latitude":37.390677,"longitude":-122.033498,"id":"afpfl46t2cmq","address":"683 W. MAUDE AVE ."},"type":"Feature","geometry":{"type":"Point","coordinates":[-122.033498,37.390677]}},{"properties":{"company":"IVC","zip":"94086","latitude":37.389959,"longitude":-122.031352,"id":"afpfl479pw97","address":"455 W. MAUDE AVE ."},"type":"Feature","geometry":{"type":"Point","coordinates":[-122.031352,37.389959]}},{"properties":{"company":"VIDEO LOGIC CORP .","zip":"94086","latitude":37.391703,"longitude":-122.029996,"id":"afpfl4ehxud6","address":"597 N. MATHILDA AVE."},"type":"Feature","geometry":{"type":"Point","coordinates":[-122.029996,37.391703]}},{"properties":{"company":"KIRK MAYER INC.","zip":"94086","latitude":37.39174,"longitude":-122.029985,"id":"afpfl49j1qkr","address":"599 N. MATHILDA AVE ."},"type":"Feature","geometry":{"type":"Point","coordinates":[-122.029985,37.39174]}},{"properties":{"company":"GILLASPIE &amp; ASSOC .","zip":"94086","latitude":37.393597,"longitude":-122.027914,"id":"afpfl4fns9iw","address":"365 SAN ALESO AVE ."},"type":"Feature","geometry":{"type":"Point","coordinates":[-122.027914,37.393597]}},{"properties":{"company":"ASPECT ELECTRONICS","zip":"94086","latitude":37.371042,"longitude":-122.023851,"id":"afpfl4gkgk08","address":"725 SAN ALE SO AVE."},"type":"Feature","geometry":{"type":"Point","coordinates":[-122.023851,37.371042]}},{"properties":{"company":"VEECO INDUST. EQUIP. DIV.","zip":"94086","latitude":37.393608,"longitude":-122.027849,"id":"afpfl45rzrwu","address":"370 SAN ALESO AVE."},"type":"Feature","geometry":{"type":"Point","coordinates":[-122.027849,37.393608]}},{"properties":{"company":"DATA PATHING INC.","zip":"94086","latitude":37.393608,"longitude":-122.027849,"id":"afpfl48lt2ac","address":"370 SAN ALESO AVE."},"type":"Feature","geometry":{"type":"Point","coordinates":[-122.027849,37.393608]}},{"properties":{"company":"POLYOHM CORP.","zip":"94086","latitude":37.396468,"longitude":-122.026838,"id":"afpfl4bg5bs6","address":"742 SAN ALESO AVE ."},"type":"Feature","geometry":{"type":"Point","coordinates":[-122.026838,37.396468]}},{"properties":{"company":"CIRCO INC .","zip":"94086","latitude":37.400746,"longitude":-122.029827,"id":"afpfl4azlgec","address":"940 HAMLIN CT."},"type":"Feature","geometry":{"type":"Point","coordinates":[-122.029827,37.400746]}},{"properties":{"company":"ECOLINE","zip":"94086","latitude":37.391815,"longitude":-122.036992,"id":"afpfl4fw8m9u","address":"880 W. MAUDE AVE."},"type":"Feature","geometry":{"type":"Point","coordinates":[-122.036992,37.391815]}},{"properties":{"company":"SMITH KLINE-INVITRE DIAGNOSTICS","zip":"94086","latitude":37.390928,"longitude":-122.036989,"id":"afpfl48f36ua","address":"485 POTRERO AVE."},"type":"Feature","geometry":{"type":"Point","coordinates":[-122.036989,37.390928]}},{"properties":{"company":"SPECTRA MEDICAL SYSTEMS","zip":"94086","latitude":37.389988,"longitude":-122.037305,"id":"afpfl47t0l3r","address":"445 POTRERO AVE."},"type":"Feature","geometry":{"type":"Point","coordinates":[-122.037305,37.389988]}},{"properties":{"company":"LOGISTICON INC.","zip":"94086","latitude":37.387624,"longitude":-122.038079,"id":"afpfl4gqe4sc","address":"350 POTRERO AVE."},"type":"Feature","geometry":{"type":"Point","coordinates":[-122.038079,37.387624]}},{"properties":{"company":"ARGOSYSTEMS","zip":"94086","latitude":37.387012,"longitude":-122.037632,"id":"afpfl49wcw2a","address":"884 HERMOSA CT."},"type":"Feature","geometry":{"type":"Point","coordinates":[-122.037632,37.387012]}},{"properties":{"company":"BOEING COMPANY","zip":"94086","latitude":37.386505,"longitude":-122.038451,"id":"afpfl44a8fa6","address":"310 POTRERO AVE."},"type":"Feature","geometry":{"type":"Point","coordinates":[-122.038451,37.386505]}},{"properties":{"company":"MACHINE INTELLIGENCE","zip":"94086","latitude":37.386786,"longitude":-122.038358,"id":"afpfl447waud","address":"330 POTRERO AVE."},"type":"Feature","geometry":{"type":"Point","coordinates":[-122.038358,37.386786]}},{"properties":{"company":"OPTOCHROME","zip":"94086","latitude":37.371042,"longitude":-122.023851,"id":"afpfl4f1vcv4","address":"8 70 HERMOSA CT."},"type":"Feature","geometry":{"type":"Point","coordinates":[-122.023851,37.371042]}},{"properties":{"company":"SEIKO CIRCUITS INC.","zip":"94086","latitude":37.383716,"longitude":-122.046758,"id":"afpfl43s66n7","address":"1038 W. EVELYN AVE."},"type":"Feature","geometry":{"type":"Point","coordinates":[-122.046758,37.383716]}},{"properties":{"company":"SIERRA CIRCUITS INC.","zip":"94086","latitude":37.384484,"longitude":-122.049085,"id":"afpfl41emj7z","address":"1108 W. EVELYN AVE ."},"type":"Feature","geometry":{"type":"Point","coordinates":[-122.049085,37.384484]}},{"properties":{"company":"CONTREL CORP .","zip":"94086","latitude":37.385085,"longitude":-122.050873,"id":"afpfl435y12a","address":"1150 W. EVELYN AVE ."},"type":"Feature","geometry":{"type":"Point","coordinates":[-122.050873,37.385085]}},{"properties":{"company":"E.G.&amp; G. RETICON CORP.","zip":"94086","latitude":37.387639,"longitude":-122.038095,"id":"afpfl48gj3pf","address":"345 POTRERO AVE."},"type":"Feature","geometry":{"type":"Point","coordinates":[-122.038095,37.387639]}},{"properties":{"company":"ADVANCED ELECTRONIC DESIGN INC.","zip":"94086","latitude":37.371042,"longitude":-122.023851,"id":"afpfl4c842iu","address":"140 POTRERO AVE ."},"type":"Feature","geometry":{"type":"Point","coordinates":[-122.023851,37.371042]}},{"properties":{"company":"BTl COMPUTER SYSTEMS","zip":"94086","latitude":37.395996,"longitude":-122.048201,"id":"afpfl4bp8tv3","address":"870 MAUDE AVE."},"type":"Feature","geometry":{"type":"Point","coordinates":[-122.048201,37.395996]}},{"properties":{"company":"CALIF. MICRO DEVICES","zip":"94086","latitude":37.396125,"longitude":-122.034183,"id":"afpfl452gpl5","address":"733 PALOMAR AVE ."},"type":"Feature","geometry":{"type":"Point","coordinates":[-122.034183,37.396125]}},{"properties":{"company":"DYNATEL CORP.","zip":"94086","latitude":37.387451,"longitude":-122.035109,"id":"afpfl4bd9dwt","address":"380 N. PASTORIA AVE."},"type":"Feature","geometry":{"type":"Point","coordinates":[-122.035109,37.387451]}},{"properties":{"company":"DICOM","zip":"94086","latitude":37.395487,"longitude":-122.032775,"id":"afpfl44oidht","address":"715 N. PASTORIA AVE."},"type":"Feature","geometry":{"type":"Point","coordinates":[-122.032775,37.395487]}},{"properties":{"company":"ZYMOS CORP.","zip":"94086","latitude":37.388341,"longitude":-122.030729,"id":"afpfl4afdbhi","address":"477 N. MATHILDA AVE ."},"type":"Feature","geometry":{"type":"Point","coordinates":[-122.030729,37.388341]}},{"properties":{"company":"DATA GENERAL CORP.","zip":"94086","latitude":37.387622,"longitude":-122.030952,"id":"afpfl4fca7b1","address":"433 N. MATHILDA AVE."},"type":"Feature","geometry":{"type":"Point","coordinates":[-122.030952,37.387622]}},{"properties":{"company":"U.T.I.","zip":"94086","latitude":37.385416,"longitude":-122.031681,"id":"afpfl4hdodu8","address":"325 N. MATHILDA AVE."},"type":"Feature","geometry":{"type":"Point","coordinates":[-122.031681,37.385416]}},{"properties":{"company":"VERBATIM CORP.","zip":"94086","latitude":37.385698,"longitude":-122.033753,"id":"afpfl43w99at","address":"335 SOQUEL WAY"},"type":"Feature","geometry":{"type":"Point","coordinates":[-122.033753,37.385698]}},{"properties":{"company":"XIDEX CORP .","zip":"94086","latitude":37.385543,"longitude":-122.03381,"id":"afpfl48sxdhf","address":"305 SOQUEL WAY"},"type":"Feature","geometry":{"type":"Point","coordinates":[-122.03381,37.385543]}},{"properties":{"company":"MICROSPEC CORP.","zip":"94086","latitude":37.383778,"longitude":-122.034359,"id":"afpfl47idxy6","address":"265 SOBRANTE WAY"},"type":"Feature","geometry":{"type":"Point","coordinates":[-122.034359,37.383778]}},{"properties":{"company":"DIAGNOSTIC INFORMATION","zip":"94086","latitude":37.383652,"longitude":-122.03438,"id":"afpfl4b33uml","address":"246 SOBRANTE WAY"},"type":"Feature","geometry":{"type":"Point","coordinates":[-122.03438,37.383652]}},{"properties":{"company":"CENTEX","zip":"94086","latitude":37.392268,"longitude":-122.033846,"id":"afpfl46iipp7","address":"575 N. PASTORIA AVE ."},"type":"Feature","geometry":{"type":"Point","coordinates":[-122.033846,37.392268]}},{"properties":{"company":"WESTINGHOUSE ELECTRIC","zip":"94086","latitude":37.375843,"longitude":-122.021538,"id":"afpfl4e05sh5","address":"401 HENDY AVE."},"type":"Feature","geometry":{"type":"Point","coordinates":[-122.021538,37.375843]}},{"properties":{"company":"DESIGN DEVELOPMENT I NC.","zip":"94086","latitude":37.383063,"longitude":-122.015991,"id":"afpfl4at98dm","address":"656 E. TAYLOR AVE."},"type":"Feature","geometry":{"type":"Point","coordinates":[-122.015991,37.383063]}},{"properties":{"company":"SIGNETICS CORP.","zip":"94086","latitude":37.380947,"longitude":-122.010843,"id":"afpfl43b8sc4","address":"811 E. ARQUES AVE."},"type":"Feature","geometry":{"type":"Point","coordinates":[-122.010843,37.380947]}},{"properties":{"company":"ADAC LABORATORIES","zip":"94086","latitude":37.371042,"longitude":-122.023851,"id":"afpfl46oj35h","address":"255 SAN GERONIloIO WAY"},"type":"Feature","geometry":{"type":"Point","coordinates":[-122.023851,37.371042]}},{"properties":{"company":"CODATA CORP .","zip":"94086","latitude":37.380445,"longitude":-122.012204,"id":"afpfl4eyq1v2","address":"285 N. WOLFE RD."},"type":"Feature","geometry":{"type":"Point","coordinates":[-122.012204,37.380445]}},{"properties":{"company":"QUANTEX CORP.","zip":"94086","latitude":37.379695,"longitude":-122.012361,"id":"afpfl42jofla","address":"252 N. WOLFE RD."},"type":"Feature","geometry":{"type":"Point","coordinates":[-122.012361,37.379695]}},{"properties":{"company":"DIVERSIFIED ELECTRONICS","zip":"94086","latitude":37.379807,"longitude":-122.012308,"id":"afpfl4a5ecs4","address":"260 N. WOLFE RD."},"type":"Feature","geometry":{"type":"Point","coordinates":[-122.012308,37.379807]}},{"properties":{"company":"TERADYNE INC.","zip":"94086","latitude":37.379097,"longitude":-122.012666,"id":"afpfl462gp27","address":"222 N. WOLFE RD."},"type":"Feature","geometry":{"type":"Point","coordinates":[-122.012666,37.379097]}},{"properties":{"company":"MICRO AUTOMATION","zip":"94086","latitude":37.380255,"longitude":-122.010415,"id":"afpfl431xwu5","address":"275 SANTA ANA CT ."},"type":"Feature","geometry":{"type":"Point","coordinates":[-122.010415,37.380255]}},{"properties":{"company":"E. M. SYSTEMS INC .","zip":"94086","latitude":37.38053,"longitude":-122.010331,"id":"afpfl44rfry7","address":"290 SANTA ANA CT."},"type":"Feature","geometry":{"type":"Point","coordinates":[-122.010331,37.38053]}},{"properties":{"company":"ZIKONIX","zip":"94086","latitude":37.379328,"longitude":-122.010609,"id":"afpfl45pjwfo","address":"224 SANTA ANA CT."},"type":"Feature","geometry":{"type":"Point","coordinates":[-122.010609,37.379328]}},{"properties":{"company":"ELECTRO SOUND INC.","zip":"94086","latitude":37.376778,"longitude":-122.015403,"id":"afpfl4ch4j0a","address":"160 SAN GABRIEL DR."},"type":"Feature","geometry":{"type":"Point","coordinates":[-122.015403,37.376778]}},{"properties":{"company":"CIRCUITS PROCESSING APPARATUS","zip":"94086","latitude":37.375664,"longitude":-122.015534,"id":"afpfl4a94gef","address":"725 KIFER RD."},"type":"Feature","geometry":{"type":"Point","coordinates":[-122.015534,37.375664]}},{"properties":{"company":"DAISY SYSTEMS CORP.","zip":"94086","latitude":37.375123,"longitude":-122.014947,"id":"afpfl4e7c9qh","address":"139 KIFER CT."},"type":"Feature","geometry":{"type":"Point","coordinates":[-122.014947,37.375123]}},{"properties":{"company":"PLANAR MICROWAVE INTL. CORP.","zip":"94086","latitude":37.375107,"longitude":-122.014931,"id":"afpfl4285989","address":"138 KIFER CT."},"type":"Feature","geometry":{"type":"Point","coordinates":[-122.014931,37.375107]}},{"properties":{"company":"C.W. RADIATION INC.","zip":"94086","latitude":37.375092,"longitude":-122.014936,"id":"afpfl4b2yb8f","address":"140 KIFER CT."},"type":"Feature","geometry":{"type":"Point","coordinates":[-122.014936,37.375092]}},{"properties":{"company":"MOLECTRON CORP.","zip":"94086","latitude":37.37714,"longitude":-122.013394,"id":"afpfl4g18w6v","address":"177 N. WOLFE RD."},"type":"Feature","geometry":{"type":"Point","coordinates":[-122.013394,37.37714]}},{"properties":{"company":"ICORE INTERNATIONAL INC.","zip":"94086","latitude":37.377525,"longitude":-122.013233,"id":"afpfl4h6y7z4","address":"180 N. WOLFE RD."},"type":"Feature","geometry":{"type":"Point","coordinates":[-122.013233,37.377525]}},{"properties":{"company":"AXLON I NC.","zip":"94086","latitude":37.377049,"longitude":-122.013404,"id":"afpfl45xrba4","address":"170 N. WOLFE RD."},"type":"Feature","geometry":{"type":"Point","coordinates":[-122.013404,37.377049]}},{"properties":{"company":"RADIATION DETECTION CO.","zip":"94086","latitude":37.376792,"longitude":-122.013496,"id":"afpfl49p05bd","address":"162 N. WOLFE RD."},"type":"Feature","geometry":{"type":"Point","coordinates":[-122.013496,37.376792]}},{"properties":{"company":"SYNERTEK SYSTEMS CORP.","zip":"94086","latitude":37.370378,"longitude":-122.011683,"id":"afpfl4h02iub","address":"150 S . WOLFE RD."},"type":"Feature","geometry":{"type":"Point","coordinates":[-122.011683,37.370378]}},{"properties":{"company":"ILLUMINATION INDUST. INC.","zip":"94086","latitude":37.370625,"longitude":-122.014385,"id":"afpfl4h8o6kk","address":"825 E . EVELYN AVE."},"type":"Feature","geometry":{"type":"Point","coordinates":[-122.014385,37.370625]}},{"properties":{"company":"APPLIED THERMAL SYSTEIIS","zip":"94086","latitude":37.371049,"longitude":-122.015739,"id":"afpfl422xk4t","address":"777 E. EVELYN AVE."},"type":"Feature","geometry":{"type":"Point","coordinates":[-122.015739,37.371049]}},{"properties":{"company":"JOIINSON MATTHEY INC.","zip":"94086","latitude":37.371049,"longitude":-122.015739,"id":"afpfl4gfhoet","address":"777 E. EVELYN AVE."},"type":"Feature","geometry":{"type":"Point","coordinates":[-122.015739,37.371049]}},{"properties":{"company":"POWELL ELECTRONICS","zip":"94086","latitude":37.372033,"longitude":-122.016948,"id":"afpfl4e15jki","address":"722 EVELYN AVE ."},"type":"Feature","geometry":{"type":"Point","coordinates":[-122.016948,37.372033]}},{"properties":{"company":"WEST COAST MAGNETICS INC.","zip":"94086","latitude":37.375834,"longitude":-122.012226,"id":"afpfl474e6w5","address":"140 SAN LAZARO AVE."},"type":"Feature","geometry":{"type":"Point","coordinates":[-122.012226,37.375834]}},{"properties":{"company":"WESTERN SALES ASSOCIATES","zip":"94086","latitude":37.376054,"longitude":-122.012167,"id":"afpfl4fa38w2","address":"154 SAN LAZARO AVE."},"type":"Feature","geometry":{"type":"Point","coordinates":[-122.012167,37.376054]}},{"properties":{"company":"BASIC MANUFACTURING INC.","zip":"94086","latitude":37.374503,"longitude":-122.010109,"id":"afpfl482nj17","address":"895 KIFER RD."},"type":"Feature","geometry":{"type":"Point","coordinates":[-122.010109,37.374503]}},{"properties":{"company":"AIRTRONICS SHEET METAL","zip":"94086","latitude":37.37501,"longitude":-122.008702,"id":"afpfl41lvt4k","address":"133 COMMERCIAL ST."},"type":"Feature","geometry":{"type":"Point","coordinates":[-122.008702,37.37501]}},{"properties":{"company":"BAY TECH SERVICES","zip":"94086","latitude":37.375654,"longitude":-122.008556,"id":"afpfl49bt1s5","address":"171 COMMERCIAL ST."},"type":"Feature","geometry":{"type":"Point","coordinates":[-122.008556,37.375654]}},{"properties":{"company":"EXATRON CORP.","zip":"94086","latitude":37.37529,"longitude":-122.008629,"id":"afpfl4bv74k4","address":"W I COMMERCIAL ST."},"type":"Feature","geometry":{"type":"Point","coordinates":[-122.008629,37.37529]}},{"properties":{"company":"PROTO ENGINEERING CORP.","zip":"94086","latitude":37.375858,"longitude":-122.00851,"id":"afpfl4d3m3op","address":"183 COMMERCIAL ST."},"type":"Feature","geometry":{"type":"Point","coordinates":[-122.00851,37.375858]}},{"properties":{"company":"PIER ELECTRONICS INC.","zip":"94086","latitude":37.377693,"longitude":-122.006786,"id":"afpfl4e2xdlk","address":"989 E. CALIFORNIA ST"},"type":"Feature","geometry":{"type":"Point","coordinates":[-122.006786,37.377693]}},{"properties":{"company":"AMETEK-SILICON MATERAL","zip":"94086","latitude":37.380735,"longitude":-122.004563,"id":"afpfl4dsdk9o","address":"999 E. ARQUES AVE."},"type":"Feature","geometry":{"type":"Point","coordinates":[-122.004563,37.380735]}},{"properties":{"company":"ADVANCED MICRO DEVICES INC.","zip":"94086","latitude":37.382447,"longitude":-122.00885,"id":"afpfl47aqfxy","address":"901 THOMPSON PLACE"},"type":"Feature","geometry":{"type":"Point","coordinates":[-122.023851,37.371042]}},{"properties":{"company":"AERTECH INDUSTRIES","zip":"94086","latitude":37.383997,"longitude":-122.010977,"id":"afpfl48xtls9","address":"825 STEWART DR."},"type":"Feature","geometry":{"type":"Point","coordinates":[-122.010977,37.383997]}},{"properties":{"company":"DATA PERIPERHALS INC.","zip":"94086","latitude":37.383936,"longitude":-122.002559,"id":"afpfl464hl28","address":"965 STEWART DR ."},"type":"Feature","geometry":{"type":"Point","coordinates":[-122.002559,37.383936]}},{"properties":{"company":"INTL . DATA SERVICE INC .","zip":"94086","latitude":37.384063,"longitude":-122.00064,"id":"afpfl426sgv6","address":"1020 STEWART DR ."},"type":"Feature","geometry":{"type":"Point","coordinates":[-122.00064,37.384063]}},{"properties":{"company":"DATAFLUX CORP.","zip":"94086","latitude":37.384278,"longitude":-121.998464,"id":"afpfl4aejm0f","address":"1050 STEWART DR ."},"type":"Feature","geometry":{"type":"Point","coordinates":[-121.998464,37.384278]}},{"properties":{"company":"SOTCHER MEASUREMENT","zip":"94086","latitude":37.371042,"longitude":-122.023851,"id":"afpfl4dc47v0","address":"1120 STEWART DR."},"type":"Feature","geometry":{"type":"Point","coordinates":[-122.023851,37.371042]}},{"properties":{"company":"COMPUTER USAGE CO.","zip":"94086","latitude":37.38259,"longitude":-121.999754,"id":"afpfl47iqugb","address":"1105 KERN AVE ."},"type":"Feature","geometry":{"type":"Point","coordinates":[-121.999754,37.38259]}},{"properties":{"company":"META SYSTEMS INC .","zip":"94086","latitude":37.38771,"longitude":-121.998473,"id":"afpfl4h748op","address":"1031 E . DUANE AVE."},"type":"Feature","geometry":{"type":"Point","coordinates":[-121.998473,37.38771]}},{"properties":{"company":"BOSCHERT INC.","zip":"94086","latitude":37.383573,"longitude":-121.999956,"id":"afpfl49qkq1q","address":"384 SANTA TRINITA AVE."},"type":"Feature","geometry":{"type":"Point","coordinates":[-121.999956,37.383573]}},{"properties":{"company":"ADVANCED RESEARCH","zip":"94086","latitude":37.380567,"longitude":-121.994301,"id":"afpfl41k6f6m","address":"1223 E. ARQUES AVE."},"type":"Feature","geometry":{"type":"Point","coordinates":[-121.994301,37.380567]}},{"properties":{"company":"RELATIONAL MEMORY SYSTEMS","zip":"94086","latitude":37.378762,"longitude":-121.997387,"id":"afpfl44q5i1n","address":"1180 MIRALOMA WAY"},"type":"Feature","geometry":{"type":"Point","coordinates":[-121.997387,37.378762]}},{"properties":{"company":"TRIMAX CONTROLS INC.","zip":"94086","latitude":37.378762,"longitude":-121.997387,"id":"afpfl4akowyx","address":"1180 MIRALOMA WAY"},"type":"Feature","geometry":{"type":"Point","coordinates":[-121.997387,37.378762]}},{"properties":{"company":"U. S. DATACORP","zip":"94086","latitude":37.378693,"longitude":-121.997444,"id":"afpfl49vx09w","address":"1190 MIRALOMA WAY"},"type":"Feature","geometry":{"type":"Point","coordinates":[-121.997444,37.378693]}},{"properties":{"company":"NESCO","zip":"94086","latitude":37.370948,"longitude":-121.996385,"id":"afpfl43wyszg","address":"107 SAN ZENO WAY"},"type":"Feature","geometry":{"type":"Point","coordinates":[-121.996385,37.370948]}},{"properties":{"company":"PERMAG SIERRA CORP.","zip":"94086","latitude":37.37154,"longitude":-121.996959,"id":"afpfl45rx54o","address":"1559 SONORA CT."},"type":"Feature","geometry":{"type":"Point","coordinates":[-121.996959,37.37154]}},{"properties":{"company":"PRINTED CIRCUITS INTL.","zip":"94086","latitude":37.371542,"longitude":-121.999722,"id":"afpfl484w69n","address":"1145 SONORA CT."},"type":"Feature","geometry":{"type":"Point","coordinates":[-121.999722,37.371542]}},{"properties":{"company":"WESTERN ELECTRIC CO.","zip":"94086","latitude":37.386838,"longitude":-121.997063,"id":"afpfl4bp7xzo","address":"1090 E. DUANE AVE."},"type":"Feature","geometry":{"type":"Point","coordinates":[-121.997063,37.386838]}},{"properties":{"company":"VINDICATOR CORP.","zip":"94086","latitude":37.386279,"longitude":-121.997887,"id":"afpfl41tn0hk","address":"1092 STEWART DR."},"type":"Feature","geometry":{"type":"Point","coordinates":[-121.997887,37.386279]}},{"properties":{"company":"SEVEN ASSOCIATES","zip":"94086","latitude":37.386533,"longitude":-121.997894,"id":"afpfl47eqg4q","address":"1098 STEWART DRIVE"},"type":"Feature","geometry":{"type":"Point","coordinates":[-121.997894,37.386533]}},{"properties":{"company":"METELICS CORP.","zip":"94086","latitude":37.38771,"longitude":-121.998473,"id":"afpfl419vz69","address":"1031 E. DUANE AVE."},"type":"Feature","geometry":{"type":"Point","coordinates":[-121.998473,37.38771]}},{"properties":{"company":"DIGITAL OPTICS CORP.","zip":"94086","latitude":37.387623,"longitude":-121.998595,"id":"afpfl4473yfl","address":"1030 E. DUANE AVE."},"type":"Feature","geometry":{"type":"Point","coordinates":[-121.998595,37.387623]}},{"properties":{"company":"PYCO ENTERPRISES","zip":"94086","latitude":37.386824,"longitude":-121.997783,"id":"afpfl452n9st","address":"1050 E. DUANE AVE."},"type":"Feature","geometry":{"type":"Point","coordinates":[-121.997783,37.386824]}},{"properties":{"company":"LAZOR SYSTEMS INC.","zip":"94086","latitude":37.386824,"longitude":-121.997783,"id":"afpfl4bhvahg","address":"1050 E. DUANE AVE."},"type":"Feature","geometry":{"type":"Point","coordinates":[-121.997783,37.386824]}},{"properties":{"company":"E.A.C.","zip":"94086","latitude":37.377145,"longitude":-122.015292,"id":"afpfl42jjcj2","address":"185 SAN GABRIEL DR ."},"type":"Feature","geometry":{"type":"Point","coordinates":[-122.015292,37.377145]}},{"properties":{"company":"MASSTOR SYSTEMS CORP.","zip":"94086","latitude":37.385613,"longitude":-121.993369,"id":"afpfl4fz3yc7","address":"541 LAKESIDE DR."},"type":"Feature","geometry":{"type":"Point","coordinates":[-121.993369,37.385613]}},{"properties":{"company":"DATA DESIGN ASSOCIATES","zip":"94086","latitude":37.386867,"longitude":-121.991739,"id":"afpfl450puh4","address":"1250 OAKMEAD PARKWAY"},"type":"Feature","geometry":{"type":"Point","coordinates":[-121.991739,37.386867]}},{"properties":{"company":"BUTLER SERVICE GROUP","zip":"94086","latitude":37.386878,"longitude":-121.990972,"id":"afpfl4ccn0yl","address":"1265 OAKMEAD PARKWAY"},"type":"Feature","geometry":{"type":"Point","coordinates":[-121.990972,37.386878]}},{"properties":{"company":"GROUP THREE","zip":"94086","latitude":37.385478,"longitude":-121.993353,"id":"afpfl421hn1j","address":"542 LAKESIDE DR ."},"type":"Feature","geometry":{"type":"Point","coordinates":[-121.993353,37.385478]}},{"properties":{"company":"MICREL INC.","zip":"94086","latitude":37.385221,"longitude":-121.992591,"id":"afpfl4gezvui","address":"1235 MIDAS WAY"},"type":"Feature","geometry":{"type":"Point","coordinates":[-121.992591,37.385221]}},{"properties":{"company":"J.A. WAGNER ASSOCIATES","zip":"94086","latitude":37.384184,"longitude":-121.991276,"id":"afpfl45refpg","address":"528 MERCURY DR."},"type":"Feature","geometry":{"type":"Point","coordinates":[-121.991276,37.384184]}},{"properties":{"company":"ADVANCED MICROTECHNOLOGY","zip":"94086","latitude":37.383665,"longitude":-121.991273,"id":"afpfl4a8c1y0","address":"480 MERCURY DR."},"type":"Feature","geometry":{"type":"Point","coordinates":[-121.991273,37.383665]}},{"properties":{"company":"I.T.P. INC.","zip":"94086","latitude":37.383817,"longitude":-121.991288,"id":"afpfl4f2vlsg","address":"495 MERCURY DR ."},"type":"Feature","geometry":{"type":"Point","coordinates":[-121.991288,37.383817]}},{"properties":{"company":"VERSATYME CONTROLS CORP.","zip":"94086","latitude":37.385613,"longitude":-121.993369,"id":"afpfl4fxenmo","address":"541 LAKESIDE DR"},"type":"Feature","geometry":{"type":"Point","coordinates":[-121.993369,37.385613]}},{"properties":{"company":"DIONEX CORP.","zip":"94086","latitude":37.383669,"longitude":-121.994166,"id":"afpfl456d7ja","address":"1228 TITAN WAY"},"type":"Feature","geometry":{"type":"Point","coordinates":[-121.994166,37.383669]}},{"properties":{"company":"MICROCOMPUTER SYSTEMS CORP.","zip":"94086","latitude":37.38148,"longitude":-121.993371,"id":"afpfl47z72t7","address":"432 LAKESIDE DR."},"type":"Feature","geometry":{"type":"Point","coordinates":[-121.993371,37.38148]}},{"properties":{"company":"HARRIS VIDEO SYSTEMS INC.","zip":"94086","latitude":37.380583,"longitude":-121.989527,"id":"afpfl4gph4el","address":"1255 E. ARQUES AVE."},"type":"Feature","geometry":{"type":"Point","coordinates":[-121.989527,37.380583]}},{"properties":{"company":"AMDAHL","zip":"94086","latitude":37.38035,"longitude":-121.990707,"id":"afpfl464wyj8","address":"1250 E. ARQUES AVE."},"type":"Feature","geometry":{"type":"Point","coordinates":[-121.990707,37.38035]}},{"properties":{"company":"N.C.A. CORP.","zip":"94086","latitude":37.37996,"longitude":-121.987879,"id":"afpfl4bh2ixp","address":"388 OAKMEAD PARKWAY"},"type":"Feature","geometry":{"type":"Point","coordinates":[-121.987879,37.37996]}},{"properties":{"company":"LCS DATA PROCESSING","zip":"94086","latitude":37.381663,"longitude":-121.987888,"id":"afpfl41t2xfk","address":"420 OAKMEAD PARKWAY"},"type":"Feature","geometry":{"type":"Point","coordinates":[-121.987888,37.381663]}},{"properties":{"company":"TESDATA SYSTEMS CORP.","zip":"94086","latitude":37.381901,"longitude":-121.98789,"id":"afpfl4els1wp","address":"430 OAKMEAD PARKWAY"},"type":"Feature","geometry":{"type":"Point","coordinates":[-121.98789,37.381901]}},{"properties":{"company":"TRENDCOM INC.","zip":"94086","latitude":37.383051,"longitude":-121.988263,"id":"afpfl4boifxb","address":"480 OAKMEAD PARKWAY"},"type":"Feature","geometry":{"type":"Point","coordinates":[-121.988263,37.383051]}},{"properties":{"company":"SOLO SYSTEMS","zip":"94086","latitude":37.371042,"longitude":-122.023851,"id":"afpfl49imjkt","address":"4B2 OAKMEAD PARKWAY"},"type":"Feature","geometry":{"type":"Point","coordinates":[-122.023851,37.371042]}},{"properties":{"company":"VERSAMOLD","zip":"94086","latitude":37.383188,"longitude":-121.988311,"id":"afpfl4gff3ge","address":"486 OAKMEAD PARKWAY"},"type":"Feature","geometry":{"type":"Point","coordinates":[-121.988311,37.383188]}},{"properties":{"company":"INTL. POWER TECHNOLOGY","zip":"94086","latitude":37.383654,"longitude":-121.988344,"id":"afpfl42l5jh9","address":"506 OAKMEAD PARKWAY"},"type":"Feature","geometry":{"type":"Point","coordinates":[-121.988344,37.383654]}},{"properties":{"company":"SHUGART ASSOCIATES","zip":"94086","latitude":37.382899,"longitude":-121.988224,"id":"afpfl44c4ql3","address":"475 OAKMEAD PARKWAY"},"type":"Feature","geometry":{"type":"Point","coordinates":[-121.988224,37.382899]}},{"properties":{"company":"BOOLE &amp; BABBAGE","zip":"94086","latitude":37.383749,"longitude":-121.988345,"id":"afpfl43d7c3d","address":"510 OAKMEAD PARKWAY"},"type":"Feature","geometry":{"type":"Point","coordinates":[-121.988345,37.383749]}},{"properties":{"company":"SYSTEL COMPUTERS INC.","zip":"94086","latitude":37.384414,"longitude":-121.988351,"id":"afpfl42pipbf","address":"538 OAKMEAD PARKWAY"},"type":"Feature","geometry":{"type":"Point","coordinates":[-121.988351,37.384414]}},{"properties":{"company":"ECONICS CORP.","zip":"94086","latitude":37.384462,"longitude":-121.988352,"id":"afpfl4frbsbg","address":"540 OAKMEAD PARKWAY"},"type":"Feature","geometry":{"type":"Point","coordinates":[-121.988352,37.384462]}},{"properties":{"company":"CHROMATIX INC.","zip":"94086","latitude":37.384937,"longitude":-121.988356,"id":"afpfl424be1h","address":"560 OAKMEAD PARKWAY"},"type":"Feature","geometry":{"type":"Point","coordinates":[-121.988356,37.384937]}},{"properties":{"company":"ACRIAN INC.","zip":"95014","latitude":37.321034,"longitude":-122.050964,"id":"afpfl4g7sd0d","address":"10131 BUBB RD."},"type":"Feature","geometry":{"type":"Point","coordinates":[-122.050964,37.321034]}},{"properties":{"company":"HANGGI MFG.","zip":"95014","latitude":37.321538,"longitude":-122.051176,"id":"afpfl4dhowuu","address":"10100 BUBB RD."},"type":"Feature","geometry":{"type":"Point","coordinates":[-122.051176,37.321538]}},{"properties":{"company":"NITRON CORP.","zip":"95014","latitude":37.317078,"longitude":-122.049612,"id":"afpfl4ctqpc0","address":"10420 BUBB RD."},"type":"Feature","geometry":{"type":"Point","coordinates":[-122.049612,37.317078]}},{"properties":{"company":"MEASUREX CORP.","zip":"95014","latitude":37.316413,"longitude":-122.050389,"id":"afpfl418x4fk","address":"1 RESULTS WAY"},"type":"Feature","geometry":{"type":"Point","coordinates":[-122.050389,37.316413]}},{"properties":{"company":"BRAEGEN CORP., THE","zip":"95014","latitude":37.332322,"longitude":-122.035671,"id":"afpfl42qs2bj","address":"20740 VALLEY GREEN DR."},"type":"Feature","geometry":{"type":"Point","coordinates":[-122.035671,37.332322]}},{"properties":{"company":"TYMSHARE INC.","zip":"95014","latitude":37.332338,"longitude":-122.035017,"id":"afpfl497ak7g","address":"20705 VALLEY GREEN DR."},"type":"Feature","geometry":{"type":"Point","coordinates":[-122.035017,37.332338]}},{"properties":{"company":"TIMEX CORP.","zip":"95014","latitude":37.332322,"longitude":-122.033962,"id":"afpfl4b4l3id","address":"20650 VALLEY GREEN DR."},"type":"Feature","geometry":{"type":"Point","coordinates":[-122.033962,37.332322]}},{"properties":{"company":"APPLE COMPUTER INC.","zip":"95014","latitude":37.330222,"longitude":-122.032823,"id":"afpfl4awct02","address":"20525 MARIANI AVE."},"type":"Feature","geometry":{"type":"Point","coordinates":[-122.032823,37.330222]}},{"properties":{"company":"FOUR-PHASE SYSTEMS INC .","zip":"95014","latitude":37.331762,"longitude":-122.032162,"id":"afpfl42huyic","address":"10700 N. De ANZA BLVD."},"type":"Feature","geometry":{"type":"Point","coordinates":[-122.032162,37.331762]}},{"properties":{"company":"ICONIX","zip":"95014","latitude":37.328423,"longitude":-122.034372,"id":"afpfl4est86q","address":"10441 BANDLEY DR."},"type":"Feature","geometry":{"type":"Point","coordinates":[-122.034372,37.328423]}},{"properties":{"company":"INTL . MEMORIES INC.","zip":"95014","latitude":37.327321,"longitude":-122.03444,"id":"afpfl4eqzca8","address":"10381 BANDLEY DR ."},"type":"Feature","geometry":{"type":"Point","coordinates":[-122.03444,37.327321]}},{"properties":{"company":"LITRONIX INC.","zip":"95014","latitude":37.337756,"longitude":-122.004843,"id":"afpfl4g37p47","address":"19000 HOMESTEAD RD."},"type":"Feature","geometry":{"type":"Point","coordinates":[-122.004843,37.337756]}},{"properties":{"company":"AMI","zip":"95014","latitude":37.337772,"longitude":-122.000097,"id":"afpfl484gakh","address":"3800 HOMESTEAD RD."},"type":"Feature","geometry":{"type":"Point","coordinates":[-122.000097,37.337772]}},{"properties":{"company":"DATA QUEST INC.","zip":"95014","latitude":37.332245,"longitude":-122.006163,"id":"afpfl4g7ox0d","address":"19055 PRUNERIDGE AVE."},"type":"Feature","geometry":{"type":"Point","coordinates":[-122.006163,37.332245]}},{"properties":{"company":"INTERSIL INC.","zip":"95014","latitude":37.333756,"longitude":-122.005482,"id":"afpfl48feunc","address":"10710 N. TANTAU AVE."},"type":"Feature","geometry":{"type":"Point","coordinates":[-122.005482,37.333756]}},{"properties":{"company":"MILLENNIUM SYS. INC./GOULD","zip":"95014","latitude":37.332227,"longitude":-122.006211,"id":"afpfl4d6q6f9","address":"19050 PRUNERIDGE AVE."},"type":"Feature","geometry":{"type":"Point","coordinates":[-122.006211,37.332227]}},{"properties":{"company":"ALPHATRON INC.","zip":"95014","latitude":37.332212,"longitude":-122.006648,"id":"afpfl47mfto1","address":"19080 PRUNERIDGE AVE."},"type":"Feature","geometry":{"type":"Point","coordinates":[-122.006648,37.332212]}},{"properties":{"company":"AROMAT CORP.","zip":"95014","latitude":37.327592,"longitude":-122.005865,"id":"afpfl4b2pdzm","address":"10400 N. TANTAU AVE."},"type":"Feature","geometry":{"type":"Point","coordinates":[-122.005865,37.327592]}},{"properties":{"company":"TANDEM COMPUTERS INC.","zip":"95014","latitude":37.325278,"longitude":-122.010097,"id":"afpfl418vfea","address":"19333 VALLCO PKWY."},"type":"Feature","geometry":{"type":"Point","coordinates":[-122.010097,37.325278]}},{"properties":{"company":"DYSAN CORP.","zip":"95014","latitude":37.40939,"longitude":-121.984797,"id":"afpfl44hwvtk","address":"5440 PATRICK HENRY DR."},"type":"Feature","geometry":{"type":"Point","coordinates":[-121.984797,37.40939]}},{"properties":{"company":"LAM RESEARCH CORP.","zip":"95014","latitude":37.408885,"longitude":-121.982004,"id":"afpfl4con4lz","address":"5403 BETSY ROSS DR ."},"type":"Feature","geometry":{"type":"Point","coordinates":[-121.982004,37.408885]}},{"properties":{"company":"CALMA CO.","zip":"95014","latitude":37.404925,"longitude":-121.980134,"id":"afpfl42t4qrk","address":"5155 OLD IRONSIDES DR ."},"type":"Feature","geometry":{"type":"Point","coordinates":[-121.980134,37.404925]}},{"properties":{"company":"TRILOGY SYSTEMS CORP.","zip":"95014","latitude":37.31776,"longitude":-122.043307,"id":"afpfl4gypylt","address":"5150 GREAT AMERICA PWY"},"type":"Feature","geometry":{"type":"Point","coordinates":[-122.043307,37.31776]}},{"properties":{"company":"CTT INC.","zip":"95014","latitude":37.40325,"longitude":-121.982079,"id":"afpfl4dq3s5c","address":"3000 TASMAN DR ."},"type":"Feature","geometry":{"type":"Point","coordinates":[-121.982079,37.40325]}},{"properties":{"company":"IDEC SYSTEMS &amp; CONTROLS","zip":"95014","latitude":37.403312,"longitude":-121.983577,"id":"afpfl4240hf3","address":"3050 TASMAN DR ."},"type":"Feature","geometry":{"type":"Point","coordinates":[-121.983577,37.403312]}},{"properties":{"company":"ROLM CORP.","zip":"95014","latitude":37.402386,"longitude":-121.980008,"id":"afpfl41wsy44","address":"4900 OLD IRONSIDES DR."},"type":"Feature","geometry":{"type":"Point","coordinates":[-121.980008,37.402386]}},{"properties":{"company":"UNITED SCIENTIFIC CORP.","zip":"95014","latitude":37.400375,"longitude":-121.985024,"id":"afpfl4czpi61","address":"4800 PATRICK HENRY DR."},"type":"Feature","geometry":{"type":"Point","coordinates":[-121.985024,37.400375]}},{"properties":{"company":"BUSCOM SYSTEMS INC.","zip":"95014","latitude":37.399143,"longitude":-121.98502,"id":"afpfl41vbq7w","address":"4700 PATRICK HENRY DR ."},"type":"Feature","geometry":{"type":"Point","coordinates":[-121.98502,37.399143]}},{"properties":{"company":"LARSE CORP.","zip":"95014","latitude":37.397911,"longitude":-121.985015,"id":"afpfl41mnd4a","address":"4600 PATRICK HENRY DR ."},"type":"Feature","geometry":{"type":"Point","coordinates":[-121.985015,37.397911]}},{"properties":{"company":"TWO PI CORP.","zip":"95014","latitude":37.395931,"longitude":-121.981577,"id":"afpfl42bvqsz","address":"3105 PATRICK HENRY DR ."},"type":"Feature","geometry":{"type":"Point","coordinates":[-121.981577,37.395931]}},{"properties":{"company":"MEGATEST INC.","zip":"95014","latitude":37.395932,"longitude":-121.97877,"id":"afpfl4g88z0e","address":"2900 PATRICK HENRY DR ."},"type":"Feature","geometry":{"type":"Point","coordinates":[-121.97877,37.395932]}},{"properties":{"company":"DEANZA MFG. SERVICES","zip":"95014","latitude":37.408525,"longitude":-121.967768,"id":"afpfl458vndd","address":"5191 LAFAYETTE ST."},"type":"Feature","geometry":{"type":"Point","coordinates":[-121.967768,37.408525]}},{"properties":{"company":"TELO ELECTRONICS INC.","zip":"95014","latitude":37.409389,"longitude":-121.966919,"id":"afpfl44r65lo","address":"2354 CALLE DEL MUNDO"},"type":"Feature","geometry":{"type":"Point","coordinates":[-121.966919,37.409389]}},{"properties":{"company":"CIRCABCO ASSOC.","zip":"95014","latitude":37.409524,"longitude":-121.966514,"id":"afpfl4a05trd","address":"2330 CALLE DEL MUNDO"},"type":"Feature","geometry":{"type":"Point","coordinates":[-121.966514,37.409524]}},{"properties":{"company":"C &amp; M PRECISION","zip":"95014","latitude":37.40963,"longitude":-121.966261,"id":"afpfl4hb0adr","address":"2315 CALLE DEL MUNDO"},"type":"Feature","geometry":{"type":"Point","coordinates":[-121.966261,37.40963]}},{"properties":{"company":"MICROCOMPUTER POWER INC.","zip":"95014","latitude":37.408911,"longitude":-121.964297,"id":"afpfl41d5xex","address":"2272 CALLE DE LUNA"},"type":"Feature","geometry":{"type":"Point","coordinates":[-121.964297,37.408911]}},{"properties":{"company":"MARK TELEPHONE PROD. INC.","zip":"95014","latitude":37.407832,"longitude":-121.964265,"id":"afpfl43p673d","address":"5122 CALLE DEL SOL"},"type":"Feature","geometry":{"type":"Point","coordinates":[-121.964265,37.407832]}},{"properties":{"company":"TECHNOLOGY DEVELOPMENT","zip":"95054","latitude":37.387582,"longitude":-121.973229,"id":"afpfl4e8na20","address":"3990 FREEDOM CIRCLE"},"type":"Feature","geometry":{"type":"Point","coordinates":[-121.973229,37.387582]}},{"properties":{"company":"INFORMATION SYSTEMS DESIGN","zip":"95050","latitude":37.34357,"longitude":-121.935679,"id":"afpfl4cdv5bj","address":"2500 MISSION COLLEGE BLV."},"type":"Feature","geometry":{"type":"Point","coordinates":[-121.935679,37.34357]}},{"properties":{"company":"MONOLITHIC MEMORIES","zip":"95050","latitude":37.345983,"longitude":-121.948812,"id":"afpfl42lpjtu","address":"2175 BURTON DR."},"type":"Feature","geometry":{"type":"Point","coordinates":[-121.948812,37.345983]}},{"properties":{"company":"RAIR MICROCOMPUTER LTD.","zip":"95050","latitude":37.391322,"longitude":-121.961979,"id":"afpfl4agd30m","address":"4101 BURTON DR."},"type":"Feature","geometry":{"type":"Point","coordinates":[-121.961979,37.391322]}},{"properties":{"company":"K.L.A. INSTRUMENTS","zip":"95050","latitude":37.34357,"longitude":-121.935679,"id":"afpfl4e6bg5t","address":"2051 MISSION COLLEGE BLV."},"type":"Feature","geometry":{"type":"Point","coordinates":[-121.935679,37.34357]}},{"properties":{"company":"SILICON VALLEY GROUP INC .","zip":"95050","latitude":37.389361,"longitude":-121.96028,"id":"afpfl435lm2p","address":"3901 BURTON DR."},"type":"Feature","geometry":{"type":"Point","coordinates":[-121.96028,37.389361]}},{"properties":{"company":"SOLITEC INC.","zip":"95054","latitude":37.390162,"longitude":-121.956491,"id":"afpfl4c38yc3","address":"1500 WYATT AVE."},"type":"Feature","geometry":{"type":"Point","coordinates":[-121.956491,37.390162]}},{"properties":{"company":"SILICONIX INC.","zip":"95054","latitude":37.384324,"longitude":-121.963333,"id":"afpfl4gg6793","address":"2201 LAURELWOOD RD."},"type":"Feature","geometry":{"type":"Point","coordinates":[-121.963333,37.384324]}},{"properties":{"company":"SEMI-PROCESSES INTL.","zip":"95050","latitude":37.384036,"longitude":-121.958553,"id":"afpfl44oju6d","address":"1885 NORMAN AVE."},"type":"Feature","geometry":{"type":"Point","coordinates":[-121.958553,37.384036]}},{"properties":{"company":"TWIN INDUSTRIES","zip":"95050","latitude":37.385269,"longitude":-121.955467,"id":"afpfl49vi6dq","address":"1500 NORMAN AVE. #2"},"type":"Feature","geometry":{"type":"Point","coordinates":[-121.955467,37.385269]}},{"properties":{"company":"FABRICATED CIRCUITS","zip":"95050","latitude":37.386221,"longitude":-121.953229,"id":"afpfl455kld8","address":"1196 NORMAN AVE."},"type":"Feature","geometry":{"type":"Point","coordinates":[-121.953229,37.386221]}},{"properties":{"company":"E.M.S.","zip":"95050","latitude":37.38747,"longitude":-121.954107,"id":"afpfl4ej9lrv","address":"3650 BASSETT ST."},"type":"Feature","geometry":{"type":"Point","coordinates":[-121.954107,37.38747]}},{"properties":{"company":"PRINTED CIRCUIT BUILDERS","zip":"95050","latitude":37.386808,"longitude":-121.953665,"id":"afpfl42cxro8","address":"3610 BASSETT ST."},"type":"Feature","geometry":{"type":"Point","coordinates":[-121.953665,37.386808]}},{"properties":{"company":"PYRAMID CIRCUITS INC.","zip":"95054","latitude":37.379852,"longitude":-121.955384,"id":"afpfl41cuu1o","address":"1419 LAURELWOOD RD."},"type":"Feature","geometry":{"type":"Point","coordinates":[-121.955384,37.379852]}},{"properties":{"company":"EPITAXY INC.","zip":"95050","latitude":37.384829,"longitude":-121.946415,"id":"afpfl4dveq7d","address":"555 ALDO AVE ."},"type":"Feature","geometry":{"type":"Point","coordinates":[-121.946415,37.384829]}},{"properties":{"company":"GOLDEN TECHNOLOGY INC.","zip":"95050","latitude":37.387412,"longitude":-121.942534,"id":"afpfl4hbf7jn","address":"3475 EDWARD AVE."},"type":"Feature","geometry":{"type":"Point","coordinates":[-121.942534,37.387412]}},{"properties":{"company":"L.J. ENGINEERING","zip":"95050","latitude":37.387005,"longitude":-121.940704,"id":"afpfl44134ev","address":"440 ALDO AVE ."},"type":"Feature","geometry":{"type":"Point","coordinates":[-121.940704,37.387005]}},{"properties":{"company":"KINETIC SYSTEMS INC.","zip":"95050","latitude":37.387138,"longitude":-121.940388,"id":"afpfl4gm57jb","address":"430 ALDO AVE."},"type":"Feature","geometry":{"type":"Point","coordinates":[-121.940388,37.387138]}},{"properties":{"company":"SELANAR CORP.","zip":"95050","latitude":37.386933,"longitude":-121.940928,"id":"afpfl4gibq54","address":"437 ALDO AVE."},"type":"Feature","geometry":{"type":"Point","coordinates":[-121.940928,37.386933]}},{"properties":{"company":"SUN CIRCUITS","zip":"95050","latitude":37.345983,"longitude":-121.948812,"id":"afpfl4e4xlm6","address":"3510 VICTOR CT."},"type":"Feature","geometry":{"type":"Point","coordinates":[-121.948812,37.345983]}},{"properties":{"company":"BALL SCREWS &amp; ACTUATORS","zip":"95050","latitude":37.345983,"longitude":-121.948812,"id":"afpfl46vcoaa","address":"3520 VICTOR CT."},"type":"Feature","geometry":{"type":"Point","coordinates":[-121.948812,37.345983]}},{"properties":{"company":"APPLIED PROCESS TECH.","zip":"95050","latitude":37.386109,"longitude":-121.938518,"id":"afpfl42e7hrs","address":"3310 VICTOR CT."},"type":"Feature","geometry":{"type":"Point","coordinates":[-121.938518,37.386109]}},{"properties":{"company":"APPLIED LASER SYSTEMS","zip":"95050","latitude":37.385975,"longitude":-121.93886,"id":"afpfl4bi1f9u","address":"3330 VICTOR CT."},"type":"Feature","geometry":{"type":"Point","coordinates":[-121.93886,37.385975]}},{"properties":{"company":"ENGINEERED COMMUNICATIONS","zip":"95050","latitude":37.385863,"longitude":-121.939201,"id":"afpfl4gldnqi","address":"3350 VICTOR CT ."},"type":"Feature","geometry":{"type":"Point","coordinates":[-121.939201,37.385863]}},{"properties":{"company":"MICRO-BAUD SYSTEMS","zip":"95050","latitude":37.384963,"longitude":-121.942983,"id":"afpfl42tlq11","address":"3393 DE LaCRUZ BLVD ."},"type":"Feature","geometry":{"type":"Point","coordinates":[-121.942983,37.384963]}},{"properties":{"company":"PRECISION QUARTZ INC.","zip":"95050","latitude":37.383732,"longitude":-121.937197,"id":"afpfl48zci7w","address":"305 LAURELWOOD RD."},"type":"Feature","geometry":{"type":"Point","coordinates":[-121.937197,37.383732]}},{"properties":{"company":"PEBCO INC.","zip":"95050","latitude":37.382903,"longitude":-121.939075,"id":"afpfl4cd9pmd","address":"386 LAURELWOOD RD."},"type":"Feature","geometry":{"type":"Point","coordinates":[-121.939075,37.382903]}},{"properties":{"company":"OPTICAL ASSOCIATES INC.","zip":"95050","latitude":37.384615,"longitude":-121.940891,"id":"afpfl49bj6ml","address":"3300 EDWARD AVE."},"type":"Feature","geometry":{"type":"Point","coordinates":[-121.940891,37.384615]}},{"properties":{"company":"DATA MAGNETICS CORP.","zip":"95050","latitude":37.382196,"longitude":-121.940968,"id":"afpfl49mu6zn","address":"445 LAUREL WOOD RD ."},"type":"Feature","geometry":{"type":"Point","coordinates":[-121.940968,37.382196]}},{"properties":{"company":"INTRICAST CO.","zip":"95050","latitude":37.380365,"longitude":-121.945505,"id":"afpfl4fa5b3i","address":"600 LAURELWOOD RD ."},"type":"Feature","geometry":{"type":"Point","coordinates":[-121.945505,37.380365]}},{"properties":{"company":"STANFORD APPLIED ENGINEERING","zip":"95050","latitude":37.387308,"longitude":-121.944143,"id":"afpfl47zbiad","address":"3520-30 DE LaCRUZ BLVD."},"type":"Feature","geometry":{"type":"Point","coordinates":[-121.944143,37.387308]}},{"properties":{"company":"NATIONAL SEMICONDUCTOR","zip":"95051","latitude":37.374091,"longitude":-121.999192,"id":"afpfl48kjg3t","address":"2900 SEMICONDUCTOR DR."},"type":"Feature","geometry":{"type":"Point","coordinates":[-121.999192,37.374091]}},{"properties":{"company":"DYNA-CRAFT INC.","zip":"95051","latitude":37.34912,"longitude":-121.980569,"id":"afpfl4gv073y","address":"2975 SAN YSIDRO WY."},"type":"Feature","geometry":{"type":"Point","coordinates":[-121.980569,37.34912]}},{"properties":{"company":"SIGNATONE CORP.","zip":"95051","latitude":37.377,"longitude":-121.997481,"id":"afpfl44ob3tq","address":"3687 ENOCHS ST."},"type":"Feature","geometry":{"type":"Point","coordinates":[-121.997481,37.377]}},{"properties":{"company":"QUARTZ INTERNATIONAL","zip":"95051","latitude":37.34912,"longitude":-121.980569,"id":"afpfl4ew2opd","address":"2999 SAN YSIDRO WY."},"type":"Feature","geometry":{"type":"Point","coordinates":[-121.980569,37.34912]}},{"properties":{"company":"BROWN-BOVERI CONTROL SYSTEMS","zip":"95051","latitude":37.34912,"longitude":-121.980569,"id":"afpfl4gku8rx","address":"2920 SAN YSIDRO WY."},"type":"Feature","geometry":{"type":"Point","coordinates":[-121.980569,37.34912]}},{"properties":{"company":"SANDERS INSTRUMENTS INC.","zip":"95051","latitude":37.375053,"longitude":-121.994788,"id":"afpfl4adhr7u","address":"2990 GORDON AVE."},"type":"Feature","geometry":{"type":"Point","coordinates":[-121.994788,37.375053]}},{"properties":{"company":"WAVETEK","zip":"95051","latitude":37.376715,"longitude":-121.993966,"id":"afpfl4ctz5b7","address":"3555 RYDER ST."},"type":"Feature","geometry":{"type":"Point","coordinates":[-121.993966,37.376715]}},{"properties":{"company":"J.M . MFG. CORP.","zip":"95051","latitude":37.375632,"longitude":-121.992597,"id":"afpfl42kewro","address":"3015 COPPER WY."},"type":"Feature","geometry":{"type":"Point","coordinates":[-121.992597,37.375632]}},{"properties":{"company":"ISHER INC.","zip":"95051","latitude":37.375467,"longitude":-121.992596,"id":"afpfl44fjkr7","address":"3001 COPPER WY."},"type":"Feature","geometry":{"type":"Point","coordinates":[-121.992596,37.375467]}},{"properties":{"company":"ZYCON CORP .","zip":"95051","latitude":37.375231,"longitude":-121.992595,"id":"afpfl46ycek0","address":"2981 COPPER WY."},"type":"Feature","geometry":{"type":"Point","coordinates":[-121.992595,37.375231]}},{"properties":{"company":"MICRO-CHEM INC.","zip":"95051","latitude":37.375113,"longitude":-121.992595,"id":"afpfl4a2841l","address":"2971 COPPER"},"type":"Feature","geometry":{"type":"Point","coordinates":[-121.992595,37.375113]}},{"properties":{"company":"AUTOMATED SEMICON INC .","zip":"95051","latitude":37.374523,"longitude":-121.992593,"id":"afpfl4c4zcay","address":"2921 COPPER"},"type":"Feature","geometry":{"type":"Point","coordinates":[-121.992593,37.374523]}},{"properties":{"company":"PENINSULA CIRCUIT BOARDS INC.","zip":"95051","latitude":37.375315,"longitude":-121.987871,"id":"afpfl4cal1bv","address":"2964 CORVIN DR."},"type":"Feature","geometry":{"type":"Point","coordinates":[-121.987871,37.375315]}},{"properties":{"company":"E.L.X.S.I. INTL.","zip":"95051","latitude":37.377572,"longitude":-121.991543,"id":"afpfl44elvzb","address":"3410 CENTRAL EXP."},"type":"Feature","geometry":{"type":"Point","coordinates":[-121.991543,37.377572]}},{"properties":{"company":"TIME &amp; SPACE PROCESSING","zip":"95051","latitude":37.377572,"longitude":-121.991543,"id":"afpfl41pazcn","address":"3410 CENTRAL EXP."},"type":"Feature","geometry":{"type":"Point","coordinates":[-121.991543,37.377572]}},{"properties":{"company":"PTE CORP.","zip":"95051","latitude":37.374044,"longitude":-121.98731,"id":"afpfl43xsp70","address":"3305 KIFER RD."},"type":"Feature","geometry":{"type":"Point","coordinates":[-121.98731,37.374044]}},{"properties":{"company":"VICI / METRONICS ASSOC. I NC.","zip":"95051","latitude":37.375686,"longitude":-121.987856,"id":"afpfl4852w2x","address":"2991 CORVIN DR."},"type":"Feature","geometry":{"type":"Point","coordinates":[-121.987856,37.375686]}},{"properties":{"company":"NEC-FACSIMILE DIV.","zip":"95051","latitude":37.377609,"longitude":-121.985052,"id":"afpfl4ayu6r3","address":"3120 CENTRAL EXP."},"type":"Feature","geometry":{"type":"Point","coordinates":[-121.985052,37.377609]}},{"properties":{"company":"TIME &amp; FREQUENCY TECH .","zip":"95051","latitude":37.376294,"longitude":-121.980844,"id":"afpfl45tow7p","address":"3090 OAKMEAD VILLAGE DR."},"type":"Feature","geometry":{"type":"Point","coordinates":[-121.980844,37.376294]}},{"properties":{"company":"KINGTRON CORP.","zip":"95051","latitude":37.376132,"longitude":-121.979847,"id":"afpfl4ghfjtw","address":"3040 OAKMEAD VILLAGE CT."},"type":"Feature","geometry":{"type":"Point","coordinates":[-121.979847,37.376132]}},{"properties":{"company":"INTL. DIAGNOSTIC TECH.","zip":"95051","latitude":37.375902,"longitude":-121.980145,"id":"afpfl47hrofe","address":"2986 OAKMEAD VILLAGE CT."},"type":"Feature","geometry":{"type":"Point","coordinates":[-121.980145,37.375902]}},{"properties":{"company":"FUJITSU MICROELECTRONICS","zip":"95051","latitude":37.375121,"longitude":-121.980787,"id":"afpfl41zrgy9","address":"2945 OAK.IEAD VILLAGE CT."},"type":"Feature","geometry":{"type":"Point","coordinates":[-121.980787,37.375121]}},{"properties":{"company":"THERMEX INC.","zip":"95051","latitude":37.371697,"longitude":-121.981883,"id":"afpfl45tg0ij","address":"2800 MEAD AVE."},"type":"Feature","geometry":{"type":"Point","coordinates":[-121.981883,37.371697]}},{"properties":{"company":"COMPUTER CABLE INDUSTRIES","zip":"95051","latitude":37.371744,"longitude":-121.978378,"id":"afpfl48wrdxb","address":"2971 MEAD AVE."},"type":"Feature","geometry":{"type":"Point","coordinates":[-121.978378,37.371744]}},{"properties":{"company":"APPLIED MATERIALS INC.","zip":"95051","latitude":37.37701,"longitude":-121.977847,"id":"afpfl459sk3u","address":"3050 BOWERS AVE."},"type":"Feature","geometry":{"type":"Point","coordinates":[-121.977847,37.37701]}},{"properties":{"company":"ORROX CORP.","zip":"95051","latitude":37.380627,"longitude":-121.97894,"id":"afpfl4ekzfjw","address":"3303 SCOTT BLVD."},"type":"Feature","geometry":{"type":"Point","coordinates":[-121.97894,37.380627]}},{"properties":{"company":"ISS SPERRY UNIVAC","zip":"95051","latitude":37.380613,"longitude":-121.980769,"id":"afpfl4g1rhod","address":"3333 SCOTT BLVD."},"type":"Feature","geometry":{"type":"Point","coordinates":[-121.980769,37.380613]}},{"properties":{"company":"THERMONICS INC.","zip":"95051","latitude":37.380462,"longitude":-121.983924,"id":"afpfl4fsflb8","address":"3350 SCOTT BLVD. BLDG. 32"},"type":"Feature","geometry":{"type":"Point","coordinates":[-121.983924,37.380462]}},{"properties":{"company":"PROBE-TRONICS INC.","zip":"95051","latitude":37.380462,"longitude":-121.983924,"id":"afpfl42294l5","address":"3350 SCOTT BLVD."},"type":"Feature","geometry":{"type":"Point","coordinates":[-121.983924,37.380462]}},{"properties":{"company":"NORSK ENGINEERING","zip":"95051","latitude":37.380462,"longitude":-121.983924,"id":"afpfl4bahglp","address":"3350 SCOTT BLVD. #14602"},"type":"Feature","geometry":{"type":"Point","coordinates":[-121.983924,37.380462]}},{"properties":{"company":"OMNIYIG INC .","zip":"95051","latitude":37.380462,"longitude":-121.983924,"id":"afpfl4bc3qh2","address":"3350 SCOTT BLVD."},"type":"Feature","geometry":{"type":"Point","coordinates":[-121.983924,37.380462]}},{"properties":{"company":"INTL. MICRO CIRCUITS","zip":"95051","latitude":37.380462,"longitude":-121.983924,"id":"afpfl4acwupr","address":"3350 SCOTT BLVD. #37"},"type":"Feature","geometry":{"type":"Point","coordinates":[-121.983924,37.380462]}},{"properties":{"company":"INMAC","zip":"95051","latitude":37.382275,"longitude":-121.971498,"id":"afpfl4extmdk","address":"2465 AUGUSTINE DR."},"type":"Feature","geometry":{"type":"Point","coordinates":[-121.971498,37.382275]}},{"properties":{"company":"BURNS RESEARCH CORP.","zip":"95051","latitude":37.380281,"longitude":-121.970134,"id":"afpfl43gacnn","address":"3333 OCTAVIUS DR. #A"},"type":"Feature","geometry":{"type":"Point","coordinates":[-121.970134,37.380281]}},{"properties":{"company":"CONVERGENT TECH.","zip":"95051","latitude":37.382321,"longitude":-121.972211,"id":"afpfl4b86kgu","address":"2500 AUGUSTINE DR."},"type":"Feature","geometry":{"type":"Point","coordinates":[-121.972211,37.382321]}},{"properties":{"company":"MODULUS INC.","zip":"95051","latitude":37.382346,"longitude":-121.974499,"id":"afpfl4day5lu","address":"2600 AUGUSTINE DR."},"type":"Feature","geometry":{"type":"Point","coordinates":[-121.974499,37.382346]}},{"properties":{"company":"ZETA LABORATORIES INC.","zip":"95051","latitude":37.38007,"longitude":-121.973544,"id":"afpfl4afvpju","address":"3265 SCOTT BLVD."},"type":"Feature","geometry":{"type":"Point","coordinates":[-121.973544,37.38007]}},{"properties":{"company":"MARTEC INTL. ELECT. SYSTEMS","zip":"95051","latitude":37.380388,"longitude":-121.975329,"id":"afpfl45kluos","address":"3285 SCOTT BLVD."},"type":"Feature","geometry":{"type":"Point","coordinates":[-121.975329,37.380388]}},{"properties":{"company":"AUTEK SYSTEMS CORP.","zip":"95051","latitude":37.37851,"longitude":-121.974492,"id":"afpfl4a8twn0","address":"3200 CORONADO DR."},"type":"Feature","geometry":{"type":"Point","coordinates":[-121.974492,37.37851]}},{"properties":{"company":"SCHLAGE ELECTRONICS","zip":"95051","latitude":37.379819,"longitude":-121.972804,"id":"afpfl44h2a40","address":"3260 SCOTT BLVD."},"type":"Feature","geometry":{"type":"Point","coordinates":[-121.972804,37.379819]}},{"properties":{"company":"AAFCO PRECISION MFG.","zip":"95051","latitude":37.377921,"longitude":-121.974497,"id":"afpfl43fb0t2","address":"3150 CORONADO DR."},"type":"Feature","geometry":{"type":"Point","coordinates":[-121.974497,37.377921]}},{"properties":{"company":"SIGNAL SCIENCE INC.","zip":"95051","latitude":37.377651,"longitude":-121.974098,"id":"afpfl4gub707","address":"3110 CORONADO DR."},"type":"Feature","geometry":{"type":"Point","coordinates":[-121.974098,37.377651]}},{"properties":{"company":"DATA SYSTEMS","zip":"95051","latitude":37.37985,"longitude":-121.972326,"id":"afpfl4b0sdco","address":"3255 SCOTT BLVD. #3A"},"type":"Feature","geometry":{"type":"Point","coordinates":[-121.972326,37.37985]}},{"properties":{"company":"WEITEK CORP.","zip":"95051","latitude":37.346526,"longitude":-121.983486,"id":"afpfl43roiej","address":"3255 SCOTT BLVD. #2 -B"},"type":"Feature","geometry":{"type":"Point","coordinates":[-121.983486,37.346526]}},{"properties":{"company":"TECHNICON MEDICAL INFO. SYS.","zip":"95051","latitude":37.37985,"longitude":-121.972326,"id":"afpfl4dmm6p6","address":"3255-1 SCOTT BLVD."},"type":"Feature","geometry":{"type":"Point","coordinates":[-121.972326,37.37985]}},{"properties":{"company":"EDCO ENGINEERING CORP.","zip":"95051","latitude":37.37985,"longitude":-121.972326,"id":"afpfl4gpqs6l","address":"3255 SCOTT BLVD. #6A"},"type":"Feature","geometry":{"type":"Point","coordinates":[-121.972326,37.37985]}},{"properties":{"company":"INTEGRATED DEVICE TECH.","zip":"95051","latitude":37.379324,"longitude":-121.970066,"id":"afpfl45v84cb","address":"3236 SCOTT BLVD."},"type":"Feature","geometry":{"type":"Point","coordinates":[-121.970066,37.379324]}},{"properties":{"company":"A.D.P.","zip":"95051","latitude":37.380647,"longitude":-121.967117,"id":"afpfl4506u2t","address":"3300 OLCOTT ST."},"type":"Feature","geometry":{"type":"Point","coordinates":[-121.967117,37.380647]}},{"properties":{"company":"SYNERTEK INC.","zip":"95051","latitude":37.376843,"longitude":-121.970198,"id":"afpfl41s0m3c","address":"3001 STENDER WY."},"type":"Feature","geometry":{"type":"Point","coordinates":[-121.970198,37.376843]}},{"properties":{"company":"TELMOS INC.","zip":"95051","latitude":37.377643,"longitude":-121.97306,"id":"afpfl4g6umbb","address":"3040 CORONADO DR."},"type":"Feature","geometry":{"type":"Point","coordinates":[-121.97306,37.377643]}},{"properties":{"company":"XYNETICS INC.","zip":"95051","latitude":37.374853,"longitude":-121.972553,"id":"afpfl4e6gqgx","address":"2901 CORONADO DR."},"type":"Feature","geometry":{"type":"Point","coordinates":[-121.972553,37.374853]}},{"properties":{"company":"ULTRATECH CORP.","zip":"95051","latitude":37.375285,"longitude":-121.970192,"id":"afpfl4cn9bu5","address":"2900 STENDER WY."},"type":"Feature","geometry":{"type":"Point","coordinates":[-121.970192,37.375285]}},{"properties":{"company":"VERSATEC INC.","zip":"95051","latitude":37.373793,"longitude":-121.975167,"id":"afpfl4at97o5","address":"2710 WALSH AVE."},"type":"Feature","geometry":{"type":"Point","coordinates":[-121.975167,37.373793]}},{"properties":{"company":"ZENTEC CORP.","zip":"95051","latitude":37.36957,"longitude":-121.969611,"id":"afpfl4bsje69","address":"2400 WALSH AVE."},"type":"Feature","geometry":{"type":"Point","coordinates":[-121.969611,37.36957]}},{"properties":{"company":"SIGMAFORM CORP.","zip":"95051","latitude":37.369559,"longitude":-121.969465,"id":"afpfl4cr18a7","address":"2401 WALSH AVE."},"type":"Feature","geometry":{"type":"Point","coordinates":[-121.969465,37.369559]}},{"properties":{"company":"DATA TECHNOLOGY CORP.","zip":"95051","latitude":37.371969,"longitude":-121.972009,"id":"afpfl423g7x5","address":"2775 NORTHWESTERN PKW."},"type":"Feature","geometry":{"type":"Point","coordinates":[-121.972009,37.371969]}},{"properties":{"company":"CRONUS PRECISION PRODUCTS","zip":"95051","latitude":37.373626,"longitude":-121.972027,"id":"afpfl4hayi8r","address":"2895 NORTHWESTERN PKW."},"type":"Feature","geometry":{"type":"Point","coordinates":[-121.972027,37.373626]}},{"properties":{"company":"WESTERN ELECTROMOTIVE","zip":"95051","latitude":37.375512,"longitude":-121.968301,"id":"afpfl4ecoluc","address":"2380 OWEN ST."},"type":"Feature","geometry":{"type":"Point","coordinates":[-121.968301,37.375512]}},{"properties":{"company":"VELER INC.","zip":"95051","latitude":37.375873,"longitude":-121.968295,"id":"afpfl483tkqd","address":"2360 OWEN ST."},"type":"Feature","geometry":{"type":"Point","coordinates":[-121.968295,37.375873]}},{"properties":{"company":"OMEX","zip":"95051","latitude":37.376105,"longitude":-121.967188,"id":"afpfl4c03f72","address":"2323 OWEN ST."},"type":"Feature","geometry":{"type":"Point","coordinates":[-121.967188,37.376105]}},{"properties":{"company":"NBK CORP.","zip":"95051","latitude":37.376391,"longitude":-121.967329,"id":"afpfl4eu27ak","address":"3000 OLCOTT ST."},"type":"Feature","geometry":{"type":"Point","coordinates":[-121.967329,37.376391]}},{"properties":{"company":"INTEGRA INC.","zip":"95051","latitude":37.369462,"longitude":-121.968164,"id":"afpfl4b84lfw","address":"2368 WALSH AVE."},"type":"Feature","geometry":{"type":"Point","coordinates":[-121.968164,37.369462]}},{"properties":{"company":"PRECISION ART MASTER","zip":"95051","latitude":37.369466,"longitude":-121.967757,"id":"afpfl45r5bht","address":"2350 WALSH AVE."},"type":"Feature","geometry":{"type":"Point","coordinates":[-121.967757,37.369466]}},{"properties":{"company":"VEN-TEL INC.","zip":"95051","latitude":37.369467,"longitude":-121.967577,"id":"afpfl45dyzf6","address":"2342 WALSH AVE."},"type":"Feature","geometry":{"type":"Point","coordinates":[-121.967577,37.369467]}},{"properties":{"company":"ADVANCED SECURITY CO.","zip":"95051","latitude":37.369473,"longitude":-121.966945,"id":"afpfl4et6200","address":"2314 WALSH AVE. #A"},"type":"Feature","geometry":{"type":"Point","coordinates":[-121.966945,37.369473]}},{"properties":{"company":"H.H.B.","zip":"95051","latitude":37.36947,"longitude":-121.967215,"id":"afpfl44q83oq","address":"2326 WALSH AVE."},"type":"Feature","geometry":{"type":"Point","coordinates":[-121.967215,37.36947]}},{"properties":{"company":"INTEL CORP.","zip":"95051","latitude":37.37663,"longitude":-121.977629,"id":"afpfl42dprr0","address":"3065 BOWERS AVE."},"type":"Feature","geometry":{"type":"Point","coordinates":[-121.977629,37.37663]}},{"properties":{"company":"AVANTEK INC.","zip":"95051","latitude":37.379543,"longitude":-121.977641,"id":"afpfl4dhtupy","address":"3175 BOWERS AVE."},"type":"Feature","geometry":{"type":"Point","coordinates":[-121.977641,37.379543]}},{"properties":{"company":"RAMTEK CORP. - GAMES DIV.","zip":"95050","latitude":37.375322,"longitude":-121.963238,"id":"afpfl44j9iko","address":"2211 LAWSO LN ."},"type":"Feature","geometry":{"type":"Point","coordinates":[-121.963238,37.375322]}},{"properties":{"company":"GRANGER ASSOCIATES","zip":"95050","latitude":37.377448,"longitude":-121.961966,"id":"afpfl4agntr9","address":"3101 SCOTT BLVD ."},"type":"Feature","geometry":{"type":"Point","coordinates":[-121.961966,37.377448]}},{"properties":{"company":"STAMPING TECH","zip":"95050","latitude":37.378751,"longitude":-121.961681,"id":"afpfl4culykc","address":"3171 JAY ST ."},"type":"Feature","geometry":{"type":"Point","coordinates":[-121.961681,37.378751]}},{"properties":{"company":"MICRO POWER SYSTEMS","zip":"95050","latitude":37.378467,"longitude":-121.961681,"id":"afpfl492x78i","address":"3151 JAY ST ."},"type":"Feature","geometry":{"type":"Point","coordinates":[-121.961681,37.378467]}},{"properties":{"company":"FREQUENCY SOURCES WEST","zip":"95051","latitude":37.378878,"longitude":-121.958619,"id":"afpfl40yvyjw","address":"3140 ALFRED ST."},"type":"Feature","geometry":{"type":"Point","coordinates":[-121.958619,37.378878]}},{"properties":{"company":"WESCAN INSTRUMENTS INC.","zip":"95050","latitude":37.37644,"longitude":-121.96021,"id":"afpfl48yb2j6","address":"3018 SCOTT BLVD ."},"type":"Feature","geometry":{"type":"Point","coordinates":[-121.96021,37.37644]}},{"properties":{"company":"ORION ALPHA CORP.","zip":"95050","latitude":37.375744,"longitude":-121.95966,"id":"afpfl4b3gxd3","address":"2974 SCOTT BLVD."},"type":"Feature","geometry":{"type":"Point","coordinates":[-121.95966,37.375744]}},{"properties":{"company":"OMNI TECH.","zip":"95050","latitude":37.375422,"longitude":-121.959587,"id":"afpfl4a44mk4","address":"2944 SCOTT BLVD."},"type":"Feature","geometry":{"type":"Point","coordinates":[-121.959587,37.375422]}},{"properties":{"company":"CIRCUIT WORKS INC.","zip":"95050","latitude":37.375132,"longitude":-121.959552,"id":"afpfl4hcuois","address":"2904 SCOTT BLVD."},"type":"Feature","geometry":{"type":"Point","coordinates":[-121.959552,37.375132]}},{"properties":{"company":"ATLAS ELECTRONICS","zip":"95050","latitude":37.375822,"longitude":-121.959665,"id":"afpfl46iz9i4","address":"2975 SCOTT BLVD."},"type":"Feature","geometry":{"type":"Point","coordinates":[-121.959665,37.375822]}},{"properties":{"company":"FOTOMAT LABS INC.","zip":"95051","latitude":37.374558,"longitude":-121.958467,"id":"afpfl4csbzyh","address":"1725 COMSTOCK ST."},"type":"Feature","geometry":{"type":"Point","coordinates":[-121.958467,37.374558]}},{"properties":{"company":"PRECISION MONOLITHICS I NC.","zip":"95050","latitude":37.376231,"longitude":-121.955582,"id":"afpfl4ax2fdi","address":"1500 SPACE PARK DR."},"type":"Feature","geometry":{"type":"Point","coordinates":[-121.955582,37.376231]}},{"properties":{"company":"MONOSIL","zip":"95051","latitude":37.377698,"longitude":-121.953261,"id":"afpfl4246gw0","address":"3060 RAYMOND ST."},"type":"Feature","geometry":{"type":"Point","coordinates":[-121.953261,37.377698]}},{"properties":{"company":"MULTAPLEX","zip":"95051","latitude":37.374631,"longitude":-121.952212,"id":"afpfl4288ty2","address":"1111 COMSTOCK ST."},"type":"Feature","geometry":{"type":"Point","coordinates":[-121.952212,37.374631]}},{"properties":{"company":"MULLEN EQUIPMENT CO.","zip":"95050","latitude":37.374775,"longitude":-121.950257,"id":"afpfl42obmk1","address":"2904 LAFAYETTE ST."},"type":"Feature","geometry":{"type":"Point","coordinates":[-121.950257,37.374775]}},{"properties":{"company":"PROBE RITE INC.","zip":"95050","latitude":37.370442,"longitude":-121.950275,"id":"afpfl47ck6ex","address":"2725 LAFAYETTE ST."},"type":"Feature","geometry":{"type":"Point","coordinates":[-121.950275,37.370442]}},{"properties":{"company":"HUNTER TECH. CORP.","zip":"95050","latitude":37.369803,"longitude":-121.951789,"id":"afpfl46tlxez","address":"985 WALSH AVE."},"type":"Feature","geometry":{"type":"Point","coordinates":[-121.951789,37.369803]}},{"properties":{"company":"MEMOREX CORP.","zip":"95050","latitude":37.37432,"longitude":-121.965949,"id":"afpfl4a4vqng","address":"SAN TOMAS &amp; CENTRAL EXP."},"type":"Feature","geometry":{"type":"Point","coordinates":[-121.965949,37.37432]}},{"properties":{"company":"ADVANCED RADIATIOK CORP.","zip":"95050","latitude":37.369502,"longitude":-121.963636,"id":"afpfl4bh8aty","address":"2210 WALSH AVE"},"type":"Feature","geometry":{"type":"Point","coordinates":[-121.963636,37.369502]}},{"properties":{"company":"SCIENTIFIC TELECOMMUN.","zip":"95050","latitude":37.367408,"longitude":-121.963408,"id":"afpfl4akmt4f","address":"2295 MARTIN AVE."},"type":"Feature","geometry":{"type":"Point","coordinates":[-121.963408,37.367408]}},{"properties":{"company":"DEXCEL INC.","zip":"95050","latitude":37.367349,"longitude":-121.963408,"id":"afpfl4gpgbtd","address":"2285 MARTIN AVE ."},"type":"Feature","geometry":{"type":"Point","coordinates":[-121.963408,37.367349]}},{"properties":{"company":"GENERAL PH~NI CS CORP.","zip":"95050","latitude":37.367172,"longitude":-121.963409,"id":"afpfl4bzqc3r","address":"2255 MARTIN AVE."},"type":"Feature","geometry":{"type":"Point","coordinates":[-121.963409,37.367172]}},{"properties":{"company":"PLEXUS COMPUTERS IN C.","zip":"95050","latitude":37.36703,"longitude":-121.963425,"id":"afpfl4awl5au","address":"2230 MARTIN AVE."},"type":"Feature","geometry":{"type":"Point","coordinates":[-121.963425,37.36703]}},{"properties":{"company":"ITAC CORP.","zip":"95050","latitude":37.366246,"longitude":-121.960768,"id":"afpfl433wo2f","address":"2050 MARTIN AVE ."},"type":"Feature","geometry":{"type":"Point","coordinates":[-121.960768,37.366246]}},{"properties":{"company":"MARK &amp;. PACK SYSTEMS","zip":"95050","latitude":37.366261,"longitude":-121.960671,"id":"afpfl434o07q","address":"2045 MARTIN AVE ."},"type":"Feature","geometry":{"type":"Point","coordinates":[-121.960671,37.366261]}},{"properties":{"company":"SANTA CLARA CIRCUITS","zip":"95050","latitude":37.367523,"longitude":-121.959527,"id":"afpfl42m0m5g","address":"2539 SCOTT BLVD."},"type":"Feature","geometry":{"type":"Point","coordinates":[-121.959527,37.367523]}},{"properties":{"company":"T.C.L. INC.","zip":"95050","latitude":37.369496,"longitude":-121.960926,"id":"afpfl4dgsb1r","address":"2064 WALSH AVE."},"type":"Feature","geometry":{"type":"Point","coordinates":[-121.960926,37.369496]}},{"properties":{"company":"FORWARD TECHNOLOGY INC.","zip":"95050","latitude":37.369184,"longitude":-121.963402,"id":"afpfl4b0wv1c","address":"2595 MARTIN AVE."},"type":"Feature","geometry":{"type":"Point","coordinates":[-121.963402,37.369184]}},{"properties":{"company":"MICRO AIR SYSTEMS","zip":"95050","latitude":37.366283,"longitude":-121.96258,"id":"afpfl427pk2n","address":"2163 MARTIN AVE."},"type":"Feature","geometry":{"type":"Point","coordinates":[-121.96258,37.366283]}},{"properties":{"company":"SOUTH BAY CIRCUITS","zip":"95050","latitude":37.364969,"longitude":-121.955676,"id":"afpfl42bsmjy","address":"1415 RICHARD ST."},"type":"Feature","geometry":{"type":"Point","coordinates":[-121.955676,37.364969]}},{"properties":{"company":"TWOTEC CO.","zip":"95050","latitude":37.363463,"longitude":-121.950375,"id":"afpfl420p66f","address":"973 SHULMAN AVE."},"type":"Feature","geometry":{"type":"Point","coordinates":[-121.950375,37.363463]}},{"properties":{"company":"GIBBONS ELECTRIC","zip":"95050","latitude":37.360096,"longitude":-121.945084,"id":"afpfl4432a53","address":"2005 GRANT AVE."},"type":"Feature","geometry":{"type":"Point","coordinates":[-121.945084,37.360096]}},{"properties":{"company":"VELONEX","zip":"95050","latitude":37.364307,"longitude":-121.945205,"id":"afpfl4b2ex89","address":"560 ROBERT A E."},"type":"Feature","geometry":{"type":"Point","coordinates":[-121.945205,37.364307]}},{"properties":{"company":"ELECTRICAL POWER PRODUCTS INC.","zip":"95050","latitude":37.364636,"longitude":-121.942788,"id":"afpfl46l9h4g","address":"436 ROBERT AVE."},"type":"Feature","geometry":{"type":"Point","coordinates":[-121.942788,37.364636]}},{"properties":{"company":"SIMCO ELECTRONICS","zip":"95050","latitude":37.365053,"longitude":-121.939677,"id":"afpfl4ga4im0","address":"382 MARTIN AVE."},"type":"Feature","geometry":{"type":"Point","coordinates":[-121.939677,37.365053]}},{"properties":{"company":"SIGMA CIRCUITS INC.","zip":"95050","latitude":37.362222,"longitude":-121.939369,"id":"afpfl4c2bylj","address":"393 MATHEW ST."},"type":"Feature","geometry":{"type":"Point","coordinates":[-121.939369,37.362222]}},{"properties":{"company":"TRACONEX INC.","zip":"95050","latitude":37.362834,"longitude":-121.937714,"id":"afpfl4h5l9du","address":"336 MARTIN AVE."},"type":"Feature","geometry":{"type":"Point","coordinates":[-121.937714,37.362834]}},{"properties":{"company":"QUANTEL INTERNATIONAL","zip":"95050","latitude":37.360976,"longitude":-121.938251,"id":"afpfl49athnl","address":"385 REED ST."},"type":"Feature","geometry":{"type":"Point","coordinates":[-121.938251,37.360976]}},{"properties":{"company":"ADVANCED CIRCUIT TECH.","zip":"95050","latitude":37.361401,"longitude":-121.938908,"id":"afpfl4a1id9n","address":"339 MATHEW ST."},"type":"Feature","geometry":{"type":"Point","coordinates":[-121.938908,37.361401]}},{"properties":{"company":"INTECH INC .","zip":"95050","latitude":37.357771,"longitude":-121.93387,"id":"afpfl4d68dk0","address":"282 BROKAW ED."},"type":"Feature","geometry":{"type":"Point","coordinates":[-121.93387,37.357771]}},{"properties":{"company":"FILTRONIC LABS","zip":"95050","latitude":37.361351,"longitude":-121.938916,"id":"afpfl49iblrz","address":"336 MATHEW ST."},"type":"Feature","geometry":{"type":"Point","coordinates":[-121.938916,37.361351]}},{"properties":{"company":"PICO DESIGN INC.","zip":"95051","latitude":37.349318,"longitude":-121.995899,"id":"afpfl4gwjme8","address":"1333 LAWRENCE EXP. #340"},"type":"Feature","geometry":{"type":"Point","coordinates":[-121.995899,37.349318]}},{"properties":{"company":"DIOGENES SYSTEMS INC.","zip":"95051","latitude":37.349318,"longitude":-121.995899,"id":"afpfl422udgx","address":"1333 LAWRENCE EXP."},"type":"Feature","geometry":{"type":"Point","coordinates":[-121.995899,37.349318]}},{"properties":{"company":"AMERICAN MICROSYSTEMS INC.","zip":"95050","latitude":37.337772,"longitude":-122.000097,"id":"afpfl49uw1xw","address":"3800 HOMESTEAD RD. (95050)"},"type":"Feature","geometry":{"type":"Point","coordinates":[-122.000097,37.337772]}},{"properties":{"company":"ALPHACOM INC.","zip":"95008","latitude":37.280397,"longitude":-121.931766,"id":"afpfl450h27l","address":"2323 S. BASCOM AVE."},"type":"Feature","geometry":{"type":"Point","coordinates":[-121.931766,37.280397]}},{"properties":{"company":"ROSS ENGINEERING CORP.","zip":"95008","latitude":37.279,"longitude":-121.939505,"id":"afpfl41s7il1","address":"559 WESTCHESTER DR."},"type":"Feature","geometry":{"type":"Point","coordinates":[-121.939505,37.279]}},{"properties":{"company":"GOLDE PACIFIC SYSTEMS.","zip":"95008","latitude":37.26791,"longitude":-121.943248,"id":"afpfl44n5e82","address":"1490 CAMDEN AVE."},"type":"Feature","geometry":{"type":"Point","coordinates":[-121.943248,37.26791]}},{"properties":{"company":"RMK MFG.","zip":"95008","latitude":37.269346,"longitude":-121.952698,"id":"afpfl49ba1ne","address":"1190 DELL AVE."},"type":"Feature","geometry":{"type":"Point","coordinates":[-121.952698,37.269346]}},{"properties":{"company":"DISCOVERY TECHNOLOGY INC.","zip":"95008","latitude":37.268422,"longitude":-121.9531,"id":"afpfl4dlks0b","address":"1249 DELL AVE."},"type":"Feature","geometry":{"type":"Point","coordinates":[-121.9531,37.268422]}},{"properties":{"company":"ZILOG INC.","zip":"95008","latitude":37.267421,"longitude":-121.953854,"id":"afpfl41d3qfw","address":"1315 DELL AVE."},"type":"Feature","geometry":{"type":"Point","coordinates":[-121.953854,37.267421]}},{"properties":{"company":"SOUND TECHNOLOGY","zip":"95008","latitude":37.266377,"longitude":-121.954628,"id":"afpfl41n8fji","address":"1400 DELL AVE."},"type":"Feature","geometry":{"type":"Point","coordinates":[-121.954628,37.266377]}},{"properties":{"company":"K &amp; K MFG.","zip":"95008","latitude":37.264569,"longitude":-121.956036,"id":"afpfl4ajfegr","address":"1500 DELL AVE."},"type":"Feature","geometry":{"type":"Point","coordinates":[-121.956036,37.264569]}},{"properties":{"company":"ZIRCON INTL. INC.","zip":"95008","latitude":37.265074,"longitude":-121.956317,"id":"afpfl410pij9","address":"475 VANDELL WAY"},"type":"Feature","geometry":{"type":"Point","coordinates":[-121.956317,37.265074]}},{"properties":{"company":"P.E.B.X. INC.","zip":"95008","latitude":37.265135,"longitude":-121.956441,"id":"afpfl414zynu","address":"501 VANDELL WAY #D"},"type":"Feature","geometry":{"type":"Point","coordinates":[-121.956441,37.265135]}},{"properties":{"company":"LARTRONICS INC.","zip":"95008","latitude":37.26514,"longitude":-121.95645,"id":"afpfl45wqdd0","address":"503 VANDELL WAY #D"},"type":"Feature","geometry":{"type":"Point","coordinates":[-121.95645,37.26514]}},{"properties":{"company":"INOVONICS INC.","zip":"95008","latitude":37.26514,"longitude":-121.95645,"id":"afpfl4ctbqpz","address":"503 VANDELL WAY #B"},"type":"Feature","geometry":{"type":"Point","coordinates":[-121.95645,37.26514]}},{"properties":{"company":"ENERGY RESEARCH ASSOC. INC.","zip":"95008","latitude":37.26514,"longitude":-121.95645,"id":"afpfl4bgrdt2","address":"503 VANDELL WAY #F"},"type":"Feature","geometry":{"type":"Point","coordinates":[-121.95645,37.26514]}},{"properties":{"company":"TENTEL INC.","zip":"95008","latitude":37.264505,"longitude":-121.956086,"id":"afpfl4arua1l","address":"1506 DELL AVE."},"type":"Feature","geometry":{"type":"Point","coordinates":[-121.956086,37.264505]}},{"properties":{"company":"MICRO SCAN","zip":"95008","latitude":37.263709,"longitude":-121.956701,"id":"afpfl482gdvd","address":"1580 DELL AVE."},"type":"Feature","geometry":{"type":"Point","coordinates":[-121.956701,37.263709]}},{"properties":{"company":"PACER TECHNOLOGY RESOURCE","zip":"95008","latitude":37.263494,"longitude":-121.956867,"id":"afpfl4ew7lrh","address":"1600 DELL AVE."},"type":"Feature","geometry":{"type":"Point","coordinates":[-121.956867,37.263494]}},{"properties":{"company":"ADDA CORP.","zip":"95008","latitude":37.262941,"longitude":-121.957323,"id":"afpfl46rbqjq","address":"1671 DELL AVE."},"type":"Feature","geometry":{"type":"Point","coordinates":[-121.957323,37.262941]}},{"properties":{"company":"NOEL J. BROWN MFG. CO.","zip":"95008","latitude":37.26277,"longitude":-121.95955,"id":"afpfl4cwlbb0","address":"541 DIVISION ST."},"type":"Feature","geometry":{"type":"Point","coordinates":[-121.95955,37.26277]}},{"properties":{"company":"SEMPREX CORP.","zip":"95008","latitude":37.262867,"longitude":-121.96006,"id":"afpfl46818og","address":"587 DIVISION ST."},"type":"Feature","geometry":{"type":"Point","coordinates":[-121.96006,37.262867]}},{"properties":{"company":"DATA TERMINALS &amp; COMM.","zip":"95008","latitude":37.26286,"longitude":-121.96012,"id":"afpfl480udkn","address":"590 DIVISION ST."},"type":"Feature","geometry":{"type":"Point","coordinates":[-121.96012,37.26286]}},{"properties":{"company":"COSMOS COMPUTER CORP.","zip":"95008","latitude":37.262771,"longitude":-121.959655,"id":"afpfl4a8c06n","address":"548 DIVISION ST."},"type":"Feature","geometry":{"type":"Point","coordinates":[-121.959655,37.262771]}},{"properties":{"company":"CAMPBELL ENGINEERING","zip":"95008","latitude":37.262754,"longitude":-121.959566,"id":"afpfl45ytt7i","address":"540 DIVISION ST."},"type":"Feature","geometry":{"type":"Point","coordinates":[-121.959566,37.262754]}},{"properties":{"company":"ROJON ELECTRONICS","zip":"95008","latitude":37.262669,"longitude":-121.959123,"id":"afpfl4cqnu1d","address":"500 DIVISION ST."},"type":"Feature","geometry":{"type":"Point","coordinates":[-121.959123,37.262669]}},{"properties":{"company":"OKTEL CORP.","zip":"95008","latitude":37.262648,"longitude":-121.959012,"id":"afpfl41i2foq","address":"490 DIVISION ST."},"type":"Feature","geometry":{"type":"Point","coordinates":[-121.959012,37.262648]}},{"properties":{"company":"REDLAKE CORP.","zip":"95008","latitude":37.262146,"longitude":-121.957761,"id":"afpfl49g5dnf","address":"1711 DELL AVE."},"type":"Feature","geometry":{"type":"Point","coordinates":[-121.957761,37.262146]}},{"properties":{"company":"QUADREX","zip":"95008","latitude":37.262055,"longitude":-121.957755,"id":"afpfl45g11qb","address":"1700 DELL AVE."},"type":"Feature","geometry":{"type":"Point","coordinates":[-121.957755,37.262055]}},{"properties":{"company":"MOHAWK DATA SCIENCES","zip":"95008","latitude":37.261302,"longitude":-121.959873,"id":"afpfl4af2spk","address":"150 KNOWLES DR."},"type":"Feature","geometry":{"type":"Point","coordinates":[-121.959873,37.261302]}},{"properties":{"company":"DASTEK","zip":"95030","latitude":37.25748,"longitude":-121.963638,"id":"afpfl4avpiva","address":"141 ALBRIGHT WAY"},"type":"Feature","geometry":{"type":"Point","coordinates":[-121.963638,37.25748]}},{"properties":{"company":"CORSO-GRAY INSTRUMENTS","zip":"95030","latitude":37.256874,"longitude":-121.964027,"id":"afpfl48jwxyv","address":"120 ALBRIGHT WAY"},"type":"Feature","geometry":{"type":"Point","coordinates":[-121.964027,37.256874]}},{"properties":{"company":"HYTEK MICROSYSTEMS INC.","zip":"95030","latitude":37.252731,"longitude":-121.966105,"id":"afpfl4bixd1u","address":"16780 LARK AVE."},"type":"Feature","geometry":{"type":"Point","coordinates":[-121.966105,37.252731]}},{"properties":{"company":"G. S. TEMPRESS","zip":"95030","latitude":37.25135,"longitude":-121.966477,"id":"afpfl4fn9g3s","address":"980 UNIVERSITY AVE."},"type":"Feature","geometry":{"type":"Point","coordinates":[-121.966477,37.25135]}},{"properties":{"company":"EAGLE COMPUTER INC.","zip":"95030","latitude":37.25145,"longitude":-121.966486,"id":"afpfl459ktsx","address":"983 UNIVERSITY AVE."},"type":"Feature","geometry":{"type":"Point","coordinates":[-121.966486,37.25145]}},{"properties":{"company":"IMAGIC","zip":"95030","latitude":37.25135,"longitude":-121.966493,"id":"afpfl4ebiwu8","address":"981 UNIVERSITY AVE."},"type":"Feature","geometry":{"type":"Point","coordinates":[-121.966493,37.25135]}},{"properties":{"company":"MAGNUSON COMPUTER SYS. CORP.","zip":"95134","latitude":37.389849,"longitude":-121.935963,"id":"afpfl46n8490","address":"2902 ORCHARD PKWY."},"type":"Feature","geometry":{"type":"Point","coordinates":[-121.935963,37.389849]}},{"properties":{"company":"PRIAM","zip":"95134","latitude":37.399229,"longitude":-121.930883,"id":"afpfl4egr4el","address":"20 W. MONTAGUE EXPWY."},"type":"Feature","geometry":{"type":"Point","coordinates":[-121.930883,37.399229]}},{"properties":{"company":"LOMAC CORP.","zip":"95134","latitude":37.395109,"longitude":-121.937692,"id":"afpfl4fexbx6","address":"3052 ORCHARD DR."},"type":"Feature","geometry":{"type":"Point","coordinates":[-121.937692,37.395109]}},{"properties":{"company":"SEQUENTIAL CIRCUITS","zip":"95131","latitude":37.395085,"longitude":-121.934628,"id":"afpfl43gyutu","address":"3051 N. 1ST ST."},"type":"Feature","geometry":{"type":"Point","coordinates":[-121.934628,37.395085]}},{"properties":{"company":"VISICORP","zip":"95134","latitude":37.395474,"longitude":-121.929821,"id":"afpfl4ghxufn","address":"2895 ZANKER RD."},"type":"Feature","geometry":{"type":"Point","coordinates":[-121.929821,37.395474]}},{"properties":{"company":"MARGAUX","zip":"95131","latitude":37.392939,"longitude":-121.932789,"id":"afpfl463fnma","address":"2890 N. 1ST ST."},"type":"Feature","geometry":{"type":"Point","coordinates":[-121.932789,37.392939]}},{"properties":{"company":"IMP","zip":"95131","latitude":37.392026,"longitude":-121.932129,"id":"afpfl4aie4zs","address":"2830 N. 1ST ST."},"type":"Feature","geometry":{"type":"Point","coordinates":[-121.932129,37.392026]}},{"properties":{"company":"DURANGO SYSTEMS INC.","zip":"95131","latitude":37.392975,"longitude":-121.933094,"id":"afpfl43gn5tj","address":"3003 N. 1ST ST."},"type":"Feature","geometry":{"type":"Point","coordinates":[-121.933094,37.392975]}},{"properties":{"company":"E.I.P. MICROWAVE","zip":"95131","latitude":37.389036,"longitude":-121.930176,"id":"afpfl4gogug4","address":"2731 N. 1ST ST."},"type":"Feature","geometry":{"type":"Point","coordinates":[-121.930176,37.389036]}},{"properties":{"company":"GENERAL DISK CORP.","zip":"95131","latitude":37.388726,"longitude":-121.929942,"id":"afpfl46ewz22","address":"2719 N. 1ST ST."},"type":"Feature","geometry":{"type":"Point","coordinates":[-121.929942,37.388726]}},{"properties":{"company":"R.T. ASSEMBLERS","zip":"95131","latitude":37.388623,"longitude":-121.929864,"id":"afpfl439jzdn","address":"2715 N. 1ST ST."},"type":"Feature","geometry":{"type":"Point","coordinates":[-121.929864,37.388623]}},{"properties":{"company":"MULTILAYERS INC.","zip":"95134","latitude":37.388933,"longitude":-121.928145,"id":"afpfl4a8witt","address":"62 BONAVENTURA DR."},"type":"Feature","geometry":{"type":"Point","coordinates":[-121.928145,37.388933]}},{"properties":{"company":"SAN JOSE CIRCUITS","zip":"95134","latitude":37.389183,"longitude":-121.927861,"id":"afpfl47jgxsd","address":"86 BONAVENTURA DR."},"type":"Feature","geometry":{"type":"Point","coordinates":[-121.927861,37.389183]}},{"properties":{"company":"AMTRONICS CORP.","zip":"95134","latitude":37.389124,"longitude":-121.925328,"id":"afpfl49xa0pi","address":"2681 ZANKER RD. #A"},"type":"Feature","geometry":{"type":"Point","coordinates":[-121.925328,37.389124]}},{"properties":{"company":"ONYX SYSTEMS","zip":"95134","latitude":37.386448,"longitude":-121.927005,"id":"afpfl49favav","address":"25 TRIMBLE RD."},"type":"Feature","geometry":{"type":"Point","coordinates":[-121.927005,37.386448]}},{"properties":{"company":"AGILE","zip":"95134","latitude":37.386253,"longitude":-121.926988,"id":"afpfl47nl1q5","address":"24 TRIMBLE RD."},"type":"Feature","geometry":{"type":"Point","coordinates":[-121.926988,37.386253]}},{"properties":{"company":"AYDIN MICROWAVE","zip":"95134","latitude":37.387201,"longitude":-121.925734,"id":"afpfl4h32hsy","address":"75 E. TRIMBLE RD."},"type":"Feature","geometry":{"type":"Point","coordinates":[-121.925734,37.387201]}},{"properties":{"company":"CORVUS SYSTEMS INC.","zip":"95134","latitude":37.38719,"longitude":-121.925748,"id":"afpfl41op1f5","address":"73 E. TRIMBLE RD."},"type":"Feature","geometry":{"type":"Point","coordinates":[-121.925748,37.38719]}},{"properties":{"company":"SPECTRA PHYSICS INC.","zip":"95131","latitude":37.402259,"longitude":-121.939845,"id":"afpfl4bi158v","address":"3333 N. 1ST ST."},"type":"Feature","geometry":{"type":"Point","coordinates":[-121.939845,37.402259]}},{"properties":{"company":"FOXBORO/ ICT","zip":"95134","latitude":37.404512,"longitude":-121.934946,"id":"afpfl472oi2j","address":"199 RIVER OAKS PKWY."},"type":"Feature","geometry":{"type":"Point","coordinates":[-121.934946,37.404512]}},{"properties":{"company":"FLUKE AUTOMATED SYSTEMS","zip":"95134","latitude":37.404749,"longitude":-121.933159,"id":"afpfl4c67wtc","address":"211 RIVER OAKS PKWY."},"type":"Feature","geometry":{"type":"Point","coordinates":[-121.933159,37.404749]}},{"properties":{"company":"FINNIGAN CORP","zip":"95134","latitude":37.403625,"longitude":-121.925985,"id":"afpfl4b8x3oy","address":"355 RIVER OAKS PKWY."},"type":"Feature","geometry":{"type":"Point","coordinates":[-121.925985,37.403625]}},{"properties":{"company":"PANTRONIX","zip":"95134","latitude":37.397503,"longitude":-121.92367,"id":"afpfl4cz5hrk","address":"695 RIVER OAKS PKWY."},"type":"Feature","geometry":{"type":"Point","coordinates":[-121.92367,37.397503]}},{"properties":{"company":"SONY BROADCAST TRAINING CTR.","zip":"95134","latitude":37.398178,"longitude":-121.922929,"id":"afpfl4e8xilr","address":"677 RIVER OAKS PKWY."},"type":"Feature","geometry":{"type":"Point","coordinates":[-121.922929,37.398178]}},{"properties":{"company":"EATON SEMICONDUCTOR","zip":"95134","latitude":37.398409,"longitude":-121.922674,"id":"afpfl48pvj62","address":"655 RIVER OAKS PKWY."},"type":"Feature","geometry":{"type":"Point","coordinates":[-121.922674,37.398409]}},{"properties":{"company":"TOLERANT TRANSACTION SYSTEMS","zip":"95134","latitude":37.398136,"longitude":-121.922975,"id":"afpfl4811p3n","address":"681 RIVER OAKS PKWY."},"type":"Feature","geometry":{"type":"Point","coordinates":[-121.922975,37.398136]}},{"properties":{"company":"STRUCTURAL MEASUREMENT SYSTEMS","zip":"95134","latitude":37.398598,"longitude":-121.922458,"id":"afpfl4efeebg","address":"645 RIVER OAKS PKWY."},"type":"Feature","geometry":{"type":"Point","coordinates":[-121.922458,37.398598]}},{"properties":{"company":"QUANTUM CORP.","zip":"95035","latitude":37.401447,"longitude":-121.914518,"id":"afpfl4co0zb1","address":"1804 McCARTHY BLVD."},"type":"Feature","geometry":{"type":"Point","coordinates":[-121.914518,37.401447]}},{"properties":{"company":"SYSTEMS INDUSTRIES","zip":"95035","latitude":37.401395,"longitude":-121.912514,"id":"afpfl4gai6aq","address":"1855 BARBER LANE"},"type":"Feature","geometry":{"type":"Point","coordinates":[-121.912514,37.401395]}},{"properties":{"company":"ROTATING MEMORY SYSTEMS","zip":"95035","latitude":37.403469,"longitude":-121.915761,"id":"afpfl45paw1y","address":"1701 McCARTHY BLVD."},"type":"Feature","geometry":{"type":"Point","coordinates":[-121.915761,37.403469]}},{"properties":{"company":"TRICAD INC.","zip":"95035","latitude":37.404938,"longitude":-121.916998,"id":"afpfl44e7vp1","address":"1655 McCARTHY BLVD."},"type":"Feature","geometry":{"type":"Point","coordinates":[-121.916998,37.404938]}},{"properties":{"company":"ADAPTEC","zip":"95035","latitude":37.405413,"longitude":-121.917561,"id":"afpfl4d22yqv","address":"1625 McCARTHY BLVD."},"type":"Feature","geometry":{"type":"Point","coordinates":[-121.917561,37.405413]}},{"properties":{"company":"L.S.I. LOGIC CORP.","zip":"95035","latitude":37.405759,"longitude":-121.918055,"id":"afpfl426ksww","address":"1601 McCARTHY BLVD."},"type":"Feature","geometry":{"type":"Point","coordinates":[-121.918055,37.405759]}}],"is_temporal":false,"author":{"url":"","metadata":"","contact_name":"","contact_address":"","source":"","contact_phone":""},"source":"","pagination":{"sort":null,"start":0,"total":653,"limit":1000000},"state":"complete","tags":"1983,spatial","published":"2014-08-16T23:08:26-04:00","id":376904}