{"type":"FeatureCollection","data_type":"Dataset","url_type":null,"permissions":[{"permissions":{"download":true,"view":true},"group_id":"everyone"}],"classification":null,"title":"Target_3_sites","count":8,"stream_id":377240,"contributor":{"url":"http://geocommons.com/users/67440","name":"csummer37"},"data_attributes":null,"calculation_params":null,"icon_link":null,"link":"http://geocommons.com/overlays/377240.json","extent":[-87.4932,37.3373,-83.0746,42.2814],"geometry_types":["point"],"unique_name":null,"name":"Target_3_sites","feature_count":8,"description":"","next_feature":null,"is_raster":false,"short_classification":"Y","stats":{},"features":[{"properties":{"name":"Loiudice, Thomas","city":"Akron","clinic":"Akron Gastroenterology Associates, Inc","zip":"41435","geo_score":0.714,"id":"afrkl3vt0kes","address":"224 W. Exchange Street, Suite 410","geo_precision":"zip","state":"Ohio"},"type":"Feature","geometry":{"type":"Point","coordinates":[-83.36157,37.908142]}},{"properties":{"name":"Safdi, Alan","city":"Cincinnati","clinic":"Consultants for Clinical Research","zip":"41428","geo_score":0.857,"id":"afrkl3ux0lcf","address":"2925 Vernon Place, Suite 200","geo_precision":"street","state":"Ohio"},"type":"Feature","geometry":{"type":"Point","coordinates":[-84.5,39.130683]}},{"properties":{"name":"Friedenberg, Keith","city":"Mentor","clinic":"Great Lakes Gastroenterology, LLC","zip":"41444","geo_score":0.714,"id":"afrkl48uuabf","address":"9485 Mentor Ave., Suite 105","geo_precision":"zip","state":"Ohio"},"type":"Feature","geometry":{"type":"Point","coordinates":[-83.074592,37.690636]}},{"properties":{"name":"Gupta, Piush","city":"Dayton","clinic":"Dayton Gastroenterology, Inc.","zip":"41428","geo_score":0.857,"id":"afrkl42seg4z","address":"9000 North Main Street, Suite 405,","geo_precision":"street","state":"Ohio"},"type":"Feature","geometry":{"type":"Point","coordinates":[-84.193174,39.764258]}},{"properties":{"name":"Wo, John","city":"Indianapolis","clinic":"Indiana University","zip":"46202","geo_score":0.629,"id":"afrkl49lwpeq","address":"550 University Blvd, Room 1634, Indiana University Hospital","geo_precision":"street","state":"Indiana"},"type":"Feature","geometry":{"type":"Point","coordinates":[-86.174577,39.769501]}},{"properties":{"name":"Saad, Richard","city":"Ann Arbor","clinic":"University of Michigan Health System","zip":"48109","geo_score":0.594,"id":"afrkl42gteqm","address":"3912 Taubman Center, 1500 E. Medical Center Drive","geo_precision":"street","state":"Michigan"},"type":"Feature","geometry":{"type":"Point","coordinates":[-83.729871,42.281411]}},{"properties":{"name":"Maier, Jon","city":"Anderson","clinic":"The Research Institute at St. Vincent Anderson Regional Hospital","zip":"46016","geo_score":0.603,"id":"afrkl40guwc3","address":"2020 Meridian St., Suite 110","geo_precision":"street","state":"Indiana"},"type":"Feature","geometry":{"type":"Point","coordinates":[-85.685668,40.114563]}},{"properties":{"name":"DaCosta, John","city":"Madisonville","clinic":"Trover Health System Center for Clinical Studies","zip":"42431","geo_score":1.0,"id":"afrkl40ixgi7","address":"200 Clinic Dr","geo_precision":"range","state":"Kentucky"},"type":"Feature","geometry":{"type":"Point","coordinates":[-87.493191,37.337257]}}],"is_temporal":false,"author":{"url":"","metadata":null,"contact_name":null,"contact_address":null,"source":null,"contact_phone":null},"source":"","pagination":{"sort":null,"start":0,"total":8,"limit":1000000},"state":"complete","tags":"","published":"2014-08-16T23:28:59-04:00","id":377240}