{"type":"FeatureCollection","data_type":"Dataset","url_type":null,"permissions":[{"permissions":{"download":true,"view":true},"group_id":"everyone"}],"classification":null,"title":"2010DataCSV2","count":539,"stream_id":377449,"contributor":{"url":"http://geocommons.com/users/43503","name":"melissalantz"},"data_attributes":null,"calculation_params":null,"icon_link":null,"link":"http://geocommons.com/overlays/377449.json","extent":[-73.3801,41.2739,-69.9431,42.8431],"geometry_types":["point"],"unique_name":null,"name":"2010DataCSV2","feature_count":539,"description":"","next_feature":null,"is_raster":false,"short_classification":"Y","stats":{"total":{"max":3381001,"variance":21168903419.8427,"mean":12570.5788497217,"stdev":145495.372503192,"min":0,"median":4285},"total population 15 to 44 years old":{"max":14368,"variance":8149242.97679176,"mean":2520.09107806691,"stdev":2854.68789481298,"min":0,"median":1453}},"features":[{"properties":{"zipcode":"Massachusetts","total":3381001,"geo_score":0.0,"total population 15 to 44 years old":null,"id":"afs64gl88qem","geo_precision":"unmatched"},"type":"Feature","geometry":null},{"properties":{"zipcode":"1001","total":8924,"geo_score":0.714,"total population 15 to 44 years old":2863,"id":"afs64goj2iwk","geo_precision":"zip"},"type":"Feature","geometry":{"type":"Point","coordinates":[-72.788661,42.140549]}},{"properties":{"zipcode":"1002","total":15099,"geo_score":0.714,"total population 15 to 44 years old":8652,"id":"afs64gqoqhg4","geo_precision":"zip"},"type":"Feature","geometry":{"type":"Point","coordinates":[-72.470364,42.377868]}},{"properties":{"zipcode":"1003","total":5047,"geo_score":0.714,"total population 15 to 44 years old":5042,"id":"afs64gnt00as","geo_precision":"zip"},"type":"Feature","geometry":{"type":"Point","coordinates":[-72.63599,42.369562]}},{"properties":{"zipcode":"1005","total":2509,"geo_score":0.714,"total population 15 to 44 years old":925,"id":"afs64gtc41jt","geo_precision":"zip"},"type":"Feature","geometry":{"type":"Point","coordinates":[-72.139465,42.32916]}},{"properties":{"zipcode":"1007","total":7516,"geo_score":0.714,"total population 15 to 44 years old":2713,"id":"afs64gn3newn","geo_precision":"zip"},"type":"Feature","geometry":{"type":"Point","coordinates":[-72.402056,42.280267]}},{"properties":{"zipcode":"1008","total":610,"geo_score":0.714,"total population 15 to 44 years old":199,"id":"afs64h07uve8","geo_precision":"zip"},"type":"Feature","geometry":{"type":"Point","coordinates":[-72.981491,42.210368]}},{"properties":{"zipcode":"1009","total":355,"geo_score":0.714,"total population 15 to 44 years old":148,"id":"afs64gm3f82r","geo_precision":"zip"},"type":"Feature","geometry":{"type":"Point","coordinates":[-72.340486,42.206092]}},{"properties":{"zipcode":"1010","total":1819,"geo_score":0.714,"total population 15 to 44 years old":611,"id":"afs64h0s8dnq","geo_precision":"zip"},"type":"Feature","geometry":{"type":"Point","coordinates":[-72.148411,42.111206]}},{"properties":{"zipcode":"1011","total":664,"geo_score":0.714,"total population 15 to 44 years old":205,"id":"afs64gsmjutk","geo_precision":"zip"},"type":"Feature","geometry":{"type":"Point","coordinates":[-73.063436,42.283421]}},{"properties":{"zipcode":"1012","total":327,"geo_score":0.714,"total population 15 to 44 years old":97,"id":"afs64gt9me4m","geo_precision":"zip"},"type":"Feature","geometry":{"type":"Point","coordinates":[-72.825607,42.392274]}},{"properties":{"zipcode":"1013","total":12286,"geo_score":0.714,"total population 15 to 44 years old":5119,"id":"afs64gr5jhf0","geo_precision":"zip"},"type":"Feature","geometry":{"type":"Point","coordinates":[-72.667341,42.161492]}},{"properties":{"zipcode":"1020","total":15315,"geo_score":0.714,"total population 15 to 44 years old":5542,"id":"afs64gsgb13u","geo_precision":"zip"},"type":"Feature","geometry":{"type":"Point","coordinates":[-72.562563,42.177492]}},{"properties":{"zipcode":"1022","total":1295,"geo_score":0.714,"total population 15 to 44 years old":524,"id":"afs64gtg594k","geo_precision":"zip"},"type":"Feature","geometry":{"type":"Point","coordinates":[-72.55436,42.193392]}},{"properties":{"zipcode":"1026","total":474,"geo_score":0.714,"total population 15 to 44 years old":148,"id":"afs64grwpv96","geo_precision":"zip"},"type":"Feature","geometry":{"type":"Point","coordinates":[-72.857873,42.447309]}},{"properties":{"zipcode":"1027","total":9258,"geo_score":0.714,"total population 15 to 44 years old":3400,"id":"afs64gvxuqj7","geo_precision":"zip"},"type":"Feature","geometry":{"type":"Point","coordinates":[-72.737593,42.287589]}},{"properties":{"zipcode":"1028","total":8319,"geo_score":0.714,"total population 15 to 44 years old":2547,"id":"afs64gwnu6g6","geo_precision":"zip"},"type":"Feature","geometry":{"type":"Point","coordinates":[-72.470363,42.047318]}},{"properties":{"zipcode":"1029","total":377,"geo_score":0.714,"total population 15 to 44 years old":112,"id":"afs64gt810vy","geo_precision":"zip"},"type":"Feature","geometry":{"type":"Point","coordinates":[-73.051661,42.190904]}},{"properties":{"zipcode":"1030","total":5922,"geo_score":0.714,"total population 15 to 44 years old":2042,"id":"afs64guam1b5","geo_precision":"zip"},"type":"Feature","geometry":{"type":"Point","coordinates":[-72.79774,42.189335]}},{"properties":{"zipcode":"1031","total":652,"geo_score":0.714,"total population 15 to 44 years old":258,"id":"afs64gwu8q8i","geo_precision":"zip"},"type":"Feature","geometry":{"type":"Point","coordinates":[-72.205724,42.352554]}},{"properties":{"zipcode":"1032","total":293,"geo_score":0.714,"total population 15 to 44 years old":84,"id":"afs64gt0n9bt","geo_precision":"zip"},"type":"Feature","geometry":{"type":"Point","coordinates":[-72.819446,42.443837]}},{"properties":{"zipcode":"1033","total":3150,"geo_score":0.714,"total population 15 to 44 years old":1133,"id":"afs64gw5az0o","geo_precision":"zip"},"type":"Feature","geometry":{"type":"Point","coordinates":[-72.504086,42.262285]}},{"properties":{"zipcode":"1034","total":1002,"geo_score":0.714,"total population 15 to 44 years old":326,"id":"afs64gp3f0e6","geo_precision":"zip"},"type":"Feature","geometry":{"type":"Point","coordinates":[-72.87871,42.067316]}},{"properties":{"zipcode":"1035","total":2743,"geo_score":0.714,"total population 15 to 44 years old":872,"id":"afs64gxpw5jy","geo_precision":"zip"},"type":"Feature","geometry":{"type":"Point","coordinates":[-72.576613,42.356804]}},{"properties":{"zipcode":"1036","total":2625,"geo_score":0.714,"total population 15 to 44 years old":750,"id":"afs64gni92tm","geo_precision":"zip"},"type":"Feature","geometry":{"type":"Point","coordinates":[-72.417507,42.067614]}},{"properties":{"zipcode":"1037","total":398,"geo_score":0.714,"total population 15 to 44 years old":186,"id":"afs64gthivfb","geo_precision":"zip"},"type":"Feature","geometry":{"type":"Point","coordinates":[-72.225251,42.347856]}},{"properties":{"zipcode":"1038","total":1320,"geo_score":0.714,"total population 15 to 44 years old":402,"id":"afs64grcvtmn","geo_precision":"zip"},"type":"Feature","geometry":{"type":"Point","coordinates":[-72.591756,42.410644]}},{"properties":{"zipcode":"1039","total":718,"geo_score":0.714,"total population 15 to 44 years old":208,"id":"afs64gqno1mg","geo_precision":"zip"},"type":"Feature","geometry":{"type":"Point","coordinates":[-72.680925,42.271757]}},{"properties":{"zipcode":"1040","total":21179,"geo_score":0.714,"total population 15 to 44 years old":8555,"id":"afs64gnt5lmp","geo_precision":"zip"},"type":"Feature","geometry":{"type":"Point","coordinates":[-72.620368,42.222314]}},{"properties":{"zipcode":"1050","total":1258,"geo_score":0.714,"total population 15 to 44 years old":460,"id":"afs64gpeb3ux","geo_precision":"zip"},"type":"Feature","geometry":{"type":"Point","coordinates":[-72.873153,42.262589]}},{"properties":{"zipcode":"1053","total":845,"geo_score":0.714,"total population 15 to 44 years old":199,"id":"afs64gunbor7","geo_precision":"zip"},"type":"Feature","geometry":{"type":"Point","coordinates":[-72.704385,42.353838]}},{"properties":{"zipcode":"1054","total":929,"geo_score":0.714,"total population 15 to 44 years old":270,"id":"afs64gqht18q","geo_precision":"zip"},"type":"Feature","geometry":{"type":"Point","coordinates":[-72.480087,42.439811]}},{"properties":{"zipcode":"1056","total":10264,"geo_score":0.714,"total population 15 to 44 years old":3433,"id":"afs64gxve4o9","geo_precision":"zip"},"type":"Feature","geometry":{"type":"Point","coordinates":[-72.627038,42.173276]}},{"properties":{"zipcode":"1057","total":4354,"geo_score":0.714,"total population 15 to 44 years old":1493,"id":"afs64gwevbsk","geo_precision":"zip"},"type":"Feature","geometry":{"type":"Point","coordinates":[-72.310636,42.091761]}},{"properties":{"zipcode":"1060","total":9073,"geo_score":0.714,"total population 15 to 44 years old":4959,"id":"afs64gsj5ffn","geo_precision":"zip"},"type":"Feature","geometry":{"type":"Point","coordinates":[-72.663424,42.322312]}},{"properties":{"zipcode":"1062","total":5890,"geo_score":0.714,"total population 15 to 44 years old":1888,"id":"afs64gqmuhv0","geo_precision":"zip"},"type":"Feature","geometry":{"type":"Point","coordinates":[-72.845227,42.328838]}},{"properties":{"zipcode":"1063","total":429,"geo_score":0.714,"total population 15 to 44 years old":425,"id":"afs64gq4wox2","geo_precision":"zip"},"type":"Feature","geometry":{"type":"Point","coordinates":[-72.640234,42.317939]}},{"properties":{"zipcode":"1066","total":34,"geo_score":0.714,"total population 15 to 44 years old":10,"id":"afs64gpm1gtj","geo_precision":"zip"},"type":"Feature","geometry":{"type":"Point","coordinates":[-72.633901,42.406697]}},{"properties":{"zipcode":"1068","total":947,"geo_score":0.714,"total population 15 to 44 years old":334,"id":"afs64gu3oxhz","geo_precision":"zip"},"type":"Feature","geometry":{"type":"Point","coordinates":[-72.058847,42.346144]}},{"properties":{"zipcode":"1069","total":4241,"geo_score":0.714,"total population 15 to 44 years old":1502,"id":"afs64gq7utjq","geo_precision":"zip"},"type":"Feature","geometry":{"type":"Point","coordinates":[-72.260635,42.175649]}},{"properties":{"zipcode":"1070","total":315,"geo_score":0.714,"total population 15 to 44 years old":89,"id":"afs64gtcm6z2","geo_precision":"zip"},"type":"Feature","geometry":{"type":"Point","coordinates":[-72.958397,42.448984]}},{"properties":{"zipcode":"1071","total":810,"geo_score":0.714,"total population 15 to 44 years old":270,"id":"afs64gunkv17","geo_precision":"zip"},"type":"Feature","geometry":{"type":"Point","coordinates":[-72.864558,42.177432]}},{"properties":{"zipcode":"1072","total":774,"geo_score":0.714,"total population 15 to 44 years old":233,"id":"afs64gvgsf3o","geo_precision":"zip"},"type":"Feature","geometry":{"type":"Point","coordinates":[-72.44017,42.471562]}},{"properties":{"zipcode":"1073","total":2984,"geo_score":0.714,"total population 15 to 44 years old":1000,"id":"afs64gxpl6qx","geo_precision":"zip"},"type":"Feature","geometry":{"type":"Point","coordinates":[-72.728463,42.230008]}},{"properties":{"zipcode":"1074","total":162,"geo_score":0.714,"total population 15 to 44 years old":72,"id":"afs64gy9vm5m","geo_precision":"zip"},"type":"Feature","geometry":{"type":"Point","coordinates":[-72.149388,42.375998]}},{"properties":{"zipcode":"1075","total":10344,"geo_score":0.714,"total population 15 to 44 years old":4794,"id":"afs64go14u0j","geo_precision":"zip"},"type":"Feature","geometry":{"type":"Point","coordinates":[-72.558699,42.280647]}},{"properties":{"zipcode":"1077","total":4788,"geo_score":0.714,"total population 15 to 44 years old":1602,"id":"afs64gkn7c7w","geo_precision":"zip"},"type":"Feature","geometry":{"type":"Point","coordinates":[-72.785651,42.025651]}},{"properties":{"zipcode":"1079","total":342,"geo_score":0.714,"total population 15 to 44 years old":130,"id":"afs64gyjunxx","geo_precision":"zip"},"type":"Feature","geometry":{"type":"Point","coordinates":[-72.329574,42.192892]}},{"properties":{"zipcode":"1080","total":1216,"geo_score":0.714,"total population 15 to 44 years old":472,"id":"afs64gocykr5","geo_precision":"zip"},"type":"Feature","geometry":{"type":"Point","coordinates":[-72.517813,42.179805]}},{"properties":{"zipcode":"1081","total":841,"geo_score":0.714,"total population 15 to 44 years old":282,"id":"afs64gsyek4s","geo_precision":"zip"},"type":"Feature","geometry":{"type":"Point","coordinates":[-72.213598,42.061948]}},{"properties":{"zipcode":"1082","total":5237,"geo_score":0.714,"total population 15 to 44 years old":1887,"id":"afs64gzcnccm","geo_precision":"zip"},"type":"Feature","geometry":{"type":"Point","coordinates":[-72.548549,42.377471]}},{"properties":{"zipcode":"1083","total":1450,"geo_score":0.714,"total population 15 to 44 years old":554,"id":"afs64gkomcbp","geo_precision":"zip"},"type":"Feature","geometry":{"type":"Point","coordinates":[-72.199439,42.204027]}},{"properties":{"zipcode":"1084","total":86,"geo_score":0.714,"total population 15 to 44 years old":22,"id":"afs64gqz7a7c","geo_precision":"zip"},"type":"Feature","geometry":{"type":"Point","coordinates":[-72.870857,42.390303]}},{"properties":{"zipcode":"1085","total":21006,"geo_score":0.714,"total population 15 to 44 years old":8293,"id":"afs64gkuvhxr","geo_precision":"zip"},"type":"Feature","geometry":{"type":"Point","coordinates":[-72.501887,42.14869]}},{"properties":{"zipcode":"1086","total":349,"geo_score":0.714,"total population 15 to 44 years old":349,"id":"afs64gv6seax","geo_precision":"zip"},"type":"Feature","geometry":{"type":"Point","coordinates":[-72.847964,42.173428]}},{"properties":{"zipcode":"1088","total":326,"geo_score":0.714,"total population 15 to 44 years old":97,"id":"afs64gvb962o","geo_precision":"zip"},"type":"Feature","geometry":{"type":"Point","coordinates":[-72.646894,42.390583]}},{"properties":{"zipcode":"1089","total":14537,"geo_score":0.714,"total population 15 to 44 years old":5519,"id":"afs64gox8gql","geo_precision":"zip"},"type":"Feature","geometry":{"type":"Point","coordinates":[-72.624534,42.11676]}},{"properties":{"zipcode":"1092","total":696,"geo_score":0.714,"total population 15 to 44 years old":295,"id":"afs64god5cok","geo_precision":"zip"},"type":"Feature","geometry":{"type":"Point","coordinates":[-72.229025,42.202887]}},{"properties":{"zipcode":"1093","total":163,"geo_score":0.714,"total population 15 to 44 years old":44,"id":"afs64gv10tf2","geo_precision":"zip"},"type":"Feature","geometry":{"type":"Point","coordinates":[-72.652511,42.442673]}},{"properties":{"zipcode":"1094","total":201,"geo_score":0.714,"total population 15 to 44 years old":60,"id":"afs64gpnem3u","geo_precision":"zip"},"type":"Feature","geometry":{"type":"Point","coordinates":[-72.140846,42.358201]}},{"properties":{"zipcode":"1095","total":7537,"geo_score":0.714,"total population 15 to 44 years old":2202,"id":"afs64gl1jdpj","geo_precision":"zip"},"type":"Feature","geometry":{"type":"Point","coordinates":[-72.489988,42.125974]}},{"properties":{"zipcode":"1096","total":1164,"geo_score":0.714,"total population 15 to 44 years old":359,"id":"afs64gxdjy0f","geo_precision":"zip"},"type":"Feature","geometry":{"type":"Point","coordinates":[-72.74537,42.400921]}},{"properties":{"zipcode":"1097","total":60,"geo_score":0.714,"total population 15 to 44 years old":29,"id":"afs64gtc1ynq","geo_precision":"zip"},"type":"Feature","geometry":{"type":"Point","coordinates":[-72.874543,42.159814]}},{"properties":{"zipcode":"1098","total":558,"geo_score":0.714,"total population 15 to 44 years old":141,"id":"afs64gornac1","geo_precision":"zip"},"type":"Feature","geometry":{"type":"Point","coordinates":[-72.986488,42.423142]}},{"properties":{"zipcode":"1103","total":1283,"geo_score":0.714,"total population 15 to 44 years old":584,"id":"afs64gypdspv","geo_precision":"zip"},"type":"Feature","geometry":{"type":"Point","coordinates":[-72.590783,42.103044]}},{"properties":{"zipcode":"1104","total":12006,"geo_score":0.714,"total population 15 to 44 years old":4851,"id":"afs64gwnqffc","geo_precision":"zip"},"type":"Feature","geometry":{"type":"Point","coordinates":[-72.567966,42.128605]}},{"properties":{"zipcode":"1105","total":6430,"geo_score":0.714,"total population 15 to 44 years old":2984,"id":"afs64gsrncm6","geo_precision":"zip"},"type":"Feature","geometry":{"type":"Point","coordinates":[-72.577732,42.099793]}},{"properties":{"zipcode":"1106","total":8534,"geo_score":0.714,"total population 15 to 44 years old":2547,"id":"afs64h0so7p3","geo_precision":"zip"},"type":"Feature","geometry":{"type":"Point","coordinates":[-72.567882,42.049194]}},{"properties":{"zipcode":"1107","total":6088,"geo_score":0.714,"total population 15 to 44 years old":2731,"id":"afs64gks2dif","geo_precision":"zip"},"type":"Feature","geometry":{"type":"Point","coordinates":[-72.586733,42.126237]}},{"properties":{"zipcode":"1108","total":13938,"geo_score":0.714,"total population 15 to 44 years old":6205,"id":"afs64gwoqaqm","geo_precision":"zip"},"type":"Feature","geometry":{"type":"Point","coordinates":[-72.558081,42.080594]}},{"properties":{"zipcode":"1109","total":16029,"geo_score":0.714,"total population 15 to 44 years old":7529,"id":"afs64gn4yhr6","geo_precision":"zip"},"type":"Feature","geometry":{"type":"Point","coordinates":[-72.548981,42.119293]}},{"properties":{"zipcode":"1118","total":7605,"geo_score":0.714,"total population 15 to 44 years old":2847,"id":"afs64go3xrp9","geo_precision":"zip"},"type":"Feature","geometry":{"type":"Point","coordinates":[-72.523227,42.093894]}},{"properties":{"zipcode":"1119","total":7392,"geo_score":0.714,"total population 15 to 44 years old":3290,"id":"afs64gu4n05l","geo_precision":"zip"},"type":"Feature","geometry":{"type":"Point","coordinates":[-72.526705,42.124943]}},{"properties":{"zipcode":"1128","total":1300,"geo_score":0.714,"total population 15 to 44 years old":450,"id":"afs64gop3jhv","geo_precision":"zip"},"type":"Feature","geometry":{"type":"Point","coordinates":[-72.487229,42.094616]}},{"properties":{"zipcode":"1129","total":3706,"geo_score":0.714,"total population 15 to 44 years old":1347,"id":"afs64grwrokn","geo_precision":"zip"},"type":"Feature","geometry":{"type":"Point","coordinates":[-72.489479,42.124485]}},{"properties":{"zipcode":"1151","total":4570,"geo_score":0.714,"total population 15 to 44 years old":2002,"id":"afs64gppyi2k","geo_precision":"zip"},"type":"Feature","geometry":{"type":"Point","coordinates":[-72.51278,42.150593]}},{"properties":{"zipcode":"1199","total":0,"geo_score":0.714,"total population 15 to 44 years old":0,"id":"afs64gw6wd7p","geo_precision":"zip"},"type":"Feature","geometry":{"type":"Point","coordinates":[-72.604983,42.119943]}},{"properties":{"zipcode":"1201","total":24177,"geo_score":0.714,"total population 15 to 44 years old":8383,"id":"afs64gro70ju","geo_precision":"zip"},"type":"Feature","geometry":{"type":"Point","coordinates":[-73.331219,42.39953]}},{"properties":{"zipcode":"1220","total":4455,"geo_score":0.714,"total population 15 to 44 years old":1523,"id":"afs64gltbv7b","geo_precision":"zip"},"type":"Feature","geometry":{"type":"Point","coordinates":[-73.141492,42.593972]}},{"properties":{"zipcode":"1222","total":429,"geo_score":0.714,"total population 15 to 44 years old":137,"id":"afs64gnniwrh","geo_precision":"zip"},"type":"Feature","geometry":{"type":"Point","coordinates":[-73.318695,42.185969]}},{"properties":{"zipcode":"1223","total":1146,"geo_score":0.714,"total population 15 to 44 years old":354,"id":"afs64gxmof1o","geo_precision":"zip"},"type":"Feature","geometry":{"type":"Point","coordinates":[-73.103468,42.3418]}},{"properties":{"zipcode":"1224","total":89,"geo_score":0.714,"total population 15 to 44 years old":27,"id":"afs64gzn60ds","geo_precision":"zip"},"type":"Feature","geometry":{"type":"Point","coordinates":[-73.228483,42.3929]}},{"properties":{"zipcode":"1225","total":1538,"geo_score":0.714,"total population 15 to 44 years old":490,"id":"afs64gxw561z","geo_precision":"zip"},"type":"Feature","geometry":{"type":"Point","coordinates":[-73.185659,42.54175]}},{"properties":{"zipcode":"1226","total":3614,"geo_score":0.714,"total population 15 to 44 years old":1150,"id":"afs64gmqchn2","geo_precision":"zip"},"type":"Feature","geometry":{"type":"Point","coordinates":[-73.187881,42.451752]}},{"properties":{"zipcode":"1229","total":55,"geo_score":0.714,"total population 15 to 44 years old":7,"id":"afs64goga8lz","geo_precision":"zip"},"type":"Feature","geometry":{"type":"Point","coordinates":[-73.343545,42.279292]}},{"properties":{"zipcode":"1230","total":4377,"geo_score":0.714,"total population 15 to 44 years old":1386,"id":"afs64gmnnf6x","geo_precision":"zip"},"type":"Feature","geometry":{"type":"Point","coordinates":[-73.258443,42.159812]}},{"properties":{"zipcode":"1235","total":1365,"geo_score":0.714,"total population 15 to 44 years old":467,"id":"afs64gkp83p9","geo_precision":"zip"},"type":"Feature","geometry":{"type":"Point","coordinates":[-73.22164,42.29237]}},{"properties":{"zipcode":"1236","total":785,"geo_score":0.714,"total population 15 to 44 years old":240,"id":"afs64gudyl40","geo_precision":"zip"},"type":"Feature","geometry":{"type":"Point","coordinates":[-73.380111,42.265366]}},{"properties":{"zipcode":"1237","total":1243,"geo_score":0.714,"total population 15 to 44 years old":377,"id":"afs64gyqytp9","geo_precision":"zip"},"type":"Feature","geometry":{"type":"Point","coordinates":[-73.22816,42.517306]}},{"properties":{"zipcode":"1238","total":3141,"geo_score":0.714,"total population 15 to 44 years old":1009,"id":"afs64gwl08ut","geo_precision":"zip"},"type":"Feature","geometry":{"type":"Point","coordinates":[-73.267465,42.369856]}},{"properties":{"zipcode":"1240","total":2490,"geo_score":0.714,"total population 15 to 44 years old":571,"id":"afs64grqs6q6","geo_precision":"zip"},"type":"Feature","geometry":{"type":"Point","coordinates":[-73.219858,42.459202]}},{"properties":{"zipcode":"1242","total":252,"geo_score":0.714,"total population 15 to 44 years old":89,"id":"afs64gzyedy6","geo_precision":"zip"},"type":"Feature","geometry":{"type":"Point","coordinates":[-73.250891,42.338594]}},{"properties":{"zipcode":"1243","total":168,"geo_score":0.714,"total population 15 to 44 years old":46,"id":"afs64gm085km","geo_precision":"zip"},"type":"Feature","geometry":{"type":"Point","coordinates":[-73.010448,42.356088]}},{"properties":{"zipcode":"1244","total":74,"geo_score":0.714,"total population 15 to 44 years old":27,"id":"afs64gnw1bmb","geo_precision":"zip"},"type":"Feature","geometry":{"type":"Point","coordinates":[-73.253983,42.122827]}},{"properties":{"zipcode":"1245","total":508,"geo_score":0.714,"total population 15 to 44 years old":124,"id":"afs64gn80a2u","geo_precision":"zip"},"type":"Feature","geometry":{"type":"Point","coordinates":[-73.206498,42.18669]}},{"properties":{"zipcode":"1247","total":8415,"geo_score":0.714,"total population 15 to 44 years old":3324,"id":"afs64gp0y2hd","geo_precision":"zip"},"type":"Feature","geometry":{"type":"Point","coordinates":[-73.151494,42.69647]}},{"properties":{"zipcode":"1253","total":371,"geo_score":0.714,"total population 15 to 44 years old":122,"id":"afs64gwhewuu","geo_precision":"zip"},"type":"Feature","geometry":{"type":"Point","coordinates":[-73.07455,42.154257]}},{"properties":{"zipcode":"1254","total":508,"geo_score":0.714,"total population 15 to 44 years old":116,"id":"afs64h09d82y","geo_precision":"zip"},"type":"Feature","geometry":{"type":"Point","coordinates":[-73.238358,42.233105]}},{"properties":{"zipcode":"1255","total":425,"geo_score":0.714,"total population 15 to 44 years old":123,"id":"afs64gulyow8","geo_precision":"zip"},"type":"Feature","geometry":{"type":"Point","coordinates":[-73.072607,42.079259]}},{"properties":{"zipcode":"1256","total":341,"geo_score":0.714,"total population 15 to 44 years old":107,"id":"afs64gri83cw","geo_precision":"zip"},"type":"Feature","geometry":{"type":"Point","coordinates":[-73.128528,42.367341]}},{"properties":{"zipcode":"1257","total":1066,"geo_score":0.714,"total population 15 to 44 years old":283,"id":"afs64gyjolns","geo_precision":"zip"},"type":"Feature","geometry":{"type":"Point","coordinates":[-73.267694,42.314564]}},{"properties":{"zipcode":"1258","total":197,"geo_score":0.714,"total population 15 to 44 years old":41,"id":"afs64go3og4f","geo_precision":"zip"},"type":"Feature","geometry":{"type":"Point","coordinates":[-73.36089,42.128075]}},{"properties":{"zipcode":"1259","total":317,"geo_score":0.714,"total population 15 to 44 years old":83,"id":"afs64gts91q2","geo_precision":"zip"},"type":"Feature","geometry":{"type":"Point","coordinates":[-73.278543,42.198712]}},{"properties":{"zipcode":"1260","total":125,"geo_score":0.714,"total population 15 to 44 years old":33,"id":"afs64gnqznso","geo_precision":"zip"},"type":"Feature","geometry":{"type":"Point","coordinates":[-73.313274,42.286586]}},{"properties":{"zipcode":"1262","total":662,"geo_score":0.714,"total population 15 to 44 years old":193,"id":"afs64gqx81qe","geo_precision":"zip"},"type":"Feature","geometry":{"type":"Point","coordinates":[-73.320386,42.325087]}},{"properties":{"zipcode":"1264","total":75,"geo_score":0.714,"total population 15 to 44 years old":14,"id":"afs64grk7zn7","geo_precision":"zip"},"type":"Feature","geometry":{"type":"Point","coordinates":[-73.197865,42.220001]}},{"properties":{"zipcode":"1266","total":760,"geo_score":0.714,"total population 15 to 44 years old":186,"id":"afs64gwfrzvs","geo_precision":"zip"},"type":"Feature","geometry":{"type":"Point","coordinates":[-73.265354,42.360482]}},{"properties":{"zipcode":"1267","total":4253,"geo_score":0.714,"total population 15 to 44 years old":1831,"id":"afs64gll8hw4","geo_precision":"zip"},"type":"Feature","geometry":{"type":"Point","coordinates":[-73.197607,42.730914]}},{"properties":{"zipcode":"1270","total":381,"geo_score":0.714,"total population 15 to 44 years old":107,"id":"afs64h0k5yt1","geo_precision":"zip"},"type":"Feature","geometry":{"type":"Point","coordinates":[-73.116127,42.443726]}},{"properties":{"zipcode":"1301","total":9272,"geo_score":0.714,"total population 15 to 44 years old":3295,"id":"afs64gxkmgxo","geo_precision":"zip"},"type":"Feature","geometry":{"type":"Point","coordinates":[-72.581478,42.575086]}},{"properties":{"zipcode":"1330","total":769,"geo_score":0.714,"total population 15 to 44 years old":215,"id":"afs64gyyyqb3","geo_precision":"zip"},"type":"Feature","geometry":{"type":"Point","coordinates":[-72.776481,42.510641]}},{"properties":{"zipcode":"1331","total":6716,"geo_score":0.714,"total population 15 to 44 years old":2442,"id":"afs64h0yks9s","geo_precision":"zip"},"type":"Feature","geometry":{"type":"Point","coordinates":[-72.22925,42.63342]}},{"properties":{"zipcode":"1337","total":1296,"geo_score":0.714,"total population 15 to 44 years old":387,"id":"afs64gv5x967","geo_precision":"zip"},"type":"Feature","geometry":{"type":"Point","coordinates":[-72.664814,42.701473]}},{"properties":{"zipcode":"1338","total":95,"geo_score":0.714,"total population 15 to 44 years old":28,"id":"afs64gxjawq9","geo_precision":"zip"},"type":"Feature","geometry":{"type":"Point","coordinates":[-72.769487,42.573832]}},{"properties":{"zipcode":"1339","total":713,"geo_score":0.714,"total population 15 to 44 years old":223,"id":"afs64glxssv6","geo_precision":"zip"},"type":"Feature","geometry":{"type":"Point","coordinates":[-72.877873,42.564529]}},{"properties":{"zipcode":"1340","total":823,"geo_score":0.714,"total population 15 to 44 years old":269,"id":"afs64gzm3rej","geo_precision":"zip"},"type":"Feature","geometry":{"type":"Point","coordinates":[-72.71537,42.672306]}},{"properties":{"zipcode":"1341","total":935,"geo_score":0.714,"total population 15 to 44 years old":282,"id":"afs64h0msrm3","geo_precision":"zip"},"type":"Feature","geometry":{"type":"Point","coordinates":[-72.712035,42.506475]}},{"properties":{"zipcode":"1342","total":719,"geo_score":0.714,"total population 15 to 44 years old":233,"id":"afs64gog4goh","geo_precision":"zip"},"type":"Feature","geometry":{"type":"Point","coordinates":[-72.607867,42.525087]}},{"properties":{"zipcode":"1343","total":39,"geo_score":0.714,"total population 15 to 44 years old":12,"id":"afs64gybxig1","geo_precision":"zip"},"type":"Feature","geometry":{"type":"Point","coordinates":[-72.986231,42.642666]}},{"properties":{"zipcode":"1344","total":764,"geo_score":0.714,"total population 15 to 44 years old":264,"id":"afs64grmef6r","geo_precision":"zip"},"type":"Feature","geometry":{"type":"Point","coordinates":[-72.382864,42.59592]}},{"properties":{"zipcode":"1346","total":262,"geo_score":0.714,"total population 15 to 44 years old":76,"id":"afs64gklp624","geo_precision":"zip"},"type":"Feature","geometry":{"type":"Point","coordinates":[-72.788896,42.618011]}},{"properties":{"zipcode":"1347","total":82,"geo_score":0.714,"total population 15 to 44 years old":29,"id":"afs64gkqqu96","geo_precision":"zip"},"type":"Feature","geometry":{"type":"Point","coordinates":[-72.518104,42.556558]}},{"properties":{"zipcode":"1349","total":563,"geo_score":0.714,"total population 15 to 44 years old":224,"id":"afs64glcgof6","geo_precision":"zip"},"type":"Feature","geometry":{"type":"Point","coordinates":[-72.705633,42.621412]}},{"properties":{"zipcode":"1350","total":59,"geo_score":0.714,"total population 15 to 44 years old":22,"id":"afs64gq7h1o3","geo_precision":"zip"},"type":"Feature","geometry":{"type":"Point","coordinates":[-72.976204,42.721456]}},{"properties":{"zipcode":"1351","total":1170,"geo_score":0.714,"total population 15 to 44 years old":404,"id":"afs64gra4tyx","geo_precision":"zip"},"type":"Feature","geometry":{"type":"Point","coordinates":[-72.48693,42.548107]}},{"properties":{"zipcode":"1354","total":754,"geo_score":0.714,"total population 15 to 44 years old":232,"id":"afs64gr0nqmd","geo_precision":"zip"},"type":"Feature","geometry":{"type":"Point","coordinates":[-72.485366,42.66814]}},{"properties":{"zipcode":"1355","total":431,"geo_score":0.714,"total population 15 to 44 years old":131,"id":"afs64gw7reyk","geo_precision":"zip"},"type":"Feature","geometry":{"type":"Point","coordinates":[-72.372585,42.463145]}},{"properties":{"zipcode":"1360","total":1534,"geo_score":0.714,"total population 15 to 44 years old":483,"id":"afs64gmkqqmt","geo_precision":"zip"},"type":"Feature","geometry":{"type":"Point","coordinates":[-72.438421,42.69314]}},{"properties":{"zipcode":"1364","total":4093,"geo_score":0.714,"total population 15 to 44 years old":1434,"id":"afs64gyzk0mb","geo_precision":"zip"},"type":"Feature","geometry":{"type":"Point","coordinates":[-72.318973,42.545921]}},{"properties":{"zipcode":"1366","total":625,"geo_score":0.714,"total population 15 to 44 years old":176,"id":"afs64gxg1hwe","geo_precision":"zip"},"type":"Feature","geometry":{"type":"Point","coordinates":[-72.182962,42.459632]}},{"properties":{"zipcode":"1367","total":264,"geo_score":0.714,"total population 15 to 44 years old":68,"id":"afs64gss1gfw","geo_precision":"zip"},"type":"Feature","geometry":{"type":"Point","coordinates":[-72.715667,42.683065]}},{"properties":{"zipcode":"1368","total":633,"geo_score":0.714,"total population 15 to 44 years old":200,"id":"afs64gv4z4pp","geo_precision":"zip"},"type":"Feature","geometry":{"type":"Point","coordinates":[-72.196376,42.672182]}},{"properties":{"zipcode":"1370","total":2111,"geo_score":0.714,"total population 15 to 44 years old":660,"id":"afs64gsalx1t","geo_precision":"zip"},"type":"Feature","geometry":{"type":"Point","coordinates":[-72.688424,42.589807]}},{"properties":{"zipcode":"1373","total":2378,"geo_score":0.714,"total population 15 to 44 years old":754,"id":"afs64guy3dlf","geo_precision":"zip"},"type":"Feature","geometry":{"type":"Point","coordinates":[-72.682346,42.464522]}},{"properties":{"zipcode":"1375","total":1871,"geo_score":0.714,"total population 15 to 44 years old":937,"id":"afs64gwusrow","geo_precision":"zip"},"type":"Feature","geometry":{"type":"Point","coordinates":[-72.70094,42.565346]}},{"properties":{"zipcode":"1376","total":2689,"geo_score":0.714,"total population 15 to 44 years old":995,"id":"afs64gvcgci5","geo_precision":"zip"},"type":"Feature","geometry":{"type":"Point","coordinates":[-72.546755,42.611197]}},{"properties":{"zipcode":"1378","total":389,"geo_score":0.714,"total population 15 to 44 years old":116,"id":"afs64gub3f3n","geo_precision":"zip"},"type":"Feature","geometry":{"type":"Point","coordinates":[-72.339655,42.667059]}},{"properties":{"zipcode":"1379","total":409,"geo_score":0.714,"total population 15 to 44 years old":132,"id":"afs64gvd8cwd","geo_precision":"zip"},"type":"Feature","geometry":{"type":"Point","coordinates":[-72.437179,42.581007]}},{"properties":{"zipcode":"1420","total":20735,"geo_score":0.714,"total population 15 to 44 years old":8946,"id":"afs64gzdkn65","geo_precision":"zip"},"type":"Feature","geometry":{"type":"Point","coordinates":[-71.782851,42.564534]}},{"properties":{"zipcode":"1430","total":2998,"geo_score":0.714,"total population 15 to 44 years old":1111,"id":"afs64gm2weyo","geo_precision":"zip"},"type":"Feature","geometry":{"type":"Point","coordinates":[-71.936744,42.660365]}},{"properties":{"zipcode":"1431","total":1529,"geo_score":0.714,"total population 15 to 44 years old":551,"id":"afs64gvange0","geo_precision":"zip"},"type":"Feature","geometry":{"type":"Point","coordinates":[-71.824519,42.666755]}},{"properties":{"zipcode":"1432","total":3560,"geo_score":0.714,"total population 15 to 44 years old":1426,"id":"afs64gwikfax","geo_precision":"zip"},"type":"Feature","geometry":{"type":"Point","coordinates":[-71.459405,42.446396]}},{"properties":{"zipcode":"1434","total":319,"geo_score":0.0,"total population 15 to 44 years old":190,"id":"afs64gq35ruw","geo_precision":"unmatched"},"type":"Feature","geometry":null},{"properties":{"zipcode":"1436","total":1642,"geo_score":0.714,"total population 15 to 44 years old":611,"id":"afs64h0iju8d","geo_precision":"zip"},"type":"Feature","geometry":{"type":"Point","coordinates":[-72.050912,42.597866]}},{"properties":{"zipcode":"1438","total":281,"geo_score":0.714,"total population 15 to 44 years old":100,"id":"afs64gtdlvsq","geo_precision":"zip"},"type":"Feature","geometry":{"type":"Point","coordinates":[-72.029434,42.551681]}},{"properties":{"zipcode":"1440","total":9929,"geo_score":0.714,"total population 15 to 44 years old":3769,"id":"afs64gz0ol8k","geo_precision":"zip"},"type":"Feature","geometry":{"type":"Point","coordinates":[-71.978688,42.558422]}},{"properties":{"zipcode":"1450","total":5382,"geo_score":0.714,"total population 15 to 44 years old":1723,"id":"afs64gp530wz","geo_precision":"zip"},"type":"Feature","geometry":{"type":"Point","coordinates":[-71.459405,42.446396]}},{"properties":{"zipcode":"1451","total":2388,"geo_score":0.714,"total population 15 to 44 years old":623,"id":"afs64gmpppft","geo_precision":"zip"},"type":"Feature","geometry":{"type":"Point","coordinates":[-71.575864,42.500187]}},{"properties":{"zipcode":"1452","total":2193,"geo_score":0.714,"total population 15 to 44 years old":776,"id":"afs64guf7ntu","geo_precision":"zip"},"type":"Feature","geometry":{"type":"Point","coordinates":[-72.078967,42.47509]}},{"properties":{"zipcode":"1453","total":21051,"geo_score":0.714,"total population 15 to 44 years old":8075,"id":"afs64gxrur84","geo_precision":"zip"},"type":"Feature","geometry":{"type":"Point","coordinates":[-71.837509,42.471316]}},{"properties":{"zipcode":"1460","total":4634,"geo_score":0.714,"total population 15 to 44 years old":1482,"id":"afs64gy5idbz","geo_precision":"zip"},"type":"Feature","geometry":{"type":"Point","coordinates":[-71.459405,42.446396]}},{"properties":{"zipcode":"1462","total":5081,"geo_score":0.714,"total population 15 to 44 years old":1702,"id":"afs64gnitasg","geo_precision":"zip"},"type":"Feature","geometry":{"type":"Point","coordinates":[-71.752266,42.583322]}},{"properties":{"zipcode":"1463","total":5794,"geo_score":0.714,"total population 15 to 44 years old":2054,"id":"afs64gu89z1o","geo_precision":"zip"},"type":"Feature","geometry":{"type":"Point","coordinates":[-71.59118,42.693145]}},{"properties":{"zipcode":"1464","total":2959,"geo_score":0.714,"total population 15 to 44 years old":1113,"id":"afs64gy5wxsn","geo_precision":"zip"},"type":"Feature","geometry":{"type":"Point","coordinates":[-71.650903,42.572313]}},{"properties":{"zipcode":"1467","total":166,"geo_score":0.714,"total population 15 to 44 years old":40,"id":"afs64gr7wcd8","geo_precision":"zip"},"type":"Feature","geometry":{"type":"Point","coordinates":[-71.613078,42.487056]}},{"properties":{"zipcode":"1468","total":1997,"geo_score":0.714,"total population 15 to 44 years old":712,"id":"afs64guoe1zz","geo_precision":"zip"},"type":"Feature","geometry":{"type":"Point","coordinates":[-72.072285,42.555059]}},{"properties":{"zipcode":"1469","total":3438,"geo_score":0.714,"total population 15 to 44 years old":1238,"id":"afs64h0yi6ba","geo_precision":"zip"},"type":"Feature","geometry":{"type":"Point","coordinates":[-71.459405,42.446396]}},{"properties":{"zipcode":"1473","total":3637,"geo_score":0.714,"total population 15 to 44 years old":1252,"id":"afs64gwyblbd","geo_precision":"zip"},"type":"Feature","geometry":{"type":"Point","coordinates":[-71.878686,42.529257]}},{"properties":{"zipcode":"1474","total":1075,"geo_score":0.714,"total population 15 to 44 years old":382,"id":"afs64gm4rnmp","geo_precision":"zip"},"type":"Feature","geometry":{"type":"Point","coordinates":[-71.459405,42.446396]}},{"properties":{"zipcode":"1475","total":5116,"geo_score":0.714,"total population 15 to 44 years old":2034,"id":"afs64goue5ua","geo_precision":"zip"},"type":"Feature","geometry":{"type":"Point","coordinates":[-72.06758,42.675086]}},{"properties":{"zipcode":"1501","total":8318,"geo_score":0.714,"total population 15 to 44 years old":2840,"id":"afs64goatyu4","geo_precision":"zip"},"type":"Feature","geometry":{"type":"Point","coordinates":[-71.845905,42.21676]}},{"properties":{"zipcode":"1503","total":1448,"geo_score":0.714,"total population 15 to 44 years old":432,"id":"afs64gsvokrq","geo_precision":"zip"},"type":"Feature","geometry":{"type":"Point","coordinates":[-71.660624,42.388148]}},{"properties":{"zipcode":"1504","total":4674,"geo_score":0.714,"total population 15 to 44 years old":1818,"id":"afs64gmcyo8u","geo_precision":"zip"},"type":"Feature","geometry":{"type":"Point","coordinates":[-71.799785,42.114078]}},{"properties":{"zipcode":"1505","total":2264,"geo_score":0.714,"total population 15 to 44 years old":752,"id":"afs64gnjsmmd","geo_precision":"zip"},"type":"Feature","geometry":{"type":"Point","coordinates":[-71.757848,42.313982]}},{"properties":{"zipcode":"1506","total":1711,"geo_score":0.714,"total population 15 to 44 years old":586,"id":"afs64gv54y5q","geo_precision":"zip"},"type":"Feature","geometry":{"type":"Point","coordinates":[-72.105011,42.19169]}},{"properties":{"zipcode":"1507","total":6603,"geo_score":0.714,"total population 15 to 44 years old":2469,"id":"afs64gl2goab","geo_precision":"zip"},"type":"Feature","geometry":{"type":"Point","coordinates":[-71.932851,42.162039]}},{"properties":{"zipcode":"1510","total":6958,"geo_score":0.714,"total population 15 to 44 years old":2761,"id":"afs64gz90lhd","geo_precision":"zip"},"type":"Feature","geometry":{"type":"Point","coordinates":[-71.687523,42.413972]}},{"properties":{"zipcode":"1515","total":1076,"geo_score":0.714,"total population 15 to 44 years old":399,"id":"afs64gzexlxz","geo_precision":"zip"},"type":"Feature","geometry":{"type":"Point","coordinates":[-72.049907,42.205311]}},{"properties":{"zipcode":"1516","total":4269,"geo_score":0.714,"total population 15 to 44 years old":1685,"id":"afs64gy8ibqf","geo_precision":"zip"},"type":"Feature","geometry":{"type":"Point","coordinates":[-71.712013,42.100096]}},{"properties":{"zipcode":"1518","total":1494,"geo_score":0.714,"total population 15 to 44 years old":500,"id":"afs64gpdzo3y","geo_precision":"zip"},"type":"Feature","geometry":{"type":"Point","coordinates":[-72.114045,42.106405]}},{"properties":{"zipcode":"1519","total":3360,"geo_score":0.714,"total population 15 to 44 years old":1233,"id":"afs64gydqk3j","geo_precision":"zip"},"type":"Feature","geometry":{"type":"Point","coordinates":[-71.682862,42.203944]}},{"properties":{"zipcode":"1520","total":7249,"geo_score":0.714,"total population 15 to 44 years old":2392,"id":"afs64go9070d","geo_precision":"zip"},"type":"Feature","geometry":{"type":"Point","coordinates":[-71.845316,42.336791]}},{"properties":{"zipcode":"1521","total":1196,"geo_score":0.714,"total population 15 to 44 years old":449,"id":"afs64gur2lyt","geo_precision":"zip"},"type":"Feature","geometry":{"type":"Point","coordinates":[-72.163991,42.061063]}},{"properties":{"zipcode":"1522","total":1660,"geo_score":0.714,"total population 15 to 44 years old":609,"id":"afs64gwknmhn","geo_precision":"zip"},"type":"Feature","geometry":{"type":"Point","coordinates":[-71.795442,42.264629]}},{"properties":{"zipcode":"1523","total":3236,"geo_score":0.714,"total population 15 to 44 years old":1121,"id":"afs64gxpcykv","geo_precision":"zip"},"type":"Feature","geometry":{"type":"Point","coordinates":[-71.91177,42.427188]}},{"properties":{"zipcode":"1524","total":3438,"geo_score":0.714,"total population 15 to 44 years old":1335,"id":"afs64gobfpfo","geo_precision":"zip"},"type":"Feature","geometry":{"type":"Point","coordinates":[-72.012379,42.238192]}},{"properties":{"zipcode":"1525","total":148,"geo_score":0.714,"total population 15 to 44 years old":64,"id":"afs64gwjd710","geo_precision":"zip"},"type":"Feature","geometry":{"type":"Point","coordinates":[-71.896868,42.364807]}},{"properties":{"zipcode":"1527","total":6872,"geo_score":0.714,"total population 15 to 44 years old":2563,"id":"afs64gzya89h","geo_precision":"zip"},"type":"Feature","geometry":{"type":"Point","coordinates":[-71.762848,42.150095]}},{"properties":{"zipcode":"1529","total":1605,"geo_score":0.714,"total population 15 to 44 years old":684,"id":"afs64gky1byr","geo_precision":"zip"},"type":"Feature","geometry":{"type":"Point","coordinates":[-71.846943,42.124662]}},{"properties":{"zipcode":"1531","total":498,"geo_score":0.714,"total population 15 to 44 years old":175,"id":"afs64goajypa","geo_precision":"zip"},"type":"Feature","geometry":{"type":"Point","coordinates":[-72.128644,42.320938]}},{"properties":{"zipcode":"1532","total":7209,"geo_score":0.714,"total population 15 to 44 years old":2328,"id":"afs64gwbukdh","geo_precision":"zip"},"type":"Feature","geometry":{"type":"Point","coordinates":[-71.64282,42.322118]}},{"properties":{"zipcode":"1534","total":2859,"geo_score":0.714,"total population 15 to 44 years old":1062,"id":"afs64gspfyar","geo_precision":"zip"},"type":"Feature","geometry":{"type":"Point","coordinates":[-71.856807,42.207191]}},{"properties":{"zipcode":"1535","total":2382,"geo_score":0.714,"total population 15 to 44 years old":878,"id":"afs64gqwhh5o","geo_precision":"zip"},"type":"Feature","geometry":{"type":"Point","coordinates":[-72.089338,42.275382]}},{"properties":{"zipcode":"1536","total":3607,"geo_score":0.714,"total population 15 to 44 years old":1423,"id":"afs64gn59mk3","geo_precision":"zip"},"type":"Feature","geometry":{"type":"Point","coordinates":[-71.860402,42.407556]}},{"properties":{"zipcode":"1537","total":1164,"geo_score":0.714,"total population 15 to 44 years old":437,"id":"afs64gmj50wt","geo_precision":"zip"},"type":"Feature","geometry":{"type":"Point","coordinates":[-71.891052,42.166241]}},{"properties":{"zipcode":"1540","total":5738,"geo_score":0.714,"total population 15 to 44 years old":2176,"id":"afs64gsqoy89","geo_precision":"zip"},"type":"Feature","geometry":{"type":"Point","coordinates":[-71.855444,42.109223]}},{"properties":{"zipcode":"1541","total":1704,"geo_score":0.714,"total population 15 to 44 years old":500,"id":"afs64h09qyqt","geo_precision":"zip"},"type":"Feature","geometry":{"type":"Point","coordinates":[-71.880057,42.451926]}},{"properties":{"zipcode":"1542","total":1125,"geo_score":0.714,"total population 15 to 44 years old":439,"id":"afs64gxxkxlv","geo_precision":"zip"},"type":"Feature","geometry":{"type":"Point","coordinates":[-71.916184,42.20426]}},{"properties":{"zipcode":"1543","total":4028,"geo_score":0.714,"total population 15 to 44 years old":1528,"id":"afs64gq6p7xh","geo_precision":"zip"},"type":"Feature","geometry":{"type":"Point","coordinates":[-71.955908,42.337591]}},{"properties":{"zipcode":"1545","total":18088,"geo_score":0.714,"total population 15 to 44 years old":6638,"id":"afs64gqvnh80","geo_precision":"zip"},"type":"Feature","geometry":{"type":"Point","coordinates":[-71.715313,42.286992]}},{"properties":{"zipcode":"1550","total":8660,"geo_score":0.714,"total population 15 to 44 years old":3437,"id":"afs64h145gli","geo_precision":"zip"},"type":"Feature","geometry":{"type":"Point","coordinates":[-72.031155,42.129251]}},{"properties":{"zipcode":"1560","total":2309,"geo_score":0.714,"total population 15 to 44 years old":1033,"id":"afs64h0eypxp","geo_precision":"zip"},"type":"Feature","geometry":{"type":"Point","coordinates":[-71.681912,42.176544]}},{"properties":{"zipcode":"1561","total":216,"geo_score":0.714,"total population 15 to 44 years old":156,"id":"afs64gs0l70w","geo_precision":"zip"},"type":"Feature","geometry":{"type":"Point","coordinates":[-71.686137,42.443539]}},{"properties":{"zipcode":"1562","total":5859,"geo_score":0.714,"total population 15 to 44 years old":2132,"id":"afs64gnwibjm","geo_precision":"zip"},"type":"Feature","geometry":{"type":"Point","coordinates":[-71.959519,42.256481]}},{"properties":{"zipcode":"1564","total":3967,"geo_score":0.714,"total population 15 to 44 years old":1250,"id":"afs64gznmggm","geo_precision":"zip"},"type":"Feature","geometry":{"type":"Point","coordinates":[-71.939375,42.366765]}},{"properties":{"zipcode":"1566","total":3206,"geo_score":0.714,"total population 15 to 44 years old":1154,"id":"afs64gxh861a","geo_precision":"zip"},"type":"Feature","geometry":{"type":"Point","coordinates":[-72.080996,42.10273]}},{"properties":{"zipcode":"1568","total":3815,"geo_score":0.714,"total population 15 to 44 years old":1307,"id":"afs64griu2il","geo_precision":"zip"},"type":"Feature","geometry":{"type":"Point","coordinates":[-71.603197,42.175591]}},{"properties":{"zipcode":"1569","total":6815,"geo_score":0.714,"total population 15 to 44 years old":2461,"id":"afs64gukhpi6","geo_precision":"zip"},"type":"Feature","geometry":{"type":"Point","coordinates":[-71.614788,42.080653]}},{"properties":{"zipcode":"1570","total":8657,"geo_score":0.714,"total population 15 to 44 years old":3182,"id":"afs64gpv8tmx","geo_precision":"zip"},"type":"Feature","geometry":{"type":"Point","coordinates":[-71.83146,42.027319]}},{"properties":{"zipcode":"1571","total":5688,"geo_score":0.714,"total population 15 to 44 years old":2324,"id":"afs64gpkt1vz","geo_precision":"zip"},"type":"Feature","geometry":{"type":"Point","coordinates":[-71.937037,42.059189]}},{"properties":{"zipcode":"1581","total":9312,"geo_score":0.714,"total population 15 to 44 years old":3429,"id":"afs64grk33g5","geo_precision":"zip"},"type":"Feature","geometry":{"type":"Point","coordinates":[-71.845865,42.255222]}},{"properties":{"zipcode":"1583","total":3366,"geo_score":0.714,"total population 15 to 44 years old":1074,"id":"afs64gpdyefh","geo_precision":"zip"},"type":"Feature","geometry":{"type":"Point","coordinates":[-71.781215,42.362783]}},{"properties":{"zipcode":"1585","total":2375,"geo_score":0.714,"total population 15 to 44 years old":740,"id":"afs64glimazo","geo_precision":"zip"},"type":"Feature","geometry":{"type":"Point","coordinates":[-72.172523,42.235638]}},{"properties":{"zipcode":"1588","total":5090,"geo_score":0.714,"total population 15 to 44 years old":1928,"id":"afs64gz1p8dx","geo_precision":"zip"},"type":"Feature","geometry":{"type":"Point","coordinates":[-71.672568,42.134818]}},{"properties":{"zipcode":"1590","total":4504,"geo_score":0.714,"total population 15 to 44 years old":1580,"id":"afs64gqw2iw8","geo_precision":"zip"},"type":"Feature","geometry":{"type":"Point","coordinates":[-71.755193,42.126575]}},{"properties":{"zipcode":"1602","total":12134,"geo_score":0.714,"total population 15 to 44 years old":4920,"id":"afs64gnalanw","geo_precision":"zip"},"type":"Feature","geometry":{"type":"Point","coordinates":[-71.846966,42.274595]}},{"properties":{"zipcode":"1603","total":10016,"geo_score":0.714,"total population 15 to 44 years old":4401,"id":"afs64gz16n5i","geo_precision":"zip"},"type":"Feature","geometry":{"type":"Point","coordinates":[-71.839257,42.245442]}},{"properties":{"zipcode":"1604","total":17842,"geo_score":0.714,"total population 15 to 44 years old":7726,"id":"afs64h05vr5w","geo_precision":"zip"},"type":"Feature","geometry":{"type":"Point","coordinates":[-71.76678,42.247955]}},{"properties":{"zipcode":"1605","total":14031,"geo_score":0.714,"total population 15 to 44 years old":6003,"id":"afs64gvan2xc","geo_precision":"zip"},"type":"Feature","geometry":{"type":"Point","coordinates":[-71.796128,42.288792]}},{"properties":{"zipcode":"1606","total":9921,"geo_score":0.714,"total population 15 to 44 years old":3883,"id":"afs64gkqvaam","geo_precision":"zip"},"type":"Feature","geometry":{"type":"Point","coordinates":[-71.794465,42.311834]}},{"properties":{"zipcode":"1607","total":4285,"geo_score":0.714,"total population 15 to 44 years old":1949,"id":"afs64gmqwbmx","geo_precision":"zip"},"type":"Feature","geometry":{"type":"Point","coordinates":[-71.792506,42.226452]}},{"properties":{"zipcode":"1608","total":1795,"geo_score":0.714,"total population 15 to 44 years old":943,"id":"afs64gpj2sov","geo_precision":"zip"},"type":"Feature","geometry":{"type":"Point","coordinates":[-71.925696,42.293501]}},{"properties":{"zipcode":"1609","total":10757,"geo_score":0.714,"total population 15 to 44 years old":5492,"id":"afs64gsrjlq0","geo_precision":"zip"},"type":"Feature","geometry":{"type":"Point","coordinates":[-71.827685,42.282565]}},{"properties":{"zipcode":"1610","total":12280,"geo_score":0.714,"total population 15 to 44 years old":7263,"id":"afs64go3u8jf","geo_precision":"zip"},"type":"Feature","geometry":{"type":"Point","coordinates":[-71.808915,42.246483]}},{"properties":{"zipcode":"1611","total":1140,"geo_score":0.714,"total population 15 to 44 years old":475,"id":"afs64gy9wysx","geo_precision":"zip"},"type":"Feature","geometry":{"type":"Point","coordinates":[-71.878716,42.239392]}},{"properties":{"zipcode":"1612","total":2422,"geo_score":0.714,"total population 15 to 44 years old":947,"id":"afs64guobyzo","geo_precision":"zip"},"type":"Feature","geometry":{"type":"Point","coordinates":[-71.892875,42.304675]}},{"properties":{"zipcode":"1701","total":16273,"geo_score":0.714,"total population 15 to 44 years old":5444,"id":"afs64gqm9fud","geo_precision":"zip"},"type":"Feature","geometry":{"type":"Point","coordinates":[-71.437006,42.297318]}},{"properties":{"zipcode":"1702","total":19088,"geo_score":0.714,"total population 15 to 44 years old":9484,"id":"afs64gqf1lbb","geo_precision":"zip"},"type":"Feature","geometry":{"type":"Point","coordinates":[-71.459405,42.446396]}},{"properties":{"zipcode":"1718","total":240,"geo_score":0.714,"total population 15 to 44 years old":78,"id":"afs64gvius94","geo_precision":"zip"},"type":"Feature","geometry":{"type":"Point","coordinates":[-71.459405,42.446396]}},{"properties":{"zipcode":"1719","total":2441,"geo_score":0.714,"total population 15 to 44 years old":782,"id":"afs64grfbvcs","geo_precision":"zip"},"type":"Feature","geometry":{"type":"Point","coordinates":[-71.459405,42.446396]}},{"properties":{"zipcode":"1720","total":10880,"geo_score":0.714,"total population 15 to 44 years old":3595,"id":"afs64gkz3kuv","geo_precision":"zip"},"type":"Feature","geometry":{"type":"Point","coordinates":[-71.409506,42.475093]}},{"properties":{"zipcode":"1721","total":8527,"geo_score":0.714,"total population 15 to 44 years old":3148,"id":"afs64grhfrvq","geo_precision":"zip"},"type":"Feature","geometry":{"type":"Point","coordinates":[-71.459405,42.446396]}},{"properties":{"zipcode":"1730","total":6639,"geo_score":0.714,"total population 15 to 44 years old":2040,"id":"afs64gypyuux","geo_precision":"zip"},"type":"Feature","geometry":{"type":"Point","coordinates":[-71.280058,42.527871]}},{"properties":{"zipcode":"1731","total":706,"geo_score":0.714,"total population 15 to 44 years old":371,"id":"afs64gx7ql2l","geo_precision":"zip"},"type":"Feature","geometry":{"type":"Point","coordinates":[-71.459405,42.446396]}},{"properties":{"zipcode":"1740","total":2473,"geo_score":0.714,"total population 15 to 44 years old":755,"id":"afs64gs86rya","geo_precision":"zip"},"type":"Feature","geometry":{"type":"Point","coordinates":[-71.605916,42.436043]}},{"properties":{"zipcode":"1741","total":2436,"geo_score":0.714,"total population 15 to 44 years old":648,"id":"afs64h131v9h","geo_precision":"zip"},"type":"Feature","geometry":{"type":"Point","coordinates":[-71.459405,42.446396]}},{"properties":{"zipcode":"1742","total":8739,"geo_score":0.714,"total population 15 to 44 years old":2118,"id":"afs64gyg1j9d","geo_precision":"zip"},"type":"Feature","geometry":{"type":"Point","coordinates":[-71.459405,42.446396]}},{"properties":{"zipcode":"1745","total":198,"geo_score":0.714,"total population 15 to 44 years old":74,"id":"afs64gvu2hyj","geo_precision":"zip"},"type":"Feature","geometry":{"type":"Point","coordinates":[-71.524509,42.30565]}},{"properties":{"zipcode":"1746","total":6880,"geo_score":0.714,"total population 15 to 44 years old":2134,"id":"afs64gwrz2el","geo_precision":"zip"},"type":"Feature","geometry":{"type":"Point","coordinates":[-71.420338,42.212597]}},{"properties":{"zipcode":"1747","total":3014,"geo_score":0.714,"total population 15 to 44 years old":1067,"id":"afs64gypputb","geo_precision":"zip"},"type":"Feature","geometry":{"type":"Point","coordinates":[-71.541175,42.120375]}},{"properties":{"zipcode":"1748","total":7585,"geo_score":0.714,"total population 15 to 44 years old":2566,"id":"afs64gm32jhy","geo_precision":"zip"},"type":"Feature","geometry":{"type":"Point","coordinates":[-71.459405,42.446396]}},{"properties":{"zipcode":"1749","total":9660,"geo_score":0.714,"total population 15 to 44 years old":3504,"id":"afs64gxlbpfl","geo_precision":"zip"},"type":"Feature","geometry":{"type":"Point","coordinates":[-71.459405,42.446396]}},{"properties":{"zipcode":"1752","total":19436,"geo_score":0.714,"total population 15 to 44 years old":7888,"id":"afs64gtnoh88","geo_precision":"zip"},"type":"Feature","geometry":{"type":"Point","coordinates":[-71.459405,42.446396]}},{"properties":{"zipcode":"1754","total":5269,"geo_score":0.714,"total population 15 to 44 years old":1934,"id":"afs64gtzhyga","geo_precision":"zip"},"type":"Feature","geometry":{"type":"Point","coordinates":[-71.459405,42.446396]}},{"properties":{"zipcode":"1756","total":2915,"geo_score":0.714,"total population 15 to 44 years old":974,"id":"afs64gr73i8i","geo_precision":"zip"},"type":"Feature","geometry":{"type":"Point","coordinates":[-71.546961,42.100352]}},{"properties":{"zipcode":"1757","total":14090,"geo_score":0.714,"total population 15 to 44 years old":5414,"id":"afs64gv22n3i","geo_precision":"zip"},"type":"Feature","geometry":{"type":"Point","coordinates":[-71.487284,42.152319]}},{"properties":{"zipcode":"1760","total":17009,"geo_score":0.714,"total population 15 to 44 years old":6085,"id":"afs64gsibf7p","geo_precision":"zip"},"type":"Feature","geometry":{"type":"Point","coordinates":[-71.324503,42.304263]}},{"properties":{"zipcode":"1770","total":2115,"geo_score":0.714,"total population 15 to 44 years old":541,"id":"afs64gvvtu3y","geo_precision":"zip"},"type":"Feature","geometry":{"type":"Point","coordinates":[-71.459405,42.446396]}},{"properties":{"zipcode":"1772","total":4733,"geo_score":0.714,"total population 15 to 44 years old":1474,"id":"afs64gma7aqo","geo_precision":"zip"},"type":"Feature","geometry":{"type":"Point","coordinates":[-71.523953,42.268984]}},{"properties":{"zipcode":"1773","total":2660,"geo_score":0.714,"total population 15 to 44 years old":630,"id":"afs64h14640r","geo_precision":"zip"},"type":"Feature","geometry":{"type":"Point","coordinates":[-71.325892,42.413984]}},{"properties":{"zipcode":"1775","total":3346,"geo_score":0.714,"total population 15 to 44 years old":1006,"id":"afs64gzpvxj1","geo_precision":"zip"},"type":"Feature","geometry":{"type":"Point","coordinates":[-71.484508,42.433427]}},{"properties":{"zipcode":"1776","total":9042,"geo_score":0.714,"total population 15 to 44 years old":2622,"id":"afs64gulti9c","geo_precision":"zip"},"type":"Feature","geometry":{"type":"Point","coordinates":[-71.404506,42.409261]}},{"properties":{"zipcode":"1778","total":6788,"geo_score":0.714,"total population 15 to 44 years old":1887,"id":"afs64gufy750","geo_precision":"zip"},"type":"Feature","geometry":{"type":"Point","coordinates":[-71.459405,42.446396]}},{"properties":{"zipcode":"1801","total":20052,"geo_score":0.714,"total population 15 to 44 years old":7740,"id":"afs64grhak8l","geo_precision":"zip"},"type":"Feature","geometry":{"type":"Point","coordinates":[-71.157271,42.488595]}},{"properties":{"zipcode":"1803","total":12547,"geo_score":0.714,"total population 15 to 44 years old":4538,"id":"afs64gudpu4x","geo_precision":"zip"},"type":"Feature","geometry":{"type":"Point","coordinates":[-71.201539,42.504844]}},{"properties":{"zipcode":"1810","total":17180,"geo_score":0.714,"total population 15 to 44 years old":5681,"id":"afs64h0qbb4k","geo_precision":"zip"},"type":"Feature","geometry":{"type":"Point","coordinates":[-71.165685,42.647991]}},{"properties":{"zipcode":"1821","total":15356,"geo_score":0.714,"total population 15 to 44 years old":5944,"id":"afs64gxzabtf","geo_precision":"zip"},"type":"Feature","geometry":{"type":"Point","coordinates":[-71.237002,42.581482]}},{"properties":{"zipcode":"1824","total":12770,"geo_score":0.714,"total population 15 to 44 years old":4145,"id":"afs64glpuil0","geo_precision":"zip"},"type":"Feature","geometry":{"type":"Point","coordinates":[-71.375895,42.570925]}},{"properties":{"zipcode":"1826","total":15009,"geo_score":0.714,"total population 15 to 44 years old":5782,"id":"afs64glutssg","geo_precision":"zip"},"type":"Feature","geometry":{"type":"Point","coordinates":[-71.352285,42.683424]}},{"properties":{"zipcode":"1827","total":1581,"geo_score":0.714,"total population 15 to 44 years old":508,"id":"afs64gtn58rc","geo_precision":"zip"},"type":"Feature","geometry":{"type":"Point","coordinates":[-71.459405,42.446396]}},{"properties":{"zipcode":"1830","total":13031,"geo_score":0.714,"total population 15 to 44 years old":5031,"id":"afs64h01pz4z","geo_precision":"zip"},"type":"Feature","geometry":{"type":"Point","coordinates":[-71.049501,42.76398]}},{"properties":{"zipcode":"1832","total":11472,"geo_score":0.714,"total population 15 to 44 years old":4757,"id":"afs64h0nrwid","geo_precision":"zip"},"type":"Feature","geometry":{"type":"Point","coordinates":[-71.126562,42.789627]}},{"properties":{"zipcode":"1833","total":4143,"geo_score":0.714,"total population 15 to 44 years old":1400,"id":"afs64h12sz1h","geo_precision":"zip"},"type":"Feature","geometry":{"type":"Point","coordinates":[-70.981298,42.72377]}},{"properties":{"zipcode":"1834","total":3332,"geo_score":0.714,"total population 15 to 44 years old":1069,"id":"afs64gn4664g","geo_precision":"zip"},"type":"Feature","geometry":{"type":"Point","coordinates":[-71.021437,42.751074]}},{"properties":{"zipcode":"1835","total":7169,"geo_score":0.714,"total population 15 to 44 years old":2911,"id":"afs64gr6rvwi","geo_precision":"zip"},"type":"Feature","geometry":{"type":"Point","coordinates":[-71.075891,42.769535]}},{"properties":{"zipcode":"1840","total":2367,"geo_score":0.714,"total population 15 to 44 years old":977,"id":"afs64gv1iofg","geo_precision":"zip"},"type":"Feature","geometry":{"type":"Point","coordinates":[-71.161052,42.70734]}},{"properties":{"zipcode":"1841","total":24418,"geo_score":0.714,"total population 15 to 44 years old":11281,"id":"afs64gqiq6gq","geo_precision":"zip"},"type":"Feature","geometry":{"type":"Point","coordinates":[-71.164402,42.70979]}},{"properties":{"zipcode":"1843","total":12820,"geo_score":0.714,"total population 15 to 44 years old":5833,"id":"afs64gw00tab","geo_precision":"zip"},"type":"Feature","geometry":{"type":"Point","coordinates":[-71.088303,42.71037]}},{"properties":{"zipcode":"1844","total":24742,"geo_score":0.714,"total population 15 to 44 years old":9452,"id":"afs64gpo2a57","geo_precision":"zip"},"type":"Feature","geometry":{"type":"Point","coordinates":[-71.186915,42.73184]}},{"properties":{"zipcode":"1845","total":14817,"geo_score":0.714,"total population 15 to 44 years old":5321,"id":"afs64goy6xgg","geo_precision":"zip"},"type":"Feature","geometry":{"type":"Point","coordinates":[-71.112001,42.683425]}},{"properties":{"zipcode":"1850","total":7783,"geo_score":0.714,"total population 15 to 44 years old":3496,"id":"afs64gy08xlb","geo_precision":"zip"},"type":"Feature","geometry":{"type":"Point","coordinates":[-71.303671,42.627869]}},{"properties":{"zipcode":"1851","total":15147,"geo_score":0.714,"total population 15 to 44 years old":7042,"id":"afs64gt72o3d","geo_precision":"zip"},"type":"Feature","geometry":{"type":"Point","coordinates":[-71.337006,42.630647]}},{"properties":{"zipcode":"1852","total":17003,"geo_score":0.714,"total population 15 to 44 years old":7457,"id":"afs64gx78zgx","geo_precision":"zip"},"type":"Feature","geometry":{"type":"Point","coordinates":[-71.459405,42.446396]}},{"properties":{"zipcode":"1854","total":13726,"geo_score":0.714,"total population 15 to 44 years old":6425,"id":"afs64gzuw35i","geo_precision":"zip"},"type":"Feature","geometry":{"type":"Point","coordinates":[-71.459405,42.446396]}},{"properties":{"zipcode":"1860","total":3281,"geo_score":0.714,"total population 15 to 44 years old":1114,"id":"afs64h0337gz","geo_precision":"zip"},"type":"Feature","geometry":{"type":"Point","coordinates":[-70.988389,42.827868]}},{"properties":{"zipcode":"1862","total":4750,"geo_score":0.714,"total population 15 to 44 years old":1736,"id":"afs64gl4omky","geo_precision":"zip"},"type":"Feature","geometry":{"type":"Point","coordinates":[-71.305059,42.543149]}},{"properties":{"zipcode":"1863","total":4665,"geo_score":0.714,"total population 15 to 44 years old":1681,"id":"afs64gl3yttc","geo_precision":"zip"},"type":"Feature","geometry":{"type":"Point","coordinates":[-71.399507,42.616758]}},{"properties":{"zipcode":"1864","total":7567,"geo_score":0.714,"total population 15 to 44 years old":2644,"id":"afs64gzs83ku","geo_precision":"zip"},"type":"Feature","geometry":{"type":"Point","coordinates":[-71.083725,42.581332]}},{"properties":{"zipcode":"1867","total":12350,"geo_score":0.714,"total population 15 to 44 years old":4091,"id":"afs64gmvuzfl","geo_precision":"zip"},"type":"Feature","geometry":{"type":"Point","coordinates":[-71.111999,42.525095]}},{"properties":{"zipcode":"1876","total":14759,"geo_score":0.714,"total population 15 to 44 years old":5164,"id":"afs64gvez1b2","geo_precision":"zip"},"type":"Feature","geometry":{"type":"Point","coordinates":[-71.459405,42.446396]}},{"properties":{"zipcode":"1879","total":5783,"geo_score":0.714,"total population 15 to 44 years old":2190,"id":"afs64gtrihrr","geo_precision":"zip"},"type":"Feature","geometry":{"type":"Point","coordinates":[-71.459405,42.446396]}},{"properties":{"zipcode":"1880","total":12829,"geo_score":0.714,"total population 15 to 44 years old":4637,"id":"afs64hek5sbk","geo_precision":"zip"},"type":"Feature","geometry":{"type":"Point","coordinates":[-71.07033,42.495929]}},{"properties":{"zipcode":"1886","total":11050,"geo_score":0.714,"total population 15 to 44 years old":3622,"id":"afs64h20tw28","geo_precision":"zip"},"type":"Feature","geometry":{"type":"Point","coordinates":[-71.420341,42.612591]}},{"properties":{"zipcode":"1887","total":11376,"geo_score":0.714,"total population 15 to 44 years old":4069,"id":"afs64hd6vgfy","geo_precision":"zip"},"type":"Feature","geometry":{"type":"Point","coordinates":[-71.156445,42.569538]}},{"properties":{"zipcode":"1890","total":11189,"geo_score":0.714,"total population 15 to 44 years old":3342,"id":"afs64h31ag91","geo_precision":"zip"},"type":"Feature","geometry":{"type":"Point","coordinates":[-71.148779,42.454545]}},{"properties":{"zipcode":"1901","total":861,"geo_score":0.714,"total population 15 to 44 years old":304,"id":"afs64hf471pz","geo_precision":"zip"},"type":"Feature","geometry":{"type":"Point","coordinates":[-70.946743,42.461246]}},{"properties":{"zipcode":"1902","total":23013,"geo_score":0.714,"total population 15 to 44 years old":10183,"id":"afs64h7hd4mo","geo_precision":"zip"},"type":"Feature","geometry":{"type":"Point","coordinates":[-70.928593,42.473195]}},{"properties":{"zipcode":"1904","total":9349,"geo_score":0.714,"total population 15 to 44 years old":3472,"id":"afs64heyjv3y","geo_precision":"zip"},"type":"Feature","geometry":{"type":"Point","coordinates":[-70.927271,42.469541]}},{"properties":{"zipcode":"1905","total":12858,"geo_score":0.714,"total population 15 to 44 years old":5646,"id":"afs64hb20k02","geo_precision":"zip"},"type":"Feature","geometry":{"type":"Point","coordinates":[-70.981439,42.465374]}},{"properties":{"zipcode":"1906","total":13954,"geo_score":0.714,"total population 15 to 44 years old":4882,"id":"afs64haft39l","geo_precision":"zip"},"type":"Feature","geometry":{"type":"Point","coordinates":[-71.03144,42.471763]}},{"properties":{"zipcode":"1907","total":7467,"geo_score":0.714,"total population 15 to 44 years old":2250,"id":"afs64h3bheq4","geo_precision":"zip"},"type":"Feature","geometry":{"type":"Point","coordinates":[-70.905893,42.513295]}},{"properties":{"zipcode":"1908","total":1772,"geo_score":0.714,"total population 15 to 44 years old":463,"id":"afs64h4z920c","geo_precision":"zip"},"type":"Feature","geometry":{"type":"Point","coordinates":[-70.922442,42.427296]}},{"properties":{"zipcode":"1913","total":8412,"geo_score":0.714,"total population 15 to 44 years old":3089,"id":"afs64hber9tl","geo_precision":"zip"},"type":"Feature","geometry":{"type":"Point","coordinates":[-70.911999,42.841757]}},{"properties":{"zipcode":"1915","total":20781,"geo_score":0.714,"total population 15 to 44 years old":8388,"id":"afs64h4oqc5o","geo_precision":"zip"},"type":"Feature","geometry":{"type":"Point","coordinates":[-70.886994,42.58065]}},{"properties":{"zipcode":"1921","total":4043,"geo_score":0.714,"total population 15 to 44 years old":1165,"id":"afs64h3pb0f3","geo_precision":"zip"},"type":"Feature","geometry":{"type":"Point","coordinates":[-70.980054,42.688981]}},{"properties":{"zipcode":"1922","total":1595,"geo_score":0.714,"total population 15 to 44 years old":512,"id":"afs64hew6ybt","geo_precision":"zip"},"type":"Feature","geometry":{"type":"Point","coordinates":[-70.903664,42.748703]}},{"properties":{"zipcode":"1923","total":14021,"geo_score":0.714,"total population 15 to 44 years old":4730,"id":"afs64hbo3fmt","geo_precision":"zip"},"type":"Feature","geometry":{"type":"Point","coordinates":[-70.948106,42.554262]}},{"properties":{"zipcode":"1929","total":1751,"geo_score":0.714,"total population 15 to 44 years old":585,"id":"afs64heo0kls","geo_precision":"zip"},"type":"Feature","geometry":{"type":"Point","coordinates":[-70.768936,42.629261]}},{"properties":{"zipcode":"1930","total":14944,"geo_score":0.714,"total population 15 to 44 years old":4671,"id":"afs64h29046n","geo_precision":"zip"},"type":"Feature","geometry":{"type":"Point","coordinates":[-70.710601,42.573707]}},{"properties":{"zipcode":"1937","total":66,"geo_score":0.714,"total population 15 to 44 years old":17,"id":"afs64hcr0gjl","geo_precision":"zip"},"type":"Feature","geometry":{"type":"Point","coordinates":[-70.879123,42.635443]}},{"properties":{"zipcode":"1938","total":6900,"geo_score":0.714,"total population 15 to 44 years old":1977,"id":"afs64hc8krrv","geo_precision":"zip"},"type":"Feature","geometry":{"type":"Point","coordinates":[-70.902274,42.688982]}},{"properties":{"zipcode":"1940","total":6238,"geo_score":0.714,"total population 15 to 44 years old":1843,"id":"afs64hcbvs8u","geo_precision":"zip"},"type":"Feature","geometry":{"type":"Point","coordinates":[-71.028775,42.533732]}},{"properties":{"zipcode":"1944","total":2730,"geo_score":0.714,"total population 15 to 44 years old":708,"id":"afs64h1l7upo","geo_precision":"zip"},"type":"Feature","geometry":{"type":"Point","coordinates":[-70.755062,42.579503]}},{"properties":{"zipcode":"1945","total":10452,"geo_score":0.714,"total population 15 to 44 years old":2927,"id":"afs64h97kobx","geo_precision":"zip"},"type":"Feature","geometry":{"type":"Point","coordinates":[-70.770768,42.56142]}},{"properties":{"zipcode":"1949","total":3957,"geo_score":0.714,"total population 15 to 44 years old":1283,"id":"afs64h56oyqk","geo_precision":"zip"},"type":"Feature","geometry":{"type":"Point","coordinates":[-70.998108,42.594538]}},{"properties":{"zipcode":"1950","total":9323,"geo_score":0.714,"total population 15 to 44 years old":2821,"id":"afs64hgzm4km","geo_precision":"zip"},"type":"Feature","geometry":{"type":"Point","coordinates":[-70.866164,42.816758]}},{"properties":{"zipcode":"1951","total":1820,"geo_score":0.714,"total population 15 to 44 years old":492,"id":"afs64h4o2wnb","geo_precision":"zip"},"type":"Feature","geometry":{"type":"Point","coordinates":[-70.867246,42.777524]}},{"properties":{"zipcode":"1952","total":4277,"geo_score":0.714,"total population 15 to 44 years old":1453,"id":"afs64he1x23e","geo_precision":"zip"},"type":"Feature","geometry":{"type":"Point","coordinates":[-70.817552,42.843147]}},{"properties":{"zipcode":"1960","total":26744,"geo_score":0.714,"total population 15 to 44 years old":8990,"id":"afs64h9zuxfu","geo_precision":"zip"},"type":"Feature","geometry":{"type":"Point","coordinates":[-70.949495,42.509818]}},{"properties":{"zipcode":"1966","total":3747,"geo_score":0.714,"total population 15 to 44 years old":964,"id":"afs64h1580g8","geo_precision":"zip"},"type":"Feature","geometry":{"type":"Point","coordinates":[-70.599488,42.640373]}},{"properties":{"zipcode":"1969","total":2959,"geo_score":0.714,"total population 15 to 44 years old":965,"id":"afs64h7rnr37","geo_precision":"zip"},"type":"Feature","geometry":{"type":"Point","coordinates":[-70.892754,42.716155]}},{"properties":{"zipcode":"1970","total":21955,"geo_score":0.714,"total population 15 to 44 years old":9705,"id":"afs64hgulksr","geo_precision":"zip"},"type":"Feature","geometry":{"type":"Point","coordinates":[-70.892549,42.511207]}},{"properties":{"zipcode":"1982","total":3949,"geo_score":0.714,"total population 15 to 44 years old":1275,"id":"afs64h5btj56","geo_precision":"zip"},"type":"Feature","geometry":{"type":"Point","coordinates":[-70.851125,42.626664]}},{"properties":{"zipcode":"1983","total":3148,"geo_score":0.714,"total population 15 to 44 years old":853,"id":"afs64hdtgqtw","geo_precision":"zip"},"type":"Feature","geometry":{"type":"Point","coordinates":[-70.954487,42.661793]}},{"properties":{"zipcode":"1984","total":2669,"geo_score":0.714,"total population 15 to 44 years old":1284,"id":"afs64hf1qdr0","geo_precision":"zip"},"type":"Feature","geometry":{"type":"Point","coordinates":[-70.8732,42.597691]}},{"properties":{"zipcode":"1985","total":2131,"geo_score":0.714,"total population 15 to 44 years old":591,"id":"afs64h4bb81a","geo_precision":"zip"},"type":"Feature","geometry":{"type":"Point","coordinates":[-70.971068,42.79414]}},{"properties":{"zipcode":"2019","total":8400,"geo_score":0.714,"total population 15 to 44 years old":3221,"id":"afs64h9gh91w","geo_precision":"zip"},"type":"Feature","geometry":{"type":"Point","coordinates":[-71.470339,42.068153]}},{"properties":{"zipcode":"2021","total":11363,"geo_score":0.714,"total population 15 to 44 years old":3889,"id":"afs64hfk7vly","geo_precision":"zip"},"type":"Feature","geometry":{"type":"Point","coordinates":[-71.121185,42.179146]}},{"properties":{"zipcode":"2025","total":3839,"geo_score":0.714,"total population 15 to 44 years old":1085,"id":"afs64h8w8q58","geo_precision":"zip"},"type":"Feature","geometry":{"type":"Point","coordinates":[-70.828655,42.243712]}},{"properties":{"zipcode":"2026","total":12761,"geo_score":0.714,"total population 15 to 44 years old":4302,"id":"afs64h8oaw1g","geo_precision":"zip"},"type":"Feature","geometry":{"type":"Point","coordinates":[-71.181141,42.244733]}},{"properties":{"zipcode":"2030","total":2809,"geo_score":0.714,"total population 15 to 44 years old":757,"id":"afs64h9ptyvu","geo_precision":"zip"},"type":"Feature","geometry":{"type":"Point","coordinates":[-71.321447,42.245931]}},{"properties":{"zipcode":"2032","total":2126,"geo_score":0.714,"total population 15 to 44 years old":707,"id":"afs64h6knbkn","geo_precision":"zip"},"type":"Feature","geometry":{"type":"Point","coordinates":[-71.224498,42.141765]}},{"properties":{"zipcode":"2035","total":8592,"geo_score":0.714,"total population 15 to 44 years old":3060,"id":"afs64hau3v8z","geo_precision":"zip"},"type":"Feature","geometry":{"type":"Point","coordinates":[-71.234219,42.042599]}},{"properties":{"zipcode":"2038","total":16134,"geo_score":0.714,"total population 15 to 44 years old":6121,"id":"afs64hbsay9j","geo_precision":"zip"},"type":"Feature","geometry":{"type":"Point","coordinates":[-71.429226,42.102875]}},{"properties":{"zipcode":"2043","total":11752,"geo_score":0.714,"total population 15 to 44 years old":3231,"id":"afs64h1ut79g","geo_precision":"zip"},"type":"Feature","geometry":{"type":"Point","coordinates":[-70.902823,42.2376]}},{"properties":{"zipcode":"2045","total":5416,"geo_score":0.714,"total population 15 to 44 years old":1659,"id":"afs64hh1k5u0","geo_precision":"zip"},"type":"Feature","geometry":{"type":"Point","coordinates":[-70.901713,42.307044]}},{"properties":{"zipcode":"2047","total":102,"geo_score":0.714,"total population 15 to 44 years old":28,"id":"afs64h2zitsr","geo_precision":"zip"},"type":"Feature","geometry":{"type":"Point","coordinates":[-70.69353,42.142836]}},{"properties":{"zipcode":"2048","total":11667,"geo_score":0.714,"total population 15 to 44 years old":4441,"id":"afs64he2b0ru","geo_precision":"zip"},"type":"Feature","geometry":{"type":"Point","coordinates":[-71.24533,41.998155]}},{"properties":{"zipcode":"2050","total":13052,"geo_score":0.714,"total population 15 to 44 years old":4222,"id":"afs64hhnhgwd","geo_precision":"zip"},"type":"Feature","geometry":{"type":"Point","coordinates":[-70.674482,42.113991]}},{"properties":{"zipcode":"2052","total":6196,"geo_score":0.714,"total population 15 to 44 years old":1854,"id":"afs64hcgd51z","geo_precision":"zip"},"type":"Feature","geometry":{"type":"Point","coordinates":[-71.309934,42.181265]}},{"properties":{"zipcode":"2053","total":6547,"geo_score":0.714,"total population 15 to 44 years old":2285,"id":"afs64h51qa24","geo_precision":"zip"},"type":"Feature","geometry":{"type":"Point","coordinates":[-71.424504,42.141764]}},{"properties":{"zipcode":"2054","total":4028,"geo_score":0.714,"total population 15 to 44 years old":1366,"id":"afs64hetoa3v","geo_precision":"zip"},"type":"Feature","geometry":{"type":"Point","coordinates":[-71.36126,42.165249]}},{"properties":{"zipcode":"2056","total":4469,"geo_score":0.714,"total population 15 to 44 years old":1449,"id":"afs64h9j8q1h","geo_precision":"zip"},"type":"Feature","geometry":{"type":"Point","coordinates":[-71.309778,42.126487]}},{"properties":{"zipcode":"2061","total":5471,"geo_score":0.714,"total population 15 to 44 years old":1529,"id":"afs64h7kojb3","geo_precision":"zip"},"type":"Feature","geometry":{"type":"Point","coordinates":[-70.823035,42.154145]}},{"properties":{"zipcode":"2062","total":14909,"geo_score":0.714,"total population 15 to 44 years old":5433,"id":"afs64h7m3lh2","geo_precision":"zip"},"type":"Feature","geometry":{"type":"Point","coordinates":[-71.196277,42.182798]}},{"properties":{"zipcode":"2066","total":9191,"geo_score":0.714,"total population 15 to 44 years old":2645,"id":"afs64h7hkvuo","geo_precision":"zip"},"type":"Feature","geometry":{"type":"Point","coordinates":[-70.717818,42.191768]}},{"properties":{"zipcode":"2067","total":9052,"geo_score":0.714,"total population 15 to 44 years old":2872,"id":"afs64h1lu390","geo_precision":"zip"},"type":"Feature","geometry":{"type":"Point","coordinates":[-71.184785,42.105288]}},{"properties":{"zipcode":"2071","total":487,"geo_score":0.714,"total population 15 to 44 years old":186,"id":"afs64h5ltw0e","geo_precision":"zip"},"type":"Feature","geometry":{"type":"Point","coordinates":[-71.270933,42.100399]}},{"properties":{"zipcode":"2072","total":14055,"geo_score":0.714,"total population 15 to 44 years old":4942,"id":"afs64hc0z6f7","geo_precision":"zip"},"type":"Feature","geometry":{"type":"Point","coordinates":[-71.080048,42.115378]}},{"properties":{"zipcode":"2081","total":9681,"geo_score":0.714,"total population 15 to 44 years old":3107,"id":"afs64h69ayk9","geo_precision":"zip"},"type":"Feature","geometry":{"type":"Point","coordinates":[-71.255533,42.148624]}},{"properties":{"zipcode":"2090","total":7665,"geo_score":0.714,"total population 15 to 44 years old":2180,"id":"afs64h1kzdwl","geo_precision":"zip"},"type":"Feature","geometry":{"type":"Point","coordinates":[-71.199238,42.220548]}},{"properties":{"zipcode":"2093","total":5555,"geo_score":0.714,"total population 15 to 44 years old":1768,"id":"afs64h36uppo","geo_precision":"zip"},"type":"Feature","geometry":{"type":"Point","coordinates":[-71.371169,42.054311]}},{"properties":{"zipcode":"2108","total":1904,"geo_score":0.714,"total population 15 to 44 years old":1049,"id":"afs64h6hpt50","geo_precision":"zip"},"type":"Feature","geometry":{"type":"Point","coordinates":[-71.102446,42.353806]}},{"properties":{"zipcode":"2109","total":1820,"geo_score":0.714,"total population 15 to 44 years old":998,"id":"afs64hg9rml7","geo_precision":"zip"},"type":"Feature","geometry":{"type":"Point","coordinates":[-71.054495,42.360027]}},{"properties":{"zipcode":"2110","total":838,"geo_score":0.714,"total population 15 to 44 years old":287,"id":"afs64h7fupzv","geo_precision":"zip"},"type":"Feature","geometry":{"type":"Point","coordinates":[-71.051466,42.352847]}},{"properties":{"zipcode":"2111","total":3616,"geo_score":0.714,"total population 15 to 44 years old":2044,"id":"afs64h8cl0pj","geo_precision":"zip"},"type":"Feature","geometry":{"type":"Point","coordinates":[-71.059365,42.351047]}},{"properties":{"zipcode":"2113","total":3769,"geo_score":0.714,"total population 15 to 44 years old":2794,"id":"afs64he6g1s9","geo_precision":"zip"},"type":"Feature","geometry":{"type":"Point","coordinates":[-71.055001,42.365398]}},{"properties":{"zipcode":"2114","total":6007,"geo_score":0.714,"total population 15 to 44 years old":4153,"id":"afs64h4vd2yd","geo_precision":"zip"},"type":"Feature","geometry":{"type":"Point","coordinates":[-71.023661,42.362097]}},{"properties":{"zipcode":"2115","total":14589,"geo_score":0.714,"total population 15 to 44 years old":11698,"id":"afs64h3jtuiw","geo_precision":"zip"},"type":"Feature","geometry":{"type":"Point","coordinates":[-71.096848,42.342043]}},{"properties":{"zipcode":"2116","total":10563,"geo_score":0.714,"total population 15 to 44 years old":6254,"id":"afs64h616ynu","geo_precision":"zip"},"type":"Feature","geometry":{"type":"Point","coordinates":[-71.086095,42.347207]}},{"properties":{"zipcode":"2118","total":12280,"geo_score":0.714,"total population 15 to 44 years old":6895,"id":"afs64heq7doo","geo_precision":"zip"},"type":"Feature","geometry":{"type":"Point","coordinates":[-71.072854,42.336162]}},{"properties":{"zipcode":"2119","total":13738,"geo_score":0.714,"total population 15 to 44 years old":5994,"id":"afs64h6zofbe","geo_precision":"zip"},"type":"Feature","geometry":{"type":"Point","coordinates":[-71.084608,42.323077]}},{"properties":{"zipcode":"2120","total":7704,"geo_score":0.714,"total population 15 to 44 years old":5160,"id":"afs64hh6o4ab","geo_precision":"zip"},"type":"Feature","geometry":{"type":"Point","coordinates":[-71.091163,42.330653]}},{"properties":{"zipcode":"2121","total":14554,"geo_score":0.714,"total population 15 to 44 years old":6430,"id":"afs64hci8x0c","geo_precision":"zip"},"type":"Feature","geometry":{"type":"Point","coordinates":[-71.081645,42.307098]}},{"properties":{"zipcode":"2122","total":11851,"geo_score":0.714,"total population 15 to 44 years old":5537,"id":"afs64hegdica","geo_precision":"zip"},"type":"Feature","geometry":{"type":"Point","coordinates":[-71.055215,42.29658]}},{"properties":{"zipcode":"2124","total":25959,"geo_score":0.714,"total population 15 to 44 years old":11486,"id":"afs64h23f45g","geo_precision":"zip"},"type":"Feature","geometry":{"type":"Point","coordinates":[-71.071045,42.286784]}},{"properties":{"zipcode":"2125","total":16896,"geo_score":0.714,"total population 15 to 44 years old":8634,"id":"afs64h2g2c05","geo_precision":"zip"},"type":"Feature","geometry":{"type":"Point","coordinates":[-71.067244,42.31476]}},{"properties":{"zipcode":"2126","total":14015,"geo_score":0.714,"total population 15 to 44 years old":5744,"id":"afs64h8twtq4","geo_precision":"zip"},"type":"Feature","geometry":{"type":"Point","coordinates":[-71.105195,42.301247]}},{"properties":{"zipcode":"2127","total":16864,"geo_score":0.714,"total population 15 to 44 years old":9637,"id":"afs64hdw32yi","geo_precision":"zip"},"type":"Feature","geometry":{"type":"Point","coordinates":[-71.049495,42.333431]}},{"properties":{"zipcode":"2128","total":19194,"geo_score":0.714,"total population 15 to 44 years old":9589,"id":"afs64h366m04","geo_precision":"zip"},"type":"Feature","geometry":{"type":"Point","coordinates":[-71.025694,42.364197]}},{"properties":{"zipcode":"2129","total":8850,"geo_score":0.714,"total population 15 to 44 years old":4713,"id":"afs64hasgvbq","geo_precision":"zip"},"type":"Feature","geometry":{"type":"Point","coordinates":[-71.065287,42.382588]}},{"properties":{"zipcode":"2130","total":19171,"geo_score":0.714,"total population 15 to 44 years old":9934,"id":"afs64h3ep5jt","geo_precision":"zip"},"type":"Feature","geometry":{"type":"Point","coordinates":[-71.121097,42.309661]}},{"properties":{"zipcode":"2131","total":15964,"geo_score":0.714,"total population 15 to 44 years old":6746,"id":"afs64h690g4b","geo_precision":"zip"},"type":"Feature","geometry":{"type":"Point","coordinates":[-71.120896,42.284197]}},{"properties":{"zipcode":"2132","total":13818,"geo_score":0.714,"total population 15 to 44 years old":4690,"id":"afs64h6h1r52","geo_precision":"zip"},"type":"Feature","geometry":{"type":"Point","coordinates":[-71.155833,42.277897]}},{"properties":{"zipcode":"2134","total":9929,"geo_score":0.714,"total population 15 to 44 years old":7614,"id":"afs64h5ftt17","geo_precision":"zip"},"type":"Feature","geometry":{"type":"Point","coordinates":[-71.112646,42.357169]}},{"properties":{"zipcode":"2135","total":21963,"geo_score":0.714,"total population 15 to 44 years old":14368,"id":"afs64hedglt2","geo_precision":"zip"},"type":"Feature","geometry":{"type":"Point","coordinates":[-71.104888,42.349768]}},{"properties":{"zipcode":"2136","total":15164,"geo_score":0.714,"total population 15 to 44 years old":6078,"id":"afs64h88f10r","geo_precision":"zip"},"type":"Feature","geometry":{"type":"Point","coordinates":[-71.129321,42.254248]}},{"properties":{"zipcode":"2138","total":19240,"geo_score":0.714,"total population 15 to 44 years old":12246,"id":"afs64h2ytx6k","geo_precision":"zip"},"type":"Feature","geometry":{"type":"Point","coordinates":[-71.132947,42.380442]}},{"properties":{"zipcode":"2139","total":18051,"geo_score":0.714,"total population 15 to 44 years old":11710,"id":"afs64hgurhak","geo_precision":"zip"},"type":"Feature","geometry":{"type":"Point","coordinates":[-71.103663,42.358431]}},{"properties":{"zipcode":"2140","total":9460,"geo_score":0.714,"total population 15 to 44 years old":4727,"id":"afs64heh3e4r","geo_precision":"zip"},"type":"Feature","geometry":{"type":"Point","coordinates":[-71.133833,42.393246]}},{"properties":{"zipcode":"2141","total":5938,"geo_score":0.714,"total population 15 to 44 years old":3386,"id":"afs64hef5pjc","geo_precision":"zip"},"type":"Feature","geometry":{"type":"Point","coordinates":[-71.080052,42.366764]}},{"properties":{"zipcode":"2142","total":1445,"geo_score":0.714,"total population 15 to 44 years old":1044,"id":"afs64h59pjf2","geo_precision":"zip"},"type":"Feature","geometry":{"type":"Point","coordinates":[-71.084814,42.36284]}},{"properties":{"zipcode":"2143","total":12377,"geo_score":0.714,"total population 15 to 44 years old":7742,"id":"afs64h3sdc2u","geo_precision":"zip"},"type":"Feature","geometry":{"type":"Point","coordinates":[-71.085608,42.385653]}},{"properties":{"zipcode":"2144","total":12729,"geo_score":0.714,"total population 15 to 44 years old":8307,"id":"afs64het9kxx","geo_precision":"zip"},"type":"Feature","geometry":{"type":"Point","coordinates":[-71.122553,42.39593]}},{"properties":{"zipcode":"2145","total":12503,"geo_score":0.714,"total population 15 to 44 years old":6634,"id":"afs64h2acznx","geo_precision":"zip"},"type":"Feature","geometry":{"type":"Point","coordinates":[-71.098941,42.39593]}},{"properties":{"zipcode":"2148","total":30678,"geo_score":0.714,"total population 15 to 44 years old":14014,"id":"afs64h92uibq","geo_precision":"zip"},"type":"Feature","geometry":{"type":"Point","coordinates":[-71.074497,42.434818]}},{"properties":{"zipcode":"2149","total":21166,"geo_score":0.714,"total population 15 to 44 years old":9422,"id":"afs64h7hfb65","geo_precision":"zip"},"type":"Feature","geometry":{"type":"Point","coordinates":[-71.063385,42.411208]}},{"properties":{"zipcode":"2150","total":17256,"geo_score":0.714,"total population 15 to 44 years old":8366,"id":"afs64h7xncb3","geo_precision":"zip"},"type":"Feature","geometry":{"type":"Point","coordinates":[-71.038894,42.378197]}},{"properties":{"zipcode":"2151","total":26396,"geo_score":0.714,"total population 15 to 44 years old":10966,"id":"afs64hh8vr5g","geo_precision":"zip"},"type":"Feature","geometry":{"type":"Point","coordinates":[-70.966161,42.440097]}},{"properties":{"zipcode":"2152","total":9039,"geo_score":0.714,"total population 15 to 44 years old":3205,"id":"afs64haso7bb","geo_precision":"zip"},"type":"Feature","geometry":{"type":"Point","coordinates":[-70.994772,42.372875]}},{"properties":{"zipcode":"2155","total":30258,"geo_score":0.714,"total population 15 to 44 years old":13923,"id":"afs64h7g6unq","geo_precision":"zip"},"type":"Feature","geometry":{"type":"Point","coordinates":[-71.08283,42.411208]}},{"properties":{"zipcode":"2163","total":1295,"geo_score":0.714,"total population 15 to 44 years old":1259,"id":"afs64hadmdzo","geo_precision":"zip"},"type":"Feature","geometry":{"type":"Point","coordinates":[-71.112159,42.32532]}},{"properties":{"zipcode":"2169","total":28616,"geo_score":0.714,"total population 15 to 44 years old":12242,"id":"afs64h3bk8mt","geo_precision":"zip"},"type":"Feature","geometry":{"type":"Point","coordinates":[-70.961992,42.262322]}},{"properties":{"zipcode":"2170","total":10164,"geo_score":0.714,"total population 15 to 44 years old":4394,"id":"afs64hfruy6h","geo_precision":"zip"},"type":"Feature","geometry":{"type":"Point","coordinates":[-71.016742,42.267248]}},{"properties":{"zipcode":"2171","total":9292,"geo_score":0.714,"total population 15 to 44 years old":3891,"id":"afs64hczdnil","geo_precision":"zip"},"type":"Feature","geometry":{"type":"Point","coordinates":[-71.020327,42.272321]}},{"properties":{"zipcode":"2176","total":14291,"geo_score":0.714,"total population 15 to 44 years old":5085,"id":"afs64hf1ilyf","geo_precision":"zip"},"type":"Feature","geometry":{"type":"Point","coordinates":[-71.071163,42.441763]}},{"properties":{"zipcode":"2180","total":11289,"geo_score":0.714,"total population 15 to 44 years old":3803,"id":"afs64hhix9rj","geo_precision":"zip"},"type":"Feature","geometry":{"type":"Point","coordinates":[-71.098146,42.474595]}},{"properties":{"zipcode":"2184","total":18870,"geo_score":0.714,"total population 15 to 44 years old":6707,"id":"afs64hg9ug28","geo_precision":"zip"},"type":"Feature","geometry":{"type":"Point","coordinates":[-70.974492,42.2251]}},{"properties":{"zipcode":"2186","total":14267,"geo_score":0.714,"total population 15 to 44 years old":4884,"id":"afs64heairza","geo_precision":"zip"},"type":"Feature","geometry":{"type":"Point","coordinates":[-71.080051,42.254266]}},{"properties":{"zipcode":"2188","total":7803,"geo_score":0.714,"total population 15 to 44 years old":2829,"id":"afs64hasphoh","geo_precision":"zip"},"type":"Feature","geometry":{"type":"Point","coordinates":[-70.95514,42.20794]}},{"properties":{"zipcode":"2189","total":7689,"geo_score":0.714,"total population 15 to 44 years old":2985,"id":"afs64hark4jc","geo_precision":"zip"},"type":"Feature","geometry":{"type":"Point","coordinates":[-70.932318,42.210649]}},{"properties":{"zipcode":"2190","total":8374,"geo_score":0.714,"total population 15 to 44 years old":3138,"id":"afs64h18tzcy","geo_precision":"zip"},"type":"Feature","geometry":{"type":"Point","coordinates":[-70.95074,42.167841]}},{"properties":{"zipcode":"2191","total":4419,"geo_score":0.714,"total population 15 to 44 years old":1476,"id":"afs64h2y4hp8","geo_precision":"zip"},"type":"Feature","geometry":{"type":"Point","coordinates":[-70.94484,42.251499]}},{"properties":{"zipcode":"2199","total":622,"geo_score":0.714,"total population 15 to 44 years old":331,"id":"afs64hfbqze3","geo_precision":"zip"},"type":"Feature","geometry":{"type":"Point","coordinates":[-71.082395,42.347247]}},{"properties":{"zipcode":"2203","total":0,"geo_score":0.714,"total population 15 to 44 years old":0,"id":"afs64hc2rycv","geo_precision":"zip"},"type":"Feature","geometry":{"type":"Point","coordinates":[-71.060364,42.361485]}},{"properties":{"zipcode":"2210","total":901,"geo_score":0.714,"total population 15 to 44 years old":573,"id":"afs64h7zjy11","geo_precision":"zip"},"type":"Feature","geometry":{"type":"Point","coordinates":[-71.040645,42.347547]}},{"properties":{"zipcode":"2215","total":14911,"geo_score":0.714,"total population 15 to 44 years old":13651,"id":"afs64h3c2r8z","geo_precision":"zip"},"type":"Feature","geometry":{"type":"Point","coordinates":[-71.107653,42.345079]}},{"properties":{"zipcode":"2301","total":31720,"geo_score":0.714,"total population 15 to 44 years old":13069,"id":"afs64hct4bv8","geo_precision":"zip"},"type":"Feature","geometry":{"type":"Point","coordinates":[-71.03999,42.079399]}},{"properties":{"zipcode":"2302","total":16963,"geo_score":0.714,"total population 15 to 44 years old":6919,"id":"afs64h8otd68","geo_precision":"zip"},"type":"Feature","geometry":{"type":"Point","coordinates":[-71.000189,42.08475]}},{"properties":{"zipcode":"2322","total":2247,"geo_score":0.714,"total population 15 to 44 years old":751,"id":"afs64h5qy5md","geo_precision":"zip"},"type":"Feature","geometry":{"type":"Point","coordinates":[-71.048216,42.126049]}},{"properties":{"zipcode":"2324","total":12880,"geo_score":0.714,"total population 15 to 44 years old":6008,"id":"afs64hg5uqnd","geo_precision":"zip"},"type":"Feature","geometry":{"type":"Point","coordinates":[-70.976558,41.973741]}},{"properties":{"zipcode":"2330","total":5899,"geo_score":0.714,"total population 15 to 44 years old":2021,"id":"afs64h6ij90d","geo_precision":"zip"},"type":"Feature","geometry":{"type":"Point","coordinates":[-70.759689,41.896238]}},{"properties":{"zipcode":"2332","total":7818,"geo_score":0.714,"total population 15 to 44 years old":2145,"id":"afs64hcu4s40","geo_precision":"zip"},"type":"Feature","geometry":{"type":"Point","coordinates":[-70.682815,42.023159]}},{"properties":{"zipcode":"2333","total":7065,"geo_score":0.714,"total population 15 to 44 years old":2601,"id":"afs64hgucbh9","geo_precision":"zip"},"type":"Feature","geometry":{"type":"Point","coordinates":[-70.982821,42.020379]}},{"properties":{"zipcode":"2338","total":3859,"geo_score":0.714,"total population 15 to 44 years old":1355,"id":"afs64haaihze","geo_precision":"zip"},"type":"Feature","geometry":{"type":"Point","coordinates":[-70.860578,41.988351]}},{"properties":{"zipcode":"2339","total":7104,"geo_score":0.714,"total population 15 to 44 years old":2318,"id":"afs64hap202l","geo_precision":"zip"},"type":"Feature","geometry":{"type":"Point","coordinates":[-70.841153,42.116768]}},{"properties":{"zipcode":"2341","total":5138,"geo_score":0.714,"total population 15 to 44 years old":1873,"id":"afs64h1rwbj9","geo_precision":"zip"},"type":"Feature","geometry":{"type":"Point","coordinates":[-70.866153,42.065379]}},{"properties":{"zipcode":"2343","total":5518,"geo_score":0.714,"total population 15 to 44 years old":2029,"id":"afs64h6cj4ui","geo_precision":"zip"},"type":"Feature","geometry":{"type":"Point","coordinates":[-71.009213,42.1251]}},{"properties":{"zipcode":"2346","total":11819,"geo_score":0.714,"total population 15 to 44 years old":4304,"id":"afs64h5wbz41","geo_precision":"zip"},"type":"Feature","geometry":{"type":"Point","coordinates":[-70.95643,41.798713]}},{"properties":{"zipcode":"2347","total":5412,"geo_score":0.714,"total population 15 to 44 years old":1850,"id":"afs64hchw1db","geo_precision":"zip"},"type":"Feature","geometry":{"type":"Point","coordinates":[-70.959981,41.843757]}},{"properties":{"zipcode":"2351","total":8199,"geo_score":0.714,"total population 15 to 44 years old":3177,"id":"afs64h6046pe","geo_precision":"zip"},"type":"Feature","geometry":{"type":"Point","coordinates":[-70.966155,42.091767]}},{"properties":{"zipcode":"2356","total":6534,"geo_score":0.714,"total population 15 to 44 years old":2465,"id":"afs64hab2ohs","geo_precision":"zip"},"type":"Feature","geometry":{"type":"Point","coordinates":[-71.086992,42.066767]}},{"properties":{"zipcode":"2357","total":790,"geo_score":0.714,"total population 15 to 44 years old":790,"id":"afs64h7uybqu","geo_precision":"zip"},"type":"Feature","geometry":{"type":"Point","coordinates":[-71.087091,42.064499]}},{"properties":{"zipcode":"2359","total":9077,"geo_score":0.714,"total population 15 to 44 years old":3260,"id":"afs64hbo4ipc","geo_precision":"zip"},"type":"Feature","geometry":{"type":"Point","coordinates":[-70.828652,42.066768]}},{"properties":{"zipcode":"2360","total":28557,"geo_score":0.714,"total population 15 to 44 years old":10110,"id":"afs64hdy4sif","geo_precision":"zip"},"type":"Feature","geometry":{"type":"Point","coordinates":[-70.682814,41.970937]}},{"properties":{"zipcode":"2364","total":6589,"geo_score":0.714,"total population 15 to 44 years old":2180,"id":"afs64h3xlg9d","geo_precision":"zip"},"type":"Feature","geometry":{"type":"Point","coordinates":[-70.706982,41.998714]}},{"properties":{"zipcode":"2366","total":1,"geo_score":0.714,"total population 15 to 44 years old":1,"id":"afs64h54g5ow","geo_precision":"zip"},"type":"Feature","geometry":{"type":"Point","coordinates":[-70.704431,41.850087]}},{"properties":{"zipcode":"2367","total":1436,"geo_score":0.714,"total population 15 to 44 years old":487,"id":"afs64ha33r2k","geo_precision":"zip"},"type":"Feature","geometry":{"type":"Point","coordinates":[-70.812299,41.96914]}},{"properties":{"zipcode":"2368","total":16721,"geo_score":0.714,"total population 15 to 44 years old":6494,"id":"afs64h8oi6zm","geo_precision":"zip"},"type":"Feature","geometry":{"type":"Point","coordinates":[-71.061993,42.197322]}},{"properties":{"zipcode":"2370","total":9131,"geo_score":0.714,"total population 15 to 44 years old":3453,"id":"afs64h9ivet2","geo_precision":"zip"},"type":"Feature","geometry":{"type":"Point","coordinates":[-70.885095,41.954199]}},{"properties":{"zipcode":"2375","total":4725,"geo_score":0.714,"total population 15 to 44 years old":1683,"id":"afs64hbug8zb","geo_precision":"zip"},"type":"Feature","geometry":{"type":"Point","coordinates":[-71.111091,42.023199]}},{"properties":{"zipcode":"2379","total":3516,"geo_score":0.714,"total population 15 to 44 years old":1155,"id":"afs64h38xonr","geo_precision":"zip"},"type":"Feature","geometry":{"type":"Point","coordinates":[-71.057824,42.041767]}},{"properties":{"zipcode":"2382","total":7419,"geo_score":0.714,"total population 15 to 44 years old":2919,"id":"afs64h36frrd","geo_precision":"zip"},"type":"Feature","geometry":{"type":"Point","coordinates":[-70.963377,42.069545]}},{"properties":{"zipcode":"2420","total":7366,"geo_score":0.714,"total population 15 to 44 years old":1971,"id":"afs64h56mvwy","geo_precision":"zip"},"type":"Feature","geometry":{"type":"Point","coordinates":[-71.21665,42.45631]}},{"properties":{"zipcode":"2421","total":9124,"geo_score":0.714,"total population 15 to 44 years old":2653,"id":"afs64h9vy9h2","geo_precision":"zip"},"type":"Feature","geometry":{"type":"Point","coordinates":[-71.226453,42.442567]}},{"properties":{"zipcode":"2445","total":11165,"geo_score":0.714,"total population 15 to 44 years old":5226,"id":"afs64hgqbs91","geo_precision":"zip"},"type":"Feature","geometry":{"type":"Point","coordinates":[-71.143697,42.318097]}},{"properties":{"zipcode":"2446","total":16465,"geo_score":0.714,"total population 15 to 44 years old":9318,"id":"afs64h9ujoav","geo_precision":"zip"},"type":"Feature","geometry":{"type":"Point","coordinates":[-71.123046,42.343097]}},{"properties":{"zipcode":"2451","total":8901,"geo_score":0.714,"total population 15 to 44 years old":3697,"id":"afs64h4ds4ez","geo_precision":"zip"},"type":"Feature","geometry":{"type":"Point","coordinates":[-71.24505,42.398588]}},{"properties":{"zipcode":"2452","total":7158,"geo_score":0.714,"total population 15 to 44 years old":3581,"id":"afs64hhkk3cx","geo_precision":"zip"},"type":"Feature","geometry":{"type":"Point","coordinates":[-71.218049,42.394319]}},{"properties":{"zipcode":"2453","total":14369,"geo_score":0.714,"total population 15 to 44 years old":7881,"id":"afs64hdmpujs","geo_precision":"zip"},"type":"Feature","geometry":{"type":"Point","coordinates":[-71.23165,42.365396]}},{"properties":{"zipcode":"2457","total":630,"geo_score":0.714,"total population 15 to 44 years old":623,"id":"afs64h8qtjbq","geo_precision":"zip"},"type":"Feature","geometry":{"type":"Point","coordinates":[-71.08923,42.180048]}},{"properties":{"zipcode":"2458","total":6519,"geo_score":0.714,"total population 15 to 44 years old":2564,"id":"afs64h2fvpuv","geo_precision":"zip"},"type":"Feature","geometry":{"type":"Point","coordinates":[-71.208399,42.385096]}},{"properties":{"zipcode":"2459","total":10057,"geo_score":0.714,"total population 15 to 44 years old":3664,"id":"afs64h2fotz3","geo_precision":"zip"},"type":"Feature","geometry":{"type":"Point","coordinates":[-71.183298,42.334146]}},{"properties":{"zipcode":"2460","total":4615,"geo_score":0.714,"total population 15 to 44 years old":1615,"id":"afs64h4ufh2x","geo_precision":"zip"},"type":"Feature","geometry":{"type":"Point","coordinates":[-71.182371,42.374296]}},{"properties":{"zipcode":"2461","total":3735,"geo_score":0.714,"total population 15 to 44 years old":1262,"id":"afs64hbguiqu","geo_precision":"zip"},"type":"Feature","geometry":{"type":"Point","coordinates":[-71.205349,42.361196]}},{"properties":{"zipcode":"2462","total":855,"geo_score":0.714,"total population 15 to 44 years old":225,"id":"afs64hgt31nf","geo_precision":"zip"},"type":"Feature","geometry":{"type":"Point","coordinates":[-71.209699,42.349496]}},{"properties":{"zipcode":"2464","total":1610,"geo_score":0.714,"total population 15 to 44 years old":630,"id":"afs64hffnp7b","geo_precision":"zip"},"type":"Feature","geometry":{"type":"Point","coordinates":[-71.221849,42.36599]}},{"properties":{"zipcode":"2465","total":6134,"geo_score":0.714,"total population 15 to 44 years old":1971,"id":"afs64hajyjh2","geo_precision":"zip"},"type":"Feature","geometry":{"type":"Point","coordinates":[-71.213199,42.378145]}},{"properties":{"zipcode":"2466","total":4487,"geo_score":0.714,"total population 15 to 44 years old":2031,"id":"afs64he9gjt3","geo_precision":"zip"},"type":"Feature","geometry":{"type":"Point","coordinates":[-71.224957,42.346696]}},{"properties":{"zipcode":"2467","total":12127,"geo_score":0.714,"total population 15 to 44 years old":6649,"id":"afs64h7iksvk","geo_precision":"zip"},"type":"Feature","geometry":{"type":"Point","coordinates":[-71.211649,42.357564]}},{"properties":{"zipcode":"2468","total":2703,"geo_score":0.714,"total population 15 to 44 years old":708,"id":"afs64h923umh","geo_precision":"zip"},"type":"Feature","geometry":{"type":"Point","coordinates":[-71.231534,42.327146]}},{"properties":{"zipcode":"2472","total":17010,"geo_score":0.714,"total population 15 to 44 years old":7610,"id":"afs64h2ebea2","geo_precision":"zip"},"type":"Feature","geometry":{"type":"Point","coordinates":[-71.201398,42.363096]}},{"properties":{"zipcode":"2474","total":13968,"geo_score":0.714,"total population 15 to 44 years old":5451,"id":"afs64h9m6y82","geo_precision":"zip"},"type":"Feature","geometry":{"type":"Point","coordinates":[-71.159696,42.417595]}},{"properties":{"zipcode":"2476","total":8972,"geo_score":0.714,"total population 15 to 44 years old":2955,"id":"afs64h5m3bj3","geo_precision":"zip"},"type":"Feature","geometry":{"type":"Point","coordinates":[-71.184299,42.379146]}},{"properties":{"zipcode":"2478","total":13074,"geo_score":0.714,"total population 15 to 44 years old":4557,"id":"afs64h87eroq","geo_precision":"zip"},"type":"Feature","geometry":{"type":"Point","coordinates":[-71.204399,42.412795]}},{"properties":{"zipcode":"2481","total":9471,"geo_score":0.714,"total population 15 to 44 years old":4073,"id":"afs64hgf68jc","geo_precision":"zip"},"type":"Feature","geometry":{"type":"Point","coordinates":[-71.274652,42.310597]}},{"properties":{"zipcode":"2482","total":5545,"geo_score":0.714,"total population 15 to 44 years old":1653,"id":"afs64h1y9anh","geo_precision":"zip"},"type":"Feature","geometry":{"type":"Point","coordinates":[-71.299201,42.294546]}},{"properties":{"zipcode":"2492","total":10336,"geo_score":0.714,"total population 15 to 44 years old":2878,"id":"afs64h8u0dxz","geo_precision":"zip"},"type":"Feature","geometry":{"type":"Point","coordinates":[-71.25006,42.279797]}},{"properties":{"zipcode":"2493","total":5884,"geo_score":0.714,"total population 15 to 44 years old":1710,"id":"afs64heicpj7","geo_precision":"zip"},"type":"Feature","geometry":{"type":"Point","coordinates":[-71.227208,42.375925]}},{"properties":{"zipcode":"2494","total":4637,"geo_score":0.714,"total population 15 to 44 years old":1430,"id":"afs64h85ohba","geo_precision":"zip"},"type":"Feature","geometry":{"type":"Point","coordinates":[-71.26315,42.300147]}},{"properties":{"zipcode":"2532","total":6194,"geo_score":0.714,"total population 15 to 44 years old":1911,"id":"afs64h24iv7m","geo_precision":"zip"},"type":"Feature","geometry":{"type":"Point","coordinates":[-70.620309,41.733439]}},{"properties":{"zipcode":"2534","total":427,"geo_score":0.714,"total population 15 to 44 years old":106,"id":"afs64h2m8cpt","geo_precision":"zip"},"type":"Feature","geometry":{"type":"Point","coordinates":[-70.61892,41.659829]}},{"properties":{"zipcode":"2535","total":585,"geo_score":0.714,"total population 15 to 44 years old":160,"id":"afs64h23jxrc","geo_precision":"zip"},"type":"Feature","geometry":{"type":"Point","coordinates":[-70.769751,41.320947]}},{"properties":{"zipcode":"2536","total":10248,"geo_score":0.714,"total population 15 to 44 years old":3030,"id":"afs64hem88jc","geo_precision":"zip"},"type":"Feature","geometry":{"type":"Point","coordinates":[-70.563362,41.551499]}},{"properties":{"zipcode":"2537","total":3250,"geo_score":0.714,"total population 15 to 44 years old":1001,"id":"afs64hg8mp2q","geo_precision":"zip"},"type":"Feature","geometry":{"type":"Point","coordinates":[-70.41197,41.741774]}},{"properties":{"zipcode":"2538","total":1844,"geo_score":0.714,"total population 15 to 44 years old":714,"id":"afs64h3c1tbr","geo_precision":"zip"},"type":"Feature","geometry":{"type":"Point","coordinates":[-70.660562,41.77544]}},{"properties":{"zipcode":"2539","total":1975,"geo_score":0.714,"total population 15 to 44 years old":644,"id":"afs64hg52sws","geo_precision":"zip"},"type":"Feature","geometry":{"type":"Point","coordinates":[-70.518915,41.38345]}},{"properties":{"zipcode":"2540","total":4548,"geo_score":0.714,"total population 15 to 44 years old":960,"id":"afs64h6cekyo","geo_precision":"zip"},"type":"Feature","geometry":{"type":"Point","coordinates":[-70.649475,41.543442]}},{"properties":{"zipcode":"2542","total":363,"geo_score":0.714,"total population 15 to 44 years old":242,"id":"afs64h7uvofd","geo_precision":"zip"},"type":"Feature","geometry":{"type":"Point","coordinates":[-70.543918,41.657052]}},{"properties":{"zipcode":"2543","total":338,"geo_score":0.714,"total population 15 to 44 years old":108,"id":"afs64h7qatoa","geo_precision":"zip"},"type":"Feature","geometry":{"type":"Point","coordinates":[-70.646442,41.593809]}},{"properties":{"zipcode":"2553","total":120,"geo_score":0.714,"total population 15 to 44 years old":33,"id":"afs64h3aqkf4","geo_precision":"zip"},"type":"Feature","geometry":{"type":"Point","coordinates":[-70.608047,41.67336]}},{"properties":{"zipcode":"2554","total":4803,"geo_score":0.714,"total population 15 to 44 years old":1902,"id":"afs64h75m02c","geo_precision":"zip"},"type":"Feature","geometry":{"type":"Point","coordinates":[-69.980014,41.304288]}},{"properties":{"zipcode":"2556","total":1661,"geo_score":0.714,"total population 15 to 44 years old":352,"id":"afs64h7rfjlp","geo_precision":"zip"},"type":"Feature","geometry":{"type":"Point","coordinates":[-70.375475,41.652967]}},{"properties":{"zipcode":"2557","total":2295,"geo_score":0.714,"total population 15 to 44 years old":760,"id":"afs64hg7klbo","geo_precision":"zip"},"type":"Feature","geometry":{"type":"Point","coordinates":[-70.560032,41.417376]}},{"properties":{"zipcode":"2558","total":1100,"geo_score":0.714,"total population 15 to 44 years old":363,"id":"afs64h5cf1ua","geo_precision":"zip"},"type":"Feature","geometry":{"type":"Point","coordinates":[-70.655033,41.750105]}},{"properties":{"zipcode":"2559","total":1773,"geo_score":0.714,"total population 15 to 44 years old":461,"id":"afs64h7hbizr","geo_precision":"zip"},"type":"Feature","geometry":{"type":"Point","coordinates":[-70.622769,41.694771]}},{"properties":{"zipcode":"2561","total":260,"geo_score":0.714,"total population 15 to 44 years old":81,"id":"afs64h4nlc6z","geo_precision":"zip"},"type":"Feature","geometry":{"type":"Point","coordinates":[-70.535585,41.806772]}},{"properties":{"zipcode":"2562","total":1567,"geo_score":0.714,"total population 15 to 44 years old":487,"id":"afs64h64p7da","geo_precision":"zip"},"type":"Feature","geometry":{"type":"Point","coordinates":[-70.519584,41.793263]}},{"properties":{"zipcode":"2563","total":5408,"geo_score":0.714,"total population 15 to 44 years old":1565,"id":"afs64h3db7zt","geo_precision":"zip"},"type":"Feature","geometry":{"type":"Point","coordinates":[-70.477482,41.711291]}},{"properties":{"zipcode":"2564","total":161,"geo_score":0.714,"total population 15 to 44 years old":45,"id":"afs64h1zagyw","geo_precision":"zip"},"type":"Feature","geometry":{"type":"Point","coordinates":[-70.015545,41.273949]}},{"properties":{"zipcode":"2568","total":2039,"geo_score":0.714,"total population 15 to 44 years old":688,"id":"afs64h1osejs","geo_precision":"zip"},"type":"Feature","geometry":{"type":"Point","coordinates":[-70.674473,41.405668]}},{"properties":{"zipcode":"2571","total":5464,"geo_score":0.714,"total population 15 to 44 years old":1844,"id":"afs64hhkulgm","geo_precision":"zip"},"type":"Feature","geometry":{"type":"Point","coordinates":[-70.749481,41.772326]}},{"properties":{"zipcode":"2575","total":1425,"geo_score":0.714,"total population 15 to 44 years old":434,"id":"afs64h2lq1nj","geo_precision":"zip"},"type":"Feature","geometry":{"type":"Point","coordinates":[-70.642806,41.42125]}},{"properties":{"zipcode":"2576","total":1967,"geo_score":0.714,"total population 15 to 44 years old":627,"id":"afs64h38puie","geo_precision":"zip"},"type":"Feature","geometry":{"type":"Point","coordinates":[-70.749688,41.769863]}},{"properties":{"zipcode":"2584","total":3,"geo_score":0.714,"total population 15 to 44 years old":2,"id":"afs64h1hjg3i","geo_precision":"zip"},"type":"Feature","geometry":{"type":"Point","coordinates":[-70.046019,41.277794]}},{"properties":{"zipcode":"2601","total":7167,"geo_score":0.714,"total population 15 to 44 years old":2723,"id":"afs64hccmhij","geo_precision":"zip"},"type":"Feature","geometry":{"type":"Point","coordinates":[-70.228631,41.705666]}},{"properties":{"zipcode":"2630","total":969,"geo_score":0.714,"total population 15 to 44 years old":188,"id":"afs64hh6bhp8","geo_precision":"zip"},"type":"Feature","geometry":{"type":"Point","coordinates":[-70.291133,41.708443]}},{"properties":{"zipcode":"2631","total":5198,"geo_score":0.714,"total population 15 to 44 years old":1188,"id":"afs64h6c6zxb","geo_precision":"zip"},"type":"Feature","geometry":{"type":"Point","coordinates":[-70.05974,41.768165]}},{"properties":{"zipcode":"2632","total":5690,"geo_score":0.714,"total population 15 to 44 years old":1575,"id":"afs64hcfcwa9","geo_precision":"zip"},"type":"Feature","geometry":{"type":"Point","coordinates":[-70.175129,41.796311]}},{"properties":{"zipcode":"2633","total":2016,"geo_score":0.714,"total population 15 to 44 years old":375,"id":"afs64h3k91zb","geo_precision":"zip"},"type":"Feature","geometry":{"type":"Point","coordinates":[-70.0468,41.859559]}},{"properties":{"zipcode":"2635","total":1678,"geo_score":0.714,"total population 15 to 44 years old":395,"id":"afs64har1z6d","geo_precision":"zip"},"type":"Feature","geometry":{"type":"Point","coordinates":[-70.450582,41.637609]}},{"properties":{"zipcode":"2637","total":128,"geo_score":0.714,"total population 15 to 44 years old":18,"id":"afs64hftjx3m","geo_precision":"zip"},"type":"Feature","geometry":{"type":"Point","coordinates":[-70.277212,41.701438]}},{"properties":{"zipcode":"2638","total":1709,"geo_score":0.714,"total population 15 to 44 years old":329,"id":"afs64hfh1ata","geo_precision":"zip"},"type":"Feature","geometry":{"type":"Point","coordinates":[-70.089142,41.725716]}},{"properties":{"zipcode":"2639","total":1505,"geo_score":0.714,"total population 15 to 44 years old":445,"id":"afs64hfycz5t","geo_precision":"zip"},"type":"Feature","geometry":{"type":"Point","coordinates":[-70.071836,41.750745]}},{"properties":{"zipcode":"2641","total":279,"geo_score":0.714,"total population 15 to 44 years old":32,"id":"afs64hhermn8","geo_precision":"zip"},"type":"Feature","geometry":{"type":"Point","coordinates":[-70.20467,41.734713]}},{"properties":{"zipcode":"2642","total":2640,"geo_score":0.714,"total population 15 to 44 years old":575,"id":"afs64ha5cqai","geo_precision":"zip"},"type":"Feature","geometry":{"type":"Point","coordinates":[-70.020648,41.850612]}},{"properties":{"zipcode":"2643","total":19,"geo_score":0.714,"total population 15 to 44 years old":2,"id":"afs64h3qq9c4","geo_precision":"zip"},"type":"Feature","geometry":{"type":"Point","coordinates":[-69.943073,41.804276]}},{"properties":{"zipcode":"2644","total":2029,"geo_score":0.714,"total population 15 to 44 years old":758,"id":"afs64h23z2fs","geo_precision":"zip"},"type":"Feature","geometry":{"type":"Point","coordinates":[-70.268632,41.790031]}},{"properties":{"zipcode":"2645","total":5163,"geo_score":0.714,"total population 15 to 44 years old":1328,"id":"afs64h4ydkgt","geo_precision":"zip"},"type":"Feature","geometry":{"type":"Point","coordinates":[-70.069384,41.692354]}},{"properties":{"zipcode":"2646","total":900,"geo_score":0.714,"total population 15 to 44 years old":171,"id":"afs64hd7q9kz","geo_precision":"zip"},"type":"Feature","geometry":{"type":"Point","coordinates":[-70.053544,41.845717]}},{"properties":{"zipcode":"2647","total":68,"geo_score":0.714,"total population 15 to 44 years old":16,"id":"afs64hb8p6ty","geo_precision":"zip"},"type":"Feature","geometry":{"type":"Point","coordinates":[-70.306336,41.635004]}},{"properties":{"zipcode":"2648","total":3756,"geo_score":0.714,"total population 15 to 44 years old":1163,"id":"afs64ha2aps5","geo_precision":"zip"},"type":"Feature","geometry":{"type":"Point","coordinates":[-70.438637,41.671776]}},{"properties":{"zipcode":"2649","total":7495,"geo_score":0.714,"total population 15 to 44 years old":2213,"id":"afs64hapbrb3","geo_precision":"zip"},"type":"Feature","geometry":{"type":"Point","coordinates":[-70.476972,41.58261]}},{"properties":{"zipcode":"2650","total":490,"geo_score":0.714,"total population 15 to 44 years old":75,"id":"afs64hf837up","geo_precision":"zip"},"type":"Feature","geometry":{"type":"Point","coordinates":[-69.96946,41.702889]}},{"properties":{"zipcode":"2651","total":7,"geo_score":0.714,"total population 15 to 44 years old":0,"id":"afs64hgg91mq","geo_precision":"zip"},"type":"Feature","geometry":{"type":"Point","coordinates":[-70.00363,41.843719]}},{"properties":{"zipcode":"2652","total":589,"geo_score":0.714,"total population 15 to 44 years old":139,"id":"afs64hdtbj3p","geo_precision":"zip"},"type":"Feature","geometry":{"type":"Point","coordinates":[-70.131692,42.054825]}},{"properties":{"zipcode":"2653","total":3121,"geo_score":0.714,"total population 15 to 44 years old":559,"id":"afs64h940tt3","geo_precision":"zip"},"type":"Feature","geometry":{"type":"Point","coordinates":[-69.956406,41.805664]}},{"properties":{"zipcode":"2655","total":1877,"geo_score":0.714,"total population 15 to 44 years old":432,"id":"afs64h5rnp3n","geo_precision":"zip"},"type":"Feature","geometry":{"type":"Point","coordinates":[-70.191269,41.810178]}},{"properties":{"zipcode":"2657","total":1340,"geo_score":0.714,"total population 15 to 44 years old":321,"id":"afs64haugt2g","geo_precision":"zip"},"type":"Feature","geometry":{"type":"Point","coordinates":[-70.152248,42.063992]}},{"properties":{"zipcode":"2659","total":575,"geo_score":0.714,"total population 15 to 44 years old":136,"id":"afs64h6g733o","geo_precision":"zip"},"type":"Feature","geometry":{"type":"Point","coordinates":[-70.030194,41.848932]}},{"properties":{"zipcode":"2660","total":3379,"geo_score":0.714,"total population 15 to 44 years old":776,"id":"afs64hcvmfzc","geo_precision":"zip"},"type":"Feature","geometry":{"type":"Point","coordinates":[-70.089244,41.80038]}},{"properties":{"zipcode":"2663","total":88,"geo_score":0.714,"total population 15 to 44 years old":14,"id":"afs64h4l26ns","geo_precision":"zip"},"type":"Feature","geometry":{"type":"Point","coordinates":[-70.076776,41.800531]}},{"properties":{"zipcode":"2664","total":4991,"geo_score":0.714,"total population 15 to 44 years old":1302,"id":"afs64hfu49ze","geo_precision":"zip"},"type":"Feature","geometry":{"type":"Point","coordinates":[-70.084259,41.82412]}},{"properties":{"zipcode":"2666","total":425,"geo_score":0.714,"total population 15 to 44 years old":90,"id":"afs64h2xodul","geo_precision":"zip"},"type":"Feature","geometry":{"type":"Point","coordinates":[-70.047163,41.987377]}},{"properties":{"zipcode":"2667","total":1380,"geo_score":0.714,"total population 15 to 44 years old":342,"id":"afs64hgb7zpz","geo_precision":"zip"},"type":"Feature","geometry":{"type":"Point","coordinates":[-69.985577,41.94455]}},{"properties":{"zipcode":"2668","total":1696,"geo_score":0.714,"total population 15 to 44 years old":476,"id":"afs64hcphu7a","geo_precision":"zip"},"type":"Feature","geometry":{"type":"Point","coordinates":[-70.201719,41.79055]}},{"properties":{"zipcode":"2669","total":145,"geo_score":0.714,"total population 15 to 44 years old":32,"id":"afs64hcc30wq","geo_precision":"zip"},"type":"Feature","geometry":{"type":"Point","coordinates":[-70.004937,41.698721]}},{"properties":{"zipcode":"2670","total":725,"geo_score":0.714,"total population 15 to 44 years old":159,"id":"afs64h4seqy4","geo_precision":"zip"},"type":"Feature","geometry":{"type":"Point","coordinates":[-70.072195,41.710855]}},{"properties":{"zipcode":"2671","total":553,"geo_score":0.714,"total population 15 to 44 years old":125,"id":"afs64h22ffoz","geo_precision":"zip"},"type":"Feature","geometry":{"type":"Point","coordinates":[-70.038282,41.846719]}},{"properties":{"zipcode":"2672","total":93,"geo_score":0.714,"total population 15 to 44 years old":18,"id":"afs64h7n3lsq","geo_precision":"zip"},"type":"Feature","geometry":{"type":"Point","coordinates":[-70.323307,41.635635]}},{"properties":{"zipcode":"2673","total":4431,"geo_score":0.714,"total population 15 to 44 years old":1409,"id":"afs64hc3pkqc","geo_precision":"zip"},"type":"Feature","geometry":{"type":"Point","coordinates":[-70.246687,41.645945]}},{"properties":{"zipcode":"2675","total":3595,"geo_score":0.714,"total population 15 to 44 years old":692,"id":"afs64h9zpl6p","geo_precision":"zip"},"type":"Feature","geometry":{"type":"Point","coordinates":[-70.135884,41.716271]}},{"properties":{"zipcode":"2702","total":2073,"geo_score":0.714,"total population 15 to 44 years old":745,"id":"afs64hd4pzps","geo_precision":"zip"},"type":"Feature","geometry":{"type":"Point","coordinates":[-71.017328,41.782993]}},{"properties":{"zipcode":"2703","total":22297,"geo_score":0.714,"total population 15 to 44 years old":8787,"id":"afs64h4pk4ye","geo_precision":"zip"},"type":"Feature","geometry":{"type":"Point","coordinates":[-71.362,41.908433]}},{"properties":{"zipcode":"2713","total":21,"geo_score":0.714,"total population 15 to 44 years old":6,"id":"afs64h8hf4bp","geo_precision":"zip"},"type":"Feature","geometry":{"type":"Point","coordinates":[-70.931309,41.42178]}},{"properties":{"zipcode":"2715","total":1551,"geo_score":0.714,"total population 15 to 44 years old":591,"id":"afs64hf65jhk","geo_precision":"zip"},"type":"Feature","geometry":{"type":"Point","coordinates":[-71.113379,41.836768]}},{"properties":{"zipcode":"2717","total":2345,"geo_score":0.714,"total population 15 to 44 years old":817,"id":"afs64hf5pjrm","geo_precision":"zip"},"type":"Feature","geometry":{"type":"Point","coordinates":[-70.970318,41.737603]}},{"properties":{"zipcode":"2718","total":3392,"geo_score":0.714,"total population 15 to 44 years old":1395,"id":"afs64hbpga7e","geo_precision":"zip"},"type":"Feature","geometry":{"type":"Point","coordinates":[-71.013148,41.871407]}},{"properties":{"zipcode":"2719","total":8237,"geo_score":0.714,"total population 15 to 44 years old":2703,"id":"afs64h4i6u31","geo_precision":"zip"},"type":"Feature","geometry":{"type":"Point","coordinates":[-70.878648,41.632049]}},{"properties":{"zipcode":"2720","total":15842,"geo_score":0.714,"total population 15 to 44 years old":6354,"id":"afs64haflc9q","geo_precision":"zip"},"type":"Feature","geometry":{"type":"Point","coordinates":[-71.165971,41.819766]}},{"properties":{"zipcode":"2721","total":13808,"geo_score":0.714,"total population 15 to 44 years old":5681,"id":"afs64h1bm5pq","geo_precision":"zip"},"type":"Feature","geometry":{"type":"Point","coordinates":[-71.153648,41.678895]}},{"properties":{"zipcode":"2723","total":7794,"geo_score":0.714,"total population 15 to 44 years old":3284,"id":"afs64h2d3k7u","geo_precision":"zip"},"type":"Feature","geometry":{"type":"Point","coordinates":[-71.133088,41.693802]}},{"properties":{"zipcode":"2724","total":8914,"geo_score":0.714,"total population 15 to 44 years old":3636,"id":"afs64hf2c970","geo_precision":"zip"},"type":"Feature","geometry":{"type":"Point","coordinates":[-71.175139,41.684202]}},{"properties":{"zipcode":"2725","total":1418,"geo_score":0.714,"total population 15 to 44 years old":442,"id":"afs64hcvgvnr","geo_precision":"zip"},"type":"Feature","geometry":{"type":"Point","coordinates":[-71.173989,41.723851]}},{"properties":{"zipcode":"2726","total":8126,"geo_score":0.714,"total population 15 to 44 years old":2668,"id":"afs64h1pr27a","geo_precision":"zip"},"type":"Feature","geometry":{"type":"Point","coordinates":[-71.153639,41.757951]}},{"properties":{"zipcode":"2738","total":2598,"geo_score":0.714,"total population 15 to 44 years old":722,"id":"afs64hghtudt","geo_precision":"zip"},"type":"Feature","geometry":{"type":"Point","coordinates":[-70.745313,41.712604]}},{"properties":{"zipcode":"2739","total":3102,"geo_score":0.714,"total population 15 to 44 years old":881,"id":"afs64hbvfauw","geo_precision":"zip"},"type":"Feature","geometry":{"type":"Point","coordinates":[-70.805591,41.641494]}},{"properties":{"zipcode":"2740","total":22686,"geo_score":0.714,"total population 15 to 44 years old":8884,"id":"afs64hajw8ei","geo_precision":"zip"},"type":"Feature","geometry":{"type":"Point","coordinates":[-70.951045,41.633416]}},{"properties":{"zipcode":"2743","total":5244,"geo_score":0.714,"total population 15 to 44 years old":1835,"id":"afs64hecf9e3","geo_precision":"zip"},"type":"Feature","geometry":{"type":"Point","coordinates":[-70.908286,41.711894]}},{"properties":{"zipcode":"2744","total":6055,"geo_score":0.714,"total population 15 to 44 years old":2600,"id":"afs64h73jrmm","geo_precision":"zip"},"type":"Feature","geometry":{"type":"Point","coordinates":[-70.916181,41.609354]}},{"properties":{"zipcode":"2745","total":12883,"geo_score":0.714,"total population 15 to 44 years old":4907,"id":"afs64h91z70e","geo_precision":"zip"},"type":"Feature","geometry":{"type":"Point","coordinates":[-70.946883,41.7087]}},{"properties":{"zipcode":"2746","total":7782,"geo_score":0.714,"total population 15 to 44 years old":3467,"id":"afs64hcd8jnx","geo_precision":"zip"},"type":"Feature","geometry":{"type":"Point","coordinates":[-70.943021,41.665704]}},{"properties":{"zipcode":"2747","total":11095,"geo_score":0.714,"total population 15 to 44 years old":5187,"id":"afs64hb9qbpv","geo_precision":"zip"},"type":"Feature","geometry":{"type":"Point","coordinates":[-71.007578,41.639261]}},{"properties":{"zipcode":"2748","total":5996,"geo_score":0.714,"total population 15 to 44 years old":1718,"id":"afs64h8loct1","geo_precision":"zip"},"type":"Feature","geometry":{"type":"Point","coordinates":[-70.949482,41.573716]}},{"properties":{"zipcode":"2760","total":13706,"geo_score":0.714,"total population 15 to 44 years old":5326,"id":"afs64h6oxexb","geo_precision":"zip"},"type":"Feature","geometry":{"type":"Point","coordinates":[-71.370334,41.927877]}},{"properties":{"zipcode":"2762","total":4218,"geo_score":0.714,"total population 15 to 44 years old":1594,"id":"afs64hafh0hp","geo_precision":"zip"},"type":"Feature","geometry":{"type":"Point","coordinates":[-71.308388,42.023155]}},{"properties":{"zipcode":"2763","total":1013,"geo_score":0.714,"total population 15 to 44 years old":386,"id":"afs64h9xp5wg","geo_precision":"zip"},"type":"Feature","geometry":{"type":"Point","coordinates":[-71.308229,41.972584]}},{"properties":{"zipcode":"2764","total":1995,"geo_score":0.714,"total population 15 to 44 years old":717,"id":"afs64hd2iwod","geo_precision":"zip"},"type":"Feature","geometry":{"type":"Point","coordinates":[-71.155797,41.847791]}},{"properties":{"zipcode":"2766","total":9840,"geo_score":0.714,"total population 15 to 44 years old":4125,"id":"afs64hcgkus8","geo_precision":"zip"},"type":"Feature","geometry":{"type":"Point","coordinates":[-71.170327,41.9751]}},{"properties":{"zipcode":"2767","total":6954,"geo_score":0.714,"total population 15 to 44 years old":2508,"id":"afs64h7ul5r2","geo_precision":"zip"},"type":"Feature","geometry":{"type":"Point","coordinates":[-71.048941,41.9367]}},{"properties":{"zipcode":"2769","total":5803,"geo_score":0.714,"total population 15 to 44 years old":1945,"id":"afs64he3ntly","geo_precision":"zip"},"type":"Feature","geometry":{"type":"Point","coordinates":[-71.257828,41.862601]}},{"properties":{"zipcode":"2770","total":2522,"geo_score":0.714,"total population 15 to 44 years old":833,"id":"afs64h9kq4av","geo_precision":"zip"},"type":"Feature","geometry":{"type":"Point","coordinates":[-70.846041,41.751812]}},{"properties":{"zipcode":"2771","total":7055,"geo_score":0.714,"total population 15 to 44 years old":2404,"id":"afs64hcr7sqn","geo_precision":"zip"},"type":"Feature","geometry":{"type":"Point","coordinates":[-71.330054,41.889267]}},{"properties":{"zipcode":"2777","total":8083,"geo_score":0.714,"total population 15 to 44 years old":2734,"id":"afs64h1vv5vp","geo_precision":"zip"},"type":"Feature","geometry":{"type":"Point","coordinates":[-71.199491,41.775102]}},{"properties":{"zipcode":"2779","total":3249,"geo_score":0.714,"total population 15 to 44 years old":1301,"id":"afs64her0uhy","geo_precision":"zip"},"type":"Feature","geometry":{"type":"Point","coordinates":[-71.064135,41.828249]}},{"properties":{"zipcode":"2780","total":25636,"geo_score":0.714,"total population 15 to 44 years old":10083,"id":"afs64h80326d","geo_precision":"zip"},"type":"Feature","geometry":{"type":"Point","coordinates":[-71.135602,41.886212]}},{"properties":{"zipcode":"2790","total":8045,"geo_score":0.714,"total population 15 to 44 years old":2669,"id":"afs64hg6ga30","geo_precision":"zip"},"type":"Feature","geometry":{"type":"Point","coordinates":[-71.049486,41.638992]}},{"properties":{"zipcode":"2791","total":129,"geo_score":0.714,"total population 15 to 44 years old":21,"id":"afs64hffkml9","geo_precision":"zip"},"type":"Feature","geometry":{"type":"Point","coordinates":[-71.085137,41.519104]}},{"properties":{"zipcode":"2861","total":13549,"geo_score":0.714,"total population 15 to 44 years old":5237,"id":"afs64h1azh10","geo_precision":"zip"},"type":"Feature","geometry":{"type":"Point","coordinates":[-71.363111,41.8851]}}],"is_temporal":false,"author":{"url":null,"metadata":null,"contact_name":null,"contact_address":null,"source":null,"contact_phone":null},"source":null,"pagination":{"sort":null,"start":0,"total":539,"limit":1000000},"state":"complete","tags":"","published":"2014-08-16T23:41:07-04:00","id":377449}