{"type":"FeatureCollection","data_type":"Dataset","url_type":null,"permissions":[{"permissions":{"download":true,"view":true},"group_id":"everyone"}],"classification":null,"title":"Jason_B","count":100,"stream_id":377654,"contributor":{"url":"http://geocommons.com/users/60939","name":"jhohl"},"data_attributes":null,"calculation_params":null,"icon_link":null,"link":"http://geocommons.com/overlays/377654.json","extent":[-76.3025,38.63,-75.7202,39.351],"geometry_types":["point"],"unique_name":null,"name":"Jason_B","feature_count":100,"description":"","next_feature":null,"is_raster":false,"short_classification":"Y","stats":{"latitude":{"max":39.351028,"variance":0.0429702939283655,"mean":38.89255609,"stdev":0.207292773459099,"median":38.851462,"min":38.63003},"icon":{"max":165,"variance":0.0,"mean":165.0,"stdev":0.0,"median":165,"min":165},"phone":{"max":4107785198,"variance":2225726340472.23,"mean":4105888613.52,"stdev":1491886.83903044,"median":4106342139,"min":4102260001},"icon scale":{"max":0.7,"variance":1.79286569368412e-30,"mean":0.700000000000001,"stdev":1.33897934774369e-15,"median":0.7,"min":0.7},"longitude":{"max":-75.720231,"variance":0.0144218744240304,"mean":-75.8942757,"stdev":0.120091108846702,"median":-75.883661,"min":-76.302491}},"features":[{"properties":{"city":"DENTON","salesperson":"Jason Beiler","latitude":38.891207,"icon":165,"last name":"BARTZ","company name":null,"zipcode":"21629","county":"CAROLINE","address 1":"23670 WILLOW POND RD","total acres":"2500 to 4999","description":"#REF!","icon scale":0.7,"phone":4104792385,"longitude":-75.88408,"id":"afssjdnweojf","first name":"BRUCE","state":"MD"},"type":"Feature","geometry":{"type":"Point","coordinates":[-75.88408,38.891207]}},{"properties":{"city":"GOLDSBORO","salesperson":"Jason Beiler","latitude":39.020797,"icon":165,"last name":"WEER","company name":null,"zipcode":"21636","county":"CAROLINE","address 1":"15090 CEDAR LN","total acres":"2500 to 4999","description":"#REF!","icon scale":0.7,"phone":4104826604,"longitude":-75.829413,"id":"afssjdhbur29","first name":"JAMES","state":"MD"},"type":"Feature","geometry":{"type":"Point","coordinates":[-75.829413,39.020797]}},{"properties":{"city":"MARYDEL","salesperson":"Jason Beiler","latitude":39.092247,"icon":165,"last name":"HIGNUTT","company name":null,"zipcode":"21649","county":"CAROLINE","address 1":"17646 MARVEL RD","total acres":"2500 to 4999","description":"#REF!","icon scale":0.7,"phone":4104827412,"longitude":-75.774516,"id":"afssjdtua002","first name":"ERIC","state":"MD"},"type":"Feature","geometry":{"type":"Point","coordinates":[-75.774516,39.092247]}},{"properties":{"city":"OXFORD","salesperson":"Jason Beiler","latitude":38.686507,"icon":165,"last name":"WATERS","company name":null,"zipcode":"21654","county":"TALBOT","address 1":"PO BOX 578","total acres":"2500 to 4999","description":"#REF!","icon scale":0.7,"phone":4102260001,"longitude":-76.171611,"id":"afssjdibr4gq","first name":"JOHN","state":"MD"},"type":"Feature","geometry":{"type":"Point","coordinates":[-76.171611,38.686507]}},{"properties":{"city":"WITTMAN","salesperson":"Jason Beiler","latitude":38.796558,"icon":165,"last name":"SCHLAG","company name":null,"zipcode":"21676","county":"TALBOT","address 1":"8915 TILGHMAN ISLAND RD","total acres":"2500 to 4999","description":"#REF!","icon scale":0.7,"phone":4107459209,"longitude":-76.302491,"id":"afssjdqva7cg","first name":"GUSTAV","state":"MD"},"type":"Feature","geometry":{"type":"Point","coordinates":[-76.302491,38.796558]}},{"properties":{"city":"EASTON","salesperson":"Jason Beiler","latitude":38.717627,"icon":165,"last name":"MCNEAL","company name":null,"zipcode":"21601","county":"TALBOT","address 1":"6146 LANDING NECK RD","total acres":"500 to 999","description":"#REF!","icon scale":0.7,"phone":4104763203,"longitude":-76.058614,"id":"afssjdf1fqgk","first name":"RALPH","state":"MD"},"type":"Feature","geometry":{"type":"Point","coordinates":[-76.058614,38.717627]}},{"properties":{"city":"CHESTERTOWN","salesperson":"Jason Beiler","latitude":39.164617,"icon":165,"last name":"COHEY","company name":null,"zipcode":"21620","county":"KENT","address 1":"231 ROLPHS WHARF RD","total acres":"500 to 999","description":"#REF!","icon scale":0.7,"phone":4107584692,"longitude":-76.001758,"id":"afssjdgpc9i1","first name":"MICHAEL","state":"MD"},"type":"Feature","geometry":{"type":"Point","coordinates":[-76.001758,39.164617]}},{"properties":{"city":"CHESTERTOWN","salesperson":"Jason Beiler","latitude":39.23529,"icon":165,"last name":"MASON","company name":null,"zipcode":"21620","county":"KENT","address 1":"27349 VENARINGHAM LN","total acres":"500 to 999","description":"#REF!","icon scale":0.7,"phone":4107780610,"longitude":-76.021104,"id":"afssjdsypev2","first name":"ROY","state":"MD"},"type":"Feature","geometry":{"type":"Point","coordinates":[-76.021104,39.23529]}},{"properties":{"city":"CHESTERTOWN","salesperson":"Jason Beiler","latitude":39.251453,"icon":165,"last name":"HICKMAN","company name":null,"zipcode":"21620","county":"KENT","address 1":"10057 PERKINS HILL RD","total acres":"500 to 999","description":"#REF!","icon scale":0.7,"phone":4107780217,"longitude":-76.016658,"id":"afssjdguekh7","first name":"FRANCIS","state":"MD"},"type":"Feature","geometry":{"type":"Point","coordinates":[-76.016658,39.251453]}},{"properties":{"city":"CHESTERTOWN","salesperson":"Jason Beiler","latitude":39.216605,"icon":165,"last name":"GSELL","company name":null,"zipcode":"21620","county":"KENT","address 1":"8603 ROCK HALL RD","total acres":"500 to 999","description":"#REF!","icon scale":0.7,"phone":4107782194,"longitude":-76.167465,"id":"afssjdi8kwh1","first name":"JOSEPH","state":"MD"},"type":"Feature","geometry":{"type":"Point","coordinates":[-76.167465,39.216605]}},{"properties":{"city":"CORDOVA","salesperson":"Jason Beiler","latitude":38.887106,"icon":165,"last name":"ELBEN","company name":null,"zipcode":"21625","county":"TALBOT","address 1":"31585 TAPPERS CORNER RD","total acres":"500 to 999","description":"#REF!","icon scale":0.7,"phone":4103645109,"longitude":-75.980542,"id":"afssjdtqthmr","first name":"MICHAEL","state":"MD"},"type":"Feature","geometry":{"type":"Point","coordinates":[-75.980542,38.887106]}},{"properties":{"city":"CORDOVA","salesperson":"Jason Beiler","latitude":38.877192,"icon":165,"last name":"MOORE","company name":null,"zipcode":"21625","county":"TALBOT","address 1":"31820 COVEYS LANDING RD","total acres":"500 to 999","description":"#REF!","icon scale":0.7,"phone":4103645810,"longitude":-75.967853,"id":"afssjdmp07if","first name":"WILLIAM","state":"MD"},"type":"Feature","geometry":{"type":"Point","coordinates":[-75.967853,38.877192]}},{"properties":{"city":"DENTON","salesperson":"Jason Beiler","latitude":38.882705,"icon":165,"last name":"QUINN","company name":null,"zipcode":"21629","county":"CAROLINE","address 1":"305 S 1ST ST","total acres":"500 to 999","description":"#REF!","icon scale":0.7,"phone":4104799163,"longitude":-75.835562,"id":"afssjdsgtzpb","first name":"JOSEPH","state":"MD"},"type":"Feature","geometry":{"type":"Point","coordinates":[-75.835562,38.882705]}},{"properties":{"city":"DENTON","salesperson":"Jason Beiler","latitude":38.892239,"icon":165,"last name":"CAWLEY","company name":null,"zipcode":"21629","county":"CAROLINE","address 1":"24699 MEETING HOUSE RD","total acres":"500 to 999","description":"#REF!","icon scale":0.7,"phone":4104793538,"longitude":-75.847355,"id":"afssjdp9g04u","first name":"CHARLES","state":"MD"},"type":"Feature","geometry":{"type":"Point","coordinates":[-75.847355,38.892239]}},{"properties":{"city":"DENTON","salesperson":"Jason Beiler","latitude":38.851462,"icon":165,"last name":"WOOD","company name":null,"zipcode":"21629","county":"CAROLINE","address 1":"8912 FISHER RD","total acres":"500 to 999","description":"#REF!","icon scale":0.7,"phone":4104793732,"longitude":-75.891401,"id":"afssjdk8oxsy","first name":"M","state":"MD"},"type":"Feature","geometry":{"type":"Point","coordinates":[-75.891401,38.851462]}},{"properties":{"city":"DENTON","salesperson":"Jason Beiler","latitude":38.90773,"icon":165,"last name":"JONES","company name":null,"zipcode":"21629","county":"CAROLINE","address 1":"26568 BURRSVILLE RD","total acres":"500 to 999","description":"#REF!","icon scale":0.7,"phone":4104790816,"longitude":-75.781922,"id":"afssjdusn3xk","first name":"SHIRLEY","state":"MD"},"type":"Feature","geometry":{"type":"Point","coordinates":[-75.781922,38.90773]}},{"properties":{"city":"FEDERALSBURG","salesperson":"Jason Beiler","latitude":38.648811,"icon":165,"last name":"HOLECHECK","company name":null,"zipcode":"21632","county":"CAROLINE","address 1":"5761 DAVIS MILL POND RD","total acres":"500 to 999","description":"#REF!","icon scale":0.7,"phone":4107545144,"longitude":-75.748965,"id":"afssjdlhnp74","first name":"JOSEPH","state":"MD"},"type":"Feature","geometry":{"type":"Point","coordinates":[-75.748965,38.648811]}},{"properties":{"city":"FEDERALSBURG","salesperson":"Jason Beiler","latitude":38.758554,"icon":165,"last name":"FISHELL","company name":null,"zipcode":"21632","county":"CAROLINE","address 1":"25999 AUCTION RD","total acres":"500 to 999","description":"#REF!","icon scale":0.7,"phone":4107546003,"longitude":-75.806191,"id":"afssjdpak6xk","first name":"KEVIN","state":"MD"},"type":"Feature","geometry":{"type":"Point","coordinates":[-75.806191,38.758554]}},{"properties":{"city":"FEDERALSBURG","salesperson":"Jason Beiler","latitude":38.751117,"icon":165,"last name":"MEREDITH","company name":null,"zipcode":"21632","county":"CAROLINE","address 1":"5295 FEDERALSBURG HWY","total acres":"500 to 999","description":"#REF!","icon scale":0.7,"phone":4107549622,"longitude":-75.787019,"id":"afssjdp3gwb1","first name":"EDWIN","state":"MD"},"type":"Feature","geometry":{"type":"Point","coordinates":[-75.787019,38.751117]}},{"properties":{"city":"FEDERALSBURG","salesperson":"Jason Beiler","latitude":38.8252,"icon":165,"last name":"WHEATLEY","company name":null,"zipcode":"21632","county":"CAROLINE","address 1":"7920 FEDERALSBURG HWY","total acres":"500 to 999","description":"#REF!","icon scale":0.7,"phone":4104790573,"longitude":-75.779742,"id":"afssjdog4z9d","first name":"GEO","state":"MD"},"type":"Feature","geometry":{"type":"Point","coordinates":[-75.779742,38.8252]}},{"properties":{"city":"FEDERALSBURG","salesperson":"Jason Beiler","latitude":38.716281,"icon":165,"last name":"NAGEL","company name":null,"zipcode":"21632","county":"CAROLINE","address 1":"3935 PEPPER RD","total acres":"500 to 999","description":"#REF!","icon scale":0.7,"phone":4107548467,"longitude":-75.814262,"id":"afssjdjjxhbm","first name":"FERDINAND","state":"MD"},"type":"Feature","geometry":{"type":"Point","coordinates":[-75.814262,38.716281]}},{"properties":{"city":"FEDERALSBURG","salesperson":"Jason Beiler","latitude":38.774853,"icon":165,"last name":"MONATH","company name":null,"zipcode":"21632","county":"CAROLINE","address 1":"26665 POSSUM HILL RD","total acres":"500 to 999","description":"#REF!","icon scale":0.7,"phone":4107547766,"longitude":-75.781298,"id":"afssjdf22vjj","first name":"ANTHONY","state":"MD"},"type":"Feature","geometry":{"type":"Point","coordinates":[-75.781298,38.774853]}},{"properties":{"city":"FEDERALSBURG","salesperson":"Jason Beiler","latitude":38.739788,"icon":165,"last name":"WRIGHT","company name":null,"zipcode":"21632","county":"CAROLINE","address 1":"4756 SMITHVILLE RD","total acres":"500 to 999","description":"#REF!","icon scale":0.7,"phone":4107548651,"longitude":-75.765363,"id":"afssjdun3o7u","first name":"DALE","state":"MD"},"type":"Feature","geometry":{"type":"Point","coordinates":[-75.765363,38.739788]}},{"properties":{"city":"FEDERALSBURG","salesperson":"Jason Beiler","latitude":38.709119,"icon":165,"last name":"CHRISTOPHER","company name":null,"zipcode":"21632","county":"CAROLINE","address 1":"3719 BRADLEY RD","total acres":"500 to 999","description":"#REF!","icon scale":0.7,"phone":4107549770,"longitude":-75.804743,"id":"afssjdghy557","first name":"RONALD","state":"MD"},"type":"Feature","geometry":{"type":"Point","coordinates":[-75.804743,38.709119]}},{"properties":{"city":"GOLTS","salesperson":"Jason Beiler","latitude":39.351028,"icon":165,"last name":"DANIELS","company name":null,"zipcode":"21635","county":"KENT","address 1":"13701 GOLTS CALDWELL RD","total acres":"500 to 999","description":"#REF!","icon scale":0.7,"phone":4102758141,"longitude":-75.772148,"id":"afssjdl8zdd4","first name":"DAVID","state":"MD"},"type":"Feature","geometry":{"type":"Point","coordinates":[-75.772148,39.351028]}},{"properties":{"city":"GREENSBORO","salesperson":"Jason Beiler","latitude":38.971563,"icon":165,"last name":"HAYMAN","company name":null,"zipcode":"21639","county":"CAROLINE","address 1":"13335 HOLLY RD","total acres":"500 to 999","description":"#REF!","icon scale":0.7,"phone":4104828194,"longitude":-75.826701,"id":"afssjdju1mqx","first name":"EDWARD","state":"MD"},"type":"Feature","geometry":{"type":"Point","coordinates":[-75.826701,38.971563]}},{"properties":{"city":"GREENSBORO","salesperson":"Jason Beiler","latitude":39.011391,"icon":165,"last name":"MCNATT","company name":null,"zipcode":"21639","county":"CAROLINE","address 1":"25056 E CHERRY LN","total acres":"500 to 999","description":"#REF!","icon scale":0.7,"phone":4104826524,"longitude":-75.841823,"id":"afssjdn8wmg2","first name":"TOBIN","state":"MD"},"type":"Feature","geometry":{"type":"Point","coordinates":[-75.841823,39.011391]}},{"properties":{"city":"GREENSBORO","salesperson":"Jason Beiler","latitude":38.992667,"icon":165,"last name":"HAMMER","company name":null,"zipcode":"21639","county":"CAROLINE","address 1":"14071 RIVER RD","total acres":"500 to 999","description":"#REF!","icon scale":0.7,"phone":4104828511,"longitude":-75.842183,"id":"afssjdivm4jb","first name":"JOHN","state":"MD"},"type":"Feature","geometry":{"type":"Point","coordinates":[-75.842183,38.992667]}},{"properties":{"city":"KENNEDYVILLE","salesperson":"Jason Beiler","latitude":39.305563,"icon":165,"last name":"HOPKINS","company name":null,"zipcode":"21645","county":"KENT","address 1":"PO BOX 218","total acres":"500 to 999","description":"#REF!","icon scale":0.7,"phone":4103485561,"longitude":-75.995094,"id":"afssjdhrnlcj","first name":"GEORGE","state":"MD"},"type":"Feature","geometry":{"type":"Point","coordinates":[-75.995094,39.305563]}},{"properties":{"city":"KENNEDYVILLE","salesperson":"Jason Beiler","latitude":39.293152,"icon":165,"last name":"STOLTZFUS","company name":null,"zipcode":"21645","county":"KENT","address 1":"11753 CHESTERVILLE RD","total acres":"500 to 999","description":"#REF!","icon scale":0.7,"phone":4106485633,"longitude":-75.89806,"id":"afssjdjyygzh","first name":"JOHN","state":"MD"},"type":"Feature","geometry":{"type":"Point","coordinates":[-75.89806,39.293152]}},{"properties":{"city":"KENNEDYVILLE","salesperson":"Jason Beiler","latitude":39.313261,"icon":165,"last name":"EVANS","company name":null,"zipcode":"21645","county":"KENT","address 1":"12210 CHESTERVILLE RD","total acres":"500 to 999","description":"#REF!","icon scale":0.7,"phone":4106485699,"longitude":-75.892987,"id":"afssjdqwgysh","first name":"FREEMAN","state":"MD"},"type":"Feature","geometry":{"type":"Point","coordinates":[-75.892987,39.313261]}},{"properties":{"city":"MARYDEL","salesperson":"Jason Beiler","latitude":39.134953,"icon":165,"last name":"ROBINSON","company name":null,"zipcode":"21649","county":"CAROLINE","address 1":"26289 BARCLAY RD","total acres":"500 to 999","description":"#REF!","icon scale":0.7,"phone":4104828326,"longitude":-75.775251,"id":"afssjdfpw405","first name":"FRANKLIN","state":"MD"},"type":"Feature","geometry":{"type":"Point","coordinates":[-75.775251,39.134953]}},{"properties":{"city":"MILLINGTON","salesperson":"Jason Beiler","latitude":39.241346,"icon":165,"last name":"WHALEN","company name":null,"zipcode":"21651","county":"KENT","address 1":"313 FORDS LANDING LN","total acres":"500 to 999","description":"#REF!","icon scale":0.7,"phone":4107784221,"longitude":-75.894086,"id":"afssjdlhpzhb","first name":"MARK","state":"MD"},"type":"Feature","geometry":{"type":"Point","coordinates":[-75.894086,39.241346]}},{"properties":{"city":"PRESTON","salesperson":"Jason Beiler","latitude":38.712615,"icon":165,"last name":"FUCHS","company name":null,"zipcode":"21655","county":"CAROLINE","address 1":"PO BOX 367","total acres":"500 to 999","description":"#REF!","icon scale":0.7,"phone":4106732782,"longitude":-75.909936,"id":"afssjdk292kb","first name":"JAMES","state":"MD"},"type":"Feature","geometry":{"type":"Point","coordinates":[-75.909936,38.712615]}},{"properties":{"city":"PRESTON","salesperson":"Jason Beiler","latitude":38.706116,"icon":165,"last name":"GARVEY","company name":null,"zipcode":"21655","county":"CAROLINE","address 1":"3559 POPLAR NECK RD","total acres":"500 to 999","description":"#REF!","icon scale":0.7,"phone":4106737934,"longitude":-75.956168,"id":"afssjdmc0uk0","first name":"TRINA","state":"MD"},"type":"Feature","geometry":{"type":"Point","coordinates":[-75.956168,38.706116]}},{"properties":{"city":"PRESTON","salesperson":"Jason Beiler","latitude":38.772491,"icon":165,"last name":"WORM","company name":null,"zipcode":"21655","county":"CAROLINE","address 1":"22544 HOG CREEK RD","total acres":"500 to 999","description":"#REF!","icon scale":0.7,"phone":4106732858,"longitude":-75.926183,"id":"afssjdqynj3c","first name":"JAMES","state":"MD"},"type":"Feature","geometry":{"type":"Point","coordinates":[-75.926183,38.772491]}},{"properties":{"city":"PRESTON","salesperson":"Jason Beiler","latitude":38.714315,"icon":165,"last name":"CHEEZUM","company name":null,"zipcode":"21655","county":"CAROLINE","address 1":"3931 PAYNE RD","total acres":"500 to 999","description":"#REF!","icon scale":0.7,"phone":4106732285,"longitude":-75.889898,"id":"afssjdjpm0d4","first name":"THOMAS","state":"MD"},"type":"Feature","geometry":{"type":"Point","coordinates":[-75.889898,38.714315]}},{"properties":{"city":"RIDGELY","salesperson":"Jason Beiler","latitude":38.947891,"icon":165,"last name":"CHERRY","company name":null,"zipcode":"21660","county":"CAROLINE","address 1":"PO BOX 66","total acres":"500 to 999","description":"#REF!","icon scale":0.7,"phone":4106342139,"longitude":-75.884381,"id":"afssjdtxjgh5","first name":"CATHERINE","state":"MD"},"type":"Feature","geometry":{"type":"Point","coordinates":[-75.884381,38.947891]}},{"properties":{"city":"RIDGELY","salesperson":"Jason Beiler","latitude":38.93131,"icon":165,"last name":"DOWNES","company name":null,"zipcode":"21660","county":"CAROLINE","address 1":"11820 EVELAND RD","total acres":"500 to 999","description":"#REF!","icon scale":0.7,"phone":4103645515,"longitude":-75.938064,"id":"afssjdh2m2a6","first name":"JAY","state":"MD"},"type":"Feature","geometry":{"type":"Point","coordinates":[-75.938064,38.93131]}},{"properties":{"city":"TRAPPE","salesperson":"Jason Beiler","latitude":38.700853,"icon":165,"last name":"SCHWANINGER","company name":null,"zipcode":"21673","county":"TALBOT","address 1":"5510 MANADIER RD","total acres":"500 to 999","description":"#REF!","icon scale":0.7,"phone":4104763286,"longitude":-76.058311,"id":"afssjdf1z01v","first name":"WILLIAM","state":"MD"},"type":"Feature","geometry":{"type":"Point","coordinates":[-76.058311,38.700853]}},{"properties":{"city":"WORTON","salesperson":"Jason Beiler","latitude":39.262689,"icon":165,"last name":"DILL","company name":null,"zipcode":"21678","county":"KENT","address 1":"24611 PORTERS GROVE RD","total acres":"500 to 999","description":"#REF!","icon scale":0.7,"phone":4107783399,"longitude":-76.115755,"id":"afssjdoqjj6e","first name":"KURT","state":"MD"},"type":"Feature","geometry":{"type":"Point","coordinates":[-76.115755,39.262689]}},{"properties":{"city":"DENTON","salesperson":"Jason Beiler","latitude":38.819745,"icon":165,"last name":"MARVIN","company name":null,"zipcode":"21629","county":"CAROLINE","address 1":"7899 TUCKAHOE RD","total acres":"5000+","description":"#REF!","icon scale":0.7,"phone":4104793482,"longitude":-75.884939,"id":"afssjdm3rxuv","first name":"ANN","state":"MD"},"type":"Feature","geometry":{"type":"Point","coordinates":[-75.884939,38.819745]}},{"properties":{"city":"GOLDSBORO","salesperson":"Jason Beiler","latitude":38.997679,"icon":165,"last name":"SPIERING","company name":null,"zipcode":"21636","county":"CAROLINE","address 1":"14261 IRWIN CHAPEL RD","total acres":"5000+","description":"#REF!","icon scale":0.7,"phone":4104828041,"longitude":-75.745474,"id":"afssjdjb00y5","first name":"ROBERT","state":"MD"},"type":"Feature","geometry":{"type":"Point","coordinates":[-75.745474,38.997679]}},{"properties":{"city":"DENTON","salesperson":"Jason Beiler","latitude":38.877756,"icon":165,"last name":"WOOD","company name":null,"zipcode":"21629","county":"CAROLINE","address 1":"23626 SAULSBURY RD","total acres":"250 to 499","description":"#REF!","icon scale":0.7,"phone":4104793746,"longitude":-75.884948,"id":"afssjdkl4w3z","first name":"RICHARD","state":"MD"},"type":"Feature","geometry":{"type":"Point","coordinates":[-75.884948,38.877756]}},{"properties":{"city":"DENTON","salesperson":"Jason Beiler","latitude":38.870115,"icon":165,"last name":"RICE","company name":null,"zipcode":"21629","county":"CAROLINE","address 1":"9555 FISHER RD","total acres":"250 to 499","description":"#REF!","icon scale":0.7,"phone":4103645155,"longitude":-75.896716,"id":"afssjdtci864","first name":"DAVID","state":"MD"},"type":"Feature","geometry":{"type":"Point","coordinates":[-75.896716,38.870115]}},{"properties":{"city":"DENTON","salesperson":"Jason Beiler","latitude":38.772351,"icon":165,"last name":"COLLINS","company name":null,"zipcode":"21629","county":"CAROLINE","address 1":"6189 AMERICAN CORNER RD","total acres":"250 to 499","description":"#REF!","icon scale":0.7,"phone":4107545156,"longitude":-75.81291,"id":"afssjdllkeb2","first name":"EDWIN","state":"MD"},"type":"Feature","geometry":{"type":"Point","coordinates":[-75.81291,38.772351]}},{"properties":{"city":"DENTON","salesperson":"Jason Beiler","latitude":38.793049,"icon":165,"last name":"NICHOLS","company name":null,"zipcode":"21629","county":"CAROLINE","address 1":"6750 JONES CORNER RD","total acres":"250 to 499","description":"#REF!","icon scale":0.7,"phone":4107548510,"longitude":-75.803153,"id":"afssjdhjxf2k","first name":"RICKY","state":"MD"},"type":"Feature","geometry":{"type":"Point","coordinates":[-75.803153,38.793049]}},{"properties":{"city":"DENTON","salesperson":"Jason Beiler","latitude":38.855213,"icon":165,"last name":"FOUNTAIN","company name":null,"zipcode":"21629","county":"CAROLINE","address 1":"27241 HOBBS RD","total acres":"250 to 499","description":"#REF!","icon scale":0.7,"phone":4104792009,"longitude":-75.758492,"id":"afssjdfp6bsd","first name":"DOLORES","state":"MD"},"type":"Feature","geometry":{"type":"Point","coordinates":[-75.758492,38.855213]}},{"properties":{"city":"DENTON","salesperson":"Jason Beiler","latitude":38.906361,"icon":165,"last name":"COWGILL","company name":null,"zipcode":"21629","county":"CAROLINE","address 1":"25676 BURRSVILLE RD","total acres":"250 to 499","description":"#REF!","icon scale":0.7,"phone":4104790621,"longitude":-75.812398,"id":"afssjdrvs3y9","first name":"DANIEL","state":"MD"},"type":"Feature","geometry":{"type":"Point","coordinates":[-75.812398,38.906361]}},{"properties":{"city":"DENTON","salesperson":"Jason Beiler","latitude":38.907306,"icon":165,"last name":"JONES","company name":null,"zipcode":"21629","county":"CAROLINE","address 1":"11092 GARLAND RD","total acres":"250 to 499","description":"#REF!","icon scale":0.7,"phone":4104794277,"longitude":-75.796154,"id":"afssjdpcxo62","first name":"MARK","state":"MD"},"type":"Feature","geometry":{"type":"Point","coordinates":[-75.796154,38.907306]}},{"properties":{"city":"DENTON","salesperson":"Jason Beiler","latitude":38.873832,"icon":165,"last name":"DIEM","company name":null,"zipcode":"21629","county":"CAROLINE","address 1":"9781 FOY RD","total acres":"250 to 499","description":"#REF!","icon scale":0.7,"phone":4104790546,"longitude":-75.800853,"id":"afssjdkwxyiu","first name":"RONALD","state":"MD"},"type":"Feature","geometry":{"type":"Point","coordinates":[-75.800853,38.873832]}},{"properties":{"city":"FEDERALSBURG","salesperson":"Jason Beiler","latitude":38.642648,"icon":165,"last name":"HOLECHECK","company name":null,"zipcode":"21632","county":"CAROLINE","address 1":"6466 ELDORADO RD","total acres":"250 to 499","description":"#REF!","icon scale":0.7,"phone":4107545612,"longitude":-75.769908,"id":"afssjdn57ped","first name":"MICHAEL","state":"MD"},"type":"Feature","geometry":{"type":"Point","coordinates":[-75.769908,38.642648]}},{"properties":{"city":"FEDERALSBURG","salesperson":"Jason Beiler","latitude":38.635007,"icon":165,"last name":"KNOPP","company name":null,"zipcode":"21632","county":"CAROLINE","address 1":"5642 FINCHVILLE RELIANCE RD","total acres":"250 to 499","description":"#REF!","icon scale":0.7,"phone":4107547355,"longitude":-75.751153,"id":"afssjdnjitrr","first name":"MALCOLM","state":"MD"},"type":"Feature","geometry":{"type":"Point","coordinates":[-75.751153,38.635007]}},{"properties":{"city":"FEDERALSBURG","salesperson":"Jason Beiler","latitude":38.736628,"icon":165,"last name":"RICHARDSON","company name":null,"zipcode":"21632","county":"CAROLINE","address 1":"4789 HOWARD RD","total acres":"250 to 499","description":"#REF!","icon scale":0.7,"phone":4107545212,"longitude":-75.799396,"id":"afssjdlxr9zw","first name":"ELIZABETH","state":"MD"},"type":"Feature","geometry":{"type":"Point","coordinates":[-75.799396,38.736628]}},{"properties":{"city":"FEDERALSBURG","salesperson":"Jason Beiler","latitude":38.757058,"icon":165,"last name":"TRICE","company name":null,"zipcode":"21632","county":"CAROLINE","address 1":"5452 LAUREL GROVE RD","total acres":"250 to 499","description":"#REF!","icon scale":0.7,"phone":4106732265,"longitude":-75.840517,"id":"afssjdf6uo4m","first name":"RICHARD","state":"MD"},"type":"Feature","geometry":{"type":"Point","coordinates":[-75.840517,38.757058]}},{"properties":{"city":"FEDERALSBURG","salesperson":"Jason Beiler","latitude":38.681565,"icon":165,"last name":"LEISHEAR","company name":null,"zipcode":"21632","county":"CAROLINE","address 1":"28419 HICKORY HILL RD","total acres":"250 to 499","description":"#REF!","icon scale":0.7,"phone":4107548725,"longitude":-75.720231,"id":"afssjdmqfg5y","first name":"DONALD","state":"MD"},"type":"Feature","geometry":{"type":"Point","coordinates":[-75.720231,38.681565]}},{"properties":{"city":"FEDERALSBURG","salesperson":"Jason Beiler","latitude":38.694338,"icon":165,"last name":"CAULK","company name":null,"zipcode":"21632","county":"CAROLINE","address 1":"5111 PRESTON RD","total acres":"250 to 499","description":"#REF!","icon scale":0.7,"phone":4107548545,"longitude":-75.811361,"id":"afssjdhyavpc","first name":"WILLIAM","state":"MD"},"type":"Feature","geometry":{"type":"Point","coordinates":[-75.811361,38.694338]}},{"properties":{"city":"FEDERALSBURG","salesperson":"Jason Beiler","latitude":38.696585,"icon":165,"last name":"GLIME","company name":null,"zipcode":"21632","county":"CAROLINE","address 1":"5228 PRESTON RD","total acres":"250 to 499","description":"#REF!","icon scale":0.7,"phone":4107543174,"longitude":-75.799611,"id":"afssjdpcr0xj","first name":"RONALD","state":"MD"},"type":"Feature","geometry":{"type":"Point","coordinates":[-75.799611,38.696585]}},{"properties":{"city":"FEDERALSBURG","salesperson":"Jason Beiler","latitude":38.72536,"icon":165,"last name":"NAGEL","company name":null,"zipcode":"21632","county":"CAROLINE","address 1":"26195 THREE BRIDGES RD","total acres":"250 to 499","description":"#REF!","icon scale":0.7,"phone":4107548681,"longitude":-75.799283,"id":"afssjdp2a7db","first name":"DENNIS","state":"MD"},"type":"Feature","geometry":{"type":"Point","coordinates":[-75.799283,38.72536]}},{"properties":{"city":"FEDERALSBURG","salesperson":"Jason Beiler","latitude":38.756944,"icon":165,"last name":"FISHELL","company name":null,"zipcode":"21632","county":"CAROLINE","address 1":"26100 AUCTION RD","total acres":"250 to 499","description":"#REF!","icon scale":0.7,"phone":4107548913,"longitude":-75.797945,"id":"afssjdrd5yll","first name":"KENNETH","state":"MD"},"type":"Feature","geometry":{"type":"Point","coordinates":[-75.797945,38.756944]}},{"properties":{"city":"FEDERALSBURG","salesperson":"Jason Beiler","latitude":38.755589,"icon":165,"last name":"GARGANI","company name":null,"zipcode":"21632","county":"CAROLINE","address 1":"26738 CHIPMANS LN","total acres":"250 to 499","description":"#REF!","icon scale":0.7,"phone":4107545297,"longitude":-75.790168,"id":"afssjdv8k43g","first name":"JAMES","state":"MD"},"type":"Feature","geometry":{"type":"Point","coordinates":[-75.790168,38.755589]}},{"properties":{"city":"FEDERALSBURG","salesperson":"Jason Beiler","latitude":38.766357,"icon":165,"last name":"WALDIS","company name":null,"zipcode":"21632","county":"CAROLINE","address 1":"5770 JESTER RD","total acres":"250 to 499","description":"#REF!","icon scale":0.7,"phone":4107548502,"longitude":-75.767673,"id":"afssjdimju4j","first name":"R","state":"MD"},"type":"Feature","geometry":{"type":"Point","coordinates":[-75.767673,38.766357]}},{"properties":{"city":"FEDERALSBURG","salesperson":"Jason Beiler","latitude":38.715801,"icon":165,"last name":"RICHARDSON","company name":null,"zipcode":"21632","county":"CAROLINE","address 1":"3931 LAUREL GROVE RD","total acres":"250 to 499","description":"#REF!","icon scale":0.7,"phone":4107548025,"longitude":-75.804116,"id":"afssjdlm1be1","first name":"R","state":"MD"},"type":"Feature","geometry":{"type":"Point","coordinates":[-75.804116,38.715801]}},{"properties":{"city":"FEDERALSBURG","salesperson":"Jason Beiler","latitude":38.816004,"icon":165,"last name":"MELVIN","company name":null,"zipcode":"21632","county":"CAROLINE","address 1":"27511 SHORE HWY","total acres":"250 to 499","description":"#REF!","icon scale":0.7,"phone":4104790542,"longitude":-75.750492,"id":"afssjdqissve","first name":"MARYLEE","state":"MD"},"type":"Feature","geometry":{"type":"Point","coordinates":[-75.750492,38.816004]}},{"properties":{"city":"GOLDSBORO","salesperson":"Jason Beiler","latitude":39.031442,"icon":165,"last name":"SPIERING","company name":null,"zipcode":"21636","county":"CAROLINE","address 1":"25802 BRIDGETOWN RD","total acres":"250 to 499","description":"#REF!","icon scale":0.7,"phone":4104826750,"longitude":-75.810003,"id":"afssjdnz5gtk","first name":"RONALD","state":"MD"},"type":"Feature","geometry":{"type":"Point","coordinates":[-75.810003,39.031442]}},{"properties":{"city":"GREENSBORO","salesperson":"Jason Beiler","latitude":38.973725,"icon":165,"last name":"SPIERING","company name":null,"zipcode":"21639","county":"CAROLINE","address 1":"PO BOX 159","total acres":"250 to 499","description":"#REF!","icon scale":0.7,"phone":4104826873,"longitude":-75.804933,"id":"afssjdjr7wtd","first name":"ANTON","state":"MD"},"type":"Feature","geometry":{"type":"Point","coordinates":[-75.804933,38.973725]}},{"properties":{"city":"GREENSBORO","salesperson":"Jason Beiler","latitude":38.987856,"icon":165,"last name":"BISHOP","company name":null,"zipcode":"21639","county":"CAROLINE","address 1":"13894 KIBLER RD","total acres":"250 to 499","description":"#REF!","icon scale":0.7,"phone":4104826773,"longitude":-75.762682,"id":"afssjdqwdvdj","first name":"MILTON","state":"MD"},"type":"Feature","geometry":{"type":"Point","coordinates":[-75.762682,38.987856]}},{"properties":{"city":"GREENSBORO","salesperson":"Jason Beiler","latitude":38.982268,"icon":165,"last name":"WELLS","company name":null,"zipcode":"21639","county":"CAROLINE","address 1":"27369 PLUMMERS LN","total acres":"250 to 499","description":"#REF!","icon scale":0.7,"phone":4104828984,"longitude":-75.751459,"id":"afssjdo8alx7","first name":"DAVID","state":"MD"},"type":"Feature","geometry":{"type":"Point","coordinates":[-75.751459,38.982268]}},{"properties":{"city":"GREENSBORO","salesperson":"Jason Beiler","latitude":39.006606,"icon":165,"last name":"KINNAMON","company name":null,"zipcode":"21639","county":"CAROLINE","address 1":"25460 HILL RD","total acres":"250 to 499","description":"#REF!","icon scale":0.7,"phone":4104828514,"longitude":-75.821047,"id":"afssjdibfk3s","first name":"FRANCIS","state":"MD"},"type":"Feature","geometry":{"type":"Point","coordinates":[-75.821047,39.006606]}},{"properties":{"city":"HENDERSON","salesperson":"Jason Beiler","latitude":39.075991,"icon":165,"last name":"HARRIS","company name":null,"zipcode":"21640","county":"CAROLINE","address 1":"25801 BEE TREE RD","total acres":"250 to 499","description":"#REF!","icon scale":0.7,"phone":4104828730,"longitude":-75.801987,"id":"afssjdf712r9","first name":"DAVID","state":"MD"},"type":"Feature","geometry":{"type":"Point","coordinates":[-75.801987,39.075991]}},{"properties":{"city":"HENDERSON","salesperson":"Jason Beiler","latitude":39.065871,"icon":165,"last name":"RICHARD","company name":null,"zipcode":"21640","county":"CAROLINE","address 1":"26955 RIVER BRIDGE RD","total acres":"250 to 499","description":"#REF!","icon scale":0.7,"phone":4104826997,"longitude":-75.76465,"id":"afssjdj48f9r","first name":"THOMAS","state":"MD"},"type":"Feature","geometry":{"type":"Point","coordinates":[-75.76465,39.065871]}},{"properties":{"city":"KENNEDYVILLE","salesperson":"Jason Beiler","latitude":39.269553,"icon":165,"last name":"BAXTER","company name":null,"zipcode":"21645","county":"KENT","address 1":"28411 MORGNEC RD","total acres":"250 to 499","description":"#REF!","icon scale":0.7,"phone":4103485493,"longitude":-75.981699,"id":"afssjdueqvjl","first name":"ROBERT","state":"MD"},"type":"Feature","geometry":{"type":"Point","coordinates":[-75.981699,39.269553]}},{"properties":{"city":"KENNEDYVILLE","salesperson":"Jason Beiler","latitude":39.276088,"icon":165,"last name":"WINTERS","company name":null,"zipcode":"21645","county":"KENT","address 1":"27730 WALLIS RD","total acres":"250 to 499","description":"#REF!","icon scale":0.7,"phone":4103485146,"longitude":-76.001304,"id":"afssjdp39b7h","first name":"RICHARD","state":"MD"},"type":"Feature","geometry":{"type":"Point","coordinates":[-76.001304,39.276088]}},{"properties":{"city":"KENNEDYVILLE","salesperson":"Jason Beiler","latitude":39.303832,"icon":165,"last name":"HILL","company name":null,"zipcode":"21645","county":"KENT","address 1":"11877 BROWNTOWN RD","total acres":"250 to 499","description":"#REF!","icon scale":0.7,"phone":4103485181,"longitude":-75.96167,"id":"afssjdhgkdnn","first name":"ALLAN","state":"MD"},"type":"Feature","geometry":{"type":"Point","coordinates":[-75.96167,39.303832]}},{"properties":{"city":"KENNEDYVILLE","salesperson":"Jason Beiler","latitude":39.273882,"icon":165,"last name":"STOLTZFUS","company name":null,"zipcode":"21645","county":"KENT","address 1":"29347 MORGNEC RD","total acres":"250 to 499","description":"#REF!","icon scale":0.7,"phone":4103485147,"longitude":-75.952501,"id":"afssjdhlpzz7","first name":"STEVE","state":"MD"},"type":"Feature","geometry":{"type":"Point","coordinates":[-75.952501,39.273882]}},{"properties":{"city":"PRESTON","salesperson":"Jason Beiler","latitude":38.712615,"icon":165,"last name":"FLETCHER","company name":null,"zipcode":"21655","county":"CAROLINE","address 1":"PO BOX 186","total acres":"250 to 499","description":"#REF!","icon scale":0.7,"phone":4106737713,"longitude":-75.909936,"id":"afssjdne7mgu","first name":"HELEN","state":"MD"},"type":"Feature","geometry":{"type":"Point","coordinates":[-75.909936,38.712615]}},{"properties":{"city":"PRESTON","salesperson":"Jason Beiler","latitude":38.68919,"icon":165,"last name":"GILBERT","company name":null,"zipcode":"21655","county":"CAROLINE","address 1":"2903 CHOPTANK RD","total acres":"250 to 499","description":"#REF!","icon scale":0.7,"phone":4106732903,"longitude":-75.940795,"id":"afssjdprckua","first name":"CHARLES","state":"MD"},"type":"Feature","geometry":{"type":"Point","coordinates":[-75.940795,38.68919]}},{"properties":{"city":"PRESTON","salesperson":"Jason Beiler","latitude":38.706329,"icon":165,"last name":"HARPER","company name":null,"zipcode":"21655","county":"CAROLINE","address 1":"3400 POPLAR NECK RD","total acres":"250 to 499","description":"#REF!","icon scale":0.7,"phone":4106737932,"longitude":-75.95669,"id":"afssjdn4e1mo","first name":"DAVID","state":"MD"},"type":"Feature","geometry":{"type":"Point","coordinates":[-75.95669,38.706329]}},{"properties":{"city":"PRESTON","salesperson":"Jason Beiler","latitude":38.716208,"icon":165,"last name":"KARGE","company name":null,"zipcode":"21655","county":"CAROLINE","address 1":"22781 MARSH CREEK RD","total acres":"250 to 499","description":"#REF!","icon scale":0.7,"phone":4106732775,"longitude":-75.917636,"id":"afssjdp2vzyt","first name":"GAIL","state":"MD"},"type":"Feature","geometry":{"type":"Point","coordinates":[-75.917636,38.716208]}},{"properties":{"city":"PRESTON","salesperson":"Jason Beiler","latitude":38.764066,"icon":165,"last name":"QUIDAS","company name":null,"zipcode":"21655","county":"CAROLINE","address 1":"21470 TANYARD RD","total acres":"250 to 499","description":"#REF!","icon scale":0.7,"phone":4106737543,"longitude":-75.968522,"id":"afssjdunep9c","first name":"EDWARD","state":"MD"},"type":"Feature","geometry":{"type":"Point","coordinates":[-75.968522,38.764066]}},{"properties":{"city":"PRESTON","salesperson":"Jason Beiler","latitude":38.787282,"icon":165,"last name":"STEENKEN","company name":null,"zipcode":"21655","county":"CAROLINE","address 1":"6421 GANEYS WHARF RD","total acres":"250 to 499","description":"#REF!","icon scale":0.7,"phone":4106737565,"longitude":-75.897089,"id":"afssjdk0yvbn","first name":"KENNETH","state":"MD"},"type":"Feature","geometry":{"type":"Point","coordinates":[-75.897089,38.787282]}},{"properties":{"city":"PRESTON","salesperson":"Jason Beiler","latitude":38.766896,"icon":165,"last name":"TRICE","company name":null,"zipcode":"21655","county":"CAROLINE","address 1":"5873 HARMONY RD","total acres":"250 to 499","description":"#REF!","icon scale":0.7,"phone":4106732387,"longitude":-75.877186,"id":"afssjdgt8hso","first name":"DENNIS","state":"MD"},"type":"Feature","geometry":{"type":"Point","coordinates":[-75.877186,38.766896]}},{"properties":{"city":"PRESTON","salesperson":"Jason Beiler","latitude":38.731853,"icon":165,"last name":"COHEE","company name":null,"zipcode":"21655","county":"CAROLINE","address 1":"4518 GADOW RD","total acres":"250 to 499","description":"#REF!","icon scale":0.7,"phone":4106732413,"longitude":-75.87566,"id":"afssjdf834du","first name":"STEWART","state":"MD"},"type":"Feature","geometry":{"type":"Point","coordinates":[-75.87566,38.731853]}},{"properties":{"city":"PRESTON","salesperson":"Jason Beiler","latitude":38.75369,"icon":165,"last name":"FRASE","company name":null,"zipcode":"21655","county":"CAROLINE","address 1":"5281 NEWTON RD","total acres":"250 to 499","description":"#REF!","icon scale":0.7,"phone":4106732201,"longitude":-75.910491,"id":"afssjdicax4l","first name":"CHARLES","state":"MD"},"type":"Feature","geometry":{"type":"Point","coordinates":[-75.910491,38.75369]}},{"properties":{"city":"PRESTON","salesperson":"Jason Beiler","latitude":38.71547,"icon":165,"last name":"GREENAGE","company name":null,"zipcode":"21655","county":"CAROLINE","address 1":"3909 HARMONY RD","total acres":"250 to 499","description":"#REF!","icon scale":0.7,"phone":4106732954,"longitude":-75.905131,"id":"afssjduzx4lt","first name":"CAROL","state":"MD"},"type":"Feature","geometry":{"type":"Point","coordinates":[-75.905131,38.71547]}},{"properties":{"city":"PRESTON","salesperson":"Jason Beiler","latitude":38.722594,"icon":165,"last name":"COHEE","company name":null,"zipcode":"21655","county":"CAROLINE","address 1":"4351 PAYNE RD","total acres":"250 to 499","description":"#REF!","icon scale":0.7,"phone":4106732610,"longitude":-75.882672,"id":"afssjdow3ge5","first name":"JOHN","state":"MD"},"type":"Feature","geometry":{"type":"Point","coordinates":[-75.882672,38.722594]}},{"properties":{"city":"RIDGELY","salesperson":"Jason Beiler","latitude":38.924163,"icon":165,"last name":"DIEM","company name":null,"zipcode":"21660","county":"CAROLINE","address 1":"11631 RIDGELY RD","total acres":"250 to 499","description":"#REF!","icon scale":0.7,"phone":4106341106,"longitude":-75.918076,"id":"afssjdknmfc5","first name":"RONALD","state":"MD"},"type":"Feature","geometry":{"type":"Point","coordinates":[-75.918076,38.924163]}},{"properties":{"city":"RIDGELY","salesperson":"Jason Beiler","latitude":38.994745,"icon":165,"last name":"TRIBBETT","company name":null,"zipcode":"21660","county":"CAROLINE","address 1":"14130 CLARKS LN","total acres":"250 to 499","description":"#REF!","icon scale":0.7,"phone":4106341578,"longitude":-75.905109,"id":"afssjdo2qlc2","first name":"DAVID","state":"MD"},"type":"Feature","geometry":{"type":"Point","coordinates":[-75.905109,38.994745]}},{"properties":{"city":"RIDGELY","salesperson":"Jason Beiler","latitude":38.983916,"icon":165,"last name":"SCHNOOR","company name":null,"zipcode":"21660","county":"CAROLINE","address 1":"23653 SPARKS RD","total acres":"250 to 499","description":"#REF!","icon scale":0.7,"phone":4106342922,"longitude":-75.883661,"id":"afssjdpw9o6k","first name":"R","state":"MD"},"type":"Feature","geometry":{"type":"Point","coordinates":[-75.883661,38.983916]}},{"properties":{"city":"RIDGELY","salesperson":"Jason Beiler","latitude":38.953,"icon":165,"last name":"MOORE","company name":null,"zipcode":"21660","county":"CAROLINE","address 1":"12450 RIDGELY RD","total acres":"250 to 499","description":"#REF!","icon scale":0.7,"phone":4106341136,"longitude":-75.864781,"id":"afssjdpm8c12","first name":"WILLIAM","state":"MD"},"type":"Feature","geometry":{"type":"Point","coordinates":[-75.864781,38.953]}},{"properties":{"city":"ROCK HALL","salesperson":"Jason Beiler","latitude":39.134173,"icon":165,"last name":"DIERKER","company name":null,"zipcode":"21661","county":"KENT","address 1":"5591 CROSBY RD","total acres":"250 to 499","description":"#REF!","icon scale":0.7,"phone":4107785198,"longitude":-76.213262,"id":"afssjdr85ekz","first name":"RONALD","state":"MD"},"type":"Feature","geometry":{"type":"Point","coordinates":[-76.213262,39.134173]}},{"properties":{"city":"ROYAL OAK","salesperson":"Jason Beiler","latitude":38.697668,"icon":165,"last name":"FERENBACH","company name":null,"zipcode":"21662","county":"TALBOT","address 1":"PO BOX 156","total acres":"250 to 499","description":"#REF!","icon scale":0.7,"phone":4107453044,"longitude":-76.213147,"id":"afssjdg1lc8t","first name":"COLIN","state":"MD"},"type":"Feature","geometry":{"type":"Point","coordinates":[-76.213147,38.697668]}},{"properties":{"city":"STILL POND","salesperson":"Jason Beiler","latitude":39.343215,"icon":165,"last name":"PAYNE","company name":null,"zipcode":"21667","county":"KENT","address 1":"25809 STILL POND NECK RD","total acres":"250 to 499","description":"#REF!","icon scale":0.7,"phone":4103485721,"longitude":-76.070187,"id":"afssjdld93c9","first name":"ROBERT","state":"MD"},"type":"Feature","geometry":{"type":"Point","coordinates":[-76.070187,39.343215]}},{"properties":{"city":"TRAPPE","salesperson":"Jason Beiler","latitude":38.642699,"icon":165,"last name":"NAVE","company name":null,"zipcode":"21673","county":"TALBOT","address 1":"3541 BAMBURY RD","total acres":"250 to 499","description":"#REF!","icon scale":0.7,"phone":4104763577,"longitude":-76.015915,"id":"afssjdftuab7","first name":"JULIAN","state":"MD"},"type":"Feature","geometry":{"type":"Point","coordinates":[-76.015915,38.642699]}},{"properties":{"city":"TRAPPE","salesperson":"Jason Beiler","latitude":38.630603,"icon":165,"last name":"SCLICHTER","company name":null,"zipcode":"21673","county":"TALBOT","address 1":"2989 JAMAICA POINT RD","total acres":"250 to 499","description":"#REF!","icon scale":0.7,"phone":4104763918,"longitude":-76.005996,"id":"afssjduia9gy","first name":"EDWARD","state":"MD"},"type":"Feature","geometry":{"type":"Point","coordinates":[-76.005996,38.630603]}},{"properties":{"city":"TRAPPE","salesperson":"Jason Beiler","latitude":38.63003,"icon":165,"last name":"BAYNARD","company name":null,"zipcode":"21673","county":"TALBOT","address 1":"2971 MONEY MAKE RD","total acres":"250 to 499","description":"#REF!","icon scale":0.7,"phone":4104763489,"longitude":-76.027211,"id":"afssjdqercdg","first name":"WILLIAM","state":"MD"},"type":"Feature","geometry":{"type":"Point","coordinates":[-76.027211,38.63003]}},{"properties":{"city":"TRAPPE","salesperson":"Jason Beiler","latitude":38.695181,"icon":165,"last name":"LYONS","company name":null,"zipcode":"21673","county":"TALBOT","address 1":"5349 WELLINGTON DR","total acres":"250 to 499","description":"#REF!","icon scale":0.7,"phone":4104765015,"longitude":-76.014946,"id":"afssjdpchjf0","first name":"LEE","state":"MD"},"type":"Feature","geometry":{"type":"Point","coordinates":[-76.014946,38.695181]}},{"properties":{"city":"TRAPPE","salesperson":"Jason Beiler","latitude":38.659629,"icon":165,"last name":"ASMUSSEN","company name":null,"zipcode":"21673","county":"TALBOT","address 1":"29269 MAPLE AVE","total acres":"250 to 499","description":"#REF!","icon scale":0.7,"phone":4104763109,"longitude":-76.061679,"id":"afssjdphf5pd","first name":"KEITH","state":"MD"},"type":"Feature","geometry":{"type":"Point","coordinates":[-76.061679,38.659629]}},{"properties":{"city":"TRAPPE","salesperson":"Jason Beiler","latitude":38.681097,"icon":165,"last name":"BAYNARD","company name":null,"zipcode":"21673","county":"TALBOT","address 1":"29719 TARBUTTON MILL RD","total acres":"250 to 499","description":"#REF!","icon scale":0.7,"phone":4104763406,"longitude":-76.045345,"id":"afssjdr6rd98","first name":"ALAN","state":"MD"},"type":"Feature","geometry":{"type":"Point","coordinates":[-76.045345,38.681097]}},{"properties":{"city":"WORTON","salesperson":"Jason Beiler","latitude":39.260623,"icon":165,"last name":"SMITH","company name":null,"zipcode":"21678","county":"KENT","address 1":"25155 CHINQUAPIN RD","total acres":"250 to 499","description":"#REF!","icon scale":0.7,"phone":4107780459,"longitude":-76.097664,"id":"afssjdfaj1w0","first name":"JAMES","state":"MD"},"type":"Feature","geometry":{"type":"Point","coordinates":[-76.097664,39.260623]}}],"is_temporal":false,"author":{"url":"","metadata":null,"contact_name":null,"contact_address":null,"source":null,"contact_phone":null},"source":"","pagination":{"sort":null,"start":0,"total":100,"limit":1000000},"state":"complete","tags":"","published":"2014-08-16T23:53:10-04:00","id":377654}