{"type":"FeatureCollection","data_type":"Dataset","url_type":null,"permissions":[{"permissions":{"download":true,"view":true},"group_id":"everyone"}],"classification":null,"title":"FY13 KITK","count":106,"stream_id":378061,"contributor":{"url":"http://geocommons.com/users/51639","name":"kcbacksnack"},"data_attributes":null,"calculation_params":null,"icon_link":null,"link":"http://geocommons.com/overlays/378061.json","extent":[-96.7095,38.4975,-93.7108,39.3762],"geometry_types":["point"],"unique_name":null,"name":"FY13 KITK","feature_count":106,"description":"","next_feature":null,"is_raster":false,"short_classification":"Y","stats":{},"features":[{"properties":{"city":"Lawrence","zip":"66044","host name":"Bert Nash Community Mental Health Center","county":"Douglas","contact":"Katherine Jennings","type":"Kids in the Kitchen","geo_score":1.0,"id":"aftqfog4eo9p","address":"200 Maine Street","geo_precision":"range","state":"KS"},"type":"Feature","geometry":{"type":"Point","coordinates":[-95.247605,38.980322]}},{"properties":{"city":"Lawrence","zip":"66046","host name":"Boys &amp; Girls Club Kennedy","county":"Douglas","contact":"Trained Trainer","type":"Kids in the Kitchen","geo_score":1.0,"id":"aftqfobv5yxb","address":"1605 Davis Road","geo_precision":"range","state":"KS"},"type":"Feature","geometry":{"type":"Point","coordinates":[-95.214605,38.947453]}},{"properties":{"city":"Lawrence","zip":"66049","host name":"Douglas County Housing Inc.","county":"Douglas","contact":"Katherine Jennings","type":"Kids in the Kitchen","geo_score":0.717,"id":"aftqfooy59q3","address":"1600 Haskell","geo_precision":"range","state":"KS"},"type":"Feature","geometry":{"type":"Point","coordinates":[-95.367545,38.520995]}},{"properties":{"city":"Oskaloosa","zip":"66066","host name":"Oskaloosa Public Schools","county":"Jefferson","contact":"Trained Trainer","type":"Kids in the Kitchen","geo_score":1.0,"id":"aftqfoefpifl","address":"404 Park Street","geo_precision":"range","state":"KS"},"type":"Feature","geometry":{"type":"Point","coordinates":[-95.315128,39.220626]}},{"properties":{"city":"Ottawa","zip":"66067","host name":"Ottawa Library","county":"Franklin","contact":null,"type":"Kids in the Kitchen","geo_score":0.585,"id":"aftqfok0lniq","address":"105 South Hickory","geo_precision":"zip","state":"KS"},"type":"Feature","geometry":{"type":"Point","coordinates":[-95.282668,38.564337]}},{"properties":{"city":"Lenexa","zip":"66213","host name":"All Around Child","county":"Johnson","contact":"Michelle Faherty","type":"Kids in the Kitchen","geo_score":0.641,"id":"aftqfop05ryo","address":"3205 W 133rd Street","geo_precision":"street","state":"KS"},"type":"Feature","geometry":{"type":"Point","coordinates":[-94.710368,38.885818]}},{"properties":{"city":"Overland Park","zip":"66213","host name":"Ascension Catholic School","county":"Johnson","contact":"Sean Pollock","type":"Kids in the Kitchen","geo_score":0.902,"id":"aftqfokbnnx1","address":"9510 West 127th Street","geo_precision":"range","state":"KS"},"type":"Feature","geometry":{"type":"Point","coordinates":[-94.694794,38.898361]}},{"properties":{"city":"Leawood","zip":"66207","host name":"Bethany Lutheran School","county":"Johnson","contact":"Sara Ingersoll","type":"Kids in the Kitchen","geo_score":0.922,"id":"aftqfojm9gva","address":"9101 Lamar Avenue","geo_precision":"range","state":"KS"},"type":"Feature","geometry":{"type":"Point","coordinates":[-94.658329,38.962989]}},{"properties":{"city":"Mission","zip":"66202","host name":"City of Mission Parks and Recreation","county":"Johnson","contact":"Sara Ingersoll","type":"Kids in the Kitchen","geo_score":0.912,"id":"aftqfok96qjv","address":"6200 Martway","geo_precision":"range","state":"KS"},"type":"Feature","geometry":{"type":"Point","coordinates":[-94.657229,39.019885]}},{"properties":{"city":"Lenexa","zip":"66215","host name":"Girl Scouts Troop #1589 Daisies","county":"Johnson","contact":"Sara Ingersoll","type":"Kids in the Kitchen","geo_score":0.935,"id":"aftqfoq71047","address":"14719 West 83rd Place","geo_precision":"range","state":"KS"},"type":"Feature","geometry":{"type":"Point","coordinates":[-94.75721,38.978326]}},{"properties":{"city":"Shawnee","zip":"66216","host name":"KinderCare Learning Center Long Avenue","county":"Johnson","contact":"Sara Ingersoll","type":"Kids in the Kitchen","geo_score":0.948,"id":"aftqfollpvcf","address":"6350 Long Avenue","geo_precision":"range","state":"KS"},"type":"Feature","geometry":{"type":"Point","coordinates":[-94.729876,39.012411]}},{"properties":{"city":"Shawnee","zip":"66218","host name":"KinderCare Learning Center Martindale","county":"Johnson","contact":"Sara Ingersoll","type":"Kids in the Kitchen","geo_score":0.88,"id":"aftqfoqdqacd","address":"5416 Martindale","geo_precision":"range","state":"KS"},"type":"Feature","geometry":{"type":"Point","coordinates":[-94.822835,39.031457]}},{"properties":{"city":"Gardner","zip":"66030","host name":"Little Peoples Place","county":"Johnson","contact":"Steve Lee","type":"Kids in the Kitchen","geo_score":0.585,"id":"aftqfohfx9hj","address":"125 North Moonlight Road","geo_precision":"zip","state":"KS"},"type":"Feature","geometry":{"type":"Point","coordinates":[-94.94139,38.814998]}},{"properties":{"city":"Merriam","zip":"66203","host name":"Nieman Elementary School","county":"Johnson","contact":"Mona Riggs","type":"Kids in the Kitchen","geo_score":0.85,"id":"aftqfoixzvas","address":"10917 West 67th Street","geo_precision":"range","state":"KS"},"type":"Feature","geometry":{"type":"Point","coordinates":[-94.714298,39.007381]}},{"properties":{"city":"Olathe","zip":"66061","host name":"Olathe Public Library","county":"Johnson","contact":"Michelle Faherty","type":"Kids in the Kitchen","geo_score":0.902,"id":"aftqfobgrew3","address":"201 E Park","geo_precision":"range","state":"KS"},"type":"Feature","geometry":{"type":"Point","coordinates":[-94.817501,38.881942]}},{"properties":{"city":"Merriam","zip":"66204","host name":"Overland Park Farmers Market","county":"Johnson","contact":"Sara Ingersoll","type":"Kids in the Kitchen","geo_score":0.85,"id":"aftqfoh2hl67","address":"7315 West 79th Street","geo_precision":"range","state":"KS"},"type":"Feature","geometry":{"type":"Point","coordinates":[-94.671025,38.98581]}},{"properties":{"city":"Lenexa","zip":"66216","host name":"Prairie Baptist Church","county":"Johnson","contact":"Michelle Faherty","type":"Kids in the Kitchen","geo_score":0.656,"id":"aftqfoo8bhbm","address":"13722 West 75th Street","geo_precision":"street","state":"KS"},"type":"Feature","geometry":{"type":"Point","coordinates":[-94.734775,38.992838]}},{"properties":{"city":"Overland Park","zip":"66210","host name":"Youth Volunteer Corps of Greater Kansas City","county":"Johnson","contact":"Mona Riggs","type":"Kids in the Kitchen","geo_score":0.415,"id":"aftqfoe896qg","address":"8205 W 108th Terrace #120","geo_precision":"street","state":"KS"},"type":"Feature","geometry":{"type":"Point","coordinates":[-94.680939,38.932795]}},{"properties":{"city":"Osawatomie","zip":"66064-","host name":"First Baptist Church","county":"Miami","contact":"Michelle Faherty","type":"Kids in the Kitchen","geo_score":0.87,"id":"aftqforigizi","address":"701 Brown","geo_precision":"range","state":"KS"},"type":"Feature","geometry":{"type":"Point","coordinates":[-94.952557,38.497541]}},{"properties":{"city":"Osawatomie","zip":"66064","host name":"Osawatomie Public Library","county":"Miami","contact":"Katherine Jennings","type":"Kids in the Kitchen","geo_score":1.0,"id":"aftqfofkzvf6","address":"527 Brown Avenue","geo_precision":"range","state":"KS"},"type":"Feature","geometry":{"type":"Point","coordinates":[-94.949,38.498]}},{"properties":{"city":"Lyndon","zip":"66451","host name":"Lyndon After School Program","county":"Osage","contact":"Katherine Jennings","type":"Kids in the Kitchen","geo_score":0.805,"id":"aftqfop3jvf5","address":"421 E 6th Street","geo_precision":"range","state":"KS"},"type":"Feature","geometry":{"type":"Point","coordinates":[-95.677368,38.608645]}},{"properties":{"city":"Lyndon","zip":"66451","host name":"Lyndon Middle School","county":"Osage","contact":"Katherine Jennings","type":"Kids in the Kitchen","geo_score":0.805,"id":"aftqfoeu98uf","address":"421 East 6th street","geo_precision":"range","state":"KS"},"type":"Feature","geometry":{"type":"Point","coordinates":[-95.677368,38.608645]}},{"properties":{"city":"Saint Marys","zip":"66536","host name":"St. Marys Grade School","county":"Pottawatomie","contact":"Julie Evnen","type":"Kids in the Kitchen","geo_score":0.748,"id":"aftqfochkv2r","address":"312 Grand","geo_precision":"range","state":"KS"},"type":"Feature","geometry":{"type":"Point","coordinates":[-96.062447,39.186662]}},{"properties":{"city":"Manhattan","zip":"66503","host name":"Bergman Elementary School","county":"Riley","contact":"Trained Trainer","type":"Kids in the Kitchen","geo_score":0.912,"id":"aftqfohgr803","address":"3430 Lombard","geo_precision":"range","state":"KS"},"type":"Feature","geometry":{"type":"Point","coordinates":[-96.621747,39.211799]}},{"properties":{"city":"Manhattan","zip":"66502","host name":"Bluemont Elementary School","county":"Riley","contact":"Trained Trainer","type":"Kids in the Kitchen","geo_score":1.0,"id":"aftqfobuouy9","address":"714 Bluemont Avenue","geo_precision":"range","state":"KS"},"type":"Feature","geometry":{"type":"Point","coordinates":[-96.568119,39.186811]}},{"properties":{"city":"Manhattan","zip":"66502","host name":"Boys &amp; Girls Club Manhattan","county":"Riley","contact":"Trained Trainer","type":"Kids in the Kitchen","geo_score":0.625,"id":"aftqfoh4cnj9","address":"220 S. Fifth Street","geo_precision":"street","state":"KS"},"type":"Feature","geometry":{"type":"Point","coordinates":[-96.56348,39.177248]}},{"properties":{"city":"Ogden","zip":"66517","host name":"Ogden Elementary School","county":"Riley","contact":"Trained Trainer","type":"Kids in the Kitchen","geo_score":0.817,"id":"aftqfociks54","address":"210 Elm","geo_precision":"range","state":"KS"},"type":"Feature","geometry":{"type":"Point","coordinates":[-96.709539,39.117868]}},{"properties":{"city":"Ogden","zip":"66517","host name":"Ogden Friendship House of Hope","county":"Riley","contact":"Trained Trainer","type":"Kids in the Kitchen","geo_score":0.371,"id":"aftqfoihjugn","address":"PO Box 328","geo_precision":"street","state":"KS"},"type":"Feature","geometry":{"type":"Point","coordinates":[-95.756931,39.3762]}},{"properties":{"city":"Topeka","zip":"66607","host name":"Antioch Family Life Center","county":"Shawnee","contact":"Sara Ingersoll","type":"Kids in the Kitchen","geo_score":1.0,"id":"aftqfoj9n8fa","address":"1921 SE Indiana Avenue","geo_precision":"range","state":"KS"},"type":"Feature","geometry":{"type":"Point","coordinates":[-95.660582,39.032911]}},{"properties":{"city":"Topeka","zip":"66617","host name":"Boys &amp; Girls Club of North Topeka","county":"Shawnee","contact":"Katherine Jennings","type":"Kids in the Kitchen","geo_score":1.0,"id":"aftqfokvb91n","address":"4303 NE Indian Creek Rd.","geo_precision":"range","state":"KS"},"type":"Feature","geometry":{"type":"Point","coordinates":[-95.645251,39.127084]}},{"properties":{"city":"Topeka","zip":"66605","host name":"Boys &amp; Girls Club Topeka","county":"Shawnee","contact":"Jordan Richardson","type":"Kids in the Kitchen","geo_score":0.941,"id":"aftqfojvrrnf","address":"550 Southeast 27th street","geo_precision":"range","state":"KS"},"type":"Feature","geometry":{"type":"Point","coordinates":[-95.671496,39.018965]}},{"properties":{"city":"Topeka","zip":"66604","host name":"Central Park Community Center","county":"Shawnee","contact":"Jordan Richardson","type":"Kids in the Kitchen","geo_score":0.912,"id":"aftqfohql798","address":"1534 SW Clay","geo_precision":"range","state":"KS"},"type":"Feature","geometry":{"type":"Point","coordinates":[-95.691523,39.042669]}},{"properties":{"city":"Topeka","zip":"66607","host name":"East 8th Street Missionary Baptist Church","county":"Shawnee","contact":"Katherine Jennings","type":"Kids in the Kitchen","geo_score":0.894,"id":"aftqfopsw3it","address":"801 SE Wear","geo_precision":"range","state":"KS"},"type":"Feature","geometry":{"type":"Point","coordinates":[-95.639923,39.038908]}},{"properties":{"city":"Topeka","zip":"66606","host name":"Family Service &amp; Guidance Center","county":"Shawnee","contact":"Katherine Jennings","type":"Kids in the Kitchen","geo_score":0.738,"id":"aftqfok2h0om","address":"325 SW Frazier","geo_precision":"street","state":"KS"},"type":"Feature","geometry":{"type":"Point","coordinates":[-95.719631,39.055662]}},{"properties":{"city":"Topeka","zip":"66608","host name":"Garfield Community Center","county":"Shawnee","contact":"Katherine Jennings","type":"Kids in the Kitchen","geo_score":0.927,"id":"aftqfoja7xp4","address":"1600 NE Quincy","geo_precision":"range","state":"KS"},"type":"Feature","geometry":{"type":"Point","coordinates":[-95.661401,39.075273]}},{"properties":{"city":"Topeka","zip":"66605","host name":"Highland Crest Seventh-Day Adventist Church","county":"Shawnee","contact":"Trained Trainer","type":"Kids in the Kitchen","geo_score":1.0,"id":"aftqfoqcsbs8","address":"3225 SE Adams Street","geo_precision":"range","state":"KS"},"type":"Feature","geometry":{"type":"Point","coordinates":[-95.670357,39.008525]}},{"properties":{"city":"Topeka","zip":"66605","host name":"I Care Inc.","county":"Shawnee","contact":"Julie Evnen","type":"Kids in the Kitchen","geo_score":1.0,"id":"aftqfoid5xss","address":"2914 SE Michigan Avenue","geo_precision":"range","state":"KS"},"type":"Feature","geometry":{"type":"Point","coordinates":[-95.658603,39.013702]}},{"properties":{"city":"Topeka","zip":"66604","host name":"Kansas Childrens Discovery Center","county":"Shawnee","contact":"Jordan Richardson","type":"Kids in the Kitchen","geo_score":0.947,"id":"aftqfohd9p0b","address":"4400 SW 10th Avenue","geo_precision":"range","state":"KS"},"type":"Feature","geometry":{"type":"Point","coordinates":[-95.727326,39.051286]}},{"properties":{"city":"Topeka","zip":"66616","host name":"Oakland Community Center","county":"Shawnee","contact":"Katherine Jennings","type":"Kids in the Kitchen","geo_score":0.902,"id":"aftqfocg6usd","address":"801 North Poplar","geo_precision":"range","state":"KS"},"type":"Feature","geometry":{"type":"Point","coordinates":[-95.643194,39.067969]}},{"properties":{"city":"Lecompton","zip":"66050","host name":"Perry Lecompton Elementary School","county":"Shawnee","contact":"Katherine Jennings","type":"Kids in the Kitchen","geo_score":0.927,"id":"aftqfoi9pe3o","address":"626 Whitfield","geo_precision":"range","state":"KS"},"type":"Feature","geometry":{"type":"Point","coordinates":[-95.396826,39.038242]}},{"properties":{"city":"Topeka","zip":"66605","host name":"Ross Elementary School","county":"Shawnee","contact":"Julie Evnen","type":"Kids in the Kitchen","geo_score":0.941,"id":"aftqfoldf6qh","address":"1400 SE 34th Street","geo_precision":"range","state":"KS"},"type":"Feature","geometry":{"type":"Point","coordinates":[-95.658632,39.006127]}},{"properties":{"city":"Topeka","zip":"66601","host name":"Safe Streets Coalition","county":"Shawnee","contact":"Julie Evnen","type":"Kids in the Kitchen","geo_score":0.805,"id":"aftqfojabje7","address":"455 SE Golf Park Boulevard","geo_precision":"range","state":"KS"},"type":"Feature","geometry":{"type":"Point","coordinates":[-95.672581,39.008965]}},{"properties":{"city":"Topeka","zip":"66619","host name":"Shawnee County Parks and Recreation","county":"Shawnee","contact":"Becca Warta","type":"Kids in the Kitchen","geo_score":1.0,"id":"aftqfoq7y0c6","address":"6715 SW Westview Road","geo_precision":"range","state":"KS"},"type":"Feature","geometry":{"type":"Point","coordinates":[-95.696726,38.944331]}},{"properties":{"city":"Topeka","zip":"66606","host name":"Topeka Lutheran School","county":"Shawnee","contact":"Katherine Jennings","type":"Kids in the Kitchen","geo_score":0.82,"id":"aftqfoces9ru","address":"701 SW Roosevelt","geo_precision":"range","state":"KS"},"type":"Feature","geometry":{"type":"Point","coordinates":[-95.703358,39.056802]}},{"properties":{"city":"Eskridge","zip":"66423","host name":"Flint Hills Coalition Pride","county":"Wabaunsee","contact":"Katherine Jennings","type":"Kids in the Kitchen","geo_score":0.902,"id":"aftqfojis4nh","address":"315 South Main","geo_precision":"range","state":"KS"},"type":"Feature","geometry":{"type":"Point","coordinates":[-96.109125,38.858622]}},{"properties":{"city":"Alma","zip":"66401","host name":"Wabaunsee County Extension","county":"Wabaunsee","contact":"Katherine Jennings","type":"Kids in the Kitchen","geo_score":0.902,"id":"aftqfobey49o","address":"902 Grand Street","geo_precision":"range","state":"KS"},"type":"Feature","geometry":{"type":"Point","coordinates":[-96.286565,39.019002]}},{"properties":{"city":"Kansas City","zip":"66104","host name":"Amayo Argentine Community Center","county":"Wyandotte","contact":"Michelle Faherty","type":"Kids in the Kitchen","geo_score":0.805,"id":"aftqfon0651l","address":"2810 Metropolitan Ave","geo_precision":"range","state":"KS"},"type":"Feature","geometry":{"type":"Point","coordinates":[-94.662288,39.073344]}},{"properties":{"city":"Kansas City","zip":"66101","host name":"Bethel Neighborhood Center","county":"Wyandotte","contact":"Sara Ingersoll","type":"Kids in the Kitchen","geo_score":0.756,"id":"aftqfop4y7vm","address":"14 South 7th Street","geo_precision":"street","state":"KS"},"type":"Feature","geometry":{"type":"Point","coordinates":[-94.627046,39.132822]}},{"properties":{"city":"Kansas City","zip":"66104","host name":"Delavan Townhomes","county":"Wyandotte","contact":"Trained Trainer","type":"Kids in the Kitchen","geo_score":1.0,"id":"aftqfobtx61b","address":"2420 Delavan Avenue","geo_precision":"range","state":"KS"},"type":"Feature","geometry":{"type":"Point","coordinates":[-94.65786,39.143756]}},{"properties":{"city":"Kansas City","zip":"66109","host name":"Delaware Ridge Elementary","county":"Wyandotte","contact":"Sara Ingersoll","type":"Kids in the Kitchen","geo_score":0.857,"id":"aftqfop7fxf0","address":"1601 N. 130th Street","geo_precision":"zip","state":"KS"},"type":"Feature","geometry":{"type":"Point","coordinates":[-94.817719,39.143692]}},{"properties":{"city":"Edwardsville","zip":"66111","host name":"Edwardsville Elementary School","county":"Wyandotte","contact":"Sara Ingersoll","type":"Kids in the Kitchen","geo_score":0.919,"id":"aftqfomhfeu6","address":"1700 South 104th Street","geo_precision":"range","state":"KS"},"type":"Feature","geometry":{"type":"Point","coordinates":[-94.821143,39.066215]}},{"properties":{"city":"Kansas City","zip":"66103","host name":"Frank Rushton Elementary","county":"Wyandotte","contact":"Sara Ingersoll","type":"Kids in the Kitchen","geo_score":0.722,"id":"aftqfokqwn06","address":"2605 West 43rd Street","geo_precision":"street","state":"KS"},"type":"Feature","geometry":{"type":"Point","coordinates":[-94.607327,39.049521]}},{"properties":{"city":"Kansas City","zip":"66106","host name":"Girl Scout Troop 1954","county":"Wyandotte","contact":"Sara Ingersoll","type":"Kids in the Kitchen","geo_score":1.0,"id":"aftqfoh4fhxi","address":"2810 Metropolitan Avenue","geo_precision":"range","state":"KS"},"type":"Feature","geometry":{"type":"Point","coordinates":[-94.662288,39.073344]}},{"properties":{"city":"Kansas City","zip":"66102","host name":"Grandview Park Presbyterian Church","county":"Wyandotte","contact":"Trained Trainer","type":"Kids in the Kitchen","geo_score":1.0,"id":"aftqfom3th5v","address":"1613 Wilson Boulevard","geo_precision":"range","state":"KS"},"type":"Feature","geometry":{"type":"Point","coordinates":[-94.648085,39.104029]}},{"properties":{"city":"Kansas City","zip":"66102","host name":"M.E. Pearson Elementary","county":"Wyandotte","contact":"Sara Ingersoll","type":"Kids in the Kitchen","geo_score":0.633,"id":"aftqfoghvb2i","address":"310 N. 11th St.","geo_precision":"street","state":"KS"},"type":"Feature","geometry":{"type":"Point","coordinates":[-94.637723,39.10167]}},{"properties":{"city":"Kansas City","zip":"66112","host name":"Oak Ridge CDF Freedom School","county":"Wyandotte","contact":"Michelle Faherty","type":"Kids in the Kitchen","geo_score":1.0,"id":"aftqfokk5679","address":"9301 Parallel Parkway","geo_precision":"range","state":"KS"},"type":"Feature","geometry":{"type":"Point","coordinates":[-94.793589,39.128518]}},{"properties":{"city":"Kansas City","zip":"66101","host name":"The Homes, Inc.","county":"Wyandotte","contact":"Sara Ingersoll","type":"Kids in the Kitchen","geo_score":1.0,"id":"aftqfoh6wpfu","address":"660 Manorcrest Drive","geo_precision":"range","state":"KS"},"type":"Feature","geometry":{"type":"Point","coordinates":[-94.626065,39.139808]}},{"properties":{"city":"Liberty","zip":"64068","host name":"City of Liberty Gardening Club","county":"Clay","contact":"Mona Riggs","type":"Kids in the Kitchen","geo_score":0.92,"id":"aftqfoo1p2vu","address":"101 East Kansas","geo_precision":"range","state":"MO"},"type":"Feature","geometry":{"type":"Point","coordinates":[-94.418615,39.246041]}},{"properties":{"city":"Gladstone","zip":"64118","host name":"Girl Scout Troop 3472","county":"Clay","contact":"Katie Warning","type":"Kids in the Kitchen","geo_score":0.927,"id":"aftqfoh06ff9","address":"7332 North Liberty","geo_precision":"range","state":"MO"},"type":"Feature","geometry":{"type":"Point","coordinates":[-94.598796,39.2277]}},{"properties":{"city":"Excelsior Springs","zip":"64024","host name":"Good Samaritan Center","county":"Clay","contact":"Kacee Kellum","type":"Kids in the Kitchen","geo_score":0.783,"id":"aftqfoflba1n","address":"108 South Thompson Street","geo_precision":"street","state":"MO"},"type":"Feature","geometry":{"type":"Point","coordinates":[-94.224432,39.344946]}},{"properties":{"city":"Avondale","zip":"64117","host name":"Harvest Church Freedom School","county":"Clay","contact":"Dianna Sinni","type":"Kids in the Kitchen","geo_score":0.598,"id":"aftqfooabu6y","address":"4300 N. Corrington Avenue","geo_precision":"street","state":"MO"},"type":"Feature","geometry":{"type":"Point","coordinates":[-94.497429,39.166537]}},{"properties":{"city":"Liberty","zip":"64068","host name":"Liberty Alliance for Youth Inc.","county":"Clay","contact":"Sean Pollock","type":"Kids in the Kitchen","geo_score":0.629,"id":"aftqfoiatiyy","address":"800 Haines","geo_precision":"street","state":"MO"},"type":"Feature","geometry":{"type":"Point","coordinates":[-94.474786,39.218556]}},{"properties":{"city":"North Kansas City","zip":"64116","host name":"North Kansas City Community Center","county":"Clay","contact":"Katie Warning","type":"Kids in the Kitchen","geo_score":1.0,"id":"aftqfoj45aqm","address":"1999 Iron Street","geo_precision":"range","state":"MO"},"type":"Feature","geometry":{"type":"Point","coordinates":[-94.571485,39.14016]}},{"properties":{"city":"Kansas City","zip":"64117","host name":"Parvin Estates","county":"Clay","contact":"Steve Lee","type":"Kids in the Kitchen","geo_score":0.806,"id":"aftqfof3gc6u","address":"4033 North Bellaire Avenue","geo_precision":"street","state":"MO"},"type":"Feature","geometry":{"type":"Point","coordinates":[-94.511074,39.176652]}},{"properties":{"city":"Kansas City","zip":"64110","host name":"Academy for Integrated Arts","county":"Jackson","contact":"Katie Warning","type":"Kids in the Kitchen","geo_score":0.883,"id":"aftqfolbcx8g","address":"5604 Troost","geo_precision":"range","state":"MO"},"type":"Feature","geometry":{"type":"Point","coordinates":[-94.574068,39.023648]}},{"properties":{"city":"Grandview","zip":"64030","host name":"Belvidere Caring Communities","county":"Jackson","contact":"Kelcey Ellis","type":"Kids in the Kitchen","geo_score":1.0,"id":"aftqfoqh9e18","address":"15010 White Ave.","geo_precision":"range","state":"MO"},"type":"Feature","geometry":{"type":"Point","coordinates":[-94.520406,38.849511]}},{"properties":{"city":"Kansas City","zip":"64133","host name":"Blue Ridge Elementary","county":"Jackson","contact":"Kelcey Ellis","type":"Kids in the Kitchen","geo_score":1.0,"id":"aftqfokxdqqs","address":"6410 Blue Ridge Boulevard","geo_precision":"range","state":"MO"},"type":"Feature","geometry":{"type":"Point","coordinates":[-94.476186,39.007577]}},{"properties":{"city":"Kansas City","zip":"64128","host name":"Central Christian Church","county":"Jackson","contact":"Sean Pollock","type":"Kids in the Kitchen","geo_score":1.0,"id":"aftqfopyeewd","address":"3801 East Linwood Boulevard","geo_precision":"range","state":"MO"},"type":"Feature","geometry":{"type":"Point","coordinates":[-94.538039,39.067554]}},{"properties":{"city":"Independence","zip":"64055","host name":"Child Abuse Prevention Association","county":"Jackson","contact":"Steve Lee","type":"Kids in the Kitchen","geo_score":0.614,"id":"aftqfobnx1c4","address":"503 E. 23rd Street","geo_precision":"street","state":"MO"},"type":"Feature","geometry":{"type":"Point","coordinates":[-94.399582,39.077217]}},{"properties":{"city":"Kansas City","zip":"64110","host name":"Community LINC","county":"Jackson","contact":"Steve Lee","type":"Kids in the Kitchen","geo_score":1.0,"id":"aftqfoow7mt3","address":"4012 Troost Avenue","geo_precision":"range","state":"MO"},"type":"Feature","geometry":{"type":"Point","coordinates":[-94.572228,39.054322]}},{"properties":{"city":"Kansas City","zip":"64106","host name":"Della Lamb Elementary Charter School","county":"Jackson","contact":"Steve Lee","type":"Kids in the Kitchen","geo_score":1.0,"id":"aftqfop63wqo","address":"1000 Charlotte Street","geo_precision":"range","state":"MO"},"type":"Feature","geometry":{"type":"Point","coordinates":[-94.573882,39.100806]}},{"properties":{"city":"Independence","zip":"64050","host name":"Girl Scout Troop 3525","county":"Jackson","contact":"Kacee Kellum","type":"Kids in the Kitchen","geo_score":0.732,"id":"aftqfohw291d","address":"1102 South Leslie","geo_precision":"street","state":"MO"},"type":"Feature","geometry":{"type":"Point","coordinates":[-94.40704,39.093627]}},{"properties":{"city":"Kansas City","zip":"64129","host name":"Global Youth Service Day","county":"Jackson","contact":"Sean Pollock","type":"Kids in the Kitchen","geo_score":1.0,"id":"aftqfob8zvqv","address":"3801 Topping Avenue","geo_precision":"range","state":"MO"},"type":"Feature","geometry":{"type":"Point","coordinates":[-94.516741,39.05384]}},{"properties":{"city":"Kansas City","zip":"64111","host name":"Gordon Parks Elementary","county":"Jackson","contact":"Kacee Kellum","type":"Kids in the Kitchen","geo_score":1.0,"id":"aftqfojhzc4d","address":"3715 Wyoming Street","geo_precision":"range","state":"MO"},"type":"Feature","geometry":{"type":"Point","coordinates":[-94.603611,39.05884]}},{"properties":{"city":"Kansas City","zip":"64130","host name":"Greater Mount Zion Missionary Baptist Church","county":"Jackson","contact":"Trained Trainer","type":"Kids in the Kitchen","geo_score":1.0,"id":"aftqfok8xkrc","address":"4600 Cleveland Avenue","geo_precision":"range","state":"MO"},"type":"Feature","geometry":{"type":"Point","coordinates":[-94.540467,39.041399]}},{"properties":{"city":"Kansas City","zip":"64108","host name":"Gregg Klice Community Center","county":"Jackson","contact":"Steve Lee","type":"Kids in the Kitchen","geo_score":0.585,"id":"aftqfoepwig2","address":"1600 John Buck Oneil Way","geo_precision":"zip","state":"MO"},"type":"Feature","geometry":{"type":"Point","coordinates":[-94.584133,39.083804]}},{"properties":{"city":"Kansas City","zip":"64129","host name":"Harvesters Missouri","county":"Jackson","contact":"Kacee Kellum","type":"Kids in the Kitchen","geo_score":1.0,"id":"aftqfopudwpw","address":"3801 Topping Avenue","geo_precision":"range","state":"MO"},"type":"Feature","geometry":{"type":"Point","coordinates":[-94.516741,39.05384]}},{"properties":{"city":"Grandview","zip":"64030","host name":"High Grove Early Childhood Center","county":"Jackson","contact":"Kelcey Ellis","type":"Kids in the Kitchen","geo_score":0.67,"id":"aftqfoculejr","address":"2500 High Grove Road","geo_precision":"range","state":"MO"},"type":"Feature","geometry":{"type":"Point","coordinates":[-94.130133,38.988854]}},{"properties":{"city":"Kansas City","zip":"64111","host name":"Jacobs Well Church","county":"Jackson","contact":"Taryn Glidewell","type":"Kids in the Kitchen","geo_score":1.0,"id":"aftqfoopku5z","address":"1617 West 42nd Street","geo_precision":"range","state":"MO"},"type":"Feature","geometry":{"type":"Point","coordinates":[-94.605105,39.052144]}},{"properties":{"city":"Kansas City","zip":"64109-","host name":"Kansas City Urban Youth Center","county":"Jackson","contact":"Trained Trainer","type":"Kids in the Kitchen","geo_score":0.857,"id":"aftqfoht263o","address":"2740Troost Avenue","geo_precision":"zip","state":"MO"},"type":"Feature","geometry":{"type":"Point","coordinates":[-94.575933,39.066654]}},{"properties":{"city":"Kansas City","zip":"64109","host name":"Lee A. Tolbert","county":"Jackson","contact":"Kelcey Ellis","type":"Kids in the Kitchen","geo_score":0.941,"id":"aftqfoof7p3t","address":"3400 Paseo Boulevard","geo_precision":"range","state":"MO"},"type":"Feature","geometry":{"type":"Point","coordinates":[-94.567098,39.063097]}},{"properties":{"city":"Kansas City","zip":"64132","host name":"LINC at Holiday Montessori","county":"Jackson","contact":"Kelcey Ellis","type":"Kids in the Kitchen","geo_score":0.585,"id":"aftqfoi7ry0b","address":"7227 Jackson Avenue","geo_precision":"zip","state":"MO"},"type":"Feature","geometry":{"type":"Point","coordinates":[-94.546556,38.984205]}},{"properties":{"city":"Kansas City","zip":"64131","host name":"LINC Benjamin Banneker Elementary School","county":"Jackson","contact":"Kelcey Ellis","type":"Kids in the Kitchen","geo_score":0.675,"id":"aftqfols6jx8","address":"7050 Askew","geo_precision":"range","state":"MO"},"type":"Feature","geometry":{"type":"Point","coordinates":[-94.54529,38.998713]}},{"properties":{"city":"Kansas City","zip":"64113","host name":"LINC Border Star Montessori School","county":"Jackson","contact":"Sean Pollock","type":"Kids in the Kitchen","geo_score":1.0,"id":"aftqfomws3o6","address":"6321 Wornall Road","geo_precision":"range","state":"MO"},"type":"Feature","geometry":{"type":"Point","coordinates":[-94.593095,39.012654]}},{"properties":{"city":"Independence","zip":"64057-","host name":"LINC Clermont","county":"Jackson","contact":"Dianna Sinni","type":"Kids in the Kitchen","geo_score":0.568,"id":"aftqfol8yd62","address":"19009 Susquehanna Street","geo_precision":"street","state":"MO"},"type":"Feature","geometry":{"type":"Point","coordinates":[-94.369799,39.119319]}},{"properties":{"city":"Independence","zip":"64058","host name":"LINC Elm Grove Elementary","county":"Jackson","contact":"Kacee Kellum","type":"Kids in the Kitchen","geo_score":0.585,"id":"aftqfoegfvgx","address":"18000 East Kentucky Road","geo_precision":"zip","state":"MO"},"type":"Feature","geometry":{"type":"Point","coordinates":[-94.394951,39.178893]}},{"properties":{"city":"Kansas City","zip":"64111","host name":"LINC Foreign Language Academy","county":"Jackson","contact":"Mona Riggs","type":"Kids in the Kitchen","geo_score":0.585,"id":"aftqfole161u","address":"3450 Warwick Boulevard","geo_precision":"zip","state":"MO"},"type":"Feature","geometry":{"type":"Point","coordinates":[-94.580234,39.05445]}},{"properties":{"city":"Kansas City","zip":"64123","host name":"LINC Gladstone Academy","county":"Jackson","contact":"Sean Pollock","type":"Kids in the Kitchen","geo_score":1.0,"id":"aftqfobhjxvp","address":"335 North Elmwood Avenue","geo_precision":"range","state":"MO"},"type":"Feature","geometry":{"type":"Point","coordinates":[-94.527768,39.115324]}},{"properties":{"city":"Kansas City","zip":"64130","host name":"LINC King Elementary","county":"Jackson","contact":"Katie Warning","type":"Kids in the Kitchen","geo_score":0.976,"id":"aftqfoe82njx","address":"4201 Indianna Avenue","geo_precision":"range","state":"MO"},"type":"Feature","geometry":{"type":"Point","coordinates":[-94.544604,39.049705]}},{"properties":{"city":"Kansas City","zip":"64128","host name":"Linwood YMCA","county":"Jackson","contact":"Katie Warning","type":"Kids in the Kitchen","geo_score":0.805,"id":"aftqfoquxoxn","address":"3800 Linwood Boulevard","geo_precision":"street","state":"MO"},"type":"Feature","geometry":{"type":"Point","coordinates":[-94.525776,39.067183]}},{"properties":{"city":"Kansas City","zip":"64131","host name":"Marlborough Community Center","county":"Jackson","contact":"Kacee Kellum","type":"Kids in the Kitchen","geo_score":0.747,"id":"aftqfoeo4eal","address":"8200 Paseo Boulevard","geo_precision":"street","state":"MO"},"type":"Feature","geometry":{"type":"Point","coordinates":[-94.566853,38.983945]}},{"properties":{"city":"Grandview","zip":"64030-","host name":"Medowmere Elementary School","county":"Jackson","contact":"Sean Pollock","type":"Kids in the Kitchen","geo_score":1.0,"id":"aftqfopul95l","address":"7010 E 136th Street","geo_precision":"range","state":"MO"},"type":"Feature","geometry":{"type":"Point","coordinates":[-94.51249,38.877755]}},{"properties":{"city":"Kansas City","zip":"64134-","host name":"Olive Park","county":"Jackson","contact":"Kacee Kellum","type":"Kids in the Kitchen","geo_score":0.805,"id":"aftqfom00m6j","address":"2310 East 9th Street","geo_precision":"range","state":"MO"},"type":"Feature","geometry":{"type":"Point","coordinates":[-94.553672,39.102628]}},{"properties":{"city":"Kansas City","zip":"64108","host name":"Primitivo Garcia Elementary","county":"Jackson","contact":"Kelcey Ellis","type":"Kids in the Kitchen","geo_score":1.0,"id":"aftqfolfgkxq","address":"1000 West 17th Street","geo_precision":"range","state":"MO"},"type":"Feature","geometry":{"type":"Point","coordinates":[-94.596814,39.093146]}},{"properties":{"city":"Blue Springs","zip":"64015","host name":"Rainbow Center for Communicative Disorders","county":"Jackson","contact":"Kelcey Ellis","type":"Kids in the Kitchen","geo_score":0.857,"id":"aftqfoif6oki","address":null,"geo_precision":"zip","state":"MO"},"type":"Feature","geometry":{"type":"Point","coordinates":[-94.311616,39.021395]}},{"properties":{"city":"Kansas City","zip":"64130","host name":"Running Back Giving Back Foundation","county":"Jackson","contact":"Kelcey Ellis","type":"Kids in the Kitchen","geo_score":0.902,"id":"aftqfocsk89i","address":"4435 Prospect","geo_precision":"range","state":"MO"},"type":"Feature","geometry":{"type":"Point","coordinates":[-94.55406,39.045231]}},{"properties":{"city":"Kansas City","zip":"64138","host name":"Santa Fe Elementary LINC","county":"Jackson","contact":"Katie Warning","type":"Kids in the Kitchen","geo_score":1.0,"id":"aftqfol9wrgi","address":"8908 Old Santa Fe Road","geo_precision":"range","state":"MO"},"type":"Feature","geometry":{"type":"Point","coordinates":[-94.502956,38.961818]}},{"properties":{"city":"Kansas City","zip":"64106","host name":"Scuola Vita Nuova","county":"Jackson","contact":"Katie Warning","type":"Kids in the Kitchen","geo_score":1.0,"id":"aftqfob7eh9u","address":"1750 Independence Avenue","geo_precision":"range","state":"MO"},"type":"Feature","geometry":{"type":"Point","coordinates":[-94.560839,39.106753]}},{"properties":{"city":"Kansas City","zip":"64138","host name":"Southwood Elementary","county":"Jackson","contact":"Katie Warning","type":"Kids in the Kitchen","geo_score":0.951,"id":"aftqfom4ekd7","address":"8015 Raytown Road","geo_precision":"range","state":"MO"},"type":"Feature","geometry":{"type":"Point","coordinates":[-94.464747,38.97764]}},{"properties":{"city":"Kansas City","zip":"64131","host name":"University Academy","county":"Jackson","contact":"Kacee Kellum","type":"Kids in the Kitchen","geo_score":1.0,"id":"aftqfol4jg5x","address":"6801 Holmes Road","geo_precision":"range","state":"MO"},"type":"Feature","geometry":{"type":"Point","coordinates":[-94.57972,39.002618]}},{"properties":{"city":"Kansas City","zip":"64111","host name":"Westport Roanoke Community Center","county":"Jackson","contact":"Sara Hazan","type":"Kids in the Kitchen","geo_score":1.0,"id":"aftqfoku3u1x","address":"3601 Roanoke Road","geo_precision":"range","state":"MO"},"type":"Feature","geometry":{"type":"Point","coordinates":[-94.600192,39.058917]}},{"properties":{"city":"Kansas City","zip":"64127","host name":"Whittier Elementary","county":"Jackson","contact":"Kacee Kellum","type":"Kids in the Kitchen","geo_score":0.902,"id":"aftqfobwxz5z","address":"1012 Bales Street","geo_precision":"range","state":"MO"},"type":"Feature","geometry":{"type":"Point","coordinates":[-94.541064,39.099857]}},{"properties":{"city":"Lake Lotawana","zip":"64086","host name":"Woodland Elementary","county":"Jackson","contact":"Sara Ingersoll","type":"Kids in the Kitchen","geo_score":0.742,"id":"aftqfoq0er6t","address":"12709 South Smart Road","geo_precision":"street","state":"MO"},"type":"Feature","geometry":{"type":"Point","coordinates":[-94.303446,38.886703]}},{"properties":{"city":"Warrensburg","zip":"64093","host name":"Martin Warren School Age Child Care","county":"Johnson","contact":"Sean Pollock","type":"Kids in the Kitchen","geo_score":0.805,"id":"aftqfogwirwn","address":"102 Charles Street","geo_precision":"street","state":"MO"},"type":"Feature","geometry":{"type":"Point","coordinates":[-93.734444,38.772923]}},{"properties":{"city":"Warrensburg","zip":"64093","host name":"Ridge View Elementary School","county":"Johnson","contact":"Sean Pollock","type":"Kids in the Kitchen","geo_score":1.0,"id":"aftqfoj7uk7x","address":"215 South Ridgeview Drive","geo_precision":"range","state":"MO"},"type":"Feature","geometry":{"type":"Point","coordinates":[-93.710794,38.7605]}},{"properties":{"city":"Kansas City","zip":"64154","host name":"Barry School","county":"Platte","contact":"Sean Pollock","type":"Kids in the Kitchen","geo_score":1.0,"id":"aftqfobnzwja","address":"2001 NW 87th Terrace","geo_precision":"range","state":"MO"},"type":"Feature","geometry":{"type":"Point","coordinates":[-94.606026,39.253178]}}],"is_temporal":false,"author":{"url":"","metadata":"","contact_name":"","contact_address":"","source":"","contact_phone":""},"source":"","pagination":{"sort":null,"start":0,"total":106,"limit":1000000},"state":"complete","tags":"","published":"2014-08-17T00:28:13-04:00","id":378061}