{"type":"FeatureCollection","data_type":"Dataset","url_type":null,"permissions":[{"permissions":{"download":true,"view":true},"group_id":"everyone"}],"classification":null,"title":"FY13 TE","count":12,"stream_id":378063,"contributor":{"url":"http://geocommons.com/users/51639","name":"kcbacksnack"},"data_attributes":null,"calculation_params":null,"icon_link":null,"link":"http://geocommons.com/overlays/378063.json","extent":[-95.7273,38.8874,-94.1939,39.344],"geometry_types":["point"],"unique_name":null,"name":"FY13 TE","feature_count":12,"description":"","next_feature":null,"is_raster":false,"short_classification":"Y","stats":{},"features":[{"properties":{"city":"Lawrence","zip":"66047","host name":"Lawrence- Douglas County Health Department","county":"Douglas","contact":"Trained Trainer","type":"Teen EATS","geo_score":0.619,"id":"aftqgcq8ucgb","address":"200 Maine, Suite B","geo_precision":"street","state":"KS"},"type":"Feature","geometry":{"type":"Point","coordinates":[-95.279313,38.949763]}},{"properties":{"city":"Valley Falls","zip":"66088","host name":"Valley Falls High School","county":"Jefferson","contact":"Katherine Jennings","type":"Teen EATS","geo_score":1.0,"id":"aftqgcy1y065","address":"601 Elm Street","geo_precision":"range","state":"KS"},"type":"Feature","geometry":{"type":"Point","coordinates":[-95.461272,39.343986]}},{"properties":{"city":"Olathe","zip":"66062","host name":"California Trail Middle School","county":"Johnson","contact":"Sara Ingersoll","type":"Teen EATS","geo_score":1.0,"id":"aftqgcvea2wa","address":"13775 West 133rd Street","geo_precision":"range","state":"KS"},"type":"Feature","geometry":{"type":"Point","coordinates":[-94.745175,38.887377]}},{"properties":{"city":"Leawood","zip":"66206","host name":"Johnson County Mental Health","county":"Johnson","contact":"Sara Hazan","type":"Teen EATS","geo_score":0.805,"id":"aftqgcqaxetl","address":"6000 Lamar Avenue","geo_precision":"range","state":"KS"},"type":"Feature","geometry":{"type":"Point","coordinates":[-94.658363,39.018577]}},{"properties":{"city":"Topeka","zip":"66605","host name":"Highland Park High School","county":"Shawnee","contact":"Trained Trainer","type":"Teen EATS","geo_score":1.0,"id":"aftqgcsxjlbi","address":"2424 SE California Avenue","geo_precision":"range","state":"KS"},"type":"Feature","geometry":{"type":"Point","coordinates":[-95.651302,39.022878]}},{"properties":{"city":"Topeka","zip":"66604","host name":"Kansas Childrens Discovery Center","county":"Shawnee","contact":"Trained Trainer","type":"Teen EATS","geo_score":0.947,"id":"aftqgcqpyrht","address":"4400 SW 10th Avenue","geo_precision":"range","state":"KS"},"type":"Feature","geometry":{"type":"Point","coordinates":[-95.727326,39.051286]}},{"properties":{"city":"Kansas City","zip":"66102","host name":"Communities in School at Wyandotte High School","county":"Wyandotte","contact":"Trained Trainer","type":"Teen EATS","geo_score":1.0,"id":"aftqgcx2s4qz","address":"2501 Minnesota Avenue","geo_precision":"range","state":"KS"},"type":"Feature","geometry":{"type":"Point","coordinates":[-94.658001,39.115386]}},{"properties":{"city":"Kansas City","zip":"64111","host name":"Cristo Rey High School","county":"Jackson","contact":"Kelcey Ellis","type":"Teen EATS","geo_score":0.895,"id":"aftqgcq9fz8q","address":"211 West Linwood","geo_precision":"range","state":"MO"},"type":"Feature","geometry":{"type":"Point","coordinates":[-94.589073,39.06746]}},{"properties":{"city":"Kansas City","zip":"64134","host name":"Crittenton Childrens Center","county":"Jackson","contact":"Steve Lee","type":"Teen EATS","geo_score":1.0,"id":"aftqgcyfqsrp","address":"10918 Elm Avenue","geo_precision":"range","state":"MO"},"type":"Feature","geometry":{"type":"Point","coordinates":[-94.477713,38.927042]}},{"properties":{"city":"Kansas City","zip":"64109","host name":"Front Porch Alliance","county":"Jackson","contact":"Kelcey Ellis","type":"Teen EATS","geo_score":0.902,"id":"aftqgcsqi87d","address":"3210 Michigan","geo_precision":"range","state":"MO"},"type":"Feature","geometry":{"type":"Point","coordinates":[-94.561164,39.066701]}},{"properties":{"city":"Grain Valley","zip":"64029","host name":"Grain Valley High School","county":"Jackson","contact":"Mona Riggs","type":"Teen EATS","geo_score":0.585,"id":"aftqgd1ajpnn","address":"551 SW Eagles Parkway","geo_precision":"zip","state":"MO"},"type":"Feature","geometry":{"type":"Point","coordinates":[-94.193874,38.984966]}},{"properties":{"city":"Kansas City","zip":"64131","host name":"University Academy","county":"Jackson","contact":"Trained Trainer","type":"Teen EATS","geo_score":1.0,"id":"aftqgcqyhjp1","address":"6801 Holmes Road","geo_precision":"range","state":"MO"},"type":"Feature","geometry":{"type":"Point","coordinates":[-94.57972,39.002618]}}],"is_temporal":false,"author":{"url":"","metadata":"","contact_name":"","contact_address":"","source":"","contact_phone":""},"source":"","pagination":{"sort":null,"start":0,"total":12,"limit":1000000},"state":"complete","tags":"","published":"2014-08-17T00:28:19-04:00","id":378063}