{"type":"FeatureCollection","data_type":"Dataset","url_type":null,"permissions":[{"permissions":{"download":true,"view":true},"group_id":"everyone"}],"classification":null,"title":"Monc","count":12,"stream_id":380219,"contributor":{"url":"http://geocommons.com/users/74787","name":"stevendosanjh"},"data_attributes":null,"calculation_params":null,"icon_link":null,"link":"http://geocommons.com/overlays/380219.json","extent":[-65.1339,45.9094,-64.3645,46.3749],"geometry_types":["point"],"unique_name":null,"name":"Monc","feature_count":12,"description":"","next_feature":null,"is_raster":false,"short_classification":"Y","stats":{"latitude":{"max":46.374947,"variance":0.0156741319729317,"mean":46.06847375,"stdev":0.125196373641299,"min":45.909443,"median":46.100351},"title":{"max":337,"variance":1377.65909090909,"mean":305.75,"stdev":37.116830291784,"min":233,"median":321},"longitude":{"max":-64.364546,"variance":0.0330627586106969,"mean":-64.7723768333333,"stdev":0.181831676587708,"min":-65.133915,"median":-64.79965}},"features":[{"properties":{"tenure":"90+","city":"Moncton","latitude":46.104419,"title":238,"zipcode":"E1C 6P3","freeform address":"Moncton, NB, E1C 6P3, CA","country":"CA","education":"College","longitude":-64.800485,"id":"afztj4zrjayq","state":"NB"},"type":"Feature","geometry":{"type":"Point","coordinates":[-64.800485,46.104419]}},{"properties":{"tenure":"90+","city":"Sackville","latitude":45.921662,"title":233,"zipcode":"E4L 3G7","freeform address":"Sackville, NB, E4L 3G7, CA","country":"CA","education":"College","longitude":-64.364546,"id":"afztj4yhd5np","state":"NB"},"type":"Feature","geometry":{"type":"Point","coordinates":[-64.364546,45.921662]}},{"properties":{"tenure":"90+","city":"Moncton","latitude":46.090784,"title":270,"zipcode":"E1C 0R1","freeform address":"Moncton, NB, E1C 0R1, CA","country":"CA","education":"High School","longitude":-64.780349,"id":"afztj522lnko","state":"NB"},"type":"Feature","geometry":{"type":"Point","coordinates":[-64.780349,46.090784]}},{"properties":{"tenure":"90+","city":"Moncton","latitude":46.100351,"title":319,"zipcode":"E1C 7R2","freeform address":"Moncton, NB, E1C 7R2, CA","country":"CA","education":"College","longitude":-64.816307,"id":"afztj507oz67","state":"NB"},"type":"Feature","geometry":{"type":"Point","coordinates":[-64.816307,46.100351]}},{"properties":{"tenure":"90+","city":"Hillsborough","latitude":45.926425,"title":321,"zipcode":"E4H 2R8","freeform address":"Hillsborough, NB, E4H 2R8, CA","country":"CA","education":"High School","longitude":-64.653724,"id":"afztj4tgnmfr","state":"NB"},"type":"Feature","geometry":{"type":"Point","coordinates":[-64.653724,45.926425]}},{"properties":{"tenure":"90+","city":"Riverview","latitude":46.057444,"title":322,"zipcode":"E1B 2H3","freeform address":"Riverview, NB, E1B 2H3, CA","country":"CA","education":"High School","longitude":-64.79965,"id":"afztj57cua74","state":"NB"},"type":"Feature","geometry":{"type":"Point","coordinates":[-64.79965,46.057444]}},{"properties":{"tenure":"90+","city":"Memramcook","latitude":46.009238,"title":323,"zipcode":"E4K 2L5","freeform address":"Memramcook, NB, E4K 2L5, CA","country":"CA","education":"College","longitude":-64.605615,"id":"afztj4zfomp1","state":"NB"},"type":"Feature","geometry":{"type":"Point","coordinates":[-64.605615,46.009238]}},{"properties":{"tenure":"90+","city":"Moncton","latitude":46.101471,"title":317,"zipcode":"E1E 4W6","freeform address":"Moncton, NB, E1E 4W6, CA","country":"CA","education":"College","longitude":-64.849839,"id":"afztj4wl0v5m","state":"NB"},"type":"Feature","geometry":{"type":"Point","coordinates":[-64.849839,46.101471]}},{"properties":{"tenure":"90+","city":"Moncton","latitude":46.115999,"title":318,"zipcode":"E1G 0A5","freeform address":"Moncton, NB, E1G 0A5, CA","country":"CA","education":"College","longitude":-64.85691,"id":"afztj4uc7n81","state":"NB"},"type":"Feature","geometry":{"type":"Point","coordinates":[-64.85691,46.115999]}},{"properties":{"tenure":"90+","city":"Saint-Antoine","latitude":46.374947,"title":335,"zipcode":"E4V 3L7","freeform address":"Saint-Antoine, NB, E4V 3L7, CA","country":"CA","education":"High School","longitude":-64.748164,"id":"afztj4zo0q77","state":"NB"},"type":"Feature","geometry":{"type":"Point","coordinates":[-64.748164,46.374947]}},{"properties":{"tenure":"90+","city":"Petitcodiac","latitude":45.909443,"title":336,"zipcode":"E4Z 4T9","freeform address":"Petitcodiac, NB, E4Z 4T9, CA","country":"CA","education":"College","longitude":-65.133915,"id":"afztj4wrb6if","state":"NB"},"type":"Feature","geometry":{"type":"Point","coordinates":[-65.133915,45.909443]}},{"properties":{"tenure":"90+","city":"Moncton","latitude":46.109502,"title":337,"zipcode":"E1G 0W7","freeform address":"Moncton, NB, E1G 0W7, CA","country":"CA","education":"College","longitude":-64.859018,"id":"afztj4x85o6c","state":"NB"},"type":"Feature","geometry":{"type":"Point","coordinates":[-64.859018,46.109502]}}],"is_temporal":false,"author":{"url":"","metadata":null,"contact_name":null,"contact_address":null,"source":null,"contact_phone":null},"source":"","pagination":{"sort":null,"start":0,"total":12,"limit":1000000},"state":"complete","tags":"","published":"2014-08-16T13:16:43-04:00","id":380219}