{"type":"FeatureCollection","data_type":"Dataset","url_type":null,"permissions":[{"permissions":{"download":true,"view":true},"group_id":"everyone"}],"classification":null,"title":"Attrited: LT 30","count":3,"stream_id":380235,"contributor":{"url":"http://geocommons.com/users/74787","name":"stevendosanjh"},"data_attributes":null,"calculation_params":null,"icon_link":null,"link":"http://geocommons.com/overlays/380235.json","extent":[-122.941,49.1202,-122.746,49.3172],"geometry_types":["point"],"unique_name":null,"name":"Attrited: LT 30","feature_count":3,"description":"","next_feature":null,"is_raster":false,"short_classification":"Y","stats":{"latitude":{"max":49.317182,"variance":0.00996605343100004,"mean":49.209331,"stdev":0.0998301228637931,"min":49.120161,"median":49.19065},"title":{"max":404,"variance":14.3333333333333,"mean":401.333333333333,"stdev":3.78593889720018,"min":397,"median":403},"longitude":{"max":-122.745832,"variance":0.0112404436423331,"mean":-122.819450333333,"stdev":0.106020958505067,"min":-122.940969,"median":-122.77155}},"features":[{"properties":{"tenure":"LT 30","city":"Surrey","latitude":49.120161,"title":397,"zipcode":"V3S 4P8","freeform address":"Surrey, BC, V3S 4P8, CA","country":"CA","education":"College","longitude":-122.745832,"id":"afzuhkt0ccz5","state":"BC"},"type":"Feature","geometry":{"type":"Point","coordinates":[-122.745832,49.120161]}},{"properties":{"tenure":"LT 30","city":"New Westminster","latitude":49.19065,"title":403,"zipcode":"V3M 6P4","freeform address":"New Westminster, BC, V3M 6P4, CA","country":"CA","education":"College","longitude":-122.940969,"id":"afzuhkphf22m","state":"BC"},"type":"Feature","geometry":{"type":"Point","coordinates":[-122.940969,49.19065]}},{"properties":{"tenure":"LT 30","city":"Coquitlam","latitude":49.317182,"title":404,"zipcode":"V3E 2X1","freeform address":"Coquitlam, BC, V3E 2X1, CA","country":"CA","education":"College","longitude":-122.77155,"id":"afzuhkw598o0","state":"BC"},"type":"Feature","geometry":{"type":"Point","coordinates":[-122.77155,49.317182]}}],"is_temporal":false,"author":{"url":"","metadata":null,"contact_name":null,"contact_address":null,"source":null,"contact_phone":null},"source":"","pagination":{"sort":null,"start":0,"total":3,"limit":1000000},"state":"complete","tags":"","published":"2014-08-16T13:17:03-04:00","id":380235}