{"type":"FeatureCollection","data_type":"Dataset","url_type":null,"permissions":[{"permissions":{"download":true,"view":true},"group_id":"everyone"}],"classification":null,"title":"Winn","count":104,"stream_id":380225,"contributor":{"url":"http://geocommons.com/users/74787","name":"stevendosanjh"},"data_attributes":null,"calculation_params":null,"icon_link":null,"link":"http://geocommons.com/overlays/380225.json","extent":[-97.3107,49.6626,-96.4837,50.0621],"geometry_types":["point"],"unique_name":null,"name":"Winn","feature_count":104,"description":"","next_feature":null,"is_raster":false,"short_classification":"Y","stats":{"latitude":{"max":50.062122,"variance":0.00311914897916955,"mean":49.8752307307692,"stdev":0.0558493417971022,"min":49.662618,"median":49.882709},"title":{"max":528,"variance":1254.66616878267,"mean":472.115384615385,"stdev":35.4212671820571,"min":408,"median":476},"longitude":{"max":-96.483686,"variance":0.00957809888027146,"mean":-97.1400719807692,"stdev":0.0978677622114221,"min":-97.310696,"median":-97.155041}},"features":[{"properties":{"tenure":"Working","city":"Winnipeg","latitude":49.886582,"title":417,"zipcode":"R3C 1W2","freeform address":"Winnipeg, MB, R3C 1W2, CA","country":"CA","education":"University","longitude":-97.151012,"id":"afzu22a25tab","state":"MB"},"type":"Feature","geometry":{"type":"Point","coordinates":[-97.151012,49.886582]}},{"properties":{"tenure":"Working","city":"Winnipeg","latitude":49.775318,"title":419,"zipcode":"R3V 1W9","freeform address":"Winnipeg, MB, R3V 1W9, CA","country":"CA","education":"High School","longitude":-97.154408,"id":"afzu2274tkkp","state":"MB"},"type":"Feature","geometry":{"type":"Point","coordinates":[-97.154408,49.775318]}},{"properties":{"tenure":"Working","city":"Winnipeg","latitude":49.882846,"title":420,"zipcode":"R2H 0S3","freeform address":"Winnipeg, MB, R2H 0S3, CA","country":"CA","education":"University","longitude":-97.116399,"id":"afzu22ajg5vr","state":"MB"},"type":"Feature","geometry":{"type":"Point","coordinates":[-97.116399,49.882846]}},{"properties":{"tenure":"Working","city":"Winnipeg","latitude":49.875404,"title":421,"zipcode":"R3J 0P2","freeform address":"Winnipeg, MB, R3J 0P2, CA","country":"CA","education":"High School","longitude":-97.258159,"id":"afzu22c8chmh","state":"MB"},"type":"Feature","geometry":{"type":"Point","coordinates":[-97.258159,49.875404]}},{"properties":{"tenure":"Working","city":null,"latitude":49.901127,"title":422,"zipcode":"R2C 4S8","freeform address":"MB, R2C 4S8, CA","country":"CA","education":"University","longitude":-96.984021,"id":"afzu227ilhhl","state":"MB"},"type":"Feature","geometry":{"type":"Point","coordinates":[-96.984021,49.901127]}},{"properties":{"tenure":"Working","city":"Winnipeg","latitude":49.911557,"title":423,"zipcode":"R3E 0P8","freeform address":"Winnipeg, MB, R3E 0P8, CA","country":"CA","education":"University","longitude":-97.18939,"id":"afzu22eb1722","state":"MB"},"type":"Feature","geometry":{"type":"Point","coordinates":[-97.18939,49.911557]}},{"properties":{"tenure":"Working","city":null,"latitude":49.901127,"title":424,"zipcode":"R2C 4S8","freeform address":"MB, R2C 4S8, CA","country":"CA","education":"University","longitude":-96.984021,"id":"afzu222jxubz","state":"MB"},"type":"Feature","geometry":{"type":"Point","coordinates":[-96.984021,49.901127]}},{"properties":{"tenure":"Working","city":"Winnipeg","latitude":49.902116,"title":425,"zipcode":"R2L 2A4","freeform address":"Winnipeg, MB, R2L 2A4, CA","country":"CA","education":"High School","longitude":-97.071046,"id":"afzu22drgg7m","state":"MB"},"type":"Feature","geometry":{"type":"Point","coordinates":[-97.071046,49.902116]}},{"properties":{"tenure":"Working","city":"Winnipeg","latitude":49.907618,"title":426,"zipcode":"R2L 1B4","freeform address":"Winnipeg, MB, R2L 1B4, CA","country":"CA","education":"High School","longitude":-97.0968,"id":"afzu22eb6z4e","state":"MB"},"type":"Feature","geometry":{"type":"Point","coordinates":[-97.0968,49.907618]}},{"properties":{"tenure":"Working","city":"Lorette","latitude":49.752901,"title":408,"zipcode":"R0A 0Y0","freeform address":"Lorette, MB, R0A 0Y0, CA","country":"CA","education":"College","longitude":-96.883876,"id":"afzu229fkzwk","state":"MB"},"type":"Feature","geometry":{"type":"Point","coordinates":[-96.883876,49.752901]}},{"properties":{"tenure":"Working","city":"Landmark","latitude":49.662618,"title":409,"zipcode":"R0A 0X0","freeform address":"Landmark, MB, R0A 0X0, CA","country":"CA","education":"College","longitude":-96.849183,"id":"afzu229h8bgj","state":"MB"},"type":"Feature","geometry":{"type":"Point","coordinates":[-96.849183,49.662618]}},{"properties":{"tenure":"Working","city":"Winnipeg","latitude":49.770309,"title":410,"zipcode":"R3V 1S1","freeform address":"Winnipeg, MB, R3V 1S1, CA","country":"CA","education":"High School","longitude":-97.173051,"id":"afzu2297wkgz","state":"MB"},"type":"Feature","geometry":{"type":"Point","coordinates":[-97.173051,49.770309]}},{"properties":{"tenure":"Working","city":"Winnipeg","latitude":49.896011,"title":411,"zipcode":"R3G 2L4","freeform address":"Winnipeg, MB, R3G 2L4, CA","country":"CA","education":"College","longitude":-97.175409,"id":"afzu22cs5j82","state":"MB"},"type":"Feature","geometry":{"type":"Point","coordinates":[-97.175409,49.896011]}},{"properties":{"tenure":"Working","city":"Winnipeg","latitude":49.82716,"title":413,"zipcode":"R3X 0E2","freeform address":"Winnipeg, MB, R3X 0E2, CA","country":"CA","education":"College","longitude":-97.037273,"id":"afzu222sz9nv","state":"MB"},"type":"Feature","geometry":{"type":"Point","coordinates":[-97.037273,49.82716]}},{"properties":{"tenure":"Working","city":"Winnipeg","latitude":49.874693,"title":414,"zipcode":"R3L 0N4","freeform address":"Winnipeg, MB, R3L 0N4, CA","country":"CA","education":"University","longitude":-97.145588,"id":"afzu22i8xsde","state":"MB"},"type":"Feature","geometry":{"type":"Point","coordinates":[-97.145588,49.874693]}},{"properties":{"tenure":"Working","city":"Winnipeg","latitude":49.885839,"title":416,"zipcode":"R3C 0W6","freeform address":"Winnipeg, MB, R3C 0W6, CA","country":"CA","education":"University","longitude":-97.15392,"id":"afzu22eqoanp","state":"MB"},"type":"Feature","geometry":{"type":"Point","coordinates":[-97.15392,49.885839]}},{"properties":{"tenure":"Working","city":"Winnipeg","latitude":49.793463,"title":447,"zipcode":"R3T 2W7","freeform address":"Winnipeg, MB, R3T 2W7, CA","country":"CA","education":"PG","longitude":-97.154445,"id":"afzu22czells","state":"MB"},"type":"Feature","geometry":{"type":"Point","coordinates":[-97.154445,49.793463]}},{"properties":{"tenure":"Working","city":"Winnipeg","latitude":49.875698,"title":437,"zipcode":"R3L 0M3","freeform address":"Winnipeg, MB, R3L 0M3, CA","country":"CA","education":"University","longitude":-97.148191,"id":"afzu22dhbgr1","state":"MB"},"type":"Feature","geometry":{"type":"Point","coordinates":[-97.148191,49.875698]}},{"properties":{"tenure":"Working","city":"Winnipeg","latitude":49.882709,"title":439,"zipcode":"R3C 1Z5","freeform address":"Winnipeg, MB, R3C 1Z5, CA","country":"CA","education":"High School","longitude":-97.15642,"id":"afzu228uuml9","state":"MB"},"type":"Feature","geometry":{"type":"Point","coordinates":[-97.15642,49.882709]}},{"properties":{"tenure":"Working","city":"Winnipeg","latitude":49.795409,"title":444,"zipcode":"R3T 2R4","freeform address":"Winnipeg, MB, R3T 2R4, CA","country":"CA","education":"College","longitude":-97.164508,"id":"afzu2227yvey","state":"MB"},"type":"Feature","geometry":{"type":"Point","coordinates":[-97.164508,49.795409]}},{"properties":{"tenure":"Working","city":"Winnipeg","latitude":49.952581,"title":446,"zipcode":"R2P 2H9","freeform address":"Winnipeg, MB, R2P 2H9, CA","country":"CA","education":"University","longitude":-97.188578,"id":"afzu227d4jlz","state":"MB"},"type":"Feature","geometry":{"type":"Point","coordinates":[-97.188578,49.952581]}},{"properties":{"tenure":"Working","city":"Winnipeg","latitude":49.882392,"title":428,"zipcode":"R3C 1X2","freeform address":"Winnipeg, MB, R3C 1X2, CA","country":"CA","education":"University","longitude":-97.155041,"id":"afzu2260bxrq","state":"MB"},"type":"Feature","geometry":{"type":"Point","coordinates":[-97.155041,49.882392]}},{"properties":{"tenure":"Working","city":"Winnipeg","latitude":49.874121,"title":429,"zipcode":"R3M 0B3","freeform address":"Winnipeg, MB, R3M 0B3, CA","country":"CA","education":"College","longitude":-97.150936,"id":"afzu22hyaio3","state":"MB"},"type":"Feature","geometry":{"type":"Point","coordinates":[-97.150936,49.874121]}},{"properties":{"tenure":"Working","city":"Winnipeg","latitude":49.852311,"title":431,"zipcode":"R3M 2J8","freeform address":"Winnipeg, MB, R3M 2J8, CA","country":"CA","education":"University","longitude":-97.179832,"id":"afzu226zacor","state":"MB"},"type":"Feature","geometry":{"type":"Point","coordinates":[-97.179832,49.852311]}},{"properties":{"tenure":"Working","city":"Winnipeg","latitude":49.928196,"title":432,"zipcode":"R2X 0E4","freeform address":"Winnipeg, MB, R2X 0E4, CA","country":"CA","education":"High School","longitude":-97.18454,"id":"afzu22exnlet","state":"MB"},"type":"Feature","geometry":{"type":"Point","coordinates":[-97.18454,49.928196]}},{"properties":{"tenure":"Working","city":"Winnipeg","latitude":49.87024,"title":433,"zipcode":"R3R 0A4","freeform address":"Winnipeg, MB, R3R 0A4, CA","country":"CA","education":"High School","longitude":-97.258425,"id":"afzu222rpdse","state":"MB"},"type":"Feature","geometry":{"type":"Point","coordinates":[-97.258425,49.87024]}},{"properties":{"tenure":"Working","city":"Winnipeg","latitude":49.900911,"title":434,"zipcode":"R2Y 2K5","freeform address":"Winnipeg, MB, R2Y 2K5, CA","country":"CA","education":"College","longitude":-97.282391,"id":"afzu22aq2ovz","state":"MB"},"type":"Feature","geometry":{"type":"Point","coordinates":[-97.282391,49.900911]}},{"properties":{"tenure":"Working","city":"Winnipeg","latitude":49.795409,"title":435,"zipcode":"R3T 2R4","freeform address":"Winnipeg, MB, R3T 2R4, CA","country":"CA","education":"College","longitude":-97.164508,"id":"afzu22cc4by9","state":"MB"},"type":"Feature","geometry":{"type":"Point","coordinates":[-97.164508,49.795409]}},{"properties":{"tenure":"Working","city":"Winnipeg","latitude":49.871846,"title":436,"zipcode":"R2J 2L4","freeform address":"Winnipeg, MB, R2J 2L4, CA","country":"CA","education":"College","longitude":-97.084026,"id":"afzu22h4gk3k","state":"MB"},"type":"Feature","geometry":{"type":"Point","coordinates":[-97.084026,49.871846]}},{"properties":{"tenure":"Working","city":"Winnipeg","latitude":49.904858,"title":448,"zipcode":"R3E 2N3","freeform address":"Winnipeg, MB, R3E 2N3, CA","country":"CA","education":"University","longitude":-97.174169,"id":"afzu22e6tlsl","state":"MB"},"type":"Feature","geometry":{"type":"Point","coordinates":[-97.174169,49.904858]}},{"properties":{"tenure":"Working","city":"Winnipeg","latitude":49.77876,"title":449,"zipcode":"R3T 5E1","freeform address":"Winnipeg, MB, R3T 5E1, CA","country":"CA","education":"College","longitude":-97.164947,"id":"afzu22daxiis","state":"MB"},"type":"Feature","geometry":{"type":"Point","coordinates":[-97.164947,49.77876]}},{"properties":{"tenure":"Working","city":"Winnipeg","latitude":49.937481,"title":459,"zipcode":"R2V 2A1","freeform address":"Winnipeg, MB, R2V 2A1, CA","country":"CA","education":"University","longitude":-97.117653,"id":"afzu22a4qbt1","state":"MB"},"type":"Feature","geometry":{"type":"Point","coordinates":[-97.117653,49.937481]}},{"properties":{"tenure":"Working","city":"Winnipeg","latitude":49.783733,"title":460,"zipcode":"R3T 4N1","freeform address":"Winnipeg, MB, R3T 4N1, CA","country":"CA","education":"University","longitude":-97.155953,"id":"afzu225d3yyw","state":"MB"},"type":"Feature","geometry":{"type":"Point","coordinates":[-97.155953,49.783733]}},{"properties":{"tenure":"Working","city":"Winnipeg","latitude":49.879905,"title":461,"zipcode":"R3L 0J5","freeform address":"Winnipeg, MB, R3L 0J5, CA","country":"CA","education":"University","longitude":-97.139322,"id":"afzu22f0kd5u","state":"MB"},"type":"Feature","geometry":{"type":"Point","coordinates":[-97.139322,49.879905]}},{"properties":{"tenure":"Working","city":"Winnipeg","latitude":49.913894,"title":462,"zipcode":"R2L 0L4","freeform address":"Winnipeg, MB, R2L 0L4, CA","country":"CA","education":"High School","longitude":-97.120372,"id":"afzu227ku8if","state":"MB"},"type":"Feature","geometry":{"type":"Point","coordinates":[-97.120372,49.913894]}},{"properties":{"tenure":"Working","city":"Winnipeg","latitude":49.887728,"title":464,"zipcode":"R3G 1Z1","freeform address":"Winnipeg, MB, R3G 1Z1, CA","country":"CA","education":"College","longitude":-97.168894,"id":"afzu2284iij1","state":"MB"},"type":"Feature","geometry":{"type":"Point","coordinates":[-97.168894,49.887728]}},{"properties":{"tenure":"Working","city":"Winnipeg","latitude":49.852385,"title":465,"zipcode":"R3M 2K6","freeform address":"Winnipeg, MB, R3M 2K6, CA","country":"CA","education":"High School","longitude":-97.173459,"id":"afzu22d1kjf3","state":"MB"},"type":"Feature","geometry":{"type":"Point","coordinates":[-97.173459,49.852385]}},{"properties":{"tenure":"Working","city":"Winnipeg","latitude":49.935896,"title":466,"zipcode":"R2G 2W9","freeform address":"Winnipeg, MB, R2G 2W9, CA","country":"CA","education":"University","longitude":-97.048881,"id":"afzu22aewdga","state":"MB"},"type":"Feature","geometry":{"type":"Point","coordinates":[-97.048881,49.935896]}},{"properties":{"tenure":"Working","city":"Winnipeg","latitude":49.914188,"title":467,"zipcode":"R2L 1J7","freeform address":"Winnipeg, MB, R2L 1J7, CA","country":"CA","education":"College","longitude":-97.124745,"id":"afzu22a2ia7h","state":"MB"},"type":"Feature","geometry":{"type":"Point","coordinates":[-97.124745,49.914188]}},{"properties":{"tenure":"Working","city":"Winnipeg","latitude":49.950059,"title":450,"zipcode":"R2P 1B8","freeform address":"Winnipeg, MB, R2P 1B8, CA","country":"CA","education":"University","longitude":-97.177312,"id":"afzu223v5m5q","state":"MB"},"type":"Feature","geometry":{"type":"Point","coordinates":[-97.177312,49.950059]}},{"properties":{"tenure":"Working","city":"Winnipeg","latitude":49.905319,"title":451,"zipcode":"R2C 3T1","freeform address":"Winnipeg, MB, R2C 3T1, CA","country":"CA","education":"PG","longitude":-96.97719,"id":"afzu221xhzph","state":"MB"},"type":"Feature","geometry":{"type":"Point","coordinates":[-96.97719,49.905319]}},{"properties":{"tenure":"Working","city":"Winnipeg","latitude":49.861797,"title":453,"zipcode":"R3M 2E5","freeform address":"Winnipeg, MB, R3M 2E5, CA","country":"CA","education":"High School","longitude":-97.149996,"id":"afzu22e2hpxd","state":"MB"},"type":"Feature","geometry":{"type":"Point","coordinates":[-97.149996,49.861797]}},{"properties":{"tenure":"Working","city":"Winnipeg","latitude":49.774492,"title":456,"zipcode":"R3T 5X1","freeform address":"Winnipeg, MB, R3T 5X1, CA","country":"CA","education":"PG","longitude":-97.167743,"id":"afzu22i4pnmi","state":"MB"},"type":"Feature","geometry":{"type":"Point","coordinates":[-97.167743,49.774492]}},{"properties":{"tenure":"Working","city":"Winnipeg","latitude":49.934251,"title":457,"zipcode":"R2V 0R5","freeform address":"Winnipeg, MB, R2V 0R5, CA","country":"CA","education":"High School","longitude":-97.117834,"id":"afzu22av6420","state":"MB"},"type":"Feature","geometry":{"type":"Point","coordinates":[-97.117834,49.934251]}},{"properties":{"tenure":"Working","city":"Winnipeg","latitude":49.897255,"title":458,"zipcode":"R3B 1T7","freeform address":"Winnipeg, MB, R3B 1T7, CA","country":"CA","education":"University","longitude":-97.148831,"id":"afzu22iepjrc","state":"MB"},"type":"Feature","geometry":{"type":"Point","coordinates":[-97.148831,49.897255]}},{"properties":{"tenure":"Working","city":"Winnipeg","latitude":49.869186,"title":468,"zipcode":"R3N 0Y9","freeform address":"Winnipeg, MB, R3N 0Y9, CA","country":"CA","education":"University","longitude":-97.187745,"id":"afzu224cz41d","state":"MB"},"type":"Feature","geometry":{"type":"Point","coordinates":[-97.187745,49.869186]}},{"properties":{"tenure":"Working","city":"Winnipeg","latitude":49.89465,"title":479,"zipcode":"R2H 0E8","freeform address":"Winnipeg, MB, R2H 0E8, CA","country":"CA","education":"High School","longitude":-97.115395,"id":"afzu22g4ux2z","state":"MB"},"type":"Feature","geometry":{"type":"Point","coordinates":[-97.115395,49.89465]}},{"properties":{"tenure":"Working","city":"Winnipeg","latitude":49.847905,"title":481,"zipcode":"R3T 0W2","freeform address":"Winnipeg, MB, R3T 0W2, CA","country":"CA","education":"University","longitude":-97.162731,"id":"afzu22gvs10i","state":"MB"},"type":"Feature","geometry":{"type":"Point","coordinates":[-97.162731,49.847905]}},{"properties":{"tenure":"Working","city":"Winnipeg","latitude":49.869401,"title":482,"zipcode":"R3N 1M9","freeform address":"Winnipeg, MB, R3N 1M9, CA","country":"CA","education":"University","longitude":-97.199795,"id":"afzu229g18a6","state":"MB"},"type":"Feature","geometry":{"type":"Point","coordinates":[-97.199795,49.869401]}},{"properties":{"tenure":"Working","city":"Winnipeg","latitude":49.949157,"title":483,"zipcode":"R2P 0H7","freeform address":"Winnipeg, MB, R2P 0H7, CA","country":"CA","education":"College","longitude":-97.174978,"id":"afzu22ekso70","state":"MB"},"type":"Feature","geometry":{"type":"Point","coordinates":[-97.174978,49.949157]}},{"properties":{"tenure":"Working","city":"Winnipeg","latitude":49.941102,"title":484,"zipcode":"R2R 2B6","freeform address":"Winnipeg, MB, R2R 2B6, CA","country":"CA","education":"PG","longitude":-97.199664,"id":"afzu22a79ae1","state":"MB"},"type":"Feature","geometry":{"type":"Point","coordinates":[-97.199664,49.941102]}},{"properties":{"tenure":"Working","city":"Winnipeg","latitude":49.833325,"title":485,"zipcode":"R2M 4E8","freeform address":"Winnipeg, MB, R2M 4E8, CA","country":"CA","education":"University","longitude":-97.096789,"id":"afzu22dbmlu1","state":"MB"},"type":"Feature","geometry":{"type":"Point","coordinates":[-97.096789,49.833325]}},{"properties":{"tenure":"Working","city":"Winnipeg","latitude":49.909597,"title":486,"zipcode":"R2L 2B5","freeform address":"Winnipeg, MB, R2L 2B5, CA","country":"CA","education":"University","longitude":-97.103894,"id":"afzu22hgmdu5","state":"MB"},"type":"Feature","geometry":{"type":"Point","coordinates":[-97.103894,49.909597]}},{"properties":{"tenure":"Working","city":"Winnipeg","latitude":49.80966,"title":487,"zipcode":"R3Y 1J6","freeform address":"Winnipeg, MB, R3Y 1J6, CA","country":"CA","education":"High School","longitude":-97.200163,"id":"afzu227tvb9p","state":"MB"},"type":"Feature","geometry":{"type":"Point","coordinates":[-97.200163,49.80966]}},{"properties":{"tenure":"Working","city":"Winnipeg","latitude":49.889437,"title":469,"zipcode":"R2Y 1X7","freeform address":"Winnipeg, MB, R2Y 1X7, CA","country":"CA","education":"College","longitude":-97.280618,"id":"afzu226w0pbi","state":"MB"},"type":"Feature","geometry":{"type":"Point","coordinates":[-97.280618,49.889437]}},{"properties":{"tenure":"Working","city":"Winnipeg","latitude":49.945353,"title":470,"zipcode":"R2P 0Z1","freeform address":"Winnipeg, MB, R2P 0Z1, CA","country":"CA","education":"University","longitude":-97.168798,"id":"afzu227h1lo4","state":"MB"},"type":"Feature","geometry":{"type":"Point","coordinates":[-97.168798,49.945353]}},{"properties":{"tenure":"Working","city":"Winnipeg","latitude":49.854918,"title":471,"zipcode":"R3M 2K4","freeform address":"Winnipeg, MB, R3M 2K4, CA","country":"CA","education":"University","longitude":-97.16372,"id":"afzu22efzal1","state":"MB"},"type":"Feature","geometry":{"type":"Point","coordinates":[-97.16372,49.854918]}},{"properties":{"tenure":"Working","city":"Winnipeg","latitude":49.9369,"title":472,"zipcode":"R2R 1S9","freeform address":"Winnipeg, MB, R2R 1S9, CA","country":"CA","education":"University","longitude":-97.216722,"id":"afzu2227202q","state":"MB"},"type":"Feature","geometry":{"type":"Point","coordinates":[-97.216722,49.9369]}},{"properties":{"tenure":"Working","city":"Winnipeg","latitude":49.892808,"title":474,"zipcode":"R3B 3J3","freeform address":"Winnipeg, MB, R3B 3J3, CA","country":"CA","education":"University","longitude":-97.150498,"id":"afzu22e4plzh","state":"MB"},"type":"Feature","geometry":{"type":"Point","coordinates":[-97.150498,49.892808]}},{"properties":{"tenure":"Working","city":"Winnipeg","latitude":49.858375,"title":475,"zipcode":"R3M 2W8","freeform address":"Winnipeg, MB, R3M 2W8, CA","country":"CA","education":"College","longitude":-97.153318,"id":"afzu22807cu2","state":"MB"},"type":"Feature","geometry":{"type":"Point","coordinates":[-97.153318,49.858375]}},{"properties":{"tenure":"Working","city":"Winnipeg","latitude":49.940963,"title":476,"zipcode":"R2V 0P4","freeform address":"Winnipeg, MB, R2V 0P4, CA","country":"CA","education":"College","longitude":-97.140849,"id":"afzu22flf6h2","state":"MB"},"type":"Feature","geometry":{"type":"Point","coordinates":[-97.140849,49.940963]}},{"properties":{"tenure":"Working","city":"Winnipeg","latitude":49.954695,"title":477,"zipcode":"R2P 0W7","freeform address":"Winnipeg, MB, R2P 0W7, CA","country":"CA","education":"University","longitude":-97.163571,"id":"afzu22b7rfxk","state":"MB"},"type":"Feature","geometry":{"type":"Point","coordinates":[-97.163571,49.954695]}},{"properties":{"tenure":"Working","city":"Winnipeg","latitude":49.838166,"title":478,"zipcode":"R3T 0N3","freeform address":"Winnipeg, MB, R3T 0N3, CA","country":"CA","education":"College","longitude":-97.159051,"id":"afzu22gu8k0j","state":"MB"},"type":"Feature","geometry":{"type":"Point","coordinates":[-97.159051,49.838166]}},{"properties":{"tenure":"Working","city":"Winnipeg","latitude":49.897194,"title":489,"zipcode":"R2Y 1L4","freeform address":"Winnipeg, MB, R2Y 1L4, CA","country":"CA","education":"University","longitude":-97.310696,"id":"afzu22ed8zf0","state":"MB"},"type":"Feature","geometry":{"type":"Point","coordinates":[-97.310696,49.897194]}},{"properties":{"tenure":"Working","city":"Winnipeg","latitude":49.798587,"title":490,"zipcode":"R3Y 0G3","freeform address":"Winnipeg, MB, R3Y 0G3, CA","country":"CA","education":"High School","longitude":-97.196808,"id":"afzu227mv1ss","state":"MB"},"type":"Feature","geometry":{"type":"Point","coordinates":[-97.196808,49.798587]}},{"properties":{"tenure":"Working","city":"Winnipeg","latitude":49.890993,"title":491,"zipcode":"R3G 1P8","freeform address":"Winnipeg, MB, R3G 1P8, CA","country":"CA","education":"University","longitude":-97.16293,"id":"afzu22bipl3v","state":"MB"},"type":"Feature","geometry":{"type":"Point","coordinates":[-97.16293,49.890993]}},{"properties":{"tenure":"Working","city":"Winnipeg","latitude":49.884169,"title":492,"zipcode":"R3G 0S9","freeform address":"Winnipeg, MB, R3G 0S9, CA","country":"CA","education":"University","longitude":-97.180882,"id":"afzu2232i5zg","state":"MB"},"type":"Feature","geometry":{"type":"Point","coordinates":[-97.180882,49.884169]}},{"properties":{"tenure":"Working","city":"Winnipeg","latitude":49.950817,"title":493,"zipcode":"R2P 0M3","freeform address":"Winnipeg, MB, R2P 0M3, CA","country":"CA","education":"University","longitude":-97.168991,"id":"afzu22elnyp3","state":"MB"},"type":"Feature","geometry":{"type":"Point","coordinates":[-97.168991,49.950817]}},{"properties":{"tenure":"Working","city":"Winnipeg","latitude":49.900421,"title":494,"zipcode":"R3E 3G9","freeform address":"Winnipeg, MB, R3E 3G9, CA","country":"CA","education":"University","longitude":-97.182138,"id":"afzu226i8bcw","state":"MB"},"type":"Feature","geometry":{"type":"Point","coordinates":[-97.182138,49.900421]}},{"properties":{"tenure":"Working","city":"Winnipeg","latitude":49.860042,"title":495,"zipcode":"R2M 2Z2","freeform address":"Winnipeg, MB, R2M 2Z2, CA","country":"CA","education":"College","longitude":-97.10803,"id":"afzu229m68sb","state":"MB"},"type":"Feature","geometry":{"type":"Point","coordinates":[-97.10803,49.860042]}},{"properties":{"tenure":"Working","city":"Winnipeg","latitude":49.884803,"title":496,"zipcode":"R3C 1P7","freeform address":"Winnipeg, MB, R3C 1P7, CA","country":"CA","education":"University","longitude":-97.143364,"id":"afzu22266pkv","state":"MB"},"type":"Feature","geometry":{"type":"Point","coordinates":[-97.143364,49.884803]}},{"properties":{"tenure":"Working","city":"Winnipeg","latitude":49.889604,"title":497,"zipcode":"R3J 1N8","freeform address":"Winnipeg, MB, R3J 1N8, CA","country":"CA","education":"University","longitude":-97.209878,"id":"afzu225imutc","state":"MB"},"type":"Feature","geometry":{"type":"Point","coordinates":[-97.209878,49.889604]}},{"properties":{"tenure":"Working","city":"Winnipeg","latitude":49.837885,"title":498,"zipcode":"R2M 1R5","freeform address":"Winnipeg, MB, R2M 1R5, CA","country":"CA","education":"University","longitude":-97.108906,"id":"afzu22h8l6al","state":"MB"},"type":"Feature","geometry":{"type":"Point","coordinates":[-97.108906,49.837885]}},{"properties":{"tenure":"Working","city":"Stony Mountain","latitude":50.062122,"title":488,"zipcode":"R0C 3A0","freeform address":"Stony Mountain, MB, R0C 3A0, CA","country":"CA","education":"High School","longitude":-97.216995,"id":"afzu222oz2nd","state":"MB"},"type":"Feature","geometry":{"type":"Point","coordinates":[-97.216995,50.062122]}},{"properties":{"tenure":"Working","city":"Winnipeg","latitude":49.878157,"title":499,"zipcode":"R3K 1A5","freeform address":"Winnipeg, MB, R3K 1A5, CA","country":"CA","education":"High School","longitude":-97.280898,"id":"afzu222w2uox","state":"MB"},"type":"Feature","geometry":{"type":"Point","coordinates":[-97.280898,49.878157]}},{"properties":{"tenure":"Working","city":"Winnipeg","latitude":49.793463,"title":500,"zipcode":"R3T 2W7","freeform address":"Winnipeg, MB, R3T 2W7, CA","country":"CA","education":"PG","longitude":-97.154445,"id":"afzu222hutm8","state":"MB"},"type":"Feature","geometry":{"type":"Point","coordinates":[-97.154445,49.793463]}},{"properties":{"tenure":"Working","city":"Winnipeg","latitude":49.868105,"title":501,"zipcode":"R3M 1H6","freeform address":"Winnipeg, MB, R3M 1H6, CA","country":"CA","education":"PG","longitude":-97.152001,"id":"afzu226axr65","state":"MB"},"type":"Feature","geometry":{"type":"Point","coordinates":[-97.152001,49.868105]}},{"properties":{"tenure":"Working","city":"Winnipeg","latitude":49.82716,"title":502,"zipcode":"R3X 0E2","freeform address":"Winnipeg, MB, R3X 0E2, CA","country":"CA","education":"University","longitude":-97.037273,"id":"afzu22i7ohju","state":"MB"},"type":"Feature","geometry":{"type":"Point","coordinates":[-97.037273,49.82716]}},{"properties":{"tenure":"Working","city":"Winnipeg","latitude":49.823622,"title":503,"zipcode":"R3T 5S2","freeform address":"Winnipeg, MB, R3T 5S2, CA","country":"CA","education":"University","longitude":-97.151256,"id":"afzu222cou7s","state":"MB"},"type":"Feature","geometry":{"type":"Point","coordinates":[-97.151256,49.823622]}},{"properties":{"tenure":"Working","city":"Winnipeg","latitude":49.896378,"title":504,"zipcode":"R2C 5M3","freeform address":"Winnipeg, MB, R2C 5M3, CA","country":"CA","education":"High School","longitude":-96.97208,"id":"afzu222m2noz","state":"MB"},"type":"Feature","geometry":{"type":"Point","coordinates":[-96.97208,49.896378]}},{"properties":{"tenure":"Working","city":"Winnipeg","latitude":49.876168,"title":505,"zipcode":"R2H 2L6","freeform address":"Winnipeg, MB, R2H 2L6, CA","country":"CA","education":"University","longitude":-97.111214,"id":"afzu225g3qdr","state":"MB"},"type":"Feature","geometry":{"type":"Point","coordinates":[-97.111214,49.876168]}},{"properties":{"tenure":"Working","city":"Anola","latitude":49.878785,"title":506,"zipcode":"R0E 0A0","freeform address":"Anola, MB, R0E 0A0, CA","country":"CA","education":"University","longitude":-96.483686,"id":"afzu225gew2e","state":"MB"},"type":"Feature","geometry":{"type":"Point","coordinates":[-96.483686,49.878785]}},{"properties":{"tenure":"Working","city":"Winnipeg","latitude":49.863841,"title":507,"zipcode":"R3L 0W9","freeform address":"Winnipeg, MB, R3L 0W9, CA","country":"CA","education":"High School","longitude":-97.140332,"id":"afzu22bumtey","state":"MB"},"type":"Feature","geometry":{"type":"Point","coordinates":[-97.140332,49.863841]}},{"properties":{"tenure":"Working","city":"Winnipeg","latitude":49.80496,"title":508,"zipcode":"R2N 2Y4","freeform address":"Winnipeg, MB, R2N 2Y4, CA","country":"CA","education":"University","longitude":-97.119107,"id":"afzu22gkg2d4","state":"MB"},"type":"Feature","geometry":{"type":"Point","coordinates":[-97.119107,49.80496]}},{"properties":{"tenure":"Working","city":"Winnipeg","latitude":49.919521,"title":519,"zipcode":"R2K 3K5","freeform address":"Winnipeg, MB, R2K 3K5, CA","country":"CA","education":"University","longitude":-97.058751,"id":"afzu227zivrc","state":"MB"},"type":"Feature","geometry":{"type":"Point","coordinates":[-97.058751,49.919521]}},{"properties":{"tenure":"Working","city":"Winnipeg","latitude":49.9369,"title":520,"zipcode":"R2R 1S9","freeform address":"Winnipeg, MB, R2R 1S9, CA","country":"CA","education":"University","longitude":-97.216722,"id":"afzu229ri8b0","state":"MB"},"type":"Feature","geometry":{"type":"Point","coordinates":[-97.216722,49.9369]}},{"properties":{"tenure":"Working","city":"Winnipeg","latitude":49.895158,"title":521,"zipcode":"R3G 2R8","freeform address":"Winnipeg, MB, R3G 2R8, CA","country":"CA","education":"University","longitude":-97.180092,"id":"afzu225gc990","state":"MB"},"type":"Feature","geometry":{"type":"Point","coordinates":[-97.180092,49.895158]}},{"properties":{"tenure":"Working","city":"Winnipeg","latitude":49.954695,"title":522,"zipcode":"R2P 0W7","freeform address":"Winnipeg, MB, R2P 0W7, CA","country":"CA","education":"University","longitude":-97.163571,"id":"afzu22hdphy2","state":"MB"},"type":"Feature","geometry":{"type":"Point","coordinates":[-97.163571,49.954695]}},{"properties":{"tenure":"Working","city":"Winnipeg","latitude":49.856501,"title":523,"zipcode":"R3M 2K3","freeform address":"Winnipeg, MB, R3M 2K3, CA","country":"CA","education":"University","longitude":-97.158932,"id":"afzu22ew05rt","state":"MB"},"type":"Feature","geometry":{"type":"Point","coordinates":[-97.158932,49.856501]}},{"properties":{"tenure":"Working","city":"Winnipeg","latitude":49.893231,"title":524,"zipcode":"R3G 3E1","freeform address":"Winnipeg, MB, R3G 3E1, CA","country":"CA","education":"University","longitude":-97.1891,"id":"afzu22ajzuvr","state":"MB"},"type":"Feature","geometry":{"type":"Point","coordinates":[-97.1891,49.893231]}},{"properties":{"tenure":"Working","city":"Winnipeg","latitude":49.805981,"title":525,"zipcode":"R2N 4P3","freeform address":"Winnipeg, MB, R2N 4P3, CA","country":"CA","education":"High School","longitude":-97.078935,"id":"afzu225znt5a","state":"MB"},"type":"Feature","geometry":{"type":"Point","coordinates":[-97.078935,49.805981]}},{"properties":{"tenure":"Working","city":"Winnipeg","latitude":49.902684,"title":526,"zipcode":"R3W 1P6","freeform address":"Winnipeg, MB, R3W 1P6, CA","country":"CA","education":"University","longitude":-97.053822,"id":"afzu22g0oe3w","state":"MB"},"type":"Feature","geometry":{"type":"Point","coordinates":[-97.053822,49.902684]}},{"properties":{"tenure":"Working","city":"Winnipeg","latitude":49.879443,"title":527,"zipcode":"R3L 0K9","freeform address":"Winnipeg, MB, R3L 0K9, CA","country":"CA","education":"College","longitude":-97.141602,"id":"afzu222fde8j","state":"MB"},"type":"Feature","geometry":{"type":"Point","coordinates":[-97.141602,49.879443]}},{"properties":{"tenure":"Working","city":"Winnipeg","latitude":49.943909,"title":509,"zipcode":"R2V 1K9","freeform address":"Winnipeg, MB, R2V 1K9, CA","country":"CA","education":"PG","longitude":-97.123085,"id":"afzu226laxwa","state":"MB"},"type":"Feature","geometry":{"type":"Point","coordinates":[-97.123085,49.943909]}},{"properties":{"tenure":"Working","city":"Winnipeg","latitude":49.820221,"title":510,"zipcode":"R2M 2P1","freeform address":"Winnipeg, MB, R2M 2P1, CA","country":"CA","education":"University","longitude":-97.126961,"id":"afzu22enn5d6","state":"MB"},"type":"Feature","geometry":{"type":"Point","coordinates":[-97.126961,49.820221]}},{"properties":{"tenure":"Working","city":"Winnipeg","latitude":49.863304,"title":511,"zipcode":"R3R 2S3","freeform address":"Winnipeg, MB, R3R 2S3, CA","country":"CA","education":"University","longitude":-97.297071,"id":"afzu228ixw7y","state":"MB"},"type":"Feature","geometry":{"type":"Point","coordinates":[-97.297071,49.863304]}},{"properties":{"tenure":"Working","city":"Winnipeg","latitude":49.885263,"title":512,"zipcode":"R3G 3A9","freeform address":"Winnipeg, MB, R3G 3A9, CA","country":"CA","education":"High School","longitude":-97.189161,"id":"afzu229olpr7","state":"MB"},"type":"Feature","geometry":{"type":"Point","coordinates":[-97.189161,49.885263]}},{"properties":{"tenure":"Working","city":"Winnipeg","latitude":49.881535,"title":513,"zipcode":"R2H 1K2","freeform address":"Winnipeg, MB, R2H 1K2, CA","country":"CA","education":"University","longitude":-97.129848,"id":"afzu22eycecw","state":"MB"},"type":"Feature","geometry":{"type":"Point","coordinates":[-97.129848,49.881535]}},{"properties":{"tenure":"Working","city":"Winnipeg","latitude":49.960086,"title":514,"zipcode":"R2P 2R8","freeform address":"Winnipeg, MB, R2P 2R8, CA","country":"CA","education":"High School","longitude":-97.164947,"id":"afzu2298yyr9","state":"MB"},"type":"Feature","geometry":{"type":"Point","coordinates":[-97.164947,49.960086]}},{"properties":{"tenure":"Working","city":"Winnipeg","latitude":49.862992,"title":515,"zipcode":"R3N 1W9","freeform address":"Winnipeg, MB, R3N 1W9, CA","country":"CA","education":"High School","longitude":-97.209747,"id":"afzu22dgg7aj","state":"MB"},"type":"Feature","geometry":{"type":"Point","coordinates":[-97.209747,49.862992]}},{"properties":{"tenure":"Working","city":"Winnipeg","latitude":49.823496,"title":516,"zipcode":"R3X 2H2","freeform address":"Winnipeg, MB, R3X 2H2, CA","country":"CA","education":"University","longitude":-97.070999,"id":"afzu22d1z43l","state":"MB"},"type":"Feature","geometry":{"type":"Point","coordinates":[-97.070999,49.823496]}},{"properties":{"tenure":"Working","city":"Winnipeg","latitude":49.794436,"title":517,"zipcode":"R3T 6A5","freeform address":"Winnipeg, MB, R3T 6A5, CA","country":"CA","education":"PG","longitude":-97.16725,"id":"afzu22ef0j95","state":"MB"},"type":"Feature","geometry":{"type":"Point","coordinates":[-97.16725,49.794436]}},{"properties":{"tenure":"Working","city":"Winnipeg","latitude":49.900788,"title":518,"zipcode":"R3E 2N8","freeform address":"Winnipeg, MB, R3E 2N8, CA","country":"CA","education":"University","longitude":-97.17623,"id":"afzu229k5s96","state":"MB"},"type":"Feature","geometry":{"type":"Point","coordinates":[-97.17623,49.900788]}},{"properties":{"tenure":"Working","city":"Winnipeg","latitude":49.840465,"title":528,"zipcode":"R3P 1E6","freeform address":"Winnipeg, MB, R3P 1E6, CA","country":"CA","education":"University","longitude":-97.217753,"id":"afzu22cycivl","state":"MB"},"type":"Feature","geometry":{"type":"Point","coordinates":[-97.217753,49.840465]}}],"is_temporal":false,"author":{"url":"","metadata":null,"contact_name":null,"contact_address":null,"source":null,"contact_phone":null},"source":"","pagination":{"sort":null,"start":0,"total":104,"limit":1000000},"state":"complete","tags":"","published":"2014-08-16T13:16:52-04:00","id":380225}