{"type":"FeatureCollection","data_type":"Dataset","url_type":null,"permissions":[{"permissions":{"download":true,"view":true},"group_id":"everyone"}],"classification":null,"title":"CCT Beneficiaries per province 1","count":83,"stream_id":380755,"contributor":{"url":"http://geocommons.com/users/78399","name":"Sol Theresa"},"data_attributes":null,"calculation_params":null,"icon_link":null,"link":"http://geocommons.com/overlays/380755.json","extent":[0.0,0.0,0.0,0.0],"geometry_types":[],"unique_name":null,"name":"CCT Beneficiaries per province 1","feature_count":83,"description":"","next_feature":null,"is_raster":false,"short_classification":"Y","stats":{"number of households":{"max":213031,"mean":47324.3012048193,"variance":1466843679.50573,"stdev":38299.3952890347,"median":37778,"min":2}},"features":[{"properties":{"geo_score":0.0,"id":"ag128hzr6zn8","province":"ABRA","geo_precision":"unmatched","number of households":11900,"column_3":null},"type":"Feature","geometry":null},{"properties":{"geo_score":0.0,"id":"ag128hyb7a9j","province":"APAYAO","geo_precision":"unmatched","number of households":7554,"column_3":null},"type":"Feature","geometry":null},{"properties":{"geo_score":0.0,"id":"ag128hzg5wyx","province":"BENGUET","geo_precision":"unmatched","number of households":14549,"column_3":null},"type":"Feature","geometry":null},{"properties":{"geo_score":0.0,"id":"ag128hp774z5","province":"IFUGAO","geo_precision":"unmatched","number of households":9185,"column_3":null},"type":"Feature","geometry":null},{"properties":{"geo_score":0.0,"id":"ag128hwvp7lj","province":"KALINGA","geo_precision":"unmatched","number of households":10691,"column_3":null},"type":"Feature","geometry":null},{"properties":{"geo_score":0.0,"id":"ag128hvmphng","province":"MOUNTAIN PROVINCE","geo_precision":"unmatched","number of households":5537,"column_3":null},"type":"Feature","geometry":null},{"properties":{"geo_score":0.0,"id":"ag128i2jbo75","province":"NCR","geo_precision":"unmatched","number of households":213031,"column_3":null},"type":"Feature","geometry":null},{"properties":{"geo_score":0.0,"id":"ag128hvrh75b","province":"ILOCOS NORTE","geo_precision":"unmatched","number of households":19807,"column_3":null},"type":"Feature","geometry":null},{"properties":{"geo_score":0.0,"id":"ag128hrfrvz2","province":"ILOCOS SUR","geo_precision":"unmatched","number of households":25392,"column_3":null},"type":"Feature","geometry":null},{"properties":{"geo_score":0.0,"id":"ag128i3bhcip","province":"LA UNION","geo_precision":"unmatched","number of households":30404,"column_3":null},"type":"Feature","geometry":null},{"properties":{"geo_score":0.0,"id":"ag128hq0jyqj","province":"PANGASINAN","geo_precision":"unmatched","number of households":115030,"column_3":null},"type":"Feature","geometry":null},{"properties":{"geo_score":0.0,"id":"ag128hssnxkp","province":"CAGAYAN","geo_precision":"unmatched","number of households":32648,"column_3":null},"type":"Feature","geometry":null},{"properties":{"geo_score":0.0,"id":"ag128hyavvun","province":"ISABELA","geo_precision":"unmatched","number of households":44849,"column_3":null},"type":"Feature","geometry":null},{"properties":{"geo_score":0.0,"id":"ag128hxf0kp9","province":"NUEVA VIZCAYA","geo_precision":"unmatched","number of households":11866,"column_3":null},"type":"Feature","geometry":null},{"properties":{"geo_score":0.0,"id":"ag128hras1ff","province":"QUIRINO","geo_precision":"unmatched","number of households":6679,"column_3":null},"type":"Feature","geometry":null},{"properties":{"geo_score":0.0,"id":"ag128hv8v5tc","province":"AURORA","geo_precision":"unmatched","number of households":9554,"column_3":null},"type":"Feature","geometry":null},{"properties":{"geo_score":0.0,"id":"ag128hwya4db","province":"BATAAN","geo_precision":"unmatched","number of households":14507,"column_3":null},"type":"Feature","geometry":null},{"properties":{"geo_score":0.0,"id":"ag128hu05qkb","province":"BULACAN","geo_precision":"unmatched","number of households":58578,"column_3":null},"type":"Feature","geometry":null},{"properties":{"geo_score":0.0,"id":"ag128hrn24yy","province":"NUEVA ECIJA","geo_precision":"unmatched","number of households":76323,"column_3":null},"type":"Feature","geometry":null},{"properties":{"geo_score":0.0,"id":"ag128i3c7tlp","province":"PAMPANGA","geo_precision":"unmatched","number of households":45095,"column_3":null},"type":"Feature","geometry":null},{"properties":{"geo_score":0.0,"id":"ag128hv9xy66","province":"TARLAC","geo_precision":"unmatched","number of households":36671,"column_3":null},"type":"Feature","geometry":null},{"properties":{"geo_score":0.0,"id":"ag128hugrniz","province":"ZAMBALES","geo_precision":"unmatched","number of households":17526,"column_3":null},"type":"Feature","geometry":null},{"properties":{"geo_score":0.0,"id":"ag128hyizxys","province":"BATANGAS","geo_precision":"unmatched","number of households":84203,"column_3":null},"type":"Feature","geometry":null},{"properties":{"geo_score":0.0,"id":"ag128hupzo82","province":"CAVITE","geo_precision":"unmatched","number of households":44550,"column_3":null},"type":"Feature","geometry":null},{"properties":{"geo_score":0.0,"id":"ag128i1d2xbg","province":"LAGUNA","geo_precision":"unmatched","number of households":39860,"column_3":null},"type":"Feature","geometry":null},{"properties":{"geo_score":0.0,"id":"ag128i3ukzta","province":"QUEZON","geo_precision":"unmatched","number of households":90714,"column_3":null},"type":"Feature","geometry":null},{"properties":{"geo_score":0.0,"id":"ag128hwnlrre","province":"RIZAL","geo_precision":"unmatched","number of households":32715,"column_3":null},"type":"Feature","geometry":null},{"properties":{"geo_score":0.0,"id":"ag128hqu8e5i","province":"MARINDUQUE","geo_precision":"unmatched","number of households":13324,"column_3":null},"type":"Feature","geometry":null},{"properties":{"geo_score":0.0,"id":"ag128i363sal","province":"OCCIDENTAL MINDORO","geo_precision":"unmatched","number of households":24599,"column_3":null},"type":"Feature","geometry":null},{"properties":{"geo_score":0.0,"id":"ag128i29m0sh","province":"ORIENTAL MINDORO","geo_precision":"unmatched","number of households":51557,"column_3":null},"type":"Feature","geometry":null},{"properties":{"geo_score":0.0,"id":"ag128hv2499q","province":"PALAWAN","geo_precision":"unmatched","number of households":69972,"column_3":null},"type":"Feature","geometry":null},{"properties":{"geo_score":0.0,"id":"ag128hoybe11","province":"ROMBLON","geo_precision":"unmatched","number of households":16010,"column_3":null},"type":"Feature","geometry":null},{"properties":{"geo_score":0.0,"id":"ag128i2l2aqy","province":"ALBAY","geo_precision":"unmatched","number of households":73559,"column_3":null},"type":"Feature","geometry":null},{"properties":{"geo_score":0.0,"id":"ag128hrf9q3b","province":"CAMARINES NORTE","geo_precision":"unmatched","number of households":29470,"column_3":null},"type":"Feature","geometry":null},{"properties":{"geo_score":0.0,"id":"ag128hv7rrh4","province":"CAMARINES SUR","geo_precision":"unmatched","number of households":107571,"column_3":null},"type":"Feature","geometry":null},{"properties":{"geo_score":0.0,"id":"ag128hr72aag","province":"CATANDUANES","geo_precision":"unmatched","number of households":15263,"column_3":null},"type":"Feature","geometry":null},{"properties":{"geo_score":0.0,"id":"ag128howk6pt","province":"MASBATE","geo_precision":"unmatched","number of households":76059,"column_3":null},"type":"Feature","geometry":null},{"properties":{"geo_score":0.0,"id":"ag128hpdzj50","province":"SORSOGON","geo_precision":"unmatched","number of households":57173,"column_3":null},"type":"Feature","geometry":null},{"properties":{"geo_score":0.0,"id":"ag128i338u55","province":"AKLAN","geo_precision":"unmatched","number of households":28080,"column_3":null},"type":"Feature","geometry":null},{"properties":{"geo_score":0.0,"id":"ag128hrre48m","province":"ANTIQUE","geo_precision":"unmatched","number of households":27644,"column_3":null},"type":"Feature","geometry":null},{"properties":{"geo_score":0.0,"id":"ag128i1810xn","province":"CAPIZ","geo_precision":"unmatched","number of households":37778,"column_3":null},"type":"Feature","geometry":null},{"properties":{"geo_score":0.0,"id":"ag128hoz12eo","province":"GUIMARAS","geo_precision":"unmatched","number of households":7981,"column_3":null},"type":"Feature","geometry":null},{"properties":{"geo_score":0.0,"id":"ag128hrimobd","province":"ILOILO","geo_precision":"unmatched","number of households":84869,"column_3":null},"type":"Feature","geometry":null},{"properties":{"geo_score":0.0,"id":"ag128hy5wlsx","province":"NEGROS OCCIDENTAL","geo_precision":"unmatched","number of households":113352,"column_3":null},"type":"Feature","geometry":null},{"properties":{"geo_score":0.0,"id":"ag128i0v73pl","province":"BOHOL","geo_precision":"unmatched","number of households":55020,"column_3":null},"type":"Feature","geometry":null},{"properties":{"geo_score":0.0,"id":"ag128hqsn0rs","province":"CEBU","geo_precision":"unmatched","number of households":121886,"column_3":null},"type":"Feature","geometry":null},{"properties":{"geo_score":0.0,"id":"ag128hziyvp2","province":"NEGROS ORIENTAL","geo_precision":"unmatched","number of households":63391,"column_3":null},"type":"Feature","geometry":null},{"properties":{"geo_score":0.0,"id":"ag128hzc1vb3","province":"SIQUIJOR","geo_precision":"unmatched","number of households":3374,"column_3":null},"type":"Feature","geometry":null},{"properties":{"geo_score":0.0,"id":"ag128hvtqxdb","province":"BILIRAN","geo_precision":"unmatched","number of households":11384,"column_3":null},"type":"Feature","geometry":null},{"properties":{"geo_score":0.0,"id":"ag128hvo67q3","province":"EASTERN SAMAR","geo_precision":"unmatched","number of households":28359,"column_3":null},"type":"Feature","geometry":null},{"properties":{"geo_score":0.0,"id":"ag128hw3zoz3","province":"LEYTE","geo_precision":"unmatched","number of households":100578,"column_3":null},"type":"Feature","geometry":null},{"properties":{"geo_score":0.0,"id":"ag128hqczs29","province":"NORTHERN SAMAR","geo_precision":"unmatched","number of households":42944,"column_3":null},"type":"Feature","geometry":null},{"properties":{"geo_score":0.0,"id":"ag128hqsr9ll","province":"SAMAR (WESTERN SAMAR)","geo_precision":"unmatched","number of households":56630,"column_3":null},"type":"Feature","geometry":null},{"properties":{"geo_score":0.0,"id":"ag128i25e2g5","province":"SOUTHERN LEYTE","geo_precision":"unmatched","number of households":18023,"column_3":null},"type":"Feature","geometry":null},{"properties":{"geo_score":0.0,"id":"ag128i35o84f","province":"CITY OF ISABELA","geo_precision":"unmatched","number of households":9200,"column_3":null},"type":"Feature","geometry":null},{"properties":{"geo_score":0.0,"id":"ag128i49eoa3","province":"ZAMBOANGA DEL NORTE","geo_precision":"unmatched","number of households":97771,"column_3":null},"type":"Feature","geometry":null},{"properties":{"geo_score":0.0,"id":"ag128hzcxpap","province":"ZAMBOANGA DEL SUR","geo_precision":"unmatched","number of households":121332,"column_3":null},"type":"Feature","geometry":null},{"properties":{"geo_score":0.0,"id":"ag128hzje9j8","province":"ZAMBOANGA SIBUGAY","geo_precision":"unmatched","number of households":51090,"column_3":null},"type":"Feature","geometry":null},{"properties":{"geo_score":0.0,"id":"ag128hzzge2u","province":"BUKIDNON","geo_precision":"unmatched","number of households":73961,"column_3":null},"type":"Feature","geometry":null},{"properties":{"geo_score":0.0,"id":"ag128i43s6u5","province":"CAMIGUIN","geo_precision":"unmatched","number of households":5186,"column_3":null},"type":"Feature","geometry":null},{"properties":{"geo_score":0.0,"id":"ag128hpcx4pz","province":"LANAO DEL NORTE","geo_precision":"unmatched","number of households":68813,"column_3":null},"type":"Feature","geometry":null},{"properties":{"geo_score":0.0,"id":"ag128hw54sy3","province":"MISAMIS OCCIDENTAL","geo_precision":"unmatched","number of households":31379,"column_3":null},"type":"Feature","geometry":null},{"properties":{"geo_score":0.0,"id":"ag128hsh4543","province":"MISAMIS ORIENTAL","geo_precision":"unmatched","number of households":67056,"column_3":null},"type":"Feature","geometry":null},{"properties":{"geo_score":0.0,"id":"ag128hvijmgt","province":"COMPOSTELA VALLEY","geo_precision":"unmatched","number of households":40636,"column_3":null},"type":"Feature","geometry":null},{"properties":{"geo_score":0.0,"id":"ag128i29zkfz","province":"DAVAO DEL NORTE","geo_precision":"unmatched","number of households":41484,"column_3":null},"type":"Feature","geometry":null},{"properties":{"geo_score":0.0,"id":"ag128hzl5epz","province":"DAVAO DEL SUR","geo_precision":"unmatched","number of households":81992,"column_3":null},"type":"Feature","geometry":null},{"properties":{"geo_score":0.0,"id":"ag128hydd0kg","province":"DAVAO ORIENTAL","geo_precision":"unmatched","number of households":33065,"column_3":null},"type":"Feature","geometry":null},{"properties":{"geo_score":0.0,"id":"ag128hxbi7qs","province":"COTABATO (NORTH COTABATO)","geo_precision":"unmatched","number of households":75129,"column_3":null},"type":"Feature","geometry":null},{"properties":{"geo_score":0.0,"id":"ag128i1jhfa8","province":"COTABATO CITY","geo_precision":"unmatched","number of households":12931,"column_3":null},"type":"Feature","geometry":null},{"properties":{"geo_score":0.0,"id":"ag128i1mop5d","province":"SARANGANI","geo_precision":"unmatched","number of households":31844,"column_3":null},"type":"Feature","geometry":null},{"properties":{"geo_score":0.0,"id":"ag128hy100vi","province":"SOUTH COTABATO","geo_precision":"unmatched","number of households":54817,"column_3":null},"type":"Feature","geometry":null},{"properties":{"geo_score":0.0,"id":"ag128hpvyx1y","province":"SOUTH COTABATO","geo_precision":"unmatched","number of households":2,"column_3":null},"type":"Feature","geometry":null},{"properties":{"geo_score":0.0,"id":"ag128i1zuxbm","province":"SULTAN KUDARAT","geo_precision":"unmatched","number of households":43700,"column_3":null},"type":"Feature","geometry":null},{"properties":{"geo_score":0.0,"id":"ag128htcife4","province":"AGUSAN DEL NORTE","geo_precision":"unmatched","number of households":34128,"column_3":null},"type":"Feature","geometry":null},{"properties":{"geo_score":0.0,"id":"ag128hxq3fcu","province":"AGUSAN DEL SUR","geo_precision":"unmatched","number of households":53113,"column_3":null},"type":"Feature","geometry":null},{"properties":{"geo_score":0.0,"id":"ag128hsdryf1","province":"DINAGAT ISLANDS","geo_precision":"unmatched","number of households":9175,"column_3":null},"type":"Feature","geometry":null},{"properties":{"geo_score":0.0,"id":"ag128i2790zo","province":"SURIGAO DEL NORTE","geo_precision":"unmatched","number of households":29809,"column_3":null},"type":"Feature","geometry":null},{"properties":{"geo_score":0.0,"id":"ag128hz1g1jf","province":"SURIGAO DEL SUR","geo_precision":"unmatched","number of households":40741,"column_3":null},"type":"Feature","geometry":null},{"properties":{"geo_score":0.0,"id":"ag128hw078ha","province":"BASILAN","geo_precision":"unmatched","number of households":27840,"column_3":null},"type":"Feature","geometry":null},{"properties":{"geo_score":0.0,"id":"ag128hw8xeb1","province":"LANAO DEL SUR","geo_precision":"unmatched","number of households":90891,"column_3":null},"type":"Feature","geometry":null},{"properties":{"geo_score":0.0,"id":"ag128hoz1v05","province":"MAGUINDANAO","geo_precision":"unmatched","number of households":147838,"column_3":null},"type":"Feature","geometry":null},{"properties":{"geo_score":0.0,"id":"ag128hz6j3c1","province":"SULU","geo_precision":"unmatched","number of households":88412,"column_3":null},"type":"Feature","geometry":null},{"properties":{"geo_score":0.0,"id":"ag128hxomwtz","province":"TAWI-TAWI","geo_precision":"unmatched","number of households":19314,"column_3":null},"type":"Feature","geometry":null}],"is_temporal":false,"author":{"url":"","metadata":"","contact_name":"","contact_address":"","source":"","contact_phone":""},"source":"","pagination":{"sort":null,"start":0,"total":83,"limit":1000000},"state":"complete","tags":"","published":"2014-08-16T14:08:15-04:00","id":380755}