{"type":"FeatureCollection","data_type":"Dataset","url_type":null,"permissions":[{"permissions":{"download":true,"view":true},"group_id":"everyone"}],"classification":null,"title":"130731 Public JHS R7","count":325,"stream_id":382147,"contributor":{"url":"http://geocommons.com/users/78315","name":"marianiban"},"data_attributes":null,"calculation_params":null,"icon_link":null,"link":"http://geocommons.com/overlays/382147.json","extent":[122.63,9.05858,124.593,11.5124],"geometry_types":["point"],"unique_name":null,"name":"130731 Public JHS R7","feature_count":325,"description":"","next_feature":null,"is_raster":false,"short_classification":"Y","stats":{"agri":{"max":1,"variance":0.00307692307692306,"mean":0.00307692307692308,"stdev":0.0554700196225227,"min":0,"median":0},"latitude":{"max":11.512382,"variance":0.237865179765801,"mean":10.0190718307692,"stdev":0.487714239863674,"min":9.058576,"median":10.076767},"id 2":{"max":1414,"variance":103511.633295347,"mean":644.793846153846,"stdev":321.732238507966,"min":212,"median":470},"arts&trade":{"max":1,"variance":0.0181766381766381,"mean":0.0184615384615385,"stdev":0.134820763151074,"min":0,"median":0},"w.bld":{"max":1,"variance":0.103570750237417,"mean":0.883076923076923,"stdev":0.321824098285721,"min":0,"median":1},"sp.s&t":{"max":1,"variance":0.0356695156695156,"mean":0.0369230769230769,"stdev":0.188863748955472,"min":0,"median":0},"sp.arts":{"max":1,"variance":0.00307692307692307,"mean":0.00307692307692308,"stdev":0.0554700196225229,"min":0,"median":0},"sp.fl":{"max":1,"variance":0.00307692307692308,"mean":0.00307692307692308,"stdev":0.0554700196225229,"min":0,"median":0},"sp.journ":{"max":0,"variance":0.0,"mean":0.0,"stdev":0.0,"min":0,"median":0},"enrtotal":{"max":5786,"variance":641512.687806268,"mean":784.978461538461,"stdev":800.944871889612,"min":25,"median":498},"fish":{"max":1,"variance":0.00307692307692303,"mean":0.00307692307692308,"stdev":0.0554700196225225,"min":0,"median":0},"sch.id":{"max":356059,"variance":36381282.3776258,"mean":305460.172307692,"stdev":6031.68984428293,"min":302808,"median":303189},"longitude":{"max":124.593154,"variance":0.19348492961716,"mean":123.621777873846,"stdev":0.43986921876526,"min":122.630346,"median":123.807992},"shs?1":{"max":1,"variance":0.0385185185185184,"mean":0.04,"stdev":0.196261352585063,"min":0,"median":0},"sp.sports":{"max":1,"variance":0.0151946818613486,"mean":0.0153846153846154,"stdev":0.123266710272273,"min":0,"median":0},"sp.prog1":{"max":1,"variance":0.0497245963912631,"mean":0.0523076923076923,"stdev":0.222990126219219,"min":0,"median":0}},"features":[{"properties":{"agri":0,"school name":"Bais City National High School","shs?":"NO","tech-voc":"NO","latitude":9.590737,"region":"Region VII","id 2":1055,"w.bld":1,"arts&trade":0,"division.2012":"Bais City","sp.prog":"NO","enrtotal":2327,"sp.journ":0,"sp.fl":0,"sp.arts":0,"sp.s&t":0,"sch.id":303212,"municipality":"BAIS CITY","fish":0,"sp.program":null,"longitude":123.119715,"id":"ag4rxa7nto3e","province":"NEGROS ORIENTAL","sp.sports":0,"shs?1":0,"sp.prog1":0},"type":"Feature","geometry":{"type":"Point","coordinates":[123.119715,9.590737]}},{"properties":{"agri":0,"school name":"Bais City NHS - Panalaan HS","shs?":"NO","tech-voc":"NO","latitude":9.597736,"region":"Region VII","id 2":1055,"w.bld":1,"arts&trade":0,"division.2012":"Bais City","sp.prog":"NO","enrtotal":226,"sp.journ":0,"sp.fl":0,"sp.arts":0,"sp.s&t":0,"sch.id":303213,"municipality":"BAIS CITY","fish":0,"sp.program":null,"longitude":123.049138,"id":"ag4rxa341djw","province":"NEGROS ORIENTAL","sp.sports":0,"shs?1":0,"sp.prog1":0},"type":"Feature","geometry":{"type":"Point","coordinates":[123.049138,9.597736]}},{"properties":{"agri":0,"school name":"Bais City NHS-Olympia Annex","shs?":"NO","tech-voc":"NO","latitude":9.615441,"region":"Region VII","id 2":1055,"w.bld":1,"arts&trade":0,"division.2012":"Bais City","sp.prog":"NO","enrtotal":76,"sp.journ":0,"sp.fl":0,"sp.arts":0,"sp.s&t":0,"sch.id":323011,"municipality":"BAIS CITY","fish":0,"sp.program":null,"longitude":123.145447,"id":"ag4rxa52cje8","province":"NEGROS ORIENTAL","sp.sports":0,"shs?1":0,"sp.prog1":0},"type":"Feature","geometry":{"type":"Point","coordinates":[123.145447,9.615441]}},{"properties":{"agri":0,"school name":"Bais City Science NHS","shs?":"YES","tech-voc":"NO","latitude":9.592118,"region":"Region VII","id 2":1055,"w.bld":1,"arts&trade":0,"division.2012":"Bais City","sp.prog":"NO","enrtotal":171,"sp.journ":0,"sp.fl":0,"sp.arts":0,"sp.s&t":0,"sch.id":303216,"municipality":"BAIS CITY","fish":0,"sp.program":null,"longitude":123.119827,"id":"ag4rxa9yhjeu","province":"NEGROS ORIENTAL","sp.sports":0,"shs?1":1,"sp.prog1":0},"type":"Feature","geometry":{"type":"Point","coordinates":[123.119827,9.592118]}},{"properties":{"agri":0,"school name":"Cabugan National High School","shs?":"NO","tech-voc":"NO","latitude":9.562316,"region":"Region VII","id 2":1055,"w.bld":1,"arts&trade":0,"division.2012":"Bais City","sp.prog":"NO","enrtotal":183,"sp.journ":0,"sp.fl":0,"sp.arts":0,"sp.s&t":0,"sch.id":323001,"municipality":"BAIS CITY","fish":0,"sp.program":null,"longitude":122.999435,"id":"ag4rxa5una30","province":"NEGROS ORIENTAL","sp.sports":0,"shs?1":0,"sp.prog1":0},"type":"Feature","geometry":{"type":"Point","coordinates":[122.999435,9.562316]}},{"properties":{"agri":0,"school name":"Cambagahan National HS","shs?":"NO","tech-voc":"NO","latitude":9.587175,"region":"Region VII","id 2":1055,"w.bld":1,"arts&trade":0,"division.2012":"Bais City","sp.prog":"NO","enrtotal":202,"sp.journ":0,"sp.fl":0,"sp.arts":0,"sp.s&t":0,"sch.id":323004,"municipality":"BAIS CITY","fish":0,"sp.program":null,"longitude":122.92131,"id":"ag4rxa4nuz9b","province":"NEGROS ORIENTAL","sp.sports":0,"shs?1":0,"sp.prog1":0},"type":"Feature","geometry":{"type":"Point","coordinates":[122.92131,9.587175]}},{"properties":{"agri":0,"school name":"Dodong Esca√±o Memorial High School","shs?":"NO","tech-voc":"NO","latitude":9.581999,"region":"Region VII","id 2":1055,"w.bld":1,"arts&trade":0,"division.2012":"Bais City","sp.prog":"NO","enrtotal":270,"sp.journ":0,"sp.fl":0,"sp.arts":0,"sp.s&t":0,"sch.id":303214,"municipality":"BAIS CITY","fish":0,"sp.program":null,"longitude":122.996529,"id":"ag4rxaafrlci","province":"NEGROS ORIENTAL","sp.sports":0,"shs?1":0,"sp.prog1":0},"type":"Feature","geometry":{"type":"Point","coordinates":[122.996529,9.581999]}},{"properties":{"agri":0,"school name":"Governor Julian L. Teves Memorial HS","shs?":"NO","tech-voc":"NO","latitude":9.546245,"region":"Region VII","id 2":1055,"w.bld":1,"arts&trade":0,"division.2012":"Bais City","sp.prog":"NO","enrtotal":226,"sp.journ":0,"sp.fl":0,"sp.arts":0,"sp.s&t":0,"sch.id":323003,"municipality":"BAIS CITY","fish":0,"sp.program":null,"longitude":123.074081,"id":"ag4rxa283sj0","province":"NEGROS ORIENTAL","sp.sports":0,"shs?1":0,"sp.prog1":0},"type":"Feature","geometry":{"type":"Point","coordinates":[123.074081,9.546245]}},{"properties":{"agri":0,"school name":"Javier Laxina I Memorial HS","shs?":"NO","tech-voc":"NO","latitude":9.569394,"region":"Region VII","id 2":1055,"w.bld":1,"arts&trade":0,"division.2012":"Bais City","sp.prog":"NO","enrtotal":280,"sp.journ":0,"sp.fl":0,"sp.arts":0,"sp.s&t":0,"sch.id":323002,"municipality":"BAIS CITY","fish":0,"sp.program":null,"longitude":123.091164,"id":"ag4rxa2n3xsm","province":"NEGROS ORIENTAL","sp.sports":0,"shs?1":0,"sp.prog1":0},"type":"Feature","geometry":{"type":"Point","coordinates":[123.091164,9.569394]}},{"properties":{"agri":0,"school name":"Lonoy National High School","shs?":"NO","tech-voc":"NO","latitude":9.567263,"region":"Region VII","id 2":1055,"w.bld":1,"arts&trade":0,"division.2012":"Bais City","sp.prog":"NO","enrtotal":234,"sp.journ":0,"sp.fl":0,"sp.arts":0,"sp.s&t":0,"sch.id":303215,"municipality":"BAIS CITY","fish":0,"sp.program":null,"longitude":122.958699,"id":"ag4rxa2w9u0e","province":"NEGROS ORIENTAL","sp.sports":0,"shs?1":0,"sp.prog1":0},"type":"Feature","geometry":{"type":"Point","coordinates":[122.958699,9.567263]}},{"properties":{"agri":0,"school name":"Lucila C. Yared National High School","shs?":"NO","tech-voc":"NO","latitude":9.602868,"region":"Region VII","id 2":1055,"w.bld":1,"arts&trade":0,"division.2012":"Bais City","sp.prog":"NO","enrtotal":128,"sp.journ":0,"sp.fl":0,"sp.arts":0,"sp.s&t":0,"sch.id":323010,"municipality":"BAIS CITY","fish":0,"sp.program":null,"longitude":122.890564,"id":"ag4rxabeh52g","province":"NEGROS ORIENTAL","sp.sports":0,"shs?1":0,"sp.prog1":0},"type":"Feature","geometry":{"type":"Point","coordinates":[122.890564,9.602868]}},{"properties":{"agri":0,"school name":"Mansangaban National HS","shs?":"NO","tech-voc":"NO","latitude":9.548615,"region":"Region VII","id 2":1055,"w.bld":1,"arts&trade":0,"division.2012":"Bais City","sp.prog":"NO","enrtotal":218,"sp.journ":0,"sp.fl":0,"sp.arts":0,"sp.s&t":0,"sch.id":323007,"municipality":"BAIS CITY","fish":0,"sp.program":null,"longitude":123.035202,"id":"ag4rxa6am2m7","province":"NEGROS ORIENTAL","sp.sports":0,"shs?1":0,"sp.prog1":0},"type":"Feature","geometry":{"type":"Point","coordinates":[123.035202,9.548615]}},{"properties":{"agri":0,"school name":"Manuel L. Teves Memorial HS","shs?":"NO","tech-voc":"NO","latitude":9.550181,"region":"Region VII","id 2":1055,"w.bld":1,"arts&trade":0,"division.2012":"Bais City","sp.prog":"NO","enrtotal":129,"sp.journ":0,"sp.fl":0,"sp.arts":0,"sp.s&t":0,"sch.id":323005,"municipality":"BAIS CITY","fish":0,"sp.program":null,"longitude":123.109406,"id":"ag4rxa5z3rjf","province":"NEGROS ORIENTAL","sp.sports":0,"shs?1":0,"sp.prog1":0},"type":"Feature","geometry":{"type":"Point","coordinates":[123.109406,9.550181]}},{"properties":{"agri":0,"school name":"Mayor Praxedes P. Villanueva II Memorial High School","shs?":"NO","tech-voc":"NO","latitude":9.632738,"region":"Region VII","id 2":1055,"w.bld":1,"arts&trade":0,"division.2012":"Bais City","sp.prog":"NO","enrtotal":202,"sp.journ":0,"sp.fl":0,"sp.arts":0,"sp.s&t":0,"sch.id":323012,"municipality":"BAIS CITY","fish":0,"sp.program":null,"longitude":123.089272,"id":"ag4rxa7tb3k7","province":"NEGROS ORIENTAL","sp.sports":0,"shs?1":0,"sp.prog1":0},"type":"Feature","geometry":{"type":"Point","coordinates":[123.089272,9.632738]}},{"properties":{"agri":0,"school name":"Okiot National High School","shs?":"NO","tech-voc":"NO","latitude":9.594614,"region":"Region VII","id 2":1055,"w.bld":1,"arts&trade":0,"division.2012":"Bais City","sp.prog":"NO","enrtotal":225,"sp.journ":0,"sp.fl":0,"sp.arts":0,"sp.s&t":0,"sch.id":323008,"municipality":"BAIS CITY","fish":0,"sp.program":null,"longitude":123.152451,"id":"ag4rxaeq405l","province":"NEGROS ORIENTAL","sp.sports":0,"shs?1":0,"sp.prog1":0},"type":"Feature","geometry":{"type":"Point","coordinates":[123.152451,9.594614]}},{"properties":{"agri":0,"school name":"Tangculogan High School","shs?":"NO","tech-voc":"NO","latitude":9.614597,"region":"Region VII","id 2":1055,"w.bld":1,"arts&trade":0,"division.2012":"Bais City","sp.prog":"NO","enrtotal":93,"sp.journ":0,"sp.fl":0,"sp.arts":0,"sp.s&t":0,"sch.id":323013,"municipality":"BAIS CITY","fish":0,"sp.program":null,"longitude":123.111549,"id":"ag4rxa6x4aer","province":"NEGROS ORIENTAL","sp.sports":0,"shs?1":0,"sp.prog1":0},"type":"Feature","geometry":{"type":"Point","coordinates":[123.111549,9.614597]}},{"properties":{"agri":0,"school name":"Bayawan NHS","shs?":"NO","tech-voc":"NO","latitude":9.358999,"region":"Region VII","id 2":1057,"w.bld":1,"arts&trade":0,"division.2012":"Bayawan City","sp.prog":"YES","enrtotal":3076,"sp.journ":0,"sp.fl":0,"sp.arts":0,"sp.s&t":0,"sch.id":303221,"municipality":"CITY OF BAYAWAN (TULONG)","fish":0,"sp.program":"Sports,","longitude":122.815688,"id":"ag4rxa8bebzm","province":"NEGROS ORIENTAL","sp.sports":1,"shs?1":0,"sp.prog1":1},"type":"Feature","geometry":{"type":"Point","coordinates":[122.815688,9.358999]}},{"properties":{"agri":0,"school name":"Bugay NHS","shs?":"NO","tech-voc":"NO","latitude":9.630678,"region":"Region VII","id 2":1057,"w.bld":1,"arts&trade":0,"division.2012":"Bayawan City","sp.prog":"NO","enrtotal":244,"sp.journ":0,"sp.fl":0,"sp.arts":0,"sp.s&t":0,"sch.id":303238,"municipality":"CITY OF BAYAWAN (TULONG)","fish":0,"sp.program":null,"longitude":122.835237,"id":"ag4rxabk5wz9","province":"NEGROS ORIENTAL","sp.sports":0,"shs?1":0,"sp.prog1":0},"type":"Feature","geometry":{"type":"Point","coordinates":[122.835237,9.630678]}},{"properties":{"agri":0,"school name":"Dawis NHS","shs?":"NO","tech-voc":"NO","latitude":9.568833,"region":"Region VII","id 2":1057,"w.bld":1,"arts&trade":0,"division.2012":"Bayawan City","sp.prog":"NO","enrtotal":509,"sp.journ":0,"sp.fl":0,"sp.arts":0,"sp.s&t":0,"sch.id":303227,"municipality":"CITY OF BAYAWAN (TULONG)","fish":0,"sp.program":null,"longitude":122.882456,"id":"ag4rxa4vgdyj","province":"NEGROS ORIENTAL","sp.sports":0,"shs?1":0,"sp.prog1":0},"type":"Feature","geometry":{"type":"Point","coordinates":[122.882456,9.568833]}},{"properties":{"agri":0,"school name":"Kalamtukan NHS","shs?":"NO","tech-voc":"NO","latitude":9.577582,"region":"Region VII","id 2":1057,"w.bld":1,"arts&trade":0,"division.2012":"Bayawan City","sp.prog":"NO","enrtotal":235,"sp.journ":0,"sp.fl":0,"sp.arts":0,"sp.s&t":0,"sch.id":303239,"municipality":"CITY OF BAYAWAN (TULONG)","fish":0,"sp.program":null,"longitude":122.779026,"id":"ag4rxadccxrx","province":"NEGROS ORIENTAL","sp.sports":0,"shs?1":0,"sp.prog1":0},"type":"Feature","geometry":{"type":"Point","coordinates":[122.779026,9.577582]}},{"properties":{"agri":0,"school name":"Kalumboyan NHS","shs?":"NO","tech-voc":"NO","latitude":9.505775,"region":"Region VII","id 2":1057,"w.bld":1,"arts&trade":0,"division.2012":"Bayawan City","sp.prog":"NO","enrtotal":667,"sp.journ":0,"sp.fl":0,"sp.arts":0,"sp.s&t":0,"sch.id":303237,"municipality":"CITY OF BAYAWAN (TULONG)","fish":0,"sp.program":null,"longitude":122.817245,"id":"ag4rxa0jd3jl","province":"NEGROS ORIENTAL","sp.sports":0,"shs?1":0,"sp.prog1":0},"type":"Feature","geometry":{"type":"Point","coordinates":[122.817245,9.505775]}},{"properties":{"agri":0,"school name":"Manduaw NHS","shs?":"NO","tech-voc":"NO","latitude":9.677199,"region":"Region VII","id 2":1057,"w.bld":1,"arts&trade":0,"division.2012":"Bayawan City","sp.prog":"NO","enrtotal":237,"sp.journ":0,"sp.fl":0,"sp.arts":0,"sp.s&t":0,"sch.id":303240,"municipality":"CITY OF BAYAWAN (TULONG)","fish":0,"sp.program":null,"longitude":122.801696,"id":"ag4rxa1pwpvt","province":"NEGROS ORIENTAL","sp.sports":0,"shs?1":0,"sp.prog1":0},"type":"Feature","geometry":{"type":"Point","coordinates":[122.801696,9.677199]}},{"properties":{"agri":0,"school name":"Narra HS","shs?":"NO","tech-voc":"NO","latitude":9.450651,"region":"Region VII","id 2":1057,"w.bld":1,"arts&trade":0,"division.2012":"Bayawan City","sp.prog":"NO","enrtotal":327,"sp.journ":0,"sp.fl":0,"sp.arts":0,"sp.s&t":0,"sch.id":303254,"municipality":"CITY OF BAYAWAN (TULONG)","fish":0,"sp.program":null,"longitude":122.88409,"id":"ag4rxa40ymin","province":"NEGROS ORIENTAL","sp.sports":0,"shs?1":0,"sp.prog1":0},"type":"Feature","geometry":{"type":"Point","coordinates":[122.88409,9.450651]}},{"properties":{"agri":0,"school name":"Omod National High School","shs?":"NO","tech-voc":"NO","latitude":9.398425,"region":"Region VII","id 2":1057,"w.bld":1,"arts&trade":0,"division.2012":"Bayawan City","sp.prog":"NO","enrtotal":363,"sp.journ":0,"sp.fl":0,"sp.arts":0,"sp.s&t":0,"sch.id":303256,"municipality":"CITY OF BAYAWAN (TULONG)","fish":0,"sp.program":null,"longitude":122.868037,"id":"ag4rxa3pu72f","province":"NEGROS ORIENTAL","sp.sports":0,"shs?1":0,"sp.prog1":0},"type":"Feature","geometry":{"type":"Point","coordinates":[122.868037,9.398425]}},{"properties":{"agri":0,"school name":"Tabuan PCHS","shs?":"NO","tech-voc":"NO","latitude":9.518376,"region":"Region VII","id 2":1057,"w.bld":1,"arts&trade":0,"division.2012":"Bayawan City","sp.prog":"NO","enrtotal":368,"sp.journ":0,"sp.fl":0,"sp.arts":0,"sp.s&t":0,"sch.id":303241,"municipality":"CITY OF BAYAWAN (TULONG)","fish":0,"sp.program":null,"longitude":122.849629,"id":"ag4rxa4baram","province":"NEGROS ORIENTAL","sp.sports":0,"shs?1":0,"sp.prog1":0},"type":"Feature","geometry":{"type":"Point","coordinates":[122.849629,9.518376]}},{"properties":{"agri":0,"school name":"Tayawan HS","shs?":"NO","tech-voc":"NO","latitude":9.501868,"region":"Region VII","id 2":1057,"w.bld":1,"arts&trade":0,"division.2012":"Bayawan City","sp.prog":"NO","enrtotal":405,"sp.journ":0,"sp.fl":0,"sp.arts":0,"sp.s&t":0,"sch.id":303242,"municipality":"CITY OF BAYAWAN (TULONG)","fish":0,"sp.program":null,"longitude":122.73958,"id":"ag4rxa2cts4x","province":"NEGROS ORIENTAL","sp.sports":0,"shs?1":0,"sp.prog1":0},"type":"Feature","geometry":{"type":"Point","coordinates":[122.73958,9.501868]}},{"properties":{"agri":0,"school name":"Aguining National High School","shs?":"NO","tech-voc":"NO","latitude":10.085949,"region":"Region VII","id 2":245,"w.bld":1,"arts&trade":0,"division.2012":"Bohol","sp.prog":"NO","enrtotal":402,"sp.journ":0,"sp.fl":0,"sp.arts":0,"sp.s&t":0,"sch.id":302808,"municipality":"PRES. CARLOS P. GARCIA (PITOGO)","fish":0,"sp.program":null,"longitude":124.593154,"id":"ag4rxa4sdbed","province":"BOHOL","sp.sports":0,"shs?1":0,"sp.prog1":0},"type":"Feature","geometry":{"type":"Point","coordinates":[124.593154,10.085949]}},{"properties":{"agri":0,"school name":"Anda HS","shs?":"NO","tech-voc":"NO","latitude":9.746,"region":"Region VII","id 2":212,"w.bld":1,"arts&trade":0,"division.2012":"Bohol","sp.prog":"NO","enrtotal":198,"sp.journ":0,"sp.fl":0,"sp.arts":0,"sp.s&t":0,"sch.id":302813,"municipality":"ANDA","fish":0,"sp.program":null,"longitude":124.575996,"id":"ag4rx9zntuiv","province":"BOHOL","sp.sports":0,"shs?1":0,"sp.prog1":0},"type":"Feature","geometry":{"type":"Point","coordinates":[124.575996,9.746]}},{"properties":{"agri":0,"school name":"Badiang NHS","shs?":"NO","tech-voc":"NO","latitude":9.792331,"region":"Region VII","id 2":212,"w.bld":1,"arts&trade":0,"division.2012":"Bohol","sp.prog":"NO","enrtotal":284,"sp.journ":0,"sp.fl":0,"sp.arts":0,"sp.s&t":0,"sch.id":302812,"municipality":"ANDA","fish":0,"sp.program":null,"longitude":124.587101,"id":"ag4rxa7qul28","province":"BOHOL","sp.sports":0,"shs?1":0,"sp.prog1":0},"type":"Feature","geometry":{"type":"Point","coordinates":[124.587101,9.792331]}},{"properties":{"agri":0,"school name":"Bantolinao National High School","shs?":"NO","tech-voc":"NO","latitude":9.783333,"region":"Region VII","id 2":213,"w.bld":1,"arts&trade":0,"division.2012":"Bohol","sp.prog":"NO","enrtotal":451,"sp.journ":0,"sp.fl":0,"sp.arts":0,"sp.s&t":0,"sch.id":302907,"municipality":"ANTEQUERA","fish":0,"sp.program":null,"longitude":123.900002,"id":"ag4rxa7qx1ev","province":"BOHOL","sp.sports":0,"shs?1":0,"sp.prog1":0},"type":"Feature","geometry":{"type":"Point","coordinates":[123.900002,9.783333]}},{"properties":{"agri":0,"school name":"Biabas Trade High School","shs?":"NO","tech-voc":"NO","latitude":10.056,"region":"Region VII","id 2":256,"w.bld":1,"arts&trade":0,"division.2012":"Bohol","sp.prog":"NO","enrtotal":661,"sp.journ":0,"sp.fl":0,"sp.arts":0,"sp.s&t":0,"sch.id":302816,"municipality":"UBAY","fish":0,"sp.program":null,"longitude":124.473999,"id":"ag4rxa8soq9d","province":"BOHOL","sp.sports":0,"shs?1":0,"sp.prog1":0},"type":"Feature","geometry":{"type":"Point","coordinates":[124.473999,10.056]}},{"properties":{"agri":0,"school name":"Busao NHS","shs?":"NO","tech-voc":"NO","latitude":9.750206,"region":"Region VII","id 2":242,"w.bld":1,"arts&trade":0,"division.2012":"Bohol","sp.prog":"NO","enrtotal":264,"sp.journ":0,"sp.fl":0,"sp.arts":0,"sp.s&t":0,"sch.id":302819,"municipality":"MARIBOJOC","fish":0,"sp.program":null,"longitude":123.901727,"id":"ag4rxaadtxxq","province":"BOHOL","sp.sports":0,"shs?1":0,"sp.prog1":0},"type":"Feature","geometry":{"type":"Point","coordinates":[123.901727,9.750206]}},{"properties":{"agri":0,"school name":"Calape NHS","shs?":"NO","tech-voc":"NO","latitude":9.894585,"region":"Region VII","id 2":220,"w.bld":1,"arts&trade":0,"division.2012":"Bohol","sp.prog":"NO","enrtotal":879,"sp.journ":0,"sp.fl":0,"sp.arts":0,"sp.s&t":0,"sch.id":302883,"municipality":"CALAPE","fish":0,"sp.program":null,"longitude":123.876882,"id":"ag4rxab8dg7q","province":"BOHOL","sp.sports":0,"shs?1":0,"sp.prog1":0},"type":"Feature","geometry":{"type":"Point","coordinates":[123.876882,9.894585]}},{"properties":{"agri":0,"school name":"Cawayanan NHS","shs?":"NO","tech-voc":"NO","latitude":9.919152,"region":"Region VII","id 2":255,"w.bld":1,"arts&trade":0,"division.2012":"Bohol","sp.prog":"NO","enrtotal":408,"sp.journ":0,"sp.fl":0,"sp.arts":0,"sp.s&t":0,"sch.id":302835,"municipality":"TUBIGON","fish":0,"sp.program":null,"longitude":123.997817,"id":"ag4rxab3mcne","province":"BOHOL","sp.sports":0,"shs?1":0,"sp.prog1":0},"type":"Feature","geometry":{"type":"Point","coordinates":[123.997817,9.919152]}},{"properties":{"agri":0,"school name":"Clarin National School of Fisheries","shs?":"NO","tech-voc":"Fisheries","latitude":9.959539,"region":"Region VII","id 2":224,"w.bld":1,"arts&trade":0,"division.2012":"Bohol","sp.prog":"NO","enrtotal":527,"sp.journ":0,"sp.fl":0,"sp.arts":0,"sp.s&t":0,"sch.id":302836,"municipality":"CLARIN","fish":1,"sp.program":null,"longitude":124.027069,"id":"ag4rxa6tk2mk","province":"BOHOL","sp.sports":0,"shs?1":0,"sp.prog1":0},"type":"Feature","geometry":{"type":"Point","coordinates":[124.027069,9.959539]}},{"properties":{"agri":0,"school name":"Cong. Pablo Malasarte NHS","shs?":"NO","tech-voc":"NO","latitude":9.748148,"region":"Region VII","id 2":215,"w.bld":1,"arts&trade":0,"division.2012":"Bohol","sp.prog":"NO","enrtotal":491,"sp.journ":0,"sp.fl":0,"sp.arts":0,"sp.s&t":0,"sch.id":302838,"municipality":"BALILIHAN","fish":0,"sp.program":null,"longitude":123.948696,"id":"ag4rxa2ufkdp","province":"BOHOL","sp.sports":0,"shs?1":0,"sp.prog1":0},"type":"Feature","geometry":{"type":"Point","coordinates":[123.948696,9.748148]}},{"properties":{"agri":0,"school name":"Dauis NHS","shs?":"NO","tech-voc":"NO","latitude":9.614424,"region":"Region VII","id 2":229,"w.bld":1,"arts&trade":0,"division.2012":"Bohol","sp.prog":"NO","enrtotal":321,"sp.journ":0,"sp.fl":0,"sp.arts":0,"sp.s&t":0,"sch.id":312304,"municipality":"DAUIS","fish":0,"sp.program":null,"longitude":123.843918,"id":"ag4rxa8gxad6","province":"BOHOL","sp.sports":0,"shs?1":0,"sp.prog1":0},"type":"Feature","geometry":{"type":"Point","coordinates":[123.843918,9.614424]}},{"properties":{"agri":0,"school name":"Fatima NHS","shs?":"NO","tech-voc":"NO","latitude":9.724,"region":"Region VII","id 2":226,"w.bld":1,"arts&trade":0,"division.2012":"Bohol","sp.prog":"NO","enrtotal":232,"sp.journ":0,"sp.fl":0,"sp.arts":0,"sp.s&t":0,"sch.id":302850,"municipality":"CORTES","fish":0,"sp.program":null,"longitude":123.882004,"id":"ag4rxa92glza","province":"BOHOL","sp.sports":0,"shs?1":0,"sp.prog1":0},"type":"Feature","geometry":{"type":"Point","coordinates":[123.882004,9.724]}},{"properties":{"agri":0,"school name":"Fermin Tayabas NHS","shs?":"NO","tech-voc":"NO","latitude":9.889,"region":"Region VII","id 2":220,"w.bld":1,"arts&trade":0,"division.2012":"Bohol","sp.prog":"NO","enrtotal":217,"sp.journ":0,"sp.fl":0,"sp.arts":0,"sp.s&t":0,"sch.id":302851,"municipality":"CALAPE","fish":0,"sp.program":null,"longitude":123.883003,"id":"ag4rxaa9n0qa","province":"BOHOL","sp.sports":0,"shs?1":0,"sp.prog1":0},"type":"Feature","geometry":{"type":"Point","coordinates":[123.883003,9.889]}},{"properties":{"agri":0,"school name":"Hanopol NHS","shs?":"NO","tech-voc":"NO","latitude":9.754833,"region":"Region VII","id 2":215,"w.bld":1,"arts&trade":0,"division.2012":"Bohol","sp.prog":"NO","enrtotal":361,"sp.journ":0,"sp.fl":0,"sp.arts":0,"sp.s&t":0,"sch.id":302856,"municipality":"BALILIHAN","fish":0,"sp.program":null,"longitude":123.971085,"id":"ag4rxafoaj8w","province":"BOHOL","sp.sports":0,"shs?1":0,"sp.prog1":0},"type":"Feature","geometry":{"type":"Point","coordinates":[123.971085,9.754833]}},{"properties":{"agri":0,"school name":"Hinawanan NHS","shs?":"NO","tech-voc":"NO","latitude":9.60047,"region":"Region VII","id 2":238,"w.bld":1,"arts&trade":0,"division.2012":"Bohol","sp.prog":"NO","enrtotal":307,"sp.journ":0,"sp.fl":0,"sp.arts":0,"sp.s&t":0,"sch.id":302867,"municipality":"LOAY","fish":0,"sp.program":null,"longitude":124.013009,"id":"ag4rxa6nlyet","province":"BOHOL","sp.sports":0,"shs?1":0,"sp.prog1":0},"type":"Feature","geometry":{"type":"Point","coordinates":[124.013009,9.60047]}},{"properties":{"agri":0,"school name":"Hingotanan NHS","shs?":"NO","tech-voc":"NO","latitude":10.240833,"region":"Region VII","id 2":217,"w.bld":1,"arts&trade":0,"division.2012":"Bohol","sp.prog":"NO","enrtotal":524,"sp.journ":0,"sp.fl":0,"sp.arts":0,"sp.s&t":0,"sch.id":302857,"municipality":"BIEN UNIDO","fish":0,"sp.program":null,"longitude":124.486115,"id":"ag4rxa48jq3w","province":"BOHOL","sp.sports":0,"shs?1":0,"sp.prog1":0},"type":"Feature","geometry":{"type":"Point","coordinates":[124.486115,10.240833]}},{"properties":{"agri":0,"school name":"JAPER Memorial High Shoool","shs?":"NO","tech-voc":"NO","latitude":9.646184,"region":"Region VII","id 2":246,"w.bld":1,"arts&trade":0,"division.2012":"Bohol","sp.prog":"NO","enrtotal":423,"sp.journ":0,"sp.fl":0,"sp.arts":0,"sp.s&t":0,"sch.id":312309,"municipality":"SAGBAYAN (BORJA)","fish":0,"sp.program":null,"longitude":123.855461,"id":"ag4rxab9dnp9","province":"BOHOL","sp.sports":0,"shs?1":0,"sp.prog1":0},"type":"Feature","geometry":{"type":"Point","coordinates":[123.855461,9.646184]}},{"properties":{"agri":0,"school name":"Kinan-oan HS","shs?":"NO","tech-voc":"NO","latitude":10.05,"region":"Region VII","id 2":254,"w.bld":1,"arts&trade":0,"division.2012":"Bohol","sp.prog":"NO","enrtotal":297,"sp.journ":0,"sp.fl":0,"sp.arts":0,"sp.s&t":0,"sch.id":312305,"municipality":"TRINIDAD","fish":0,"sp.program":null,"longitude":124.349999,"id":"ag4rxa5apink","province":"BOHOL","sp.sports":0,"shs?1":0,"sp.prog1":0},"type":"Feature","geometry":{"type":"Point","coordinates":[124.349999,10.05]}},{"properties":{"agri":0,"school name":"Lila NHS","shs?":"NO","tech-voc":"NO","latitude":9.600263,"region":"Region VII","id 2":237,"w.bld":1,"arts&trade":0,"division.2012":"Bohol","sp.prog":"NO","enrtotal":723,"sp.journ":0,"sp.fl":0,"sp.arts":0,"sp.s&t":0,"sch.id":302868,"municipality":"LILA","fish":0,"sp.program":null,"longitude":124.099934,"id":"ag4rxaf71t73","province":"BOHOL","sp.sports":0,"shs?1":0,"sp.prog1":0},"type":"Feature","geometry":{"type":"Point","coordinates":[124.099934,9.600263]}},{"properties":{"agri":0,"school name":"Loon South National HS","shs?":"NO","tech-voc":"NO","latitude":9.8,"region":"Region VII","id 2":240,"w.bld":1,"arts&trade":0,"division.2012":"Bohol","sp.prog":"NO","enrtotal":223,"sp.journ":0,"sp.fl":0,"sp.arts":0,"sp.s&t":0,"sch.id":302871,"municipality":"LOON","fish":0,"sp.program":null,"longitude":123.800003,"id":"ag4rx9zzc2rr","province":"BOHOL","sp.sports":0,"shs?1":0,"sp.prog1":0},"type":"Feature","geometry":{"type":"Point","coordinates":[123.800003,9.8]}},{"properties":{"agri":0,"school name":"Lourdes NHS","shs?":"NO","tech-voc":"NO","latitude":9.597354,"region":"Region VII","id 2":243,"w.bld":1,"arts&trade":0,"division.2012":"Bohol","sp.prog":"NO","enrtotal":1427,"sp.journ":0,"sp.fl":0,"sp.arts":0,"sp.s&t":0,"sch.id":302872,"municipality":"PANGLAO","fish":0,"sp.program":null,"longitude":123.797175,"id":"ag4rxa6b1uqv","province":"BOHOL","sp.sports":0,"shs?1":0,"sp.prog1":0},"type":"Feature","geometry":{"type":"Point","coordinates":[123.797175,9.597354]}},{"properties":{"agri":0,"school name":"Nahawan NHS","shs?":"NO","tech-voc":"NO","latitude":9.962,"region":"Region VII","id 2":224,"w.bld":1,"arts&trade":0,"division.2012":"Bohol","sp.prog":"NO","enrtotal":619,"sp.journ":0,"sp.fl":0,"sp.arts":0,"sp.s&t":0,"sch.id":302879,"municipality":"CLARIN","fish":0,"sp.program":null,"longitude":124.024002,"id":"ag4rxa41kw2l","province":"BOHOL","sp.sports":0,"shs?1":0,"sp.prog1":0},"type":"Feature","geometry":{"type":"Point","coordinates":[124.024002,9.962]}},{"properties":{"agri":0,"school name":"Oy NHS","shs?":"NO","tech-voc":"NO","latitude":9.655299,"region":"Region VII","id 2":239,"w.bld":1,"arts&trade":0,"division.2012":"Bohol","sp.prog":"NO","enrtotal":178,"sp.journ":0,"sp.fl":0,"sp.arts":0,"sp.s&t":0,"sch.id":302880,"municipality":"LOBOC","fish":0,"sp.program":null,"longitude":124.002455,"id":"ag4rxa4ep3v6","province":"BOHOL","sp.sports":0,"shs?1":0,"sp.prog1":0},"type":"Feature","geometry":{"type":"Point","coordinates":[124.002455,9.655299]}},{"properties":{"agri":0,"school name":"Pagnito-an NHS","shs?":"NO","tech-voc":"NO","latitude":9.763684,"region":"Region VII","id 2":242,"w.bld":1,"arts&trade":0,"division.2012":"Bohol","sp.prog":"NO","enrtotal":366,"sp.journ":0,"sp.fl":0,"sp.arts":0,"sp.s&t":0,"sch.id":302881,"municipality":"MARIBOJOC","fish":0,"sp.program":null,"longitude":123.849628,"id":"ag4rxa7961zb","province":"BOHOL","sp.sports":0,"shs?1":0,"sp.prog1":0},"type":"Feature","geometry":{"type":"Point","coordinates":[123.849628,9.763684]}},{"properties":{"agri":0,"school name":"Pamilacan HS","shs?":"NO","tech-voc":"NO","latitude":9.626,"region":"Region VII","id 2":214,"w.bld":1,"arts&trade":0,"division.2012":"Bohol","sp.prog":"NO","enrtotal":155,"sp.journ":0,"sp.fl":0,"sp.arts":0,"sp.s&t":0,"sch.id":312317,"municipality":"BACLAYON","fish":0,"sp.program":null,"longitude":123.893997,"id":"ag4rxa1g2pih","province":"BOHOL","sp.sports":0,"shs?1":0,"sp.prog1":0},"type":"Feature","geometry":{"type":"Point","coordinates":[123.893997,9.626]}},{"properties":{"agri":0,"school name":"Pangangan NHS Main","shs?":"NO","tech-voc":"NO","latitude":9.89527,"region":"Region VII","id 2":220,"w.bld":1,"arts&trade":0,"division.2012":"Bohol","sp.prog":"NO","enrtotal":356,"sp.journ":0,"sp.fl":0,"sp.arts":0,"sp.s&t":0,"sch.id":302882,"municipality":"CALAPE","fish":0,"sp.program":null,"longitude":123.825951,"id":"ag4rxaednjjb","province":"BOHOL","sp.sports":0,"shs?1":0,"sp.prog1":0},"type":"Feature","geometry":{"type":"Point","coordinates":[123.825951,9.89527]}},{"properties":{"agri":0,"school name":"Policronio S. Dano, Sr. HS","shs?":"NO","tech-voc":"NO","latitude":9.824,"region":"Region VII","id 2":222,"w.bld":1,"arts&trade":0,"division.2012":"Bohol","sp.prog":"NO","enrtotal":425,"sp.journ":0,"sp.fl":0,"sp.arts":0,"sp.s&t":0,"sch.id":302885,"municipality":"CARMEN","fish":0,"sp.program":null,"longitude":124.197998,"id":"ag4rxa3a5yy6","province":"BOHOL","sp.sports":0,"shs?1":0,"sp.prog1":0},"type":"Feature","geometry":{"type":"Point","coordinates":[124.197998,9.824]}},{"properties":{"agri":0,"school name":"Pres. Carlos P. Garcia MHS","shs?":"NO","tech-voc":"NO","latitude":10.093684,"region":"Region VII","id 2":253,"w.bld":1,"arts&trade":0,"division.2012":"Bohol","sp.prog":"NO","enrtotal":766,"sp.journ":0,"sp.fl":0,"sp.arts":0,"sp.s&t":0,"sch.id":302895,"municipality":"TALIBON","fish":0,"sp.program":null,"longitude":124.31665,"id":"ag4rxa9q9c6f","province":"BOHOL","sp.sports":0,"shs?1":0,"sp.prog1":0},"type":"Feature","geometry":{"type":"Point","coordinates":[124.31665,10.093684]}},{"properties":{"agri":0,"school name":"Pres. Carlos P. Garcia Technical Vocational School of Fisheries and Arts","shs?":"NO","tech-voc":"NO","latitude":10.14924,"region":"Region VII","id 2":217,"w.bld":1,"arts&trade":0,"division.2012":"Bohol","sp.prog":"NO","enrtotal":804,"sp.journ":0,"sp.fl":0,"sp.arts":0,"sp.s&t":0,"sch.id":302886,"municipality":"BIEN UNIDO","fish":0,"sp.program":null,"longitude":124.369526,"id":"ag4rxafq44bi","province":"BOHOL","sp.sports":0,"shs?1":0,"sp.prog1":0},"type":"Feature","geometry":{"type":"Point","coordinates":[124.369526,10.14924]}},{"properties":{"agri":0,"school name":"Quezon HS - Batuan NHS Annex","shs?":"NO","tech-voc":"NO","latitude":9.764339,"region":"Region VII","id 2":216,"w.bld":1,"arts&trade":0,"division.2012":"Bohol","sp.prog":"NO","enrtotal":186,"sp.journ":0,"sp.fl":0,"sp.arts":0,"sp.s&t":0,"sch.id":312314,"municipality":"BATUAN","fish":0,"sp.program":null,"longitude":124.162415,"id":"ag4rx9zrmlr2","province":"BOHOL","sp.sports":0,"shs?1":0,"sp.prog1":0},"type":"Feature","geometry":{"type":"Point","coordinates":[124.162415,9.764339]}},{"properties":{"agri":0,"school name":"Rizal HS","shs?":"NO","tech-voc":"NO","latitude":9.811944,"region":"Region VII","id 2":216,"w.bld":1,"arts&trade":0,"division.2012":"Bohol","sp.prog":"NO","enrtotal":120,"sp.journ":0,"sp.fl":0,"sp.arts":0,"sp.s&t":0,"sch.id":312315,"municipality":"BATUAN","fish":0,"sp.program":null,"longitude":124.144165,"id":"ag4rxa6eqv6v","province":"BOHOL","sp.sports":0,"shs?1":0,"sp.prog1":0},"type":"Feature","geometry":{"type":"Point","coordinates":[124.144165,9.811944]}},{"properties":{"agri":0,"school name":"San Miguel Technical Vocational School","shs?":"NO","tech-voc":"NO","latitude":9.693823,"region":"Region VII","id 2":248,"w.bld":1,"arts&trade":0,"division.2012":"Bohol","sp.prog":"NO","enrtotal":1040,"sp.journ":0,"sp.fl":0,"sp.arts":0,"sp.s&t":0,"sch.id":302897,"municipality":"SAN MIGUEL","fish":0,"sp.program":null,"longitude":123.859059,"id":"ag4rxa9xt7g9","province":"BOHOL","sp.sports":0,"shs?1":0,"sp.prog1":0},"type":"Feature","geometry":{"type":"Point","coordinates":[123.859059,9.693823]}},{"properties":{"agri":0,"school name":"Sebastian A. Jala MHS","shs?":"NO","tech-voc":"NO","latitude":9.999185,"region":"Region VII","id 2":248,"w.bld":1,"arts&trade":0,"division.2012":"Bohol","sp.prog":"NO","enrtotal":184,"sp.journ":0,"sp.fl":0,"sp.arts":0,"sp.s&t":0,"sch.id":312328,"municipality":"SAN MIGUEL","fish":0,"sp.program":null,"longitude":124.308823,"id":"ag4rxa4meza4","province":"BOHOL","sp.sports":0,"shs?1":0,"sp.prog1":0},"type":"Feature","geometry":{"type":"Point","coordinates":[124.308823,9.999185]}},{"properties":{"agri":0,"school name":"Tubigon West Central HS","shs?":"NO","tech-voc":"NO","latitude":9.945946,"region":"Region VII","id 2":255,"w.bld":1,"arts&trade":0,"division.2012":"Bohol","sp.prog":"NO","enrtotal":586,"sp.journ":0,"sp.fl":0,"sp.arts":0,"sp.s&t":0,"sch.id":312333,"municipality":"TUBIGON","fish":0,"sp.program":null,"longitude":123.964126,"id":"ag4rxabo2woc","province":"BOHOL","sp.sports":0,"shs?1":0,"sp.prog1":0},"type":"Feature","geometry":{"type":"Point","coordinates":[123.964126,9.945946]}},{"properties":{"agri":0,"school name":"Tubigon West NHS","shs?":"NO","tech-voc":"NO","latitude":9.924246,"region":"Region VII","id 2":255,"w.bld":1,"arts&trade":0,"division.2012":"Bohol","sp.prog":"NO","enrtotal":1041,"sp.journ":0,"sp.fl":0,"sp.arts":0,"sp.s&t":0,"sch.id":302822,"municipality":"TUBIGON","fish":0,"sp.program":null,"longitude":123.937544,"id":"ag4rxa4mpvzd","province":"BOHOL","sp.sports":0,"shs?1":0,"sp.prog1":0},"type":"Feature","geometry":{"type":"Point","coordinates":[123.937544,9.924246]}},{"properties":{"agri":0,"school name":"Valencia Tech-Voc HS","shs?":"NO","tech-voc":"NO","latitude":9.610179,"region":"Region VII","id 2":257,"w.bld":1,"arts&trade":0,"division.2012":"Bohol","sp.prog":"NO","enrtotal":1552,"sp.journ":0,"sp.fl":0,"sp.arts":0,"sp.s&t":0,"sch.id":302916,"municipality":"VALENCIA","fish":0,"sp.program":null,"longitude":124.211103,"id":"ag4rxa18rglc","province":"BOHOL","sp.sports":0,"shs?1":0,"sp.prog1":0},"type":"Feature","geometry":{"type":"Point","coordinates":[124.211103,9.610179]}},{"properties":{"agri":0,"school name":"Can-asujan NHS","shs?":"NO","tech-voc":"NO","latitude":10.131944,"region":"Region VII","id 2":453,"w.bld":1,"arts&trade":0,"division.2012":"Carcar City","sp.prog":"NO","enrtotal":370,"sp.journ":0,"sp.fl":0,"sp.arts":0,"sp.s&t":0,"sch.id":302970,"municipality":"CITY OF CARCAR","fish":0,"sp.program":null,"longitude":123.664722,"id":"ag4rxa6veolg","province":"CEBU","sp.sports":0,"shs?1":0,"sp.prog1":0},"type":"Feature","geometry":{"type":"Point","coordinates":[123.664722,10.131944]}},{"properties":{"agri":0,"school name":"Maximino Noel Memorial National High School","shs?":"NO","tech-voc":"NO","latitude":10.111667,"region":"Region VII","id 2":453,"w.bld":0,"arts&trade":0,"division.2012":"Carcar City","sp.prog":"NO","enrtotal":867,"sp.journ":0,"sp.fl":0,"sp.arts":0,"sp.s&t":0,"sch.id":303016,"municipality":"CITY OF CARCAR","fish":0,"sp.program":null,"longitude":123.606944,"id":"ag4rxad81wey","province":"CEBU","sp.sports":0,"shs?1":0,"sp.prog1":0},"type":"Feature","geometry":{"type":"Point","coordinates":[123.606944,10.111667]}},{"properties":{"agri":0,"school name":"Ocana National High School (Kalangyawon Extension)","shs?":"NO","tech-voc":"NO","latitude":10.067247,"region":"Region VII","id 2":453,"w.bld":1,"arts&trade":0,"division.2012":"Carcar City","sp.prog":"NO","enrtotal":134,"sp.journ":0,"sp.fl":0,"sp.arts":0,"sp.s&t":0,"sch.id":356059,"municipality":"CITY OF CARCAR","fish":0,"sp.program":null,"longitude":123.627106,"id":"ag4rxa51dhlf","province":"CEBU","sp.sports":0,"shs?1":0,"sp.prog1":0},"type":"Feature","geometry":{"type":"Point","coordinates":[123.627106,10.067247]}},{"properties":{"agri":0,"school name":"Perrelos NHS","shs?":"NO","tech-voc":"NO","latitude":10.113337,"region":"Region VII","id 2":453,"w.bld":1,"arts&trade":0,"division.2012":"Carcar City","sp.prog":"NO","enrtotal":456,"sp.journ":0,"sp.fl":0,"sp.arts":0,"sp.s&t":0,"sch.id":303072,"municipality":"CITY OF CARCAR","fish":0,"sp.program":null,"longitude":123.676308,"id":"ag4rxa5z79k6","province":"CEBU","sp.sports":0,"shs?1":0,"sp.prog1":0},"type":"Feature","geometry":{"type":"Point","coordinates":[123.676308,10.113337]}},{"properties":{"agri":0,"school name":"Alcantara NHS","shs?":"NO","tech-voc":"NO","latitude":9.974531,"region":"Region VII","id 2":440,"w.bld":1,"arts&trade":0,"division.2012":"Cebu","sp.prog":"NO","enrtotal":761,"sp.journ":0,"sp.fl":0,"sp.arts":0,"sp.s&t":0,"sch.id":302922,"municipality":"ALCANTARA","fish":0,"sp.program":null,"longitude":123.404748,"id":"ag4rxa9s2ikx","province":"CEBU","sp.sports":0,"shs?1":0,"sp.prog1":0},"type":"Feature","geometry":{"type":"Point","coordinates":[123.404748,9.974531]}},{"properties":{"agri":0,"school name":"Alcoy NHS","shs?":"NO","tech-voc":"NO","latitude":9.706667,"region":"Region VII","id 2":441,"w.bld":1,"arts&trade":0,"division.2012":"Cebu","sp.prog":"NO","enrtotal":852,"sp.journ":0,"sp.fl":0,"sp.arts":0,"sp.s&t":0,"sch.id":302917,"municipality":"ALCOY","fish":0,"sp.program":null,"longitude":123.51,"id":"ag4rxa0lvwqk","province":"CEBU","sp.sports":0,"shs?1":0,"sp.prog1":0},"type":"Feature","geometry":{"type":"Point","coordinates":[123.51,9.706667]}},{"properties":{"agri":0,"school name":"Aloguinsan NHS","shs?":"NO","tech-voc":"NO","latitude":10.215444,"region":"Region VII","id 2":443,"w.bld":1,"arts&trade":0,"division.2012":"Cebu","sp.prog":"NO","enrtotal":1171,"sp.journ":0,"sp.fl":0,"sp.arts":0,"sp.s&t":0,"sch.id":302919,"municipality":"ALOGUINSAN","fish":0,"sp.program":null,"longitude":123.550933,"id":"ag4rxa9uvzjv","province":"CEBU","sp.sports":0,"shs?1":0,"sp.prog1":0},"type":"Feature","geometry":{"type":"Point","coordinates":[123.550933,10.215444]}},{"properties":{"agri":0,"school name":"Arcelo Memorial National Night High School","shs?":"NO","tech-voc":"NO","latitude":10.397703,"region":"Region VII","id 2":467,"w.bld":1,"arts&trade":0,"division.2012":"Cebu","sp.prog":"NO","enrtotal":240,"sp.journ":0,"sp.fl":0,"sp.arts":0,"sp.s&t":0,"sch.id":312407,"municipality":"LILOAN","fish":0,"sp.program":null,"longitude":123.976918,"id":"ag4rxa16w1uo","province":"CEBU","sp.sports":0,"shs?1":0,"sp.prog1":0},"type":"Feature","geometry":{"type":"Point","coordinates":[123.976918,10.397703]}},{"properties":{"agri":0,"school name":"Argao National High School","shs?":"NO","tech-voc":"NO","latitude":9.885833,"region":"Region VII","id 2":444,"w.bld":1,"arts&trade":0,"division.2012":"Cebu","sp.prog":"NO","enrtotal":1403,"sp.journ":0,"sp.fl":0,"sp.arts":0,"sp.s&t":0,"sch.id":302985,"municipality":"ARGAO","fish":0,"sp.program":null,"longitude":123.5975,"id":"ag4rxaft1oqe","province":"CEBU","sp.sports":0,"shs?1":0,"sp.prog1":0},"type":"Feature","geometry":{"type":"Point","coordinates":[123.5975,9.885833]}},{"properties":{"agri":0,"school name":"Balud NHS","shs?":"NO","tech-voc":"NO","latitude":10.164,"region":"Region VII","id 2":481,"w.bld":1,"arts&trade":0,"division.2012":"Cebu","sp.prog":"NO","enrtotal":538,"sp.journ":0,"sp.fl":0,"sp.arts":0,"sp.s&t":0,"sch.id":312401,"municipality":"SAN FERNANDO","fish":0,"sp.program":null,"longitude":123.706001,"id":"ag4rxaftmist","province":"CEBU","sp.sports":0,"shs?1":0,"sp.prog1":0},"type":"Feature","geometry":{"type":"Point","coordinates":[123.706001,10.164]}},{"properties":{"agri":0,"school name":"Bantayan NHS","shs?":"NO","tech-voc":"NO","latitude":11.173333,"region":"Region VII","id 2":448,"w.bld":1,"arts&trade":0,"division.2012":"Cebu","sp.prog":"NO","enrtotal":2636,"sp.journ":0,"sp.fl":0,"sp.arts":0,"sp.s&t":0,"sch.id":302938,"municipality":"BANTAYAN","fish":0,"sp.program":null,"longitude":123.730833,"id":"ag4rxadj8gl1","province":"CEBU","sp.sports":0,"shs?1":0,"sp.prog1":0},"type":"Feature","geometry":{"type":"Point","coordinates":[123.730833,11.173333]}},{"properties":{"agri":0,"school name":"Bulasa NHS","shs?":"NO","tech-voc":"NO","latitude":9.92676,"region":"Region VII","id 2":444,"w.bld":1,"arts&trade":0,"division.2012":"Cebu","sp.prog":"NO","enrtotal":378,"sp.journ":0,"sp.fl":0,"sp.arts":0,"sp.s&t":0,"sch.id":302953,"municipality":"ARGAO","fish":0,"sp.program":null,"longitude":123.616147,"id":"ag4rxa69iphw","province":"CEBU","sp.sports":0,"shs?1":0,"sp.prog1":0},"type":"Feature","geometry":{"type":"Point","coordinates":[123.616147,9.92676]}},{"properties":{"agri":0,"school name":"Cabangahan NHS","shs?":"NO","tech-voc":"NO","latitude":10.403336,"region":"Region VII","id 2":458,"w.bld":1,"arts&trade":0,"division.2012":"Cebu","sp.prog":"NO","enrtotal":252,"sp.journ":0,"sp.fl":0,"sp.arts":0,"sp.s&t":0,"sch.id":302954,"municipality":"CONSOLACION","fish":0,"sp.program":null,"longitude":123.924044,"id":"ag4rxa9p0m1f","province":"CEBU","sp.sports":0,"shs?1":0,"sp.prog1":0},"type":"Feature","geometry":{"type":"Point","coordinates":[123.924044,10.403336]}},{"properties":{"agri":0,"school name":"Cabonga-an NHS","shs?":"NO","tech-voc":"NO","latitude":10.638333,"region":"Region VII","id 2":482,"w.bld":1,"arts&trade":0,"division.2012":"Cebu","sp.prog":"NO","enrtotal":849,"sp.journ":0,"sp.fl":0,"sp.arts":0,"sp.s&t":0,"sch.id":302968,"municipality":"SAN FRANCISCO","fish":0,"sp.program":null,"longitude":124.375,"id":"ag4rxactomgp","province":"CEBU","sp.sports":0,"shs?1":0,"sp.prog1":0},"type":"Feature","geometry":{"type":"Point","coordinates":[124.375,10.638333]}},{"properties":{"agri":0,"school name":"Calape NHS","shs?":"NO","tech-voc":"NO","latitude":11.175576,"region":"Region VII","id 2":460,"w.bld":1,"arts&trade":0,"division.2012":"Cebu","sp.prog":"NO","enrtotal":759,"sp.journ":0,"sp.fl":0,"sp.arts":0,"sp.s&t":0,"sch.id":302961,"municipality":"DAANBANTAYAN","fish":0,"sp.program":null,"longitude":124.029105,"id":"ag4rxablipd3","province":"CEBU","sp.sports":0,"shs?1":0,"sp.prog1":0},"type":"Feature","geometry":{"type":"Point","coordinates":[124.029105,11.175576]}},{"properties":{"agri":0,"school name":"Calumboyan NHS","shs?":"NO","tech-voc":"NO","latitude":10.78946,"region":"Region VII","id 2":487,"w.bld":1,"arts&trade":0,"division.2012":"Cebu","sp.prog":"NO","enrtotal":463,"sp.journ":0,"sp.fl":0,"sp.arts":0,"sp.s&t":0,"sch.id":302966,"municipality":"SOGOD","fish":0,"sp.program":null,"longitude":124.025154,"id":"ag4rxa92or2v","province":"CEBU","sp.sports":0,"shs?1":0,"sp.prog1":0},"type":"Feature","geometry":{"type":"Point","coordinates":[124.025154,10.78946]}},{"properties":{"agri":0,"school name":"Camotes NHS","shs?":"NO","tech-voc":"NO","latitude":10.638539,"region":"Region VII","id 2":482,"w.bld":1,"arts&trade":0,"division.2012":"Cebu","sp.prog":"NO","enrtotal":971,"sp.journ":0,"sp.fl":0,"sp.arts":0,"sp.s&t":0,"sch.id":302967,"municipality":"SAN FRANCISCO","fish":0,"sp.program":null,"longitude":124.375067,"id":"ag4rxacwp8be","province":"CEBU","sp.sports":0,"shs?1":0,"sp.prog1":0},"type":"Feature","geometry":{"type":"Point","coordinates":[124.375067,10.638539]}},{"properties":{"agri":0,"school name":"Cansuje National High School - Usmad Ext.","shs?":"NO","tech-voc":"NO","latitude":9.883771,"region":"Region VII","id 2":444,"w.bld":1,"arts&trade":0,"division.2012":"Cebu","sp.prog":"NO","enrtotal":219,"sp.journ":0,"sp.fl":0,"sp.arts":0,"sp.s&t":0,"sch.id":303125,"municipality":"ARGAO","fish":0,"sp.program":null,"longitude":123.606861,"id":"ag4rxabf3lkk","province":"CEBU","sp.sports":0,"shs?1":0,"sp.prog1":0},"type":"Feature","geometry":{"type":"Point","coordinates":[123.606861,9.883771]}},{"properties":{"agri":0,"school name":"Carmen NHS-Day","shs?":"NO","tech-voc":"NO","latitude":10.594998,"region":"Region VII","id 2":454,"w.bld":1,"arts&trade":0,"division.2012":"Cebu","sp.prog":"NO","enrtotal":2568,"sp.journ":0,"sp.fl":0,"sp.arts":0,"sp.s&t":0,"sch.id":302973,"municipality":"CARMEN","fish":0,"sp.program":null,"longitude":124.018414,"id":"ag4rxaaos47u","province":"CEBU","sp.sports":0,"shs?1":0,"sp.prog1":0},"type":"Feature","geometry":{"type":"Point","coordinates":[124.018414,10.594998]}},{"properties":{"agri":0,"school name":"Carnaza NHS","shs?":"NO","tech-voc":"NO","latitude":11.512382,"region":"Region VII","id 2":460,"w.bld":1,"arts&trade":0,"division.2012":"Cebu","sp.prog":"NO","enrtotal":209,"sp.journ":0,"sp.fl":0,"sp.arts":0,"sp.s&t":0,"sch.id":302976,"municipality":"DAANBANTAYAN","fish":0,"sp.program":null,"longitude":124.100326,"id":"ag4rxa7kobow","province":"CEBU","sp.sports":0,"shs?1":0,"sp.prog1":0},"type":"Feature","geometry":{"type":"Point","coordinates":[124.100326,11.512382]}},{"properties":{"agri":0,"school name":"Caurasan NHS","shs?":"NO","tech-voc":"NO","latitude":10.593,"region":"Region VII","id 2":454,"w.bld":1,"arts&trade":0,"division.2012":"Cebu","sp.prog":"NO","enrtotal":109,"sp.journ":0,"sp.fl":0,"sp.arts":0,"sp.s&t":0,"sch.id":312416,"municipality":"CARMEN","fish":0,"sp.program":null,"longitude":124.017998,"id":"ag4rxa2z0mw9","province":"CEBU","sp.sports":0,"shs?1":0,"sp.prog1":0},"type":"Feature","geometry":{"type":"Point","coordinates":[124.017998,10.593]}},{"properties":{"agri":0,"school name":"Cawayan NHS","shs?":"NO","tech-voc":"NO","latitude":9.766811,"region":"Region VII","id 2":461,"w.bld":1,"arts&trade":0,"division.2012":"Cebu","sp.prog":"NO","enrtotal":352,"sp.journ":0,"sp.fl":0,"sp.arts":0,"sp.s&t":0,"sch.id":302981,"municipality":"DALAGUETE","fish":0,"sp.program":null,"longitude":123.53332,"id":"ag4rxa2707jj","province":"CEBU","sp.sports":0,"shs?1":0,"sp.prog1":0},"type":"Feature","geometry":{"type":"Point","coordinates":[123.53332,9.766811]}},{"properties":{"agri":0,"school name":"Colonia NHS","shs?":"NO","tech-voc":"NO","latitude":10.728299,"region":"Region VII","id 2":492,"w.bld":1,"arts&trade":0,"division.2012":"Cebu","sp.prog":"NO","enrtotal":522,"sp.journ":0,"sp.fl":0,"sp.arts":0,"sp.s&t":0,"sch.id":302987,"municipality":"TUBURAN","fish":0,"sp.program":null,"longitude":123.825952,"id":"ag4rxa4mplgu","province":"CEBU","sp.sports":0,"shs?1":0,"sp.prog1":0},"type":"Feature","geometry":{"type":"Point","coordinates":[123.825952,10.728299]}},{"properties":{"agri":0,"school name":"Compostela Mational High School","shs?":"NO","tech-voc":"NO","latitude":10.45603,"region":"Region VII","id 2":457,"w.bld":1,"arts&trade":0,"division.2012":"Cebu","sp.prog":"NO","enrtotal":2373,"sp.journ":0,"sp.fl":0,"sp.arts":0,"sp.s&t":0,"sch.id":303063,"municipality":"COMPOSTELA","fish":0,"sp.program":null,"longitude":124.01151,"id":"ag4rxa5m66xn","province":"CEBU","sp.sports":0,"shs?1":0,"sp.prog1":0},"type":"Feature","geometry":{"type":"Point","coordinates":[124.01151,10.45603]}},{"properties":{"agri":0,"school name":"Compostela Science &amp; Technology High School","shs?":"YES","tech-voc":"NO","latitude":10.460451,"region":"Region VII","id 2":457,"w.bld":1,"arts&trade":0,"division.2012":"Cebu","sp.prog":"NO","enrtotal":282,"sp.journ":0,"sp.fl":0,"sp.arts":0,"sp.s&t":0,"sch.id":312406,"municipality":"COMPOSTELA","fish":0,"sp.program":null,"longitude":124.006673,"id":"ag4rx9zyjepv","province":"CEBU","sp.sports":0,"shs?1":1,"sp.prog1":0},"type":"Feature","geometry":{"type":"Point","coordinates":[124.006673,10.460451]}},{"properties":{"agri":0,"school name":"Consolacion NHS - Day Class","shs?":"NO","tech-voc":"Arts and Trade","latitude":10.376599,"region":"Region VII","id 2":458,"w.bld":0,"arts&trade":1,"division.2012":"Cebu","sp.prog":"YES","enrtotal":2503,"sp.journ":0,"sp.fl":0,"sp.arts":0,"sp.s&t":1,"sch.id":302988,"municipality":"CONSOLACION","fish":0,"sp.program":"Sci &amp; Tech","longitude":123.957313,"id":"ag4rxa1lcw1g","province":"CEBU","sp.sports":0,"shs?1":0,"sp.prog1":1},"type":"Feature","geometry":{"type":"Point","coordinates":[123.957313,10.376599]}},{"properties":{"agri":0,"school name":"Cordova NHS","shs?":"NO","tech-voc":"NO","latitude":10.254722,"region":"Region VII","id 2":459,"w.bld":1,"arts&trade":0,"division.2012":"Cebu","sp.prog":"NO","enrtotal":1048,"sp.journ":0,"sp.fl":0,"sp.arts":0,"sp.s&t":0,"sch.id":302955,"municipality":"CORDOBA","fish":0,"sp.program":null,"longitude":123.944167,"id":"ag4rxa0fp6x7","province":"CEBU","sp.sports":0,"shs?1":0,"sp.prog1":0},"type":"Feature","geometry":{"type":"Point","coordinates":[123.944167,10.254722]}},{"properties":{"agri":0,"school name":"Daantabogon NHS","shs?":"NO","tech-voc":"NO","latitude":10.912544,"region":"Region VII","id 2":488,"w.bld":1,"arts&trade":0,"division.2012":"Cebu","sp.prog":"NO","enrtotal":159,"sp.journ":0,"sp.fl":0,"sp.arts":0,"sp.s&t":0,"sch.id":312408,"municipality":"TABOGON","fish":0,"sp.program":null,"longitude":124.035017,"id":"ag4rxa9rjt3u","province":"CEBU","sp.sports":0,"shs?1":0,"sp.prog1":0},"type":"Feature","geometry":{"type":"Point","coordinates":[124.035017,10.912544]}},{"properties":{"agri":0,"school name":"Dalaguete NHS","shs?":"NO","tech-voc":"NO","latitude":9.758056,"region":"Region VII","id 2":461,"w.bld":1,"arts&trade":0,"division.2012":"Cebu","sp.prog":"NO","enrtotal":2166,"sp.journ":0,"sp.fl":0,"sp.arts":0,"sp.s&t":0,"sch.id":302997,"municipality":"DALAGUETE","fish":0,"sp.program":null,"longitude":123.528611,"id":"ag4rxa2nst7w","province":"CEBU","sp.sports":0,"shs?1":0,"sp.prog1":0},"type":"Feature","geometry":{"type":"Point","coordinates":[123.528611,9.758056]}},{"properties":{"agri":0,"school name":"Dapdap NHS, San Remigio","shs?":"NO","tech-voc":"NO","latitude":11.03382,"region":"Region VII","id 2":483,"w.bld":1,"arts&trade":0,"division.2012":"Cebu","sp.prog":"NO","enrtotal":345,"sp.journ":0,"sp.fl":0,"sp.arts":0,"sp.s&t":0,"sch.id":303001,"municipality":"SAN REMIGIO","fish":0,"sp.program":null,"longitude":123.93066,"id":"ag4rxa5jsg6g","province":"CEBU","sp.sports":0,"shs?1":0,"sp.prog1":0},"type":"Feature","geometry":{"type":"Point","coordinates":[123.93066,11.03382]}},{"properties":{"agri":0,"school name":"Doong NHS","shs?":"NO","tech-voc":"NO","latitude":11.078006,"region":"Region VII","id 2":448,"w.bld":1,"arts&trade":0,"division.2012":"Cebu","sp.prog":"NO","enrtotal":732,"sp.journ":0,"sp.fl":0,"sp.arts":0,"sp.s&t":0,"sch.id":303007,"municipality":"BANTAYAN","fish":0,"sp.program":null,"longitude":123.642753,"id":"ag4rxadw7ryp","province":"CEBU","sp.sports":0,"shs?1":0,"sp.prog1":0},"type":"Feature","geometry":{"type":"Point","coordinates":[123.642753,11.078006]}},{"properties":{"agri":0,"school name":"Garing NHS","shs?":"NO","tech-voc":"NO","latitude":10.419601,"region":"Region VII","id 2":458,"w.bld":1,"arts&trade":0,"division.2012":"Cebu","sp.prog":"NO","enrtotal":255,"sp.journ":0,"sp.fl":0,"sp.arts":0,"sp.s&t":0,"sch.id":303010,"municipality":"CONSOLACION","fish":0,"sp.program":null,"longitude":123.943849,"id":"ag4rxa7nskc1","province":"CEBU","sp.sports":0,"shs?1":0,"sp.prog1":0},"type":"Feature","geometry":{"type":"Point","coordinates":[123.943849,10.419601]}},{"properties":{"agri":0,"school name":"Hilantagaan NHS Ext.","shs?":"NO","tech-voc":"NO","latitude":11.201829,"region":"Region VII","id 2":484,"w.bld":1,"arts&trade":0,"division.2012":"Cebu","sp.prog":"NO","enrtotal":338,"sp.journ":0,"sp.fl":0,"sp.arts":0,"sp.s&t":0,"sch.id":312420,"municipality":"SANTA FE","fish":0,"sp.program":null,"longitude":123.821589,"id":"ag4rxa5283u1","province":"CEBU","sp.sports":0,"shs?1":0,"sp.prog1":0},"type":"Feature","geometry":{"type":"Point","coordinates":[123.821589,11.201829]}},{"properties":{"agri":0,"school name":"Hipolito Boquecosa MNHS","shs?":"NO","tech-voc":"NO","latitude":10.057122,"region":"Region VII","id 2":464,"w.bld":1,"arts&trade":0,"division.2012":"Cebu","sp.prog":"NO","enrtotal":192,"sp.journ":0,"sp.fl":0,"sp.arts":0,"sp.s&t":0,"sch.id":312403,"municipality":"DUMANJUG","fish":0,"sp.program":null,"longitude":123.437155,"id":"ag4rxa5pwrgq","province":"CEBU","sp.sports":0,"shs?1":0,"sp.prog1":0},"type":"Feature","geometry":{"type":"Point","coordinates":[123.437155,10.057122]}},{"properties":{"agri":0,"school name":"Jose Chona Jo National High School","shs?":"NO","tech-voc":"NO","latitude":10.494732,"region":"Region VII","id 2":447,"w.bld":1,"arts&trade":0,"division.2012":"Cebu","sp.prog":"NO","enrtotal":780,"sp.journ":0,"sp.fl":0,"sp.arts":0,"sp.s&t":0,"sch.id":312404,"municipality":"BALAMBAN","fish":0,"sp.program":null,"longitude":123.721029,"id":"ag4rxabbmvvc","province":"CEBU","sp.sports":0,"shs?1":0,"sp.prog1":0},"type":"Feature","geometry":{"type":"Point","coordinates":[123.721029,10.494732]}},{"properties":{"agri":0,"school name":"Jose R. Martinez","shs?":"NO","tech-voc":"NO","latitude":11.081,"region":"Region VII","id 2":483,"w.bld":1,"arts&trade":0,"division.2012":"Cebu","sp.prog":"NO","enrtotal":170,"sp.journ":0,"sp.fl":0,"sp.arts":0,"sp.s&t":0,"sch.id":303021,"municipality":"SAN REMIGIO","fish":0,"sp.program":null,"longitude":123.938,"id":"ag4rxacdzqpj","province":"CEBU","sp.sports":0,"shs?1":0,"sp.prog1":0},"type":"Feature","geometry":{"type":"Point","coordinates":[123.938,11.081]}},{"properties":{"agri":0,"school name":"Jugan NHS","shs?":"NO","tech-voc":"NO","latitude":10.376866,"region":"Region VII","id 2":458,"w.bld":1,"arts&trade":0,"division.2012":"Cebu","sp.prog":"NO","enrtotal":700,"sp.journ":0,"sp.fl":0,"sp.arts":0,"sp.s&t":0,"sch.id":302990,"municipality":"CONSOLACION","fish":0,"sp.program":null,"longitude":123.95686,"id":"ag4rxa5h30se","province":"CEBU","sp.sports":0,"shs?1":0,"sp.prog1":0},"type":"Feature","geometry":{"type":"Point","coordinates":[123.95686,10.376866]}},{"properties":{"agri":0,"school name":"Kal-anan NHS","shs?":"NO","tech-voc":"NO","latitude":10.937117,"region":"Region VII","id 2":488,"w.bld":1,"arts&trade":0,"division.2012":"Cebu","sp.prog":"NO","enrtotal":404,"sp.journ":0,"sp.fl":0,"sp.arts":0,"sp.s&t":0,"sch.id":303023,"municipality":"TABOGON","fish":0,"sp.program":null,"longitude":124.009658,"id":"ag4rxa8ly6yb","province":"CEBU","sp.sports":0,"shs?1":0,"sp.prog1":0},"type":"Feature","geometry":{"type":"Point","coordinates":[124.009658,10.937117]}},{"properties":{"agri":0,"school name":"Kawit NHS","shs?":"NO","tech-voc":"NO","latitude":11.178931,"region":"Region VII","id 2":471,"w.bld":1,"arts&trade":0,"division.2012":"Cebu","sp.prog":"NO","enrtotal":873,"sp.journ":0,"sp.fl":0,"sp.arts":0,"sp.s&t":0,"sch.id":303024,"municipality":"MEDELLIN","fish":0,"sp.program":null,"longitude":123.953751,"id":"ag4rxa4zyjwk","province":"CEBU","sp.sports":0,"shs?1":0,"sp.prog1":0},"type":"Feature","geometry":{"type":"Point","coordinates":[123.953751,11.178931]}},{"properties":{"agri":0,"school name":"Kinartacan NHS","shs?":"NO","tech-voc":"NO","latitude":11.154295,"region":"Region VII","id 2":484,"w.bld":1,"arts&trade":0,"division.2012":"Cebu","sp.prog":"NO","enrtotal":623,"sp.journ":0,"sp.fl":0,"sp.arts":0,"sp.s&t":0,"sch.id":303028,"municipality":"SANTA FE","fish":0,"sp.program":null,"longitude":123.807992,"id":"ag4rxa0h85b7","province":"CEBU","sp.sports":0,"shs?1":0,"sp.prog1":0},"type":"Feature","geometry":{"type":"Point","coordinates":[123.807992,11.154295]}},{"properties":{"agri":0,"school name":"Lanao NHS, Pilar","shs?":"NO","tech-voc":"NO","latitude":10.758889,"region":"Region VII","id 2":476,"w.bld":1,"arts&trade":0,"division.2012":"Cebu","sp.prog":"NO","enrtotal":310,"sp.journ":0,"sp.fl":0,"sp.arts":0,"sp.s&t":0,"sch.id":303031,"municipality":"PILAR","fish":0,"sp.program":null,"longitude":124.5025,"id":"ag4rxaffw7io","province":"CEBU","sp.sports":0,"shs?1":0,"sp.prog1":0},"type":"Feature","geometry":{"type":"Point","coordinates":[124.5025,10.758889]}},{"properties":{"agri":0,"school name":"Liloan NHS","shs?":"NO","tech-voc":"NO","latitude":10.398099,"region":"Region VII","id 2":467,"w.bld":0,"arts&trade":0,"division.2012":"Cebu","sp.prog":"NO","enrtotal":2116,"sp.journ":0,"sp.fl":0,"sp.arts":0,"sp.s&t":0,"sch.id":303092,"municipality":"LILOAN","fish":0,"sp.program":null,"longitude":124.000691,"id":"ag4rxa3csm9k","province":"CEBU","sp.sports":0,"shs?1":0,"sp.prog1":0},"type":"Feature","geometry":{"type":"Point","coordinates":[124.000691,10.398099]}},{"properties":{"agri":0,"school name":"Lipata NHS","shs?":"NO","tech-voc":"NO","latitude":10.255554,"region":"Region VII","id 2":472,"w.bld":1,"arts&trade":0,"division.2012":"Cebu","sp.prog":"NO","enrtotal":1177,"sp.journ":0,"sp.fl":0,"sp.arts":0,"sp.s&t":0,"sch.id":303042,"municipality":"MINGLANILLA","fish":0,"sp.program":null,"longitude":123.809885,"id":"ag4rxaf8flx3","province":"CEBU","sp.sports":0,"shs?1":0,"sp.prog1":0},"type":"Feature","geometry":{"type":"Point","coordinates":[123.809885,10.255554]}},{"properties":{"agri":0,"school name":"Looc Norte NHS","shs?":"NO","tech-voc":"NO","latitude":10.572882,"region":"Region VII","id 2":445,"w.bld":1,"arts&trade":0,"division.2012":"Cebu","sp.prog":"NO","enrtotal":863,"sp.journ":0,"sp.fl":0,"sp.arts":0,"sp.s&t":0,"sch.id":303044,"municipality":"ASTURIAS","fish":0,"sp.program":null,"longitude":123.72811,"id":"ag4rxaf0vdxt","province":"CEBU","sp.sports":0,"shs?1":0,"sp.prog1":0},"type":"Feature","geometry":{"type":"Point","coordinates":[123.72811,10.572882]}},{"properties":{"agri":0,"school name":"Lorenzo C. Tanza Memorial National High School","shs?":"NO","tech-voc":"NO","latitude":10.670278,"region":"Region VII","id 2":482,"w.bld":1,"arts&trade":0,"division.2012":"Cebu","sp.prog":"NO","enrtotal":790,"sp.journ":0,"sp.fl":0,"sp.arts":0,"sp.s&t":0,"sch.id":303122,"municipality":"SAN FRANCISCO","fish":0,"sp.program":null,"longitude":124.326667,"id":"ag4rxa8cqdwn","province":"CEBU","sp.sports":0,"shs?1":0,"sp.prog1":0},"type":"Feature","geometry":{"type":"Point","coordinates":[124.326667,10.670278]}},{"properties":{"agri":0,"school name":"Lunop NHS","shs?":"NO","tech-voc":"NO","latitude":9.628544,"region":"Region VII","id 2":451,"w.bld":1,"arts&trade":0,"division.2012":"Cebu","sp.prog":"NO","enrtotal":196,"sp.journ":0,"sp.fl":0,"sp.arts":0,"sp.s&t":0,"sch.id":302944,"municipality":"BOLJOON","fish":0,"sp.program":null,"longitude":123.426971,"id":"ag4rxa0xn161","province":"CEBU","sp.sports":0,"shs?1":0,"sp.prog1":0},"type":"Feature","geometry":{"type":"Point","coordinates":[123.426971,9.628544]}},{"properties":{"agri":0,"school name":"Madridejos NHS","shs?":"NO","tech-voc":"NO","latitude":11.266666,"region":"Region VII","id 2":468,"w.bld":1,"arts&trade":0,"division.2012":"Cebu","sp.prog":"NO","enrtotal":2582,"sp.journ":0,"sp.fl":0,"sp.arts":0,"sp.s&t":0,"sch.id":303047,"municipality":"MADRIDEJOS","fish":0,"sp.program":null,"longitude":123.73333,"id":"ag4rxa5hw6ol","province":"CEBU","sp.sports":0,"shs?1":0,"sp.prog1":0},"type":"Feature","geometry":{"type":"Point","coordinates":[123.73333,11.266666]}},{"properties":{"agri":0,"school name":"Madridejos NHS (Alegria)","shs?":"NO","tech-voc":"NO","latitude":9.788327,"region":"Region VII","id 2":442,"w.bld":1,"arts&trade":0,"division.2012":"Cebu","sp.prog":"NO","enrtotal":488,"sp.journ":0,"sp.fl":0,"sp.arts":0,"sp.s&t":0,"sch.id":303096,"municipality":"ALEGRIA","fish":0,"sp.program":null,"longitude":123.349733,"id":"ag4rxafdgbm9","province":"CEBU","sp.sports":0,"shs?1":0,"sp.prog1":0},"type":"Feature","geometry":{"type":"Point","coordinates":[123.349733,9.788327]}},{"properties":{"agri":0,"school name":"Manlapay National High School","shs?":"NO","tech-voc":"NO","latitude":9.872546,"region":"Region VII","id 2":461,"w.bld":1,"arts&trade":0,"division.2012":"Cebu","sp.prog":"NO","enrtotal":361,"sp.journ":0,"sp.fl":0,"sp.arts":0,"sp.s&t":0,"sch.id":302999,"municipality":"DALAGUETE","fish":0,"sp.program":null,"longitude":123.475586,"id":"ag4rxa9ljw4e","province":"CEBU","sp.sports":0,"shs?1":0,"sp.prog1":0},"type":"Feature","geometry":{"type":"Point","coordinates":[123.475586,9.872546]}},{"properties":{"agri":0,"school name":"Mantalongon NHS","shs?":"NO","tech-voc":"NO","latitude":9.813468,"region":"Region VII","id 2":461,"w.bld":0,"arts&trade":0,"division.2012":"Cebu","sp.prog":"NO","enrtotal":1378,"sp.journ":0,"sp.fl":0,"sp.arts":0,"sp.s&t":0,"sch.id":303000,"municipality":"DALAGUETE","fish":0,"sp.program":null,"longitude":123.462438,"id":"ag4rxa992ww9","province":"CEBU","sp.sports":0,"shs?1":0,"sp.prog1":0},"type":"Feature","geometry":{"type":"Point","coordinates":[123.462438,9.813468]}},{"properties":{"agri":0,"school name":"Medellin National High School","shs?":"NO","tech-voc":"NO","latitude":11.137203,"region":"Region VII","id 2":471,"w.bld":1,"arts&trade":0,"division.2012":"Cebu","sp.prog":"NO","enrtotal":778,"sp.journ":0,"sp.fl":0,"sp.arts":0,"sp.s&t":0,"sch.id":303054,"municipality":"MEDELLIN","fish":0,"sp.program":null,"longitude":123.959936,"id":"ag4rxa7mcq5f","province":"CEBU","sp.sports":0,"shs?1":0,"sp.prog1":0},"type":"Feature","geometry":{"type":"Point","coordinates":[123.959936,11.137203]}},{"properties":{"agri":0,"school name":"Minglanilla Science HS","shs?":"YES","tech-voc":"NO","latitude":10.244528,"region":"Region VII","id 2":472,"w.bld":1,"arts&trade":0,"division.2012":"Cebu","sp.prog":"YES","enrtotal":358,"sp.journ":0,"sp.fl":0,"sp.arts":0,"sp.s&t":1,"sch.id":303055,"municipality":"MINGLANILLA","fish":0,"sp.program":"Sci &amp; Tech","longitude":123.798543,"id":"ag4rxa2rasax","province":"CEBU","sp.sports":0,"shs?1":1,"sp.prog1":1},"type":"Feature","geometry":{"type":"Point","coordinates":[123.798543,10.244528]}},{"properties":{"agri":0,"school name":"Moalboal NHS","shs?":"NO","tech-voc":"NO","latitude":9.95,"region":"Region VII","id 2":473,"w.bld":1,"arts&trade":0,"division.2012":"Cebu","sp.prog":"NO","enrtotal":755,"sp.journ":0,"sp.fl":0,"sp.arts":0,"sp.s&t":0,"sch.id":302927,"municipality":"MOALBOAL","fish":0,"sp.program":null,"longitude":123.400002,"id":"ag4rxa6xx0mn","province":"CEBU","sp.sports":0,"shs?1":0,"sp.prog1":0},"type":"Feature","geometry":{"type":"Point","coordinates":[123.400002,9.95]}},{"properties":{"agri":0,"school name":"Montealegre NHS","shs?":"NO","tech-voc":"NO","latitude":10.712647,"region":"Region VII","id 2":492,"w.bld":1,"arts&trade":0,"division.2012":"Cebu","sp.prog":"NO","enrtotal":312,"sp.journ":0,"sp.fl":0,"sp.arts":0,"sp.s&t":0,"sch.id":303059,"municipality":"TUBURAN","fish":0,"sp.program":null,"longitude":123.898401,"id":"ag4rxac9zkpe","province":"CEBU","sp.sports":0,"shs?1":0,"sp.prog1":0},"type":"Feature","geometry":{"type":"Point","coordinates":[123.898401,10.712647]}},{"properties":{"agri":0,"school name":"Mulao NHS","shs?":"NO","tech-voc":"NO","latitude":10.459794,"region":"Region VII","id 2":457,"w.bld":1,"arts&trade":0,"division.2012":"Cebu","sp.prog":"NO","enrtotal":515,"sp.journ":0,"sp.fl":0,"sp.arts":0,"sp.s&t":0,"sch.id":303062,"municipality":"COMPOSTELA","fish":0,"sp.program":null,"longitude":124.011223,"id":"ag4rx9zhwyfw","province":"CEBU","sp.sports":0,"shs?1":0,"sp.prog1":0},"type":"Feature","geometry":{"type":"Point","coordinates":[124.011223,10.459794]}},{"properties":{"agri":0,"school name":"Nug-as NHS","shs?":"NO","tech-voc":"NO","latitude":9.716365,"region":"Region VII","id 2":441,"w.bld":1,"arts&trade":0,"division.2012":"Cebu","sp.prog":"NO","enrtotal":331,"sp.journ":0,"sp.fl":0,"sp.arts":0,"sp.s&t":0,"sch.id":302918,"municipality":"ALCOY","fish":0,"sp.program":null,"longitude":123.432632,"id":"ag4rxa470mh7","province":"CEBU","sp.sports":0,"shs?1":0,"sp.prog1":0},"type":"Feature","geometry":{"type":"Point","coordinates":[123.432632,9.716365]}},{"properties":{"agri":0,"school name":"Oslob NHS","shs?":"NO","tech-voc":"NO","latitude":9.525748,"region":"Region VII","id 2":475,"w.bld":1,"arts&trade":0,"division.2012":"Cebu","sp.prog":"NO","enrtotal":946,"sp.journ":0,"sp.fl":0,"sp.arts":0,"sp.s&t":0,"sch.id":303099,"municipality":"OSLOB","fish":0,"sp.program":null,"longitude":123.435932,"id":"ag4rx9zfhxih","province":"CEBU","sp.sports":0,"shs?1":0,"sp.prog1":0},"type":"Feature","geometry":{"type":"Point","coordinates":[123.435932,9.525748]}},{"properties":{"agri":0,"school name":"Pilar NHS","shs?":"NO","tech-voc":"NO","latitude":10.803333,"region":"Region VII","id 2":476,"w.bld":1,"arts&trade":0,"division.2012":"Cebu","sp.prog":"NO","enrtotal":333,"sp.journ":0,"sp.fl":0,"sp.arts":0,"sp.s&t":0,"sch.id":303073,"municipality":"PILAR","fish":0,"sp.program":null,"longitude":124.555833,"id":"ag4rxadpabuo","province":"CEBU","sp.sports":0,"shs?1":0,"sp.prog1":0},"type":"Feature","geometry":{"type":"Point","coordinates":[124.555833,10.803333]}},{"properties":{"agri":0,"school name":"Pulpogan NHS","shs?":"NO","tech-voc":"NO","latitude":10.3875,"region":"Region VII","id 2":458,"w.bld":0,"arts&trade":0,"division.2012":"Cebu","sp.prog":"NO","enrtotal":658,"sp.journ":0,"sp.fl":0,"sp.arts":0,"sp.s&t":0,"sch.id":302991,"municipality":"CONSOLACION","fish":0,"sp.program":null,"longitude":123.955556,"id":"ag4rxa7t4a3u","province":"CEBU","sp.sports":0,"shs?1":0,"sp.prog1":0},"type":"Feature","geometry":{"type":"Point","coordinates":[123.955556,10.3875]}},{"properties":{"agri":0,"school name":"Ronda NHS- Langin NHS Ext.","shs?":"NO","tech-voc":"NO","latitude":9.998056,"region":"Region VII","id 2":479,"w.bld":1,"arts&trade":0,"division.2012":"Cebu","sp.prog":"NO","enrtotal":719,"sp.journ":0,"sp.fl":0,"sp.arts":0,"sp.s&t":0,"sch.id":303034,"municipality":"RONDA","fish":0,"sp.program":null,"longitude":123.407557,"id":"ag4rxa96wf8n","province":"CEBU","sp.sports":0,"shs?1":0,"sp.prog1":0},"type":"Feature","geometry":{"type":"Point","coordinates":[123.407557,9.998056]}},{"properties":{"agri":0,"school name":"San Remegio NHS","shs?":"NO","tech-voc":"NO","latitude":11.080699,"region":"Region VII","id 2":483,"w.bld":0,"arts&trade":0,"division.2012":"Cebu","sp.prog":"YES","enrtotal":1811,"sp.journ":0,"sp.fl":0,"sp.arts":0,"sp.s&t":1,"sch.id":303087,"municipality":"SAN REMIGIO","fish":0,"sp.program":"Sci &amp; Tech","longitude":123.938938,"id":"ag4rxa37ya4u","province":"CEBU","sp.sports":0,"shs?1":0,"sp.prog1":1},"type":"Feature","geometry":{"type":"Point","coordinates":[123.938938,11.080699]}},{"properties":{"agri":0,"school name":"Sangat NHS","shs?":"NO","tech-voc":"NO","latitude":10.13357,"region":"Region VII","id 2":481,"w.bld":1,"arts&trade":0,"division.2012":"Cebu","sp.prog":"NO","enrtotal":1138,"sp.journ":0,"sp.fl":0,"sp.arts":0,"sp.s&t":0,"sch.id":303093,"municipality":"SAN FERNANDO","fish":0,"sp.program":null,"longitude":123.686568,"id":"ag4rxa8b1ini","province":"CEBU","sp.sports":0,"shs?1":0,"sp.prog1":0},"type":"Feature","geometry":{"type":"Point","coordinates":[123.686568,10.13357]}},{"properties":{"agri":0,"school name":"Santa Fe NHS","shs?":"NO","tech-voc":"NO","latitude":11.153235,"region":"Region VII","id 2":484,"w.bld":1,"arts&trade":0,"division.2012":"Cebu","sp.prog":"NO","enrtotal":1279,"sp.journ":0,"sp.fl":0,"sp.arts":0,"sp.s&t":0,"sch.id":303094,"municipality":"SANTA FE","fish":0,"sp.program":null,"longitude":123.806758,"id":"ag4rxa8375yo","province":"CEBU","sp.sports":0,"shs?1":0,"sp.prog1":0},"type":"Feature","geometry":{"type":"Point","coordinates":[123.806758,11.153235]}},{"properties":{"agri":0,"school name":"Santa Filomena NHS","shs?":"NO","tech-voc":"NO","latitude":9.76415,"region":"Region VII","id 2":442,"w.bld":1,"arts&trade":0,"division.2012":"Cebu","sp.prog":"NO","enrtotal":610,"sp.journ":0,"sp.fl":0,"sp.arts":0,"sp.s&t":0,"sch.id":303095,"municipality":"ALEGRIA","fish":0,"sp.program":null,"longitude":123.345961,"id":"ag4rxa7tb2xm","province":"CEBU","sp.sports":0,"shs?1":0,"sp.prog1":0},"type":"Feature","geometry":{"type":"Point","coordinates":[123.345961,9.76415]}},{"properties":{"agri":0,"school name":"Santa Lucia NHS","shs?":"NO","tech-voc":"NO","latitude":10.566932,"region":"Region VII","id 2":445,"w.bld":1,"arts&trade":0,"division.2012":"Cebu","sp.prog":"NO","enrtotal":777,"sp.journ":0,"sp.fl":0,"sp.arts":0,"sp.s&t":0,"sch.id":303097,"municipality":"ASTURIAS","fish":0,"sp.program":null,"longitude":123.716107,"id":"ag4rxa84q1fw","province":"CEBU","sp.sports":0,"shs?1":0,"sp.prog1":0},"type":"Feature","geometry":{"type":"Point","coordinates":[123.716107,10.566932]}},{"properties":{"agri":0,"school name":"Santiago National High School","shs?":"NO","tech-voc":"NO","latitude":10.646115,"region":"Region VII","id 2":482,"w.bld":1,"arts&trade":0,"division.2012":"Cebu","sp.prog":"NO","enrtotal":395,"sp.journ":0,"sp.fl":0,"sp.arts":0,"sp.s&t":0,"sch.id":303100,"municipality":"SAN FRANCISCO","fish":0,"sp.program":null,"longitude":124.381719,"id":"ag4rxaet2iqr","province":"CEBU","sp.sports":0,"shs?1":0,"sp.prog1":0},"type":"Feature","geometry":{"type":"Point","coordinates":[124.381719,10.646115]}},{"properties":{"agri":0,"school name":"Sibonga National High School","shs?":"NO","tech-voc":"NO","latitude":10.01671,"region":"Region VII","id 2":486,"w.bld":1,"arts&trade":0,"division.2012":"Cebu","sp.prog":"NO","enrtotal":1418,"sp.journ":0,"sp.fl":0,"sp.arts":0,"sp.s&t":0,"sch.id":303101,"municipality":"SIBONGA","fish":0,"sp.program":null,"longitude":123.619355,"id":"ag4rxa8f88bx","province":"CEBU","sp.sports":0,"shs?1":0,"sp.prog1":0},"type":"Feature","geometry":{"type":"Point","coordinates":[123.619355,10.01671]}},{"properties":{"agri":0,"school name":"Simala NHS","shs?":"NO","tech-voc":"NO","latitude":9.967952,"region":"Region VII","id 2":486,"w.bld":1,"arts&trade":0,"division.2012":"Cebu","sp.prog":"NO","enrtotal":718,"sp.journ":0,"sp.fl":0,"sp.arts":0,"sp.s&t":0,"sch.id":303102,"municipality":"SIBONGA","fish":0,"sp.program":null,"longitude":123.619572,"id":"ag4rxa1veeg6","province":"CEBU","sp.sports":0,"shs?1":0,"sp.prog1":0},"type":"Feature","geometry":{"type":"Point","coordinates":[123.619572,9.967952]}},{"properties":{"agri":0,"school name":"Sorsogon NHS","shs?":"NO","tech-voc":"NO","latitude":9.658758,"region":"Region VII","id 2":469,"w.bld":1,"arts&trade":0,"division.2012":"Cebu","sp.prog":"NO","enrtotal":216,"sp.journ":0,"sp.fl":0,"sp.arts":0,"sp.s&t":0,"sch.id":303058,"municipality":"MALABUYOC","fish":0,"sp.program":null,"longitude":123.352386,"id":"ag4rxa5232n9","province":"CEBU","sp.sports":0,"shs?1":0,"sp.prog1":0},"type":"Feature","geometry":{"type":"Point","coordinates":[123.352386,9.658758]}},{"properties":{"agri":0,"school name":"Sta. Rita NHS","shs?":"NO","tech-voc":"NO","latitude":10.607443,"region":"Region VII","id 2":445,"w.bld":1,"arts&trade":0,"division.2012":"Cebu","sp.prog":"NO","enrtotal":381,"sp.journ":0,"sp.fl":0,"sp.arts":0,"sp.s&t":0,"sch.id":312414,"municipality":"ASTURIAS","fish":0,"sp.program":null,"longitude":123.790614,"id":"ag4rxa4m72i2","province":"CEBU","sp.sports":0,"shs?1":0,"sp.prog1":0},"type":"Feature","geometry":{"type":"Point","coordinates":[123.790614,10.607443]}},{"properties":{"agri":0,"school name":"Tabunan NHS","shs?":"NO","tech-voc":"NO","latitude":10.871044,"region":"Region VII","id 2":452,"w.bld":1,"arts&trade":0,"division.2012":"Cebu","sp.prog":"NO","enrtotal":452,"sp.journ":0,"sp.fl":0,"sp.arts":0,"sp.s&t":0,"sch.id":303104,"municipality":"BORBON","fish":0,"sp.program":null,"longitude":124.045077,"id":"ag4rxabqshr3","province":"CEBU","sp.sports":0,"shs?1":0,"sp.prog1":0},"type":"Feature","geometry":{"type":"Point","coordinates":[124.045077,10.871044]}},{"properties":{"agri":0,"school name":"Talaga NHS","shs?":"NO","tech-voc":"NO","latitude":9.884411,"region":"Region VII","id 2":444,"w.bld":1,"arts&trade":0,"division.2012":"Cebu","sp.prog":"NO","enrtotal":468,"sp.journ":0,"sp.fl":0,"sp.arts":0,"sp.s&t":0,"sch.id":303112,"municipality":"ARGAO","fish":0,"sp.program":null,"longitude":123.599603,"id":"ag4rxa0e39td","province":"CEBU","sp.sports":0,"shs?1":0,"sp.prog1":0},"type":"Feature","geometry":{"type":"Point","coordinates":[123.599603,9.884411]}},{"properties":{"agri":0,"school name":"Teodoro dela Vega MNHS","shs?":"NO","tech-voc":"NO","latitude":10.018555,"region":"Region VII","id 2":486,"w.bld":1,"arts&trade":0,"division.2012":"Cebu","sp.prog":"NO","enrtotal":437,"sp.journ":0,"sp.fl":0,"sp.arts":0,"sp.s&t":0,"sch.id":303067,"municipality":"SIBONGA","fish":0,"sp.program":null,"longitude":123.620377,"id":"ag4rxaaqpmok","province":"CEBU","sp.sports":0,"shs?1":0,"sp.prog1":0},"type":"Feature","geometry":{"type":"Point","coordinates":[123.620377,10.018555]}},{"properties":{"agri":0,"school name":"Tolotolo NHS","shs?":"NO","tech-voc":"NO","latitude":10.389332,"region":"Region VII","id 2":458,"w.bld":0,"arts&trade":0,"division.2012":"Cebu","sp.prog":"NO","enrtotal":241,"sp.journ":0,"sp.fl":0,"sp.arts":0,"sp.s&t":0,"sch.id":302992,"municipality":"CONSOLACION","fish":0,"sp.program":null,"longitude":123.942156,"id":"ag4rxa2inw77","province":"CEBU","sp.sports":0,"shs?1":0,"sp.prog1":0},"type":"Feature","geometry":{"type":"Point","coordinates":[123.942156,10.389332]}},{"properties":{"agri":0,"school name":"Tubod National High School","shs?":"NO","tech-voc":"NO","latitude":10.243514,"region":"Region VII","id 2":472,"w.bld":1,"arts&trade":0,"division.2012":"Cebu","sp.prog":"NO","enrtotal":795,"sp.journ":0,"sp.fl":0,"sp.arts":0,"sp.s&t":0,"sch.id":303116,"municipality":"MINGLANILLA","fish":0,"sp.program":null,"longitude":123.788747,"id":"ag4rxadbf5hg","province":"CEBU","sp.sports":0,"shs?1":0,"sp.prog1":0},"type":"Feature","geometry":{"type":"Point","coordinates":[123.788747,10.243514]}},{"properties":{"agri":0,"school name":"Tubod NHS","shs?":"NO","tech-voc":"NO","latitude":9.865073,"region":"Region VII","id 2":446,"w.bld":1,"arts&trade":0,"division.2012":"Cebu","sp.prog":"NO","enrtotal":210,"sp.journ":0,"sp.fl":0,"sp.arts":0,"sp.s&t":0,"sch.id":302923,"municipality":"BADIAN","fish":0,"sp.program":null,"longitude":123.395999,"id":"ag4rxa5se305","province":"CEBU","sp.sports":0,"shs?1":0,"sp.prog1":0},"type":"Feature","geometry":{"type":"Point","coordinates":[123.395999,9.865073]}},{"properties":{"agri":0,"school name":"Tugbongan NHS","shs?":"NO","tech-voc":"NO","latitude":10.376816,"region":"Region VII","id 2":458,"w.bld":0,"arts&trade":0,"division.2012":"Cebu","sp.prog":"NO","enrtotal":598,"sp.journ":0,"sp.fl":0,"sp.arts":0,"sp.s&t":0,"sch.id":302993,"municipality":"CONSOLACION","fish":0,"sp.program":null,"longitude":123.957093,"id":"ag4rxa3h1sg0","province":"CEBU","sp.sports":0,"shs?1":0,"sp.prog1":0},"type":"Feature","geometry":{"type":"Point","coordinates":[123.957093,10.376816]}},{"properties":{"agri":0,"school name":"Tulay MHS","shs?":"NO","tech-voc":"NO","latitude":10.238855,"region":"Region VII","id 2":472,"w.bld":1,"arts&trade":0,"division.2012":"Cebu","sp.prog":"NO","enrtotal":1031,"sp.journ":0,"sp.fl":0,"sp.arts":0,"sp.s&t":0,"sch.id":303118,"municipality":"MINGLANILLA","fish":0,"sp.program":null,"longitude":123.794367,"id":"ag4rxa66fvym","province":"CEBU","sp.sports":0,"shs?1":0,"sp.prog1":0},"type":"Feature","geometry":{"type":"Point","coordinates":[123.794367,10.238855]}},{"properties":{"agri":0,"school name":"Tungkop NHS","shs?":"NO","tech-voc":"NO","latitude":10.239503,"region":"Region VII","id 2":472,"w.bld":0,"arts&trade":0,"division.2012":"Cebu","sp.prog":"NO","enrtotal":970,"sp.journ":0,"sp.fl":0,"sp.arts":0,"sp.s&t":0,"sch.id":303119,"municipality":"MINGLANILLA","fish":0,"sp.program":null,"longitude":123.782716,"id":"ag4rxa760nc9","province":"CEBU","sp.sports":0,"shs?1":0,"sp.prog1":0},"type":"Feature","geometry":{"type":"Point","coordinates":[123.782716,10.239503]}},{"properties":{"agri":0,"school name":"Zosimo E. Fabroa MNHS","shs?":"NO","tech-voc":"NO","latitude":10.635556,"region":"Region VII","id 2":478,"w.bld":1,"arts&trade":0,"division.2012":"Cebu","sp.prog":"NO","enrtotal":321,"sp.journ":0,"sp.fl":0,"sp.arts":0,"sp.s&t":0,"sch.id":303009,"municipality":"PORO","fish":0,"sp.program":null,"longitude":124.4025,"id":"ag4rxa1rotd2","province":"CEBU","sp.sports":0,"shs?1":0,"sp.prog1":0},"type":"Feature","geometry":{"type":"Point","coordinates":[124.4025,10.635556]}},{"properties":{"agri":0,"school name":"Abellana NHS (Day &amp; NIght)","shs?":"NO","tech-voc":"Arts and Trade","latitude":10.301174,"region":"Region VII","id 2":456,"w.bld":0,"arts&trade":1,"division.2012":"Cebu City","sp.prog":"YES","enrtotal":5786,"sp.journ":0,"sp.fl":0,"sp.arts":0,"sp.s&t":0,"sch.id":303128,"municipality":"CEBU CITY (Capital)","fish":0,"sp.program":"Sports,","longitude":123.896034,"id":"ag4rxa8opwvt","province":"CEBU","sp.sports":1,"shs?1":0,"sp.prog1":1},"type":"Feature","geometry":{"type":"Point","coordinates":[123.896034,10.301174]}},{"properties":{"agri":0,"school name":"Babag HS","shs?":"NO","tech-voc":"NO","latitude":10.374792,"region":"Region VII","id 2":456,"w.bld":1,"arts&trade":0,"division.2012":"Cebu City","sp.prog":"NO","enrtotal":278,"sp.journ":0,"sp.fl":0,"sp.arts":0,"sp.s&t":0,"sch.id":312502,"municipality":"CEBU CITY (Capital)","fish":0,"sp.program":null,"longitude":123.852005,"id":"ag4rxa1103su","province":"CEBU","sp.sports":0,"shs?1":0,"sp.prog1":0},"type":"Feature","geometry":{"type":"Point","coordinates":[123.852005,10.374792]}},{"properties":{"agri":0,"school name":"Banilad Night HS","shs?":"NO","tech-voc":"NO","latitude":10.346498,"region":"Region VII","id 2":456,"w.bld":1,"arts&trade":0,"division.2012":"Cebu City","sp.prog":"NO","enrtotal":577,"sp.journ":0,"sp.fl":0,"sp.arts":0,"sp.s&t":0,"sch.id":312503,"municipality":"CEBU CITY (Capital)","fish":0,"sp.program":null,"longitude":123.912059,"id":"ag4rxa09g0e9","province":"CEBU","sp.sports":0,"shs?1":0,"sp.prog1":0},"type":"Feature","geometry":{"type":"Point","coordinates":[123.912059,10.346498]}},{"properties":{"agri":0,"school name":"Barrio Luz NHS (Day &amp; Night)","shs?":"NO","tech-voc":"NO","latitude":10.324482,"region":"Region VII","id 2":456,"w.bld":1,"arts&trade":0,"division.2012":"Cebu City","sp.prog":"NO","enrtotal":907,"sp.journ":0,"sp.fl":0,"sp.arts":0,"sp.s&t":0,"sch.id":303152,"municipality":"CEBU CITY (Capital)","fish":0,"sp.program":null,"longitude":123.90707,"id":"ag4rxa3gu3m2","province":"CEBU","sp.sports":0,"shs?1":0,"sp.prog1":0},"type":"Feature","geometry":{"type":"Point","coordinates":[123.90707,10.324482]}},{"properties":{"agri":0,"school name":"Bonbon NHS","shs?":"NO","tech-voc":"NO","latitude":10.367548,"region":"Region VII","id 2":456,"w.bld":1,"arts&trade":0,"division.2012":"Cebu City","sp.prog":"NO","enrtotal":439,"sp.journ":0,"sp.fl":0,"sp.arts":0,"sp.s&t":0,"sch.id":303134,"municipality":"CEBU CITY (Capital)","fish":0,"sp.program":null,"longitude":123.831796,"id":"ag4rxaecuhs2","province":"CEBU","sp.sports":0,"shs?1":0,"sp.prog1":0},"type":"Feature","geometry":{"type":"Point","coordinates":[123.831796,10.367548]}},{"properties":{"agri":0,"school name":"Bulacao NHS (Day &amp; Night)","shs?":"NO","tech-voc":"NO","latitude":10.276,"region":"Region VII","id 2":456,"w.bld":1,"arts&trade":0,"division.2012":"Cebu City","sp.prog":"NO","enrtotal":922,"sp.journ":0,"sp.fl":0,"sp.arts":0,"sp.s&t":0,"sch.id":303143,"municipality":"CEBU CITY (Capital)","fish":0,"sp.program":null,"longitude":123.85,"id":"ag4rxa8rfgby","province":"CEBU","sp.sports":0,"shs?1":0,"sp.prog1":0},"type":"Feature","geometry":{"type":"Point","coordinates":[123.85,10.276]}},{"properties":{"agri":0,"school name":"Busay NHS","shs?":"NO","tech-voc":"NO","latitude":10.370354,"region":"Region VII","id 2":456,"w.bld":1,"arts&trade":0,"division.2012":"Cebu City","sp.prog":"NO","enrtotal":405,"sp.journ":0,"sp.fl":0,"sp.arts":0,"sp.s&t":0,"sch.id":303136,"municipality":"CEBU CITY (Capital)","fish":0,"sp.program":null,"longitude":123.876224,"id":"ag4rxa0h9ss9","province":"CEBU","sp.sports":0,"shs?1":0,"sp.prog1":0},"type":"Feature","geometry":{"type":"Point","coordinates":[123.876224,10.370354]}},{"properties":{"agri":0,"school name":"Cantipla IS","shs?":"NO","tech-voc":"NO","latitude":10.41318,"region":"Region VII","id 2":456,"w.bld":1,"arts&trade":0,"division.2012":"Cebu City","sp.prog":"NO","enrtotal":127,"sp.journ":0,"sp.fl":0,"sp.arts":0,"sp.s&t":0,"sch.id":312511,"municipality":"CEBU CITY (Capital)","fish":0,"sp.program":null,"longitude":123.807044,"id":"ag4rx9zcptoy","province":"CEBU","sp.sports":0,"shs?1":0,"sp.prog1":0},"type":"Feature","geometry":{"type":"Point","coordinates":[123.807044,10.41318]}},{"properties":{"agri":0,"school name":"Cebu City National Science HS","shs?":"YES","tech-voc":"NO","latitude":10.300329,"region":"Region VII","id 2":456,"w.bld":1,"arts&trade":0,"division.2012":"Cebu City","sp.prog":"NO","enrtotal":651,"sp.journ":0,"sp.fl":0,"sp.arts":0,"sp.s&t":0,"sch.id":303141,"municipality":"CEBU CITY (Capital)","fish":0,"sp.program":null,"longitude":123.879149,"id":"ag4rxab5evai","province":"CEBU","sp.sports":0,"shs?1":1,"sp.prog1":0},"type":"Feature","geometry":{"type":"Point","coordinates":[123.879149,10.300329]}},{"properties":{"agri":0,"school name":"Don Carlos Gothong Memorial NHS","shs?":"NO","tech-voc":"NO","latitude":10.293707,"region":"Region VII","id 2":456,"w.bld":1,"arts&trade":0,"division.2012":"Cebu City","sp.prog":"NO","enrtotal":3388,"sp.journ":0,"sp.fl":0,"sp.arts":0,"sp.s&t":0,"sch.id":303142,"municipality":"CEBU CITY (Capital)","fish":0,"sp.program":null,"longitude":123.889641,"id":"ag4rxa10edor","province":"CEBU","sp.sports":0,"shs?1":0,"sp.prog1":0},"type":"Feature","geometry":{"type":"Point","coordinates":[123.889641,10.293707]}},{"properties":{"agri":0,"school name":"Don Sergio Osme¬§a, Sr. Memorial HS (Day &amp; Night)","shs?":"NO","tech-voc":"NO","latitude":10.300556,"region":"Region VII","id 2":456,"w.bld":1,"arts&trade":0,"division.2012":"Cebu City","sp.prog":"NO","enrtotal":2274,"sp.journ":0,"sp.fl":0,"sp.arts":0,"sp.s&t":0,"sch.id":303150,"municipality":"CEBU CITY (Capital)","fish":0,"sp.program":null,"longitude":123.881667,"id":"ag4rxabo4a65","province":"CEBU","sp.sports":0,"shs?1":0,"sp.prog1":0},"type":"Feature","geometry":{"type":"Point","coordinates":[123.881667,10.300556]}},{"properties":{"agri":0,"school name":"Don Vicente Rama Mem. NHS (Basak NHS)","shs?":"NO","tech-voc":"NO","latitude":10.290885,"region":"Region VII","id 2":456,"w.bld":1,"arts&trade":0,"division.2012":"Cebu City","sp.prog":"NO","enrtotal":3016,"sp.journ":0,"sp.fl":0,"sp.arts":0,"sp.s&t":0,"sch.id":303133,"municipality":"CEBU CITY (Capital)","fish":0,"sp.program":null,"longitude":123.865565,"id":"ag4rxaaguycl","province":"CEBU","sp.sports":0,"shs?1":0,"sp.prog1":0},"type":"Feature","geometry":{"type":"Point","coordinates":[123.865565,10.290885]}},{"properties":{"agri":0,"school name":"Dr. Emilio Osmena HS","shs?":"NO","tech-voc":"NO","latitude":10.348496,"region":"Region VII","id 2":456,"w.bld":1,"arts&trade":0,"division.2012":"Cebu City","sp.prog":"NO","enrtotal":213,"sp.journ":0,"sp.fl":0,"sp.arts":0,"sp.s&t":0,"sch.id":312504,"municipality":"CEBU CITY (Capital)","fish":0,"sp.program":null,"longitude":123.808566,"id":"ag4rxaehcxyb","province":"CEBU","sp.sports":0,"shs?1":0,"sp.prog1":0},"type":"Feature","geometry":{"type":"Point","coordinates":[123.808566,10.348496]}},{"properties":{"agri":0,"school name":"Guba NHS","shs?":"NO","tech-voc":"NO","latitude":10.425998,"region":"Region VII","id 2":456,"w.bld":1,"arts&trade":0,"division.2012":"Cebu City","sp.prog":"NO","enrtotal":438,"sp.journ":0,"sp.fl":0,"sp.arts":0,"sp.s&t":0,"sch.id":303157,"municipality":"CEBU CITY (Capital)","fish":0,"sp.program":null,"longitude":123.887844,"id":"ag4rxa6gp2dc","province":"CEBU","sp.sports":0,"shs?1":0,"sp.prog1":0},"type":"Feature","geometry":{"type":"Point","coordinates":[123.887844,10.425998]}},{"properties":{"agri":0,"school name":"Inayawan NHS (Night)","shs?":"NO","tech-voc":"NO","latitude":10.2689,"region":"Region VII","id 2":456,"w.bld":1,"arts&trade":0,"division.2012":"Cebu City","sp.prog":"NO","enrtotal":1075,"sp.journ":0,"sp.fl":0,"sp.arts":0,"sp.s&t":0,"sch.id":303145,"municipality":"CEBU CITY (Capital)","fish":0,"sp.program":null,"longitude":123.856,"id":"ag4rxa1eh26n","province":"CEBU","sp.sports":0,"shs?1":0,"sp.prog1":0},"type":"Feature","geometry":{"type":"Point","coordinates":[123.856,10.2689]}},{"properties":{"agri":0,"school name":"Lahug NHS (Night)","shs?":"NO","tech-voc":"NO","latitude":10.324757,"region":"Region VII","id 2":456,"w.bld":1,"arts&trade":0,"division.2012":"Cebu City","sp.prog":"NO","enrtotal":1507,"sp.journ":0,"sp.fl":0,"sp.arts":0,"sp.s&t":0,"sch.id":303139,"municipality":"CEBU CITY (Capital)","fish":0,"sp.program":null,"longitude":123.898747,"id":"ag4rxa3116x2","province":"CEBU","sp.sports":0,"shs?1":0,"sp.prog1":0},"type":"Feature","geometry":{"type":"Point","coordinates":[123.898747,10.324757]}},{"properties":{"agri":0,"school name":"Malubog Integrated School","shs?":"NO","tech-voc":"NO","latitude":10.379562,"region":"Region VII","id 2":456,"w.bld":0,"arts&trade":0,"division.2012":"Cebu City","sp.prog":"NO","enrtotal":189,"sp.journ":0,"sp.fl":0,"sp.arts":0,"sp.s&t":0,"sch.id":312512,"municipality":"CEBU CITY (Capital)","fish":0,"sp.program":null,"longitude":123.868817,"id":"ag4rxa3r3qxd","province":"CEBU","sp.sports":0,"shs?1":0,"sp.prog1":0},"type":"Feature","geometry":{"type":"Point","coordinates":[123.868817,10.379562]}},{"properties":{"agri":0,"school name":"Mambaling NHS (Night)","shs?":"NO","tech-voc":"NO","latitude":10.2886,"region":"Region VII","id 2":456,"w.bld":1,"arts&trade":0,"division.2012":"Cebu City","sp.prog":"NO","enrtotal":686,"sp.journ":0,"sp.fl":0,"sp.arts":0,"sp.s&t":0,"sch.id":303146,"municipality":"CEBU CITY (Capital)","fish":0,"sp.program":null,"longitude":123.879,"id":"ag4rxa2hz1sa","province":"CEBU","sp.sports":0,"shs?1":0,"sp.prog1":0},"type":"Feature","geometry":{"type":"Point","coordinates":[123.879,10.2886]}},{"properties":{"agri":0,"school name":"OPRRA NHS (Day &amp; Night)","shs?":"NO","tech-voc":"NO","latitude":10.3157,"region":"Region VII","id 2":456,"w.bld":1,"arts&trade":0,"division.2012":"Cebu City","sp.prog":"NO","enrtotal":758,"sp.journ":0,"sp.fl":0,"sp.arts":0,"sp.s&t":0,"sch.id":303162,"municipality":"CEBU CITY (Capital)","fish":0,"sp.program":null,"longitude":123.885437,"id":"ag4rxa9ceng7","province":"CEBU","sp.sports":0,"shs?1":0,"sp.prog1":0},"type":"Feature","geometry":{"type":"Point","coordinates":[123.885437,10.3157]}},{"properties":{"agri":0,"school name":"Pardo NHS (Day &amp; Night)","shs?":"NO","tech-voc":"NO","latitude":10.271317,"region":"Region VII","id 2":456,"w.bld":0,"arts&trade":0,"division.2012":"Cebu City","sp.prog":"NO","enrtotal":3266,"sp.journ":0,"sp.fl":0,"sp.arts":0,"sp.s&t":0,"sch.id":303159,"municipality":"CEBU CITY (Capital)","fish":0,"sp.program":null,"longitude":123.848742,"id":"ag4rxad5jzgo","province":"CEBU","sp.sports":0,"shs?1":0,"sp.prog1":0},"type":"Feature","geometry":{"type":"Point","coordinates":[123.848742,10.271317]}},{"properties":{"agri":0,"school name":"Paril NHS","shs?":"NO","tech-voc":"NO","latitude":10.3235,"region":"Region VII","id 2":456,"w.bld":1,"arts&trade":0,"division.2012":"Cebu City","sp.prog":"NO","enrtotal":149,"sp.journ":0,"sp.fl":0,"sp.arts":0,"sp.s&t":0,"sch.id":303137,"municipality":"CEBU CITY (Capital)","fish":0,"sp.program":null,"longitude":123.916,"id":"ag4rxa9qe5nn","province":"CEBU","sp.sports":0,"shs?1":0,"sp.prog1":0},"type":"Feature","geometry":{"type":"Point","coordinates":[123.916,10.3235]}},{"properties":{"agri":0,"school name":"Pasil NHS (Night)","shs?":"NO","tech-voc":"NO","latitude":10.29045,"region":"Region VII","id 2":456,"w.bld":1,"arts&trade":0,"division.2012":"Cebu City","sp.prog":"NO","enrtotal":687,"sp.journ":0,"sp.fl":0,"sp.arts":0,"sp.s&t":0,"sch.id":303147,"municipality":"CEBU CITY (Capital)","fish":0,"sp.program":null,"longitude":123.894423,"id":"ag4rxa1vkvv2","province":"CEBU","sp.sports":0,"shs?1":0,"sp.prog1":0},"type":"Feature","geometry":{"type":"Point","coordinates":[123.894423,10.29045]}},{"properties":{"agri":0,"school name":"Pit-os NHS","shs?":"NO","tech-voc":"NO","latitude":10.3941,"region":"Region VII","id 2":456,"w.bld":1,"arts&trade":0,"division.2012":"Cebu City","sp.prog":"NO","enrtotal":1198,"sp.journ":0,"sp.fl":0,"sp.arts":0,"sp.s&t":0,"sch.id":303160,"municipality":"CEBU CITY (Capital)","fish":0,"sp.program":null,"longitude":123.921395,"id":"ag4rxa47a91x","province":"CEBU","sp.sports":0,"shs?1":0,"sp.prog1":0},"type":"Feature","geometry":{"type":"Point","coordinates":[123.921395,10.3941]}},{"properties":{"agri":0,"school name":"Punta Princesa NHS (Night)","shs?":"NO","tech-voc":"NO","latitude":10.294382,"region":"Region VII","id 2":456,"w.bld":1,"arts&trade":0,"division.2012":"Cebu City","sp.prog":"NO","enrtotal":543,"sp.journ":0,"sp.fl":0,"sp.arts":0,"sp.s&t":0,"sch.id":303148,"municipality":"CEBU CITY (Capital)","fish":0,"sp.program":null,"longitude":123.872,"id":"ag4rxaeo4lls","province":"CEBU","sp.sports":0,"shs?1":0,"sp.prog1":0},"type":"Feature","geometry":{"type":"Point","coordinates":[123.872,10.294382]}},{"properties":{"agri":0,"school name":"Ramon Duterte Memorial NHS (Day &amp; Night)","shs?":"NO","tech-voc":"NO","latitude":10.321073,"region":"Region VII","id 2":456,"w.bld":1,"arts&trade":0,"division.2012":"Cebu City","sp.prog":"NO","enrtotal":3897,"sp.journ":0,"sp.fl":0,"sp.arts":0,"sp.s&t":0,"sch.id":303161,"municipality":"CEBU CITY (Capital)","fish":0,"sp.program":null,"longitude":123.884518,"id":"ag4rxa0ikp77","province":"CEBU","sp.sports":0,"shs?1":0,"sp.prog1":0},"type":"Feature","geometry":{"type":"Point","coordinates":[123.884518,10.321073]}},{"properties":{"agri":0,"school name":"Regino Mercado NHS (Night)","shs?":"NO","tech-voc":"NO","latitude":10.295931,"region":"Region VII","id 2":456,"w.bld":1,"arts&trade":0,"division.2012":"Cebu City","sp.prog":"NO","enrtotal":383,"sp.journ":0,"sp.fl":0,"sp.arts":0,"sp.s&t":0,"sch.id":303154,"municipality":"CEBU CITY (Capital)","fish":0,"sp.program":null,"longitude":123.893452,"id":"ag4rxacl8gvj","province":"CEBU","sp.sports":0,"shs?1":0,"sp.prog1":0},"type":"Feature","geometry":{"type":"Point","coordinates":[123.893452,10.295931]}},{"properties":{"agri":0,"school name":"Talamban NHS (Day &amp; Night)","shs?":"NO","tech-voc":"NO","latitude":10.37003,"region":"Region VII","id 2":456,"w.bld":1,"arts&trade":0,"division.2012":"Cebu City","sp.prog":"NO","enrtotal":2322,"sp.journ":0,"sp.fl":0,"sp.arts":0,"sp.s&t":0,"sch.id":303140,"municipality":"CEBU CITY (Capital)","fish":0,"sp.program":null,"longitude":123.918035,"id":"ag4rxabeaml6","province":"CEBU","sp.sports":0,"shs?1":0,"sp.prog1":0},"type":"Feature","geometry":{"type":"Point","coordinates":[123.918035,10.37003]}},{"properties":{"agri":0,"school name":"Tejero NHS (Night)","shs?":"NO","tech-voc":"NO","latitude":10.300779,"region":"Region VII","id 2":456,"w.bld":1,"arts&trade":0,"division.2012":"Cebu City","sp.prog":"NO","enrtotal":1314,"sp.journ":0,"sp.fl":0,"sp.arts":0,"sp.s&t":0,"sch.id":303155,"municipality":"CEBU CITY (Capital)","fish":0,"sp.program":null,"longitude":123.907218,"id":"ag4rxa4ynogu","province":"CEBU","sp.sports":0,"shs?1":0,"sp.prog1":0},"type":"Feature","geometry":{"type":"Point","coordinates":[123.907218,10.300779]}},{"properties":{"agri":0,"school name":"Tisa HS (Day &amp; Night) (Tisa Night HS)","shs?":"NO","tech-voc":"NO","latitude":10.3012,"region":"Region VII","id 2":456,"w.bld":1,"arts&trade":0,"division.2012":"Cebu City","sp.prog":"NO","enrtotal":2236,"sp.journ":0,"sp.fl":0,"sp.arts":0,"sp.s&t":0,"sch.id":312506,"municipality":"CEBU CITY (Capital)","fish":0,"sp.program":null,"longitude":123.87,"id":"ag4rxa6dppx9","province":"CEBU","sp.sports":0,"shs?1":0,"sp.prog1":0},"type":"Feature","geometry":{"type":"Point","coordinates":[123.87,10.3012]}},{"properties":{"agri":0,"school name":"Zapatera NHS (Day &amp; Night)","shs?":"NO","tech-voc":"NO","latitude":10.3082,"region":"Region VII","id 2":456,"w.bld":1,"arts&trade":0,"division.2012":"Cebu City","sp.prog":"NO","enrtotal":975,"sp.journ":0,"sp.fl":0,"sp.arts":0,"sp.s&t":0,"sch.id":303156,"municipality":"CEBU CITY (Capital)","fish":0,"sp.program":null,"longitude":123.902,"id":"ag4rxa5542n7","province":"CEBU","sp.sports":0,"shs?1":0,"sp.prog1":0},"type":"Feature","geometry":{"type":"Point","coordinates":[123.902,10.3082]}},{"properties":{"agri":0,"school name":"Naga NHS","shs?":"NO","tech-voc":"Arts and Trade","latitude":10.208903,"region":"Region VII","id 2":474,"w.bld":1,"arts&trade":1,"division.2012":"City of Naga, Cebu","sp.prog":"YES","enrtotal":2681,"sp.journ":0,"sp.fl":0,"sp.arts":0,"sp.s&t":1,"sch.id":303065,"municipality":"CITY OF NAGA","fish":0,"sp.program":"Sci &amp; Tech","longitude":123.754696,"id":"ag4rxa43g6it","province":"CEBU","sp.sports":0,"shs?1":0,"sp.prog1":1},"type":"Feature","geometry":{"type":"Point","coordinates":[123.754696,10.208903]}},{"properties":{"agri":0,"school name":"Placido L. Se¬§or MNHS (Langtad NHS)","shs?":"NO","tech-voc":"NO","latitude":10.187778,"region":"Region VII","id 2":474,"w.bld":1,"arts&trade":0,"division.2012":"City of Naga, Cebu","sp.prog":"NO","enrtotal":1081,"sp.journ":0,"sp.fl":0,"sp.arts":0,"sp.s&t":0,"sch.id":303035,"municipality":"CITY OF NAGA","fish":0,"sp.program":null,"longitude":123.735556,"id":"ag4rxa6aff7r","province":"CEBU","sp.sports":0,"shs?1":0,"sp.prog1":0},"type":"Feature","geometry":{"type":"Point","coordinates":[123.735556,10.187778]}},{"properties":{"agri":0,"school name":"Tuyan NHS","shs?":"NO","tech-voc":"NO","latitude":10.229968,"region":"Region VII","id 2":474,"w.bld":1,"arts&trade":0,"division.2012":"City of Naga, Cebu","sp.prog":"NO","enrtotal":500,"sp.journ":0,"sp.fl":0,"sp.arts":0,"sp.s&t":0,"sch.id":303120,"municipality":"CITY OF NAGA","fish":0,"sp.program":null,"longitude":123.76849,"id":"ag4rxaao8f30","province":"CEBU","sp.sports":0,"shs?1":0,"sp.prog1":0},"type":"Feature","geometry":{"type":"Point","coordinates":[123.76849,10.229968]}},{"properties":{"agri":0,"school name":"Beatriz D. Durano MNHS","shs?":"NO","tech-voc":"NO","latitude":10.5264,"region":"Region VII","id 2":462,"w.bld":1,"arts&trade":0,"division.2012":"Danao City","sp.prog":"NO","enrtotal":1665,"sp.journ":0,"sp.fl":0,"sp.arts":0,"sp.s&t":0,"sch.id":302957,"municipality":"DANAO CITY","fish":0,"sp.program":null,"longitude":124.029,"id":"ag4rxadwn37c","province":"CEBU","sp.sports":0,"shs?1":0,"sp.prog1":0},"type":"Feature","geometry":{"type":"Point","coordinates":[124.029,10.5264]}},{"properties":{"agri":0,"school name":"Elpidio H. Perez Memorial Technical-Vocational High School","shs?":"NO","tech-voc":"NO","latitude":10.545215,"region":"Region VII","id 2":462,"w.bld":1,"arts&trade":0,"division.2012":"Danao City","sp.prog":"NO","enrtotal":473,"sp.journ":0,"sp.fl":0,"sp.arts":0,"sp.s&t":0,"sch.id":302959,"municipality":"DANAO CITY","fish":0,"sp.program":null,"longitude":123.968025,"id":"ag4rxa4o75zx","province":"CEBU","sp.sports":0,"shs?1":0,"sp.prog1":0},"type":"Feature","geometry":{"type":"Point","coordinates":[123.968025,10.545215]}},{"properties":{"agri":0,"school name":"Estefa O. Monte MNHS (Cabungahan NHS)","shs?":"NO","tech-voc":"NO","latitude":10.516822,"region":"Region VII","id 2":462,"w.bld":1,"arts&trade":0,"division.2012":"Danao City","sp.prog":"NO","enrtotal":586,"sp.journ":0,"sp.fl":0,"sp.arts":0,"sp.s&t":0,"sch.id":302956,"municipality":"DANAO CITY","fish":0,"sp.program":null,"longitude":123.990196,"id":"ag4rxa160f5u","province":"CEBU","sp.sports":0,"shs?1":0,"sp.prog1":0},"type":"Feature","geometry":{"type":"Point","coordinates":[123.990196,10.516822]}},{"properties":{"agri":0,"school name":"Guinsay National High School","shs?":"NO","tech-voc":"NO","latitude":10.551356,"region":"Region VII","id 2":462,"w.bld":1,"arts&trade":0,"division.2012":"Danao City","sp.prog":"NO","enrtotal":782,"sp.journ":0,"sp.fl":0,"sp.arts":0,"sp.s&t":0,"sch.id":322002,"municipality":"DANAO CITY","fish":0,"sp.program":null,"longitude":124.022738,"id":"ag4rxaff5nf6","province":"CEBU","sp.sports":0,"shs?1":0,"sp.prog1":0},"type":"Feature","geometry":{"type":"Point","coordinates":[124.022738,10.551356]}},{"properties":{"agri":0,"school name":"Lawaan NHS","shs?":"NO","tech-voc":"NO","latitude":10.5494,"region":"Region VII","id 2":462,"w.bld":1,"arts&trade":0,"division.2012":"Danao City","sp.prog":"NO","enrtotal":404,"sp.journ":0,"sp.fl":0,"sp.arts":0,"sp.s&t":0,"sch.id":303036,"municipality":"DANAO CITY","fish":0,"sp.program":null,"longitude":123.901955,"id":"ag4rxa7y3x2a","province":"CEBU","sp.sports":0,"shs?1":0,"sp.prog1":0},"type":"Feature","geometry":{"type":"Point","coordinates":[123.901955,10.5494]}},{"properties":{"agri":0,"school name":"Maslog National High School","shs?":"NO","tech-voc":"NO","latitude":10.481841,"region":"Region VII","id 2":462,"w.bld":1,"arts&trade":0,"division.2012":"Danao City","sp.prog":"NO","enrtotal":726,"sp.journ":0,"sp.fl":0,"sp.arts":0,"sp.s&t":0,"sch.id":303037,"municipality":"DANAO CITY","fish":0,"sp.program":null,"longitude":124.021263,"id":"ag4rxa33ll41","province":"CEBU","sp.sports":0,"shs?1":0,"sp.prog1":0},"type":"Feature","geometry":{"type":"Point","coordinates":[124.021263,10.481841]}},{"properties":{"agri":0,"school name":"Nicolas U. Tiongko Memorial National High School","shs?":"NO","tech-voc":"NO","latitude":10.559071,"region":"Region VII","id 2":462,"w.bld":1,"arts&trade":0,"division.2012":"Danao City","sp.prog":"NO","enrtotal":205,"sp.journ":0,"sp.fl":0,"sp.arts":0,"sp.s&t":0,"sch.id":303038,"municipality":"DANAO CITY","fish":0,"sp.program":null,"longitude":123.855858,"id":"ag4rxa5h9z7s","province":"CEBU","sp.sports":0,"shs?1":0,"sp.prog1":0},"type":"Feature","geometry":{"type":"Point","coordinates":[123.855858,10.559071]}},{"properties":{"agri":0,"school name":"Ramon M. Durano Sr. Foundation - Science and Technology Education Center","shs?":"YES","tech-voc":"NO","latitude":10.550349,"region":"Region VII","id 2":462,"w.bld":1,"arts&trade":0,"division.2012":"Danao City","sp.prog":"YES","enrtotal":130,"sp.journ":0,"sp.fl":0,"sp.arts":0,"sp.s&t":1,"sch.id":322003,"municipality":"DANAO CITY","fish":0,"sp.program":"Sci &amp; Tech","longitude":124.011765,"id":"ag4rxaerqfc6","province":"CEBU","sp.sports":0,"shs?1":1,"sp.prog1":1},"type":"Feature","geometry":{"type":"Point","coordinates":[124.011765,10.550349]}},{"properties":{"agri":0,"school name":"Ramon M. Durano Sr. MNHS","shs?":"NO","tech-voc":"NO","latitude":10.529488,"region":"Region VII","id 2":462,"w.bld":1,"arts&trade":0,"division.2012":"Danao City","sp.prog":"NO","enrtotal":346,"sp.journ":0,"sp.fl":0,"sp.arts":0,"sp.s&t":0,"sch.id":303039,"municipality":"DANAO CITY","fish":0,"sp.program":null,"longitude":124.014008,"id":"ag4rxa6yduft","province":"CEBU","sp.sports":0,"shs?1":0,"sp.prog1":0},"type":"Feature","geometry":{"type":"Point","coordinates":[124.014008,10.529488]}},{"properties":{"agri":0,"school name":"Sabang NHS","shs?":"NO","tech-voc":"NO","latitude":10.497396,"region":"Region VII","id 2":462,"w.bld":1,"arts&trade":0,"division.2012":"Danao City","sp.prog":"NO","enrtotal":1054,"sp.journ":0,"sp.fl":0,"sp.arts":0,"sp.s&t":0,"sch.id":322004,"municipality":"DANAO CITY","fish":0,"sp.program":null,"longitude":124.030867,"id":"ag4rxaduw9el","province":"CEBU","sp.sports":0,"shs?1":0,"sp.prog1":0},"type":"Feature","geometry":{"type":"Point","coordinates":[124.030867,10.497396]}},{"properties":{"agri":0,"school name":"Sandayong Sur NHS","shs?":"NO","tech-voc":"NO","latitude":10.504504,"region":"Region VII","id 2":462,"w.bld":1,"arts&trade":0,"division.2012":"Danao City","sp.prog":"NO","enrtotal":334,"sp.journ":0,"sp.fl":0,"sp.arts":0,"sp.s&t":0,"sch.id":302960,"municipality":"DANAO CITY","fish":0,"sp.program":null,"longitude":123.998962,"id":"ag4rxaclzbj0","province":"CEBU","sp.sports":0,"shs?1":0,"sp.prog1":0},"type":"Feature","geometry":{"type":"Point","coordinates":[123.998962,10.504504]}},{"properties":{"agri":0,"school name":"Ubaldo Iway MNHS","shs?":"NO","tech-voc":"NO","latitude":10.54484,"region":"Region VII","id 2":462,"w.bld":1,"arts&trade":0,"division.2012":"Danao City","sp.prog":"NO","enrtotal":595,"sp.journ":0,"sp.fl":0,"sp.arts":0,"sp.s&t":0,"sch.id":322001,"municipality":"DANAO CITY","fish":0,"sp.program":null,"longitude":124.008232,"id":"ag4rxa9u3gbo","province":"CEBU","sp.sports":0,"shs?1":0,"sp.prog1":0},"type":"Feature","geometry":{"type":"Point","coordinates":[124.008232,10.54484]}},{"properties":{"agri":0,"school name":"Camanjac NHS","shs?":"NO","tech-voc":"NO","latitude":9.325178,"region":"Region VII","id 2":1061,"w.bld":1,"arts&trade":0,"division.2012":"Dumaguete City","sp.prog":"NO","enrtotal":568,"sp.journ":0,"sp.fl":0,"sp.arts":0,"sp.s&t":0,"sch.id":303166,"municipality":"DUMAGUETE CITY (Capital)","fish":0,"sp.program":null,"longitude":123.270065,"id":"ag4rxa9npwb9","province":"NEGROS ORIENTAL","sp.sports":0,"shs?1":0,"sp.prog1":0},"type":"Feature","geometry":{"type":"Point","coordinates":[123.270065,9.325178]}},{"properties":{"agri":0,"school name":"Dumaguete City HS","shs?":"NO","tech-voc":"NO","latitude":9.295105,"region":"Region VII","id 2":1061,"w.bld":1,"arts&trade":0,"division.2012":"Dumaguete City","sp.prog":"NO","enrtotal":1842,"sp.journ":0,"sp.fl":0,"sp.arts":0,"sp.s&t":0,"sch.id":303168,"municipality":"DUMAGUETE CITY (Capital)","fish":0,"sp.program":null,"longitude":123.302338,"id":"ag4rxa3bgic6","province":"NEGROS ORIENTAL","sp.sports":0,"shs?1":0,"sp.prog1":0},"type":"Feature","geometry":{"type":"Point","coordinates":[123.302338,9.295105]}},{"properties":{"agri":0,"school name":"Hermenegelda F. Gloria MHS","shs?":"NO","tech-voc":"NO","latitude":9.276944,"region":"Region VII","id 2":1061,"w.bld":1,"arts&trade":0,"division.2012":"Dumaguete City","sp.prog":"NO","enrtotal":249,"sp.journ":0,"sp.fl":0,"sp.arts":0,"sp.s&t":0,"sch.id":303170,"municipality":"DUMAGUETE CITY (Capital)","fish":0,"sp.program":null,"longitude":123.2875,"id":"ag4rxa60htmw","province":"NEGROS ORIENTAL","sp.sports":0,"shs?1":0,"sp.prog1":0},"type":"Feature","geometry":{"type":"Point","coordinates":[123.2875,9.276944]}},{"properties":{"agri":0,"school name":"Junob NHS","shs?":"NO","tech-voc":"NO","latitude":9.292241,"region":"Region VII","id 2":1061,"w.bld":1,"arts&trade":0,"division.2012":"Dumaguete City","sp.prog":"NO","enrtotal":1253,"sp.journ":0,"sp.fl":0,"sp.arts":0,"sp.s&t":0,"sch.id":303167,"municipality":"DUMAGUETE CITY (Capital)","fish":0,"sp.program":null,"longitude":123.275536,"id":"ag4rxa4dy12y","province":"NEGROS ORIENTAL","sp.sports":0,"shs?1":0,"sp.prog1":0},"type":"Feature","geometry":{"type":"Point","coordinates":[123.275536,9.292241]}},{"properties":{"agri":0,"school name":"PIAPI HIGH SCHOOL","shs?":"NO","tech-voc":"NO","latitude":9.29555,"region":"Region VII","id 2":1061,"w.bld":1,"arts&trade":0,"division.2012":"Dumaguete City","sp.prog":"NO","enrtotal":475,"sp.journ":0,"sp.fl":0,"sp.arts":0,"sp.s&t":0,"sch.id":312601,"municipality":"DUMAGUETE CITY (Capital)","fish":0,"sp.program":null,"longitude":123.281,"id":"ag4rxa2t02qi","province":"NEGROS ORIENTAL","sp.sports":0,"shs?1":0,"sp.prog1":0},"type":"Feature","geometry":{"type":"Point","coordinates":[123.281,9.29555]}},{"properties":{"agri":0,"school name":"RTPM - Dumaguete Science HS","shs?":"YES","tech-voc":"NO","latitude":9.322535,"region":"Region VII","id 2":1061,"w.bld":1,"arts&trade":0,"division.2012":"Dumaguete City","sp.prog":"NO","enrtotal":485,"sp.journ":0,"sp.fl":0,"sp.arts":0,"sp.s&t":0,"sch.id":303169,"municipality":"DUMAGUETE CITY (Capital)","fish":0,"sp.program":null,"longitude":123.294767,"id":"ag4rxae515ck","province":"NEGROS ORIENTAL","sp.sports":0,"shs?1":1,"sp.prog1":0},"type":"Feature","geometry":{"type":"Point","coordinates":[123.294767,9.322535]}},{"properties":{"agri":0,"school name":"Taclobo NHS","shs?":"NO","tech-voc":"NO","latitude":9.31367,"region":"Region VII","id 2":1061,"w.bld":1,"arts&trade":0,"division.2012":"Dumaguete City","sp.prog":"NO","enrtotal":860,"sp.journ":0,"sp.fl":0,"sp.arts":0,"sp.s&t":0,"sch.id":303171,"municipality":"DUMAGUETE CITY (Capital)","fish":0,"sp.program":null,"longitude":123.288635,"id":"ag4rx9zi29ik","province":"NEGROS ORIENTAL","sp.sports":0,"shs?1":0,"sp.prog1":0},"type":"Feature","geometry":{"type":"Point","coordinates":[123.288635,9.31367]}},{"properties":{"agri":1,"school name":"GUIHULNGAN NATIONAL AGRICULTURAL SCHOOL","shs?":"NO","tech-voc":"Agriculture","latitude":10.1609,"region":"Region VII","id 2":1062,"w.bld":1,"arts&trade":0,"division.2012":"Guihulngan City","sp.prog":"NO","enrtotal":201,"sp.journ":0,"sp.fl":0,"sp.arts":0,"sp.s&t":0,"sch.id":303230,"municipality":"CITY OF GUIHULNGAN","fish":0,"sp.program":null,"longitude":123.154349,"id":"ag4rxa9dcrtz","province":"NEGROS ORIENTAL","sp.sports":0,"shs?1":0,"sp.prog1":0},"type":"Feature","geometry":{"type":"Point","coordinates":[123.154349,10.1609]}},{"properties":{"agri":0,"school name":"Guihulngan National High School-Poblacion (Linantuyan Annex)","shs?":"NO","tech-voc":"NO","latitude":10.119922,"region":"Region VII","id 2":1062,"w.bld":1,"arts&trade":0,"division.2012":"Guihulngan City","sp.prog":"NO","enrtotal":225,"sp.journ":0,"sp.fl":0,"sp.arts":0,"sp.s&t":0,"sch.id":312952,"municipality":"CITY OF GUIHULNGAN","fish":0,"sp.program":null,"longitude":123.267568,"id":"ag4rxa1zi9m1","province":"NEGROS ORIENTAL","sp.sports":0,"shs?1":0,"sp.prog1":0},"type":"Feature","geometry":{"type":"Point","coordinates":[123.267568,10.119922]}},{"properties":{"agri":0,"school name":"Guihulngan NHS - Hilaitan","shs?":"NO","tech-voc":"NO","latitude":10.243311,"region":"Region VII","id 2":1062,"w.bld":0,"arts&trade":0,"division.2012":"Guihulngan City","sp.prog":"NO","enrtotal":837,"sp.journ":0,"sp.fl":0,"sp.arts":0,"sp.s&t":0,"sch.id":303233,"municipality":"CITY OF GUIHULNGAN","fish":0,"sp.program":null,"longitude":123.318607,"id":"ag4rxa1clgd5","province":"NEGROS ORIENTAL","sp.sports":0,"shs?1":0,"sp.prog1":0},"type":"Feature","geometry":{"type":"Point","coordinates":[123.318607,10.243311]}},{"properties":{"agri":0,"school name":"Guihulngan NHS - Poblacion","shs?":"NO","tech-voc":"NO","latitude":10.118475,"region":"Region VII","id 2":1062,"w.bld":0,"arts&trade":0,"division.2012":"Guihulngan City","sp.prog":"NO","enrtotal":2682,"sp.journ":0,"sp.fl":0,"sp.arts":0,"sp.s&t":0,"sch.id":303231,"municipality":"CITY OF GUIHULNGAN","fish":0,"sp.program":null,"longitude":123.268855,"id":"ag4rxa4iyelm","province":"NEGROS ORIENTAL","sp.sports":0,"shs?1":0,"sp.prog1":0},"type":"Feature","geometry":{"type":"Point","coordinates":[123.268855,10.118475]}},{"properties":{"agri":0,"school name":"Guihulngan NHS - Sandayao Annex","shs?":"NO","tech-voc":"NO","latitude":10.216249,"region":"Region VII","id 2":1062,"w.bld":1,"arts&trade":0,"division.2012":"Guihulngan City","sp.prog":"NO","enrtotal":255,"sp.journ":0,"sp.fl":0,"sp.arts":0,"sp.s&t":0,"sch.id":303232,"municipality":"CITY OF GUIHULNGAN","fish":0,"sp.program":null,"longitude":123.195167,"id":"ag4rxa5cfvuj","province":"NEGROS ORIENTAL","sp.sports":0,"shs?1":0,"sp.prog1":0},"type":"Feature","geometry":{"type":"Point","coordinates":[123.195167,10.216249]}},{"properties":{"agri":0,"school name":"Babag National High School","shs?":"NO","tech-voc":"NO","latitude":10.288088,"region":"Region VII","id 2":466,"w.bld":0,"arts&trade":0,"division.2012":"Lapu-Lapu City","sp.prog":"NO","enrtotal":3433,"sp.journ":0,"sp.fl":0,"sp.arts":0,"sp.s&t":0,"sch.id":303172,"municipality":"LAPU-LAPU CITY (OPON)","fish":0,"sp.program":null,"longitude":123.944944,"id":"ag4rxa0hel41","province":"CEBU","sp.sports":0,"shs?1":0,"sp.prog1":0},"type":"Feature","geometry":{"type":"Point","coordinates":[123.944944,10.288088]}},{"properties":{"agri":0,"school name":"Babag NHS - Babag Night HS","shs?":"NO","tech-voc":"NO","latitude":10.285024,"region":"Region VII","id 2":466,"w.bld":0,"arts&trade":0,"division.2012":"Lapu-Lapu City","sp.prog":"NO","enrtotal":410,"sp.journ":0,"sp.fl":0,"sp.arts":0,"sp.s&t":0,"sch.id":312701,"municipality":"LAPU-LAPU CITY (OPON)","fish":0,"sp.program":null,"longitude":123.943948,"id":"ag4rxa5t7wtc","province":"CEBU","sp.sports":0,"shs?1":0,"sp.prog1":0},"type":"Feature","geometry":{"type":"Point","coordinates":[123.943948,10.285024]}},{"properties":{"agri":0,"school name":"Babag NHS - Poblacion Night HS Ext.","shs?":"NO","tech-voc":"NO","latitude":10.312063,"region":"Region VII","id 2":466,"w.bld":1,"arts&trade":0,"division.2012":"Lapu-Lapu City","sp.prog":"NO","enrtotal":425,"sp.journ":0,"sp.fl":0,"sp.arts":0,"sp.s&t":0,"sch.id":303173,"municipality":"LAPU-LAPU CITY (OPON)","fish":0,"sp.program":null,"longitude":123.950615,"id":"ag4rxaf86l3b","province":"CEBU","sp.sports":0,"shs?1":0,"sp.prog1":0},"type":"Feature","geometry":{"type":"Point","coordinates":[123.950615,10.312063]}},{"properties":{"agri":0,"school name":"Bankal NHS","shs?":"NO","tech-voc":"NO","latitude":10.305387,"region":"Region VII","id 2":466,"w.bld":1,"arts&trade":0,"division.2012":"Lapu-Lapu City","sp.prog":"NO","enrtotal":2107,"sp.journ":0,"sp.fl":0,"sp.arts":0,"sp.s&t":0,"sch.id":303174,"municipality":"LAPU-LAPU CITY (OPON)","fish":0,"sp.program":null,"longitude":123.966902,"id":"ag4rxa7vi875","province":"CEBU","sp.sports":0,"shs?1":0,"sp.prog1":0},"type":"Feature","geometry":{"type":"Point","coordinates":[123.966902,10.305387]}},{"properties":{"agri":0,"school name":"Bankal NHS - Abuno HS Ext.","shs?":"NO","tech-voc":"NO","latitude":10.292825,"region":"Region VII","id 2":466,"w.bld":0,"arts&trade":0,"division.2012":"Lapu-Lapu City","sp.prog":"NO","enrtotal":716,"sp.journ":0,"sp.fl":0,"sp.arts":0,"sp.s&t":0,"sch.id":303175,"municipality":"LAPU-LAPU CITY (OPON)","fish":0,"sp.program":null,"longitude":123.988091,"id":"ag4rxa3cm8n6","province":"CEBU","sp.sports":0,"shs?1":0,"sp.prog1":0},"type":"Feature","geometry":{"type":"Point","coordinates":[123.988091,10.292825]}},{"properties":{"agri":0,"school name":"Bankal NHS - Maribago HS Ext.","shs?":"NO","tech-voc":"NO","latitude":10.2929,"region":"Region VII","id 2":466,"w.bld":0,"arts&trade":0,"division.2012":"Lapu-Lapu City","sp.prog":"NO","enrtotal":968,"sp.journ":0,"sp.fl":0,"sp.arts":0,"sp.s&t":0,"sch.id":303176,"municipality":"LAPU-LAPU CITY (OPON)","fish":0,"sp.program":null,"longitude":123.988,"id":"ag4rxa7pu0of","province":"CEBU","sp.sports":0,"shs?1":0,"sp.prog1":0},"type":"Feature","geometry":{"type":"Point","coordinates":[123.988,10.2929]}},{"properties":{"agri":0,"school name":"Bankal Night HS","shs?":"NO","tech-voc":"NO","latitude":10.3076,"region":"Region VII","id 2":466,"w.bld":1,"arts&trade":0,"division.2012":"Lapu-Lapu City","sp.prog":"NO","enrtotal":365,"sp.journ":0,"sp.fl":0,"sp.arts":0,"sp.s&t":0,"sch.id":312702,"municipality":"LAPU-LAPU CITY (OPON)","fish":0,"sp.program":null,"longitude":123.989,"id":"ag4rxacx7chd","province":"CEBU","sp.sports":0,"shs?1":0,"sp.prog1":0},"type":"Feature","geometry":{"type":"Point","coordinates":[123.989,10.3076]}},{"properties":{"agri":0,"school name":"Lo-ok National High School","shs?":"NO","tech-voc":"NO","latitude":10.305735,"region":"Region VII","id 2":466,"w.bld":1,"arts&trade":0,"division.2012":"Lapu-Lapu City","sp.prog":"NO","enrtotal":570,"sp.journ":0,"sp.fl":0,"sp.arts":0,"sp.s&t":0,"sch.id":303177,"municipality":"LAPU-LAPU CITY (OPON)","fish":0,"sp.program":null,"longitude":123.941726,"id":"ag4rx9zrcia1","province":"CEBU","sp.sports":0,"shs?1":0,"sp.prog1":0},"type":"Feature","geometry":{"type":"Point","coordinates":[123.941726,10.305735]}},{"properties":{"agri":0,"school name":"Mactan NHS","shs?":"NO","tech-voc":"NO","latitude":10.279772,"region":"Region VII","id 2":466,"w.bld":0,"arts&trade":0,"division.2012":"Lapu-Lapu City","sp.prog":"NO","enrtotal":2700,"sp.journ":0,"sp.fl":0,"sp.arts":0,"sp.s&t":0,"sch.id":303178,"municipality":"LAPU-LAPU CITY (OPON)","fish":0,"sp.program":null,"longitude":123.963852,"id":"ag4rxabongtc","province":"CEBU","sp.sports":0,"shs?1":0,"sp.prog1":0},"type":"Feature","geometry":{"type":"Point","coordinates":[123.963852,10.279772]}},{"properties":{"agri":0,"school name":"Marigondon NHS","shs?":"NO","tech-voc":"Arts and Trade","latitude":10.277968,"region":"Region VII","id 2":466,"w.bld":1,"arts&trade":1,"division.2012":"Lapu-Lapu City","sp.prog":"NO","enrtotal":3723,"sp.journ":0,"sp.fl":0,"sp.arts":0,"sp.s&t":0,"sch.id":303180,"municipality":"LAPU-LAPU CITY (OPON)","fish":0,"sp.program":null,"longitude":123.972737,"id":"ag4rxa2de4lc","province":"CEBU","sp.sports":0,"shs?1":0,"sp.prog1":0},"type":"Feature","geometry":{"type":"Point","coordinates":[123.972737,10.277968]}},{"properties":{"agri":0,"school name":"Marigondon NHS - Basak Night HS Ext.","shs?":"NO","tech-voc":"NO","latitude":10.296239,"region":"Region VII","id 2":466,"w.bld":0,"arts&trade":0,"division.2012":"Lapu-Lapu City","sp.prog":"NO","enrtotal":820,"sp.journ":0,"sp.fl":0,"sp.arts":0,"sp.s&t":0,"sch.id":303181,"municipality":"LAPU-LAPU CITY (OPON)","fish":0,"sp.program":null,"longitude":123.963102,"id":"ag4rxa4k574b","province":"CEBU","sp.sports":0,"shs?1":0,"sp.prog1":0},"type":"Feature","geometry":{"type":"Point","coordinates":[123.963102,10.296239]}},{"properties":{"agri":0,"school name":"Marigondon NHS - Gun-ob HS","shs?":"NO","tech-voc":"NO","latitude":10.301947,"region":"Region VII","id 2":466,"w.bld":0,"arts&trade":0,"division.2012":"Lapu-Lapu City","sp.prog":"NO","enrtotal":1226,"sp.journ":0,"sp.fl":0,"sp.arts":0,"sp.s&t":0,"sch.id":312703,"municipality":"LAPU-LAPU CITY (OPON)","fish":0,"sp.program":null,"longitude":123.950177,"id":"ag4rxad3gjta","province":"CEBU","sp.sports":0,"shs?1":0,"sp.prog1":0},"type":"Feature","geometry":{"type":"Point","coordinates":[123.950177,10.301947]}},{"properties":{"agri":0,"school name":"Marigondon NHS - Gun-ob Night HS","shs?":"NO","tech-voc":"NO","latitude":10.301697,"region":"Region VII","id 2":466,"w.bld":0,"arts&trade":0,"division.2012":"Lapu-Lapu City","sp.prog":"NO","enrtotal":309,"sp.journ":0,"sp.fl":0,"sp.arts":0,"sp.s&t":0,"sch.id":303182,"municipality":"LAPU-LAPU CITY (OPON)","fish":0,"sp.program":null,"longitude":123.950265,"id":"ag4rxab63e4t","province":"CEBU","sp.sports":0,"shs?1":0,"sp.prog1":0},"type":"Feature","geometry":{"type":"Point","coordinates":[123.950265,10.301697]}},{"properties":{"agri":0,"school name":"Marigondon NHS - Science Tech. Educ. Center (STEC) Ext.","shs?":"YES","tech-voc":"NO","latitude":10.287329,"region":"Region VII","id 2":466,"w.bld":1,"arts&trade":0,"division.2012":"Lapu-Lapu City","sp.prog":"YES","enrtotal":93,"sp.journ":0,"sp.fl":0,"sp.arts":0,"sp.s&t":1,"sch.id":303183,"municipality":"LAPU-LAPU CITY (OPON)","fish":0,"sp.program":"Sci &amp; Tech","longitude":123.961067,"id":"ag4rxab9h897","province":"CEBU","sp.sports":0,"shs?1":1,"sp.prog1":1},"type":"Feature","geometry":{"type":"Point","coordinates":[123.961067,10.287329]}},{"properties":{"agri":0,"school name":"Nemesio-Epifania Taneo MHS (Tingo HS (DE, January 15, 1995)","shs?":"NO","tech-voc":"NO","latitude":10.283041,"region":"Region VII","id 2":466,"w.bld":1,"arts&trade":0,"division.2012":"Lapu-Lapu City","sp.prog":"NO","enrtotal":649,"sp.journ":0,"sp.fl":0,"sp.arts":0,"sp.s&t":0,"sch.id":303193,"municipality":"LAPU-LAPU CITY (OPON)","fish":0,"sp.program":null,"longitude":124.068321,"id":"ag4rxa5c2ybw","province":"CEBU","sp.sports":0,"shs?1":0,"sp.prog1":0},"type":"Feature","geometry":{"type":"Point","coordinates":[124.068321,10.283041]}},{"properties":{"agri":0,"school name":"Pajo NHS","shs?":"NO","tech-voc":"NO","latitude":10.310227,"region":"Region VII","id 2":466,"w.bld":0,"arts&trade":0,"division.2012":"Lapu-Lapu City","sp.prog":"NO","enrtotal":1891,"sp.journ":0,"sp.fl":0,"sp.arts":0,"sp.s&t":0,"sch.id":303184,"municipality":"LAPU-LAPU CITY (OPON)","fish":0,"sp.program":null,"longitude":123.957843,"id":"ag4rxabeqjgs","province":"CEBU","sp.sports":0,"shs?1":0,"sp.prog1":0},"type":"Feature","geometry":{"type":"Point","coordinates":[123.957843,10.310227]}},{"properties":{"agri":0,"school name":"Pajo NHS - Pajo (Night) HS","shs?":"NO","tech-voc":"NO","latitude":10.310192,"region":"Region VII","id 2":466,"w.bld":0,"arts&trade":0,"division.2012":"Lapu-Lapu City","sp.prog":"NO","enrtotal":407,"sp.journ":0,"sp.fl":0,"sp.arts":0,"sp.s&t":0,"sch.id":303185,"municipality":"LAPU-LAPU CITY (OPON)","fish":0,"sp.program":null,"longitude":123.957856,"id":"ag4rxa2kbotd","province":"CEBU","sp.sports":0,"shs?1":0,"sp.prog1":0},"type":"Feature","geometry":{"type":"Point","coordinates":[123.957856,10.310192]}},{"properties":{"agri":0,"school name":"Pajo NHS - Pasay City North HS, MAB Annex","shs?":"NO","tech-voc":"NO","latitude":10.311112,"region":"Region VII","id 2":466,"w.bld":1,"arts&trade":0,"division.2012":"Lapu-Lapu City","sp.prog":"NO","enrtotal":408,"sp.journ":0,"sp.fl":0,"sp.arts":0,"sp.s&t":0,"sch.id":303186,"municipality":"LAPU-LAPU CITY (OPON)","fish":0,"sp.program":null,"longitude":123.980553,"id":"ag4rxa6anke7","province":"CEBU","sp.sports":0,"shs?1":0,"sp.prog1":0},"type":"Feature","geometry":{"type":"Point","coordinates":[123.980553,10.311112]}},{"properties":{"agri":0,"school name":"Pusok NHS","shs?":"NO","tech-voc":"NO","latitude":10.318826,"region":"Region VII","id 2":466,"w.bld":1,"arts&trade":0,"division.2012":"Lapu-Lapu City","sp.prog":"NO","enrtotal":1668,"sp.journ":0,"sp.fl":0,"sp.arts":0,"sp.s&t":0,"sch.id":303187,"municipality":"LAPU-LAPU CITY (OPON)","fish":0,"sp.program":null,"longitude":123.973715,"id":"ag4rxa6qdic0","province":"CEBU","sp.sports":0,"shs?1":0,"sp.prog1":0},"type":"Feature","geometry":{"type":"Point","coordinates":[123.973715,10.318826]}},{"properties":{"agri":0,"school name":"Pusok NHS - Pusok (Night) HS","shs?":"NO","tech-voc":"NO","latitude":10.318519,"region":"Region VII","id 2":466,"w.bld":0,"arts&trade":0,"division.2012":"Lapu-Lapu City","sp.prog":"NO","enrtotal":258,"sp.journ":0,"sp.fl":0,"sp.arts":0,"sp.s&t":0,"sch.id":303188,"municipality":"LAPU-LAPU CITY (OPON)","fish":0,"sp.program":null,"longitude":123.972339,"id":"ag4rxa6ehwhs","province":"CEBU","sp.sports":0,"shs?1":0,"sp.prog1":0},"type":"Feature","geometry":{"type":"Point","coordinates":[123.972339,10.318519]}},{"properties":{"agri":0,"school name":"Sta. Rosa NHS","shs?":"NO","tech-voc":"NO","latitude":10.266359,"region":"Region VII","id 2":466,"w.bld":0,"arts&trade":0,"division.2012":"Lapu-Lapu City","sp.prog":"NO","enrtotal":1502,"sp.journ":0,"sp.fl":0,"sp.arts":0,"sp.s&t":0,"sch.id":303189,"municipality":"LAPU-LAPU CITY (OPON)","fish":0,"sp.program":null,"longitude":124.049171,"id":"ag4rxa3h1s68","province":"CEBU","sp.sports":0,"shs?1":0,"sp.prog1":0},"type":"Feature","geometry":{"type":"Point","coordinates":[124.049171,10.266359]}},{"properties":{"agri":0,"school name":"Sta. Rosa NHS - Pangan-an HS Ext.","shs?":"NO","tech-voc":"NO","latitude":10.220334,"region":"Region VII","id 2":466,"w.bld":1,"arts&trade":0,"division.2012":"Lapu-Lapu City","sp.prog":"NO","enrtotal":152,"sp.journ":0,"sp.fl":0,"sp.arts":0,"sp.s&t":0,"sch.id":303191,"municipality":"LAPU-LAPU CITY (OPON)","fish":0,"sp.program":null,"longitude":124.039078,"id":"ag4rx9zy6b3j","province":"CEBU","sp.sports":0,"shs?1":0,"sp.prog1":0},"type":"Feature","geometry":{"type":"Point","coordinates":[124.039078,10.220334]}},{"properties":{"agri":0,"school name":"Cabancalan NHS","shs?":"NO","tech-voc":"NO","latitude":10.3492,"region":"Region VII","id 2":470,"w.bld":0,"arts&trade":0,"division.2012":"Mandaue City","sp.prog":"NO","enrtotal":2392,"sp.journ":0,"sp.fl":0,"sp.arts":0,"sp.s&t":0,"sch.id":303194,"municipality":"MANDAUE CITY","fish":0,"sp.program":null,"longitude":123.928,"id":"ag4rxa0x4och","province":"CEBU","sp.sports":0,"shs?1":0,"sp.prog1":0},"type":"Feature","geometry":{"type":"Point","coordinates":[123.928,10.3492]}},{"properties":{"agri":0,"school name":"Canduman NHS","shs?":"NO","tech-voc":"NO","latitude":10.366884,"region":"Region VII","id 2":470,"w.bld":1,"arts&trade":0,"division.2012":"Mandaue City","sp.prog":"NO","enrtotal":1888,"sp.journ":0,"sp.fl":0,"sp.arts":0,"sp.s&t":0,"sch.id":303195,"municipality":"MANDAUE CITY","fish":0,"sp.program":null,"longitude":123.934707,"id":"ag4rxaecs1f7","province":"CEBU","sp.sports":0,"shs?1":0,"sp.prog1":0},"type":"Feature","geometry":{"type":"Point","coordinates":[123.934707,10.366884]}},{"properties":{"agri":0,"school name":"Canduman NHS - Tabok NHS","shs?":"NO","tech-voc":"NO","latitude":10.3333,"region":"Region VII","id 2":470,"w.bld":1,"arts&trade":0,"division.2012":"Mandaue City","sp.prog":"NO","enrtotal":712,"sp.journ":0,"sp.fl":0,"sp.arts":0,"sp.s&t":0,"sch.id":312801,"municipality":"MANDAUE CITY","fish":0,"sp.program":null,"longitude":123.933,"id":"ag4rxa73n0n9","province":"CEBU","sp.sports":0,"shs?1":0,"sp.prog1":0},"type":"Feature","geometry":{"type":"Point","coordinates":[123.933,10.3333]}},{"properties":{"agri":0,"school name":"Don Gerardo Ll. Ouano MNHS","shs?":"NO","tech-voc":"NO","latitude":10.328968,"region":"Region VII","id 2":470,"w.bld":0,"arts&trade":0,"division.2012":"Mandaue City","sp.prog":"NO","enrtotal":1868,"sp.journ":0,"sp.fl":0,"sp.arts":0,"sp.s&t":0,"sch.id":303197,"municipality":"MANDAUE CITY","fish":0,"sp.program":null,"longitude":123.955097,"id":"ag4rxabc8wd6","province":"CEBU","sp.sports":0,"shs?1":0,"sp.prog1":0},"type":"Feature","geometry":{"type":"Point","coordinates":[123.955097,10.328968]}},{"properties":{"agri":0,"school name":"Jagobiao NHS","shs?":"NO","tech-voc":"NO","latitude":10.3333,"region":"Region VII","id 2":470,"w.bld":1,"arts&trade":0,"division.2012":"Mandaue City","sp.prog":"NO","enrtotal":719,"sp.journ":0,"sp.fl":0,"sp.arts":0,"sp.s&t":0,"sch.id":303198,"municipality":"MANDAUE CITY","fish":0,"sp.program":null,"longitude":123.933,"id":"ag4rxaa2bqm7","province":"CEBU","sp.sports":0,"shs?1":0,"sp.prog1":0},"type":"Feature","geometry":{"type":"Point","coordinates":[123.933,10.3333]}},{"properties":{"agri":0,"school name":"Mandaue City CNHS - Labogon NHS Ext.","shs?":"NO","tech-voc":"NO","latitude":10.351936,"region":"Region VII","id 2":470,"w.bld":1,"arts&trade":0,"division.2012":"Mandaue City","sp.prog":"NO","enrtotal":956,"sp.journ":0,"sp.fl":0,"sp.arts":0,"sp.s&t":0,"sch.id":303200,"municipality":"MANDAUE CITY","fish":0,"sp.program":null,"longitude":123.953011,"id":"ag4rxabnmn5h","province":"CEBU","sp.sports":0,"shs?1":0,"sp.prog1":0},"type":"Feature","geometry":{"type":"Point","coordinates":[123.953011,10.351936]}},{"properties":{"agri":0,"school name":"Mandaue City CNHS - Mandaue City Science HS Ext.","shs?":"YES","tech-voc":"NO","latitude":10.335268,"region":"Region VII","id 2":470,"w.bld":1,"arts&trade":0,"division.2012":"Mandaue City","sp.prog":"YES","enrtotal":312,"sp.journ":0,"sp.fl":0,"sp.arts":0,"sp.s&t":1,"sch.id":303201,"municipality":"MANDAUE CITY","fish":0,"sp.program":"Sci &amp; Tech","longitude":123.943948,"id":"ag4rxaadxfwr","province":"CEBU","sp.sports":0,"shs?1":1,"sp.prog1":1},"type":"Feature","geometry":{"type":"Point","coordinates":[123.943948,10.335268]}},{"properties":{"agri":0,"school name":"Mandaue City Comprehensive NHS","shs?":"NO","tech-voc":"Arts and Trade","latitude":10.323786,"region":"Region VII","id 2":470,"w.bld":0,"arts&trade":1,"division.2012":"Mandaue City","sp.prog":"YES","enrtotal":3871,"sp.journ":0,"sp.fl":0,"sp.arts":0,"sp.s&t":1,"sch.id":303199,"municipality":"MANDAUE CITY","fish":0,"sp.program":"Sci &amp; Tech","longitude":123.944514,"id":"ag4rxabqbgqv","province":"CEBU","sp.sports":0,"shs?1":0,"sp.prog1":1},"type":"Feature","geometry":{"type":"Point","coordinates":[123.944514,10.323786]}},{"properties":{"agri":0,"school name":"Mandaue SPED Center HS","shs?":"NO","tech-voc":"NO","latitude":10.325286,"region":"Region VII","id 2":470,"w.bld":1,"arts&trade":0,"division.2012":"Mandaue City","sp.prog":"NO","enrtotal":70,"sp.journ":0,"sp.fl":0,"sp.arts":0,"sp.s&t":0,"sch.id":312809,"municipality":"MANDAUE CITY","fish":0,"sp.program":null,"longitude":123.940855,"id":"ag4rxa3vev9t","province":"CEBU","sp.sports":0,"shs?1":0,"sp.prog1":0},"type":"Feature","geometry":{"type":"Point","coordinates":[123.940855,10.325286]}},{"properties":{"agri":0,"school name":"Pagsabungan National High School","shs?":"NO","tech-voc":"NO","latitude":10.35698,"region":"Region VII","id 2":470,"w.bld":0,"arts&trade":0,"division.2012":"Mandaue City","sp.prog":"NO","enrtotal":864,"sp.journ":0,"sp.fl":0,"sp.arts":0,"sp.s&t":0,"sch.id":303196,"municipality":"MANDAUE CITY","fish":0,"sp.program":null,"longitude":123.940169,"id":"ag4rxa4cfcgv","province":"CEBU","sp.sports":0,"shs?1":0,"sp.prog1":0},"type":"Feature","geometry":{"type":"Point","coordinates":[123.940169,10.35698]}},{"properties":{"agri":0,"school name":"Paknaan NHS","shs?":"NO","tech-voc":"NO","latitude":10.345079,"region":"Region VII","id 2":470,"w.bld":0,"arts&trade":0,"division.2012":"Mandaue City","sp.prog":"NO","enrtotal":1863,"sp.journ":0,"sp.fl":0,"sp.arts":0,"sp.s&t":0,"sch.id":303203,"municipality":"MANDAUE CITY","fish":0,"sp.program":null,"longitude":123.958714,"id":"ag4rxa6lro1b","province":"CEBU","sp.sports":0,"shs?1":0,"sp.prog1":0},"type":"Feature","geometry":{"type":"Point","coordinates":[123.958714,10.345079]}},{"properties":{"agri":0,"school name":"Subangdaku Tech-Voc HS (Mandaue City CNHS - Subangdaku NHS Ext.)","shs?":"NO","tech-voc":"Arts and Trade","latitude":10.3202,"region":"Region VII","id 2":470,"w.bld":1,"arts&trade":1,"division.2012":"Mandaue City","sp.prog":"NO","enrtotal":691,"sp.journ":0,"sp.fl":0,"sp.arts":0,"sp.s&t":0,"sch.id":303202,"municipality":"MANDAUE CITY","fish":0,"sp.program":null,"longitude":123.928,"id":"ag4rxa924gv7","province":"CEBU","sp.sports":0,"shs?1":0,"sp.prog1":0},"type":"Feature","geometry":{"type":"Point","coordinates":[123.928,10.3202]}},{"properties":{"agri":0,"school name":"Tipolo NHS","shs?":"NO","tech-voc":"NO","latitude":10.328369,"region":"Region VII","id 2":470,"w.bld":0,"arts&trade":0,"division.2012":"Mandaue City","sp.prog":"NO","enrtotal":1064,"sp.journ":0,"sp.fl":0,"sp.arts":0,"sp.s&t":0,"sch.id":303204,"municipality":"MANDAUE CITY","fish":0,"sp.program":null,"longitude":123.933264,"id":"ag4rxaepk0j7","province":"CEBU","sp.sports":0,"shs?1":0,"sp.prog1":0},"type":"Feature","geometry":{"type":"Point","coordinates":[123.933264,10.328369]}},{"properties":{"agri":0,"school name":"Actin National High School","shs?":"NO","tech-voc":"NO","latitude":9.381628,"region":"Region VII","id 2":1056,"w.bld":1,"arts&trade":0,"division.2012":"Negros Oriental","sp.prog":"NO","enrtotal":419,"sp.journ":0,"sp.fl":0,"sp.arts":0,"sp.s&t":0,"sch.id":303218,"municipality":"BASAY","fish":0,"sp.program":null,"longitude":122.696807,"id":"ag4rxa7ibrrg","province":"NEGROS ORIENTAL","sp.sports":0,"shs?1":0,"sp.prog1":0},"type":"Feature","geometry":{"type":"Point","coordinates":[122.696807,9.381628]}},{"properties":{"agri":0,"school name":"Ajong HS","shs?":"NO","tech-voc":"NO","latitude":9.380274,"region":"Region VII","id 2":1071,"w.bld":1,"arts&trade":0,"division.2012":"Negros Oriental","sp.prog":"NO","enrtotal":275,"sp.journ":0,"sp.fl":0,"sp.arts":0,"sp.s&t":0,"sch.id":303271,"municipality":"SIBULAN","fish":0,"sp.program":null,"longitude":123.258657,"id":"ag4rxabuxph5","province":"NEGROS ORIENTAL","sp.sports":0,"shs?1":0,"sp.prog1":0},"type":"Feature","geometry":{"type":"Point","coordinates":[123.258657,9.380274]}},{"properties":{"agri":0,"school name":"Amio NHS","shs?":"NO","tech-voc":"NO","latitude":9.414592,"region":"Region VII","id 2":1069,"w.bld":1,"arts&trade":0,"division.2012":"Negros Oriental","sp.prog":"NO","enrtotal":265,"sp.journ":0,"sp.fl":0,"sp.arts":0,"sp.s&t":0,"sch.id":303205,"municipality":"SANTA CATALINA","fish":0,"sp.program":null,"longitude":122.934749,"id":"ag4rxaf591d1","province":"NEGROS ORIENTAL","sp.sports":0,"shs?1":0,"sp.prog1":0},"type":"Feature","geometry":{"type":"Point","coordinates":[122.934749,9.414592]}},{"properties":{"agri":0,"school name":"Amlan NHS","shs?":"NO","tech-voc":"NO","latitude":9.464599,"region":"Region VII","id 2":1052,"w.bld":1,"arts&trade":0,"division.2012":"Negros Oriental","sp.prog":"NO","enrtotal":892,"sp.journ":0,"sp.fl":0,"sp.arts":0,"sp.s&t":0,"sch.id":303207,"municipality":"AMLAN (AYUQUITAN)","fish":0,"sp.program":null,"longitude":123.224335,"id":"ag4rxa9gs5e3","province":"NEGROS ORIENTAL","sp.sports":0,"shs?1":0,"sp.prog1":0},"type":"Feature","geometry":{"type":"Point","coordinates":[123.224335,9.464599]}},{"properties":{"agri":0,"school name":"Antonio B. Alejado MNHS (Mag-aso HS)","shs?":"NO","tech-voc":"NO","latitude":9.225839,"region":"Region VII","id 2":1060,"w.bld":1,"arts&trade":0,"division.2012":"Negros Oriental","sp.prog":"NO","enrtotal":292,"sp.journ":0,"sp.fl":0,"sp.arts":0,"sp.s&t":0,"sch.id":303226,"municipality":"DAUIN","fish":0,"sp.program":null,"longitude":123.233148,"id":"ag4rxa7dkiqk","province":"NEGROS ORIENTAL","sp.sports":0,"shs?1":0,"sp.prog1":0},"type":"Feature","geometry":{"type":"Point","coordinates":[123.233148,9.225839]}},{"properties":{"agri":0,"school name":"Apolinar B. Macias MHS (Casile NHS)","shs?":"NO","tech-voc":"NO","latitude":9.211448,"region":"Region VII","id 2":1060,"w.bld":1,"arts&trade":0,"division.2012":"Negros Oriental","sp.prog":"NO","enrtotal":220,"sp.journ":0,"sp.fl":0,"sp.arts":0,"sp.s&t":0,"sch.id":303224,"municipality":"DAUIN","fish":0,"sp.program":null,"longitude":123.228605,"id":"ag4rxa8mflyq","province":"NEGROS ORIENTAL","sp.sports":0,"shs?1":0,"sp.prog1":0},"type":"Feature","geometry":{"type":"Point","coordinates":[123.228605,9.211448]}},{"properties":{"agri":0,"school name":"Avocado CHS","shs?":"NO","tech-voc":"NO","latitude":9.301709,"region":"Region VII","id 2":1069,"w.bld":1,"arts&trade":0,"division.2012":"Negros Oriental","sp.prog":"NO","enrtotal":85,"sp.journ":0,"sp.fl":0,"sp.arts":0,"sp.s&t":0,"sch.id":303206,"municipality":"SANTA CATALINA","fish":0,"sp.program":null,"longitude":123.008335,"id":"ag4rxaedd8sn","province":"NEGROS ORIENTAL","sp.sports":0,"shs?1":0,"sp.prog1":0},"type":"Feature","geometry":{"type":"Point","coordinates":[123.008335,9.301709]}},{"properties":{"agri":0,"school name":"Ayungon National High School","shs?":"NO","tech-voc":"NO","latitude":9.843806,"region":"Region VII","id 2":1053,"w.bld":1,"arts&trade":0,"division.2012":"Negros Oriental","sp.prog":"NO","enrtotal":1322,"sp.journ":0,"sp.fl":0,"sp.arts":0,"sp.s&t":0,"sch.id":303210,"municipality":"AYUNGON","fish":0,"sp.program":null,"longitude":123.136581,"id":"ag4rxa2200qj","province":"NEGROS ORIENTAL","sp.sports":0,"shs?1":0,"sp.prog1":0},"type":"Feature","geometry":{"type":"Point","coordinates":[123.136581,9.843806]}},{"properties":{"agri":0,"school name":"Bagtic NHS","shs?":"NO","tech-voc":"NO","latitude":9.684828,"region":"Region VII","id 2":1065,"w.bld":1,"arts&trade":0,"division.2012":"Negros Oriental","sp.prog":"NO","enrtotal":298,"sp.journ":0,"sp.fl":0,"sp.arts":0,"sp.s&t":0,"sch.id":303211,"municipality":"MABINAY","fish":0,"sp.program":null,"longitude":123.015865,"id":"ag4rxadgtnwg","province":"NEGROS ORIENTAL","sp.sports":0,"shs?1":0,"sp.prog1":0},"type":"Feature","geometry":{"type":"Point","coordinates":[123.015865,9.684828]}},{"properties":{"agri":0,"school name":"Bal-os National High School","shs?":"NO","tech-voc":"NO","latitude":9.426556,"region":"Region VII","id 2":1056,"w.bld":1,"arts&trade":0,"division.2012":"Negros Oriental","sp.prog":"NO","enrtotal":413,"sp.journ":0,"sp.fl":0,"sp.arts":0,"sp.s&t":0,"sch.id":303219,"municipality":"BASAY","fish":0,"sp.program":null,"longitude":122.630346,"id":"ag4rxa67byac","province":"NEGROS ORIENTAL","sp.sports":0,"shs?1":0,"sp.prog1":0},"type":"Feature","geometry":{"type":"Point","coordinates":[122.630346,9.426556]}},{"properties":{"agri":0,"school name":"Barras Annex NHS","shs?":"NO","tech-voc":"NO","latitude":9.716261,"region":"Region VII","id 2":1065,"w.bld":1,"arts&trade":0,"division.2012":"Negros Oriental","sp.prog":"NO","enrtotal":161,"sp.journ":0,"sp.fl":0,"sp.arts":0,"sp.s&t":0,"sch.id":303245,"municipality":"MABINAY","fish":0,"sp.program":null,"longitude":122.852033,"id":"ag4rxa1xsr8r","province":"NEGROS ORIENTAL","sp.sports":0,"shs?1":0,"sp.prog1":0},"type":"Feature","geometry":{"type":"Point","coordinates":[122.852033,9.716261]}},{"properties":{"agri":0,"school name":"Basay NHS","shs?":"NO","tech-voc":"NO","latitude":9.40647,"region":"Region VII","id 2":1056,"w.bld":1,"arts&trade":0,"division.2012":"Negros Oriental","sp.prog":"NO","enrtotal":767,"sp.journ":0,"sp.fl":0,"sp.arts":0,"sp.s&t":0,"sch.id":303217,"municipality":"BASAY","fish":0,"sp.program":null,"longitude":122.649292,"id":"ag4rxa61sx01","province":"NEGROS ORIENTAL","sp.sports":0,"shs?1":0,"sp.prog1":0},"type":"Feature","geometry":{"type":"Point","coordinates":[122.649292,9.40647]}},{"properties":{"agri":0,"school name":"Budlasan NHS Annex","shs?":"NO","tech-voc":"NO","latitude":10.33412,"region":"Region VII","id 2":1059,"w.bld":1,"arts&trade":0,"division.2012":"Negros Oriental","sp.prog":"NO","enrtotal":276,"sp.journ":0,"sp.fl":0,"sp.arts":0,"sp.s&t":0,"sch.id":303222,"municipality":"CANLAON CITY","fish":0,"sp.program":null,"longitude":123.212249,"id":"ag4rxafop840","province":"NEGROS ORIENTAL","sp.sports":0,"shs?1":0,"sp.prog1":0},"type":"Feature","geometry":{"type":"Point","coordinates":[123.212249,10.33412]}},{"properties":{"agri":0,"school name":"Casiano Z. Napigkit NHS (Manalongon NHS)","shs?":"NO","tech-voc":"NO","latitude":9.219741,"region":"Region VII","id 2":1069,"w.bld":1,"arts&trade":0,"division.2012":"Negros Oriental","sp.prog":"NO","enrtotal":498,"sp.journ":0,"sp.fl":0,"sp.arts":0,"sp.s&t":0,"sch.id":303250,"municipality":"SANTA CATALINA","fish":0,"sp.program":null,"longitude":122.887606,"id":"ag4rxa1op59f","province":"NEGROS ORIENTAL","sp.sports":0,"shs?1":0,"sp.prog1":0},"type":"Feature","geometry":{"type":"Point","coordinates":[122.887606,9.219741]}},{"properties":{"agri":0,"school name":"Dahile PCHS","shs?":"NO","tech-voc":"NO","latitude":9.803419,"region":"Region VII","id 2":1065,"w.bld":1,"arts&trade":0,"division.2012":"Negros Oriental","sp.prog":"NO","enrtotal":307,"sp.journ":0,"sp.fl":0,"sp.arts":0,"sp.s&t":0,"sch.id":303246,"municipality":"MABINAY","fish":0,"sp.program":null,"longitude":122.926263,"id":"ag4rxa6ebb99","province":"NEGROS ORIENTAL","sp.sports":0,"shs?1":0,"sp.prog1":0},"type":"Feature","geometry":{"type":"Point","coordinates":[122.926263,9.803419]}},{"properties":{"agri":0,"school name":"Dauin National High School","shs?":"NO","tech-voc":"NO","latitude":9.188558,"region":"Region VII","id 2":1060,"w.bld":1,"arts&trade":0,"division.2012":"Negros Oriental","sp.prog":"NO","enrtotal":1044,"sp.journ":0,"sp.fl":0,"sp.arts":0,"sp.s&t":0,"sch.id":303225,"municipality":"DAUIN","fish":0,"sp.program":null,"longitude":123.268213,"id":"ag4rxaa5yqzo","province":"NEGROS ORIENTAL","sp.sports":0,"shs?1":0,"sp.prog1":0},"type":"Feature","geometry":{"type":"Point","coordinates":[123.268213,9.188558]}},{"properties":{"agri":0,"school name":"Demetrio Alviola NHS - Nalundan Annex","shs?":"NO","tech-voc":"NO","latitude":9.756999,"region":"Region VII","id 2":1058,"w.bld":1,"arts&trade":0,"division.2012":"Negros Oriental","sp.prog":"NO","enrtotal":212,"sp.journ":0,"sp.fl":0,"sp.arts":0,"sp.s&t":0,"sch.id":303229,"municipality":"BINDOY (PAYABON)","fish":0,"sp.program":null,"longitude":123.050709,"id":"ag4rxabzwrha","province":"NEGROS ORIENTAL","sp.sports":0,"shs?1":0,"sp.prog1":0},"type":"Feature","geometry":{"type":"Point","coordinates":[123.050709,9.756999]}},{"properties":{"agri":0,"school name":"Demetrio L. Alviola NHS","shs?":"NO","tech-voc":"NO","latitude":9.77421,"region":"Region VII","id 2":1058,"w.bld":1,"arts&trade":0,"division.2012":"Negros Oriental","sp.prog":"YES","enrtotal":2006,"sp.journ":0,"sp.fl":0,"sp.arts":0,"sp.s&t":1,"sch.id":303228,"municipality":"BINDOY (PAYABON)","fish":0,"sp.program":"Sci &amp; Tech","longitude":123.145304,"id":"ag4rxafpe09o","province":"NEGROS ORIENTAL","sp.sports":0,"shs?1":0,"sp.prog1":1},"type":"Feature","geometry":{"type":"Point","coordinates":[123.145304,9.77421]}},{"properties":{"agri":0,"school name":"Don Emilio Macias MNHS (San Francisco NHS)","shs?":"NO","tech-voc":"NO","latitude":9.179767,"region":"Region VII","id 2":1069,"w.bld":1,"arts&trade":0,"division.2012":"Negros Oriental","sp.prog":"NO","enrtotal":619,"sp.journ":0,"sp.fl":0,"sp.arts":0,"sp.s&t":0,"sch.id":303263,"municipality":"SANTA CATALINA","fish":0,"sp.program":null,"longitude":122.89927,"id":"ag4rxa581hq4","province":"NEGROS ORIENTAL","sp.sports":0,"shs?1":0,"sp.prog1":0},"type":"Feature","geometry":{"type":"Point","coordinates":[122.89927,9.179767]}},{"properties":{"agri":0,"school name":"Inapoy HS","shs?":"NO","tech-voc":"NO","latitude":9.761544,"region":"Region VII","id 2":1065,"w.bld":1,"arts&trade":0,"division.2012":"Negros Oriental","sp.prog":"NO","enrtotal":236,"sp.journ":0,"sp.fl":0,"sp.arts":0,"sp.s&t":0,"sch.id":303234,"municipality":"MABINAY","fish":0,"sp.program":null,"longitude":122.871167,"id":"ag4rxacxd0ix","province":"NEGROS ORIENTAL","sp.sports":0,"shs?1":0,"sp.prog1":0},"type":"Feature","geometry":{"type":"Point","coordinates":[122.871167,9.761544]}},{"properties":{"agri":0,"school name":"Isidoro Salma MHS (Balayong )","shs?":"NO","tech-voc":"NO","latitude":9.435134,"region":"Region VII","id 2":1067,"w.bld":1,"arts&trade":0,"division.2012":"Negros Oriental","sp.prog":"NO","enrtotal":373,"sp.journ":0,"sp.fl":0,"sp.arts":0,"sp.s&t":0,"sch.id":303274,"municipality":"PAMPLONA","fish":0,"sp.program":null,"longitude":123.069566,"id":"ag4rxaewhv5p","province":"NEGROS ORIENTAL","sp.sports":0,"shs?1":0,"sp.prog1":0},"type":"Feature","geometry":{"type":"Point","coordinates":[123.069566,9.435134]}},{"properties":{"agri":0,"school name":"Jantianon NHS","shs?":"NO","tech-voc":"NO","latitude":9.440165,"region":"Region VII","id 2":1052,"w.bld":1,"arts&trade":0,"division.2012":"Negros Oriental","sp.prog":"NO","enrtotal":263,"sp.journ":0,"sp.fl":0,"sp.arts":0,"sp.s&t":0,"sch.id":303208,"municipality":"AMLAN (AYUQUITAN)","fish":0,"sp.program":null,"longitude":123.16041,"id":"ag4rxafaaaqp","province":"NEGROS ORIENTAL","sp.sports":0,"shs?1":0,"sp.prog1":0},"type":"Feature","geometry":{"type":"Point","coordinates":[123.16041,9.440165]}},{"properties":{"agri":0,"school name":"Jimalalud NHS","shs?":"NO","tech-voc":"NO","latitude":9.974389,"region":"Region VII","id 2":1063,"w.bld":1,"arts&trade":0,"division.2012":"Negros Oriental","sp.prog":"NO","enrtotal":996,"sp.journ":0,"sp.fl":0,"sp.arts":0,"sp.s&t":0,"sch.id":303235,"municipality":"JIMALALUD","fish":0,"sp.program":null,"longitude":123.199135,"id":"ag4rxa000alh","province":"NEGROS ORIENTAL","sp.sports":0,"shs?1":0,"sp.prog1":0},"type":"Feature","geometry":{"type":"Point","coordinates":[123.199135,9.974389]}},{"properties":{"agri":0,"school name":"Jose B. Cardenas MHS (Canlaon City NHS)","shs?":"NO","tech-voc":"NO","latitude":10.382992,"region":"Region VII","id 2":1059,"w.bld":1,"arts&trade":0,"division.2012":"Negros Oriental","sp.prog":"NO","enrtotal":2005,"sp.journ":0,"sp.fl":0,"sp.arts":0,"sp.s&t":0,"sch.id":303223,"municipality":"CANLAON CITY","fish":0,"sp.program":null,"longitude":123.2289,"id":"ag4rxaeu854h","province":"NEGROS ORIENTAL","sp.sports":0,"shs?1":0,"sp.prog1":0},"type":"Feature","geometry":{"type":"Point","coordinates":[123.2289,10.382992]}},{"properties":{"agri":0,"school name":"Jose Marie Locsin MHS (Mayabon HS)","shs?":"NO","tech-voc":"NO","latitude":9.105185,"region":"Region VII","id 2":1076,"w.bld":1,"arts&trade":0,"division.2012":"Negros Oriental","sp.prog":"NO","enrtotal":585,"sp.journ":0,"sp.fl":0,"sp.arts":0,"sp.s&t":0,"sch.id":303236,"municipality":"ZAMBOANGUITA","fish":0,"sp.program":null,"longitude":123.146472,"id":"ag4rxafhuycm","province":"NEGROS ORIENTAL","sp.sports":0,"shs?1":0,"sp.prog1":0},"type":"Feature","geometry":{"type":"Point","coordinates":[123.146472,9.105185]}},{"properties":{"agri":0,"school name":"La Libertad Technical-Vocational School","shs?":"NO","tech-voc":"NO","latitude":10.025001,"region":"Region VII","id 2":1064,"w.bld":1,"arts&trade":0,"division.2012":"Negros Oriental","sp.prog":"YES","enrtotal":1313,"sp.journ":0,"sp.fl":0,"sp.arts":0,"sp.s&t":1,"sch.id":303243,"municipality":"LA LIBERTAD","fish":0,"sp.program":"Sci &amp; Tech","longitude":123.235307,"id":"ag4rxa4a570e","province":"NEGROS ORIENTAL","sp.sports":0,"shs?1":0,"sp.prog1":1},"type":"Feature","geometry":{"type":"Point","coordinates":[123.235307,10.025001]}},{"properties":{"agri":0,"school name":"Lorenza P. Palarpalar MHS (Bonbonon PCHS)","shs?":"NO","tech-voc":"NO","latitude":9.06609,"region":"Region VII","id 2":1070,"w.bld":1,"arts&trade":0,"division.2012":"Negros Oriental","sp.prog":"NO","enrtotal":144,"sp.journ":0,"sp.fl":0,"sp.arts":0,"sp.s&t":0,"sch.id":303269,"municipality":"SIATON","fish":0,"sp.program":null,"longitude":123.114628,"id":"ag4rxa6tlj38","province":"NEGROS ORIENTAL","sp.sports":0,"shs?1":0,"sp.prog1":0},"type":"Feature","geometry":{"type":"Point","coordinates":[123.114628,9.06609]}},{"properties":{"agri":0,"school name":"Mabato Provincial Community High School","shs?":"NO","tech-voc":"NO","latitude":9.805407,"region":"Region VII","id 2":1053,"w.bld":1,"arts&trade":0,"division.2012":"Negros Oriental","sp.prog":"NO","enrtotal":323,"sp.journ":0,"sp.fl":0,"sp.arts":0,"sp.s&t":0,"sch.id":303277,"municipality":"AYUNGON","fish":0,"sp.program":null,"longitude":122.995019,"id":"ag4rxacxkk0d","province":"NEGROS ORIENTAL","sp.sports":0,"shs?1":0,"sp.prog1":0},"type":"Feature","geometry":{"type":"Point","coordinates":[122.995019,9.805407]}},{"properties":{"agri":0,"school name":"Mabinay National High School","shs?":"NO","tech-voc":"NO","latitude":9.720781,"region":"Region VII","id 2":1065,"w.bld":1,"arts&trade":0,"division.2012":"Negros Oriental","sp.prog":"NO","enrtotal":1650,"sp.journ":0,"sp.fl":0,"sp.arts":0,"sp.s&t":0,"sch.id":303244,"municipality":"MABINAY","fish":0,"sp.program":null,"longitude":122.936658,"id":"ag4rxabpk969","province":"NEGROS ORIENTAL","sp.sports":0,"shs?1":0,"sp.prog1":0},"type":"Feature","geometry":{"type":"Point","coordinates":[122.936658,9.720781]}},{"properties":{"agri":0,"school name":"Maglinao National High School","shs?":"NO","tech-voc":"NO","latitude":9.469859,"region":"Region VII","id 2":1056,"w.bld":1,"arts&trade":0,"division.2012":"Negros Oriental","sp.prog":"NO","enrtotal":285,"sp.journ":0,"sp.fl":0,"sp.arts":0,"sp.s&t":0,"sch.id":303220,"municipality":"BASAY","fish":0,"sp.program":null,"longitude":122.662946,"id":"ag4rxa33vf77","province":"NEGROS ORIENTAL","sp.sports":0,"shs?1":0,"sp.prog1":0},"type":"Feature","geometry":{"type":"Point","coordinates":[122.662946,9.469859]}},{"properties":{"agri":0,"school name":"Maloh PCHS","shs?":"NO","tech-voc":"NO","latitude":9.06565,"region":"Region VII","id 2":1070,"w.bld":1,"arts&trade":0,"division.2012":"Negros Oriental","sp.prog":"NO","enrtotal":469,"sp.journ":0,"sp.fl":0,"sp.arts":0,"sp.s&t":0,"sch.id":303253,"municipality":"SIATON","fish":0,"sp.program":null,"longitude":122.972129,"id":"ag4rxabsy6w0","province":"NEGROS ORIENTAL","sp.sports":0,"shs?1":0,"sp.prog1":0},"type":"Feature","geometry":{"type":"Point","coordinates":[122.972129,9.06565]}},{"properties":{"agri":0,"school name":"Manjuyod NHS","shs?":"NO","tech-voc":"NO","latitude":9.680027,"region":"Region VII","id 2":1066,"w.bld":1,"arts&trade":0,"division.2012":"Negros Oriental","sp.prog":"NO","enrtotal":1474,"sp.journ":0,"sp.fl":0,"sp.arts":0,"sp.s&t":0,"sch.id":303251,"municipality":"MANJUYOD","fish":0,"sp.program":null,"longitude":123.149643,"id":"ag4rxacg1zug","province":"NEGROS ORIENTAL","sp.sports":0,"shs?1":0,"sp.prog1":0},"type":"Feature","geometry":{"type":"Point","coordinates":[123.149643,9.680027]}},{"properties":{"agri":0,"school name":"Maria Macahig NHS","shs?":"NO","tech-voc":"NO","latitude":9.131776,"region":"Region VII","id 2":1070,"w.bld":1,"arts&trade":0,"division.2012":"Negros Oriental","sp.prog":"NO","enrtotal":631,"sp.journ":0,"sp.fl":0,"sp.arts":0,"sp.s&t":0,"sch.id":303252,"municipality":"SIATON","fish":0,"sp.program":null,"longitude":122.920562,"id":"ag4rxa4zvmwq","province":"NEGROS ORIENTAL","sp.sports":0,"shs?1":0,"sp.prog1":0},"type":"Feature","geometry":{"type":"Point","coordinates":[122.920562,9.131776]}},{"properties":{"agri":0,"school name":"Negros Oriental NHS","shs?":"NO","tech-voc":"NO","latitude":9.312453,"region":"Region VII","id 2":1061,"w.bld":1,"arts&trade":0,"division.2012":"Negros Oriental","sp.prog":"YES","enrtotal":3329,"sp.journ":0,"sp.fl":0,"sp.arts":0,"sp.s&t":0,"sch.id":303255,"municipality":"DUMAGUETE CITY (Capital)","fish":0,"sp.program":"Sports,","longitude":123.303192,"id":"ag4rxa4jcktm","province":"NEGROS ORIENTAL","sp.sports":1,"shs?1":0,"sp.prog1":1},"type":"Feature","geometry":{"type":"Point","coordinates":[123.303192,9.312453]}},{"properties":{"agri":0,"school name":"Obat High School","shs?":"NO","tech-voc":"NO","latitude":9.373943,"region":"Region VII","id 2":1069,"w.bld":1,"arts&trade":0,"division.2012":"Negros Oriental","sp.prog":"NO","enrtotal":348,"sp.journ":0,"sp.fl":0,"sp.arts":0,"sp.s&t":0,"sch.id":303264,"municipality":"SANTA CATALINA","fish":0,"sp.program":null,"longitude":122.920462,"id":"ag4rxab2znb0","province":"NEGROS ORIENTAL","sp.sports":0,"shs?1":0,"sp.prog1":0},"type":"Feature","geometry":{"type":"Point","coordinates":[122.920462,9.373943]}},{"properties":{"agri":0,"school name":"Ong Che Tee - Bacong High Sch.","shs?":"NO","tech-voc":"NO","latitude":9.252173,"region":"Region VII","id 2":1054,"w.bld":1,"arts&trade":0,"division.2012":"Negros Oriental","sp.prog":"NO","enrtotal":642,"sp.journ":0,"sp.fl":0,"sp.arts":0,"sp.s&t":0,"sch.id":303267,"municipality":"BACONG","fish":0,"sp.program":null,"longitude":123.296257,"id":"ag4rxa7yupar","province":"NEGROS ORIENTAL","sp.sports":0,"shs?1":0,"sp.prog1":0},"type":"Feature","geometry":{"type":"Point","coordinates":[123.296257,9.252173]}},{"properties":{"agri":0,"school name":"Owacan Provincial Comm. HS","shs?":"NO","tech-voc":"NO","latitude":10.032091,"region":"Region VII","id 2":1063,"w.bld":1,"arts&trade":0,"division.2012":"Negros Oriental","sp.prog":"NO","enrtotal":355,"sp.journ":0,"sp.fl":0,"sp.arts":0,"sp.s&t":0,"sch.id":303257,"municipality":"JIMALALUD","fish":0,"sp.program":null,"longitude":123.126922,"id":"ag4rxa8ukllo","province":"NEGROS ORIENTAL","sp.sports":0,"shs?1":0,"sp.prog1":0},"type":"Feature","geometry":{"type":"Point","coordinates":[123.126922,10.032091]}},{"properties":{"agri":0,"school name":"Pacuan National High School","shs?":"NO","tech-voc":"NO","latitude":10.076767,"region":"Region VII","id 2":1064,"w.bld":1,"arts&trade":0,"division.2012":"Negros Oriental","sp.prog":"NO","enrtotal":813,"sp.journ":0,"sp.fl":0,"sp.arts":0,"sp.s&t":0,"sch.id":303258,"municipality":"LA LIBERTAD","fish":0,"sp.program":null,"longitude":123.15865,"id":"ag4rxaa9lt4s","province":"NEGROS ORIENTAL","sp.sports":0,"shs?1":0,"sp.prog1":0},"type":"Feature","geometry":{"type":"Point","coordinates":[123.15865,10.076767]}},{"properties":{"agri":0,"school name":"Pamplona NHS","shs?":"NO","tech-voc":"NO","latitude":9.473481,"region":"Region VII","id 2":1067,"w.bld":1,"arts&trade":0,"division.2012":"Negros Oriental","sp.prog":"NO","enrtotal":905,"sp.journ":0,"sp.fl":0,"sp.arts":0,"sp.s&t":0,"sch.id":303259,"municipality":"PAMPLONA","fish":0,"sp.program":null,"longitude":123.12721,"id":"ag4rxa7yv57q","province":"NEGROS ORIENTAL","sp.sports":0,"shs?1":0,"sp.prog1":0},"type":"Feature","geometry":{"type":"Point","coordinates":[123.12721,9.473481]}},{"properties":{"agri":0,"school name":"Paniabonan HS","shs?":"NO","tech-voc":"NO","latitude":9.672231,"region":"Region VII","id 2":1065,"w.bld":1,"arts&trade":0,"division.2012":"Negros Oriental","sp.prog":"NO","enrtotal":696,"sp.journ":0,"sp.fl":0,"sp.arts":0,"sp.s&t":0,"sch.id":303247,"municipality":"MABINAY","fish":0,"sp.program":null,"longitude":122.969719,"id":"ag4rxa0oo8g8","province":"NEGROS ORIENTAL","sp.sports":0,"shs?1":0,"sp.prog1":0},"type":"Feature","geometry":{"type":"Point","coordinates":[122.969719,9.672231]}},{"properties":{"agri":0,"school name":"Pantao NHS","shs?":"NO","tech-voc":"NO","latitude":9.644364,"region":"Region VII","id 2":1065,"w.bld":1,"arts&trade":0,"division.2012":"Negros Oriental","sp.prog":"NO","enrtotal":269,"sp.journ":0,"sp.fl":0,"sp.arts":0,"sp.s&t":0,"sch.id":303260,"municipality":"MABINAY","fish":0,"sp.program":null,"longitude":122.916648,"id":"ag4rxa9jwtsq","province":"NEGROS ORIENTAL","sp.sports":0,"shs?1":0,"sp.prog1":0},"type":"Feature","geometry":{"type":"Point","coordinates":[122.916648,9.644364]}},{"properties":{"agri":0,"school name":"Pinalubngan NHS","shs?":"NO","tech-voc":"NO","latitude":9.963649,"region":"Region VII","id 2":1073,"w.bld":1,"arts&trade":0,"division.2012":"Negros Oriental","sp.prog":"NO","enrtotal":242,"sp.journ":0,"sp.fl":0,"sp.arts":0,"sp.s&t":0,"sch.id":303261,"municipality":"TAYASAN","fish":0,"sp.program":null,"longitude":123.089468,"id":"ag4rxa2ua0ia","province":"NEGROS ORIENTAL","sp.sports":0,"shs?1":0,"sp.prog1":0},"type":"Feature","geometry":{"type":"Point","coordinates":[123.089468,9.963649]}},{"properties":{"agri":0,"school name":"Pulangbato NHS","shs?":"NO","tech-voc":"NO","latitude":9.31077,"region":"Region VII","id 2":1074,"w.bld":1,"arts&trade":0,"division.2012":"Negros Oriental","sp.prog":"NO","enrtotal":436,"sp.journ":0,"sp.fl":0,"sp.arts":0,"sp.s&t":0,"sch.id":303262,"municipality":"VALENCIA (LUZURRIAGA)","fish":0,"sp.program":null,"longitude":123.211344,"id":"ag4rxab5pgu9","province":"NEGROS ORIENTAL","sp.sports":0,"shs?1":0,"sp.prog1":0},"type":"Feature","geometry":{"type":"Point","coordinates":[123.211344,9.31077]}},{"properties":{"agri":0,"school name":"San Antonio National Hgh School","shs?":"NO","tech-voc":"NO","latitude":9.337606,"region":"Region VII","id 2":1071,"w.bld":1,"arts&trade":0,"division.2012":"Negros Oriental","sp.prog":"NO","enrtotal":232,"sp.journ":0,"sp.fl":0,"sp.arts":0,"sp.s&t":0,"sch.id":303272,"municipality":"SIBULAN","fish":0,"sp.program":null,"longitude":123.239923,"id":"ag4rxa1igwwy","province":"NEGROS ORIENTAL","sp.sports":0,"shs?1":0,"sp.prog1":0},"type":"Feature","geometry":{"type":"Point","coordinates":[123.239923,9.337606]}},{"properties":{"agri":0,"school name":"San Miguel National High School","shs?":"NO","tech-voc":"NO","latitude":9.224719,"region":"Region VII","id 2":1054,"w.bld":1,"arts&trade":0,"division.2012":"Negros Oriental","sp.prog":"NO","enrtotal":504,"sp.journ":0,"sp.fl":0,"sp.arts":0,"sp.s&t":0,"sch.id":303266,"municipality":"BACONG","fish":0,"sp.program":null,"longitude":123.284028,"id":"ag4rxaf58ri9","province":"NEGROS ORIENTAL","sp.sports":0,"shs?1":0,"sp.prog1":0},"type":"Feature","geometry":{"type":"Point","coordinates":[123.284028,9.224719]}},{"properties":{"agri":0,"school name":"Santiago Delmo NHS (Maluay HS)","shs?":"NO","tech-voc":"NO","latitude":9.136411,"region":"Region VII","id 2":1076,"w.bld":1,"arts&trade":0,"division.2012":"Negros Oriental","sp.prog":"NO","enrtotal":820,"sp.journ":0,"sp.fl":0,"sp.arts":0,"sp.s&t":0,"sch.id":303249,"municipality":"ZAMBOANGUITA","fish":0,"sp.program":null,"longitude":123.220695,"id":"ag4rx9zc5igk","province":"NEGROS ORIENTAL","sp.sports":0,"shs?1":0,"sp.prog1":0},"type":"Feature","geometry":{"type":"Point","coordinates":[123.220695,9.136411]}},{"properties":{"agri":0,"school name":"Siaton NHS","shs?":"NO","tech-voc":"NO","latitude":9.058576,"region":"Region VII","id 2":1070,"w.bld":1,"arts&trade":0,"division.2012":"Negros Oriental","sp.prog":"NO","enrtotal":1452,"sp.journ":0,"sp.fl":0,"sp.arts":0,"sp.s&t":0,"sch.id":303268,"municipality":"SIATON","fish":0,"sp.program":null,"longitude":123.037196,"id":"ag4rxa09rx2d","province":"NEGROS ORIENTAL","sp.sports":0,"shs?1":0,"sp.prog1":0},"type":"Feature","geometry":{"type":"Point","coordinates":[123.037196,9.058576]}},{"properties":{"agri":0,"school name":"Sibulan NHS","shs?":"NO","tech-voc":"NO","latitude":9.359383,"region":"Region VII","id 2":1071,"w.bld":1,"arts&trade":0,"division.2012":"Negros Oriental","sp.prog":"NO","enrtotal":1090,"sp.journ":0,"sp.fl":0,"sp.arts":0,"sp.s&t":0,"sch.id":303270,"municipality":"SIBULAN","fish":0,"sp.program":null,"longitude":123.287282,"id":"ag4rxaf735r0","province":"NEGROS ORIENTAL","sp.sports":0,"shs?1":0,"sp.prog1":0},"type":"Feature","geometry":{"type":"Point","coordinates":[123.287282,9.359383]}},{"properties":{"agri":0,"school name":"Silab Comm. HS Annex","shs?":"NO","tech-voc":"NO","latitude":9.434769,"region":"Region VII","id 2":1052,"w.bld":1,"arts&trade":0,"division.2012":"Negros Oriental","sp.prog":"NO","enrtotal":286,"sp.journ":0,"sp.fl":0,"sp.arts":0,"sp.s&t":0,"sch.id":303209,"municipality":"AMLAN (AYUQUITAN)","fish":0,"sp.program":null,"longitude":123.19081,"id":"ag4rxaare3dr","province":"NEGROS ORIENTAL","sp.sports":0,"shs?1":0,"sp.prog1":0},"type":"Feature","geometry":{"type":"Point","coordinates":[123.19081,9.434769]}},{"properties":{"agri":0,"school name":"Sta. Agueda NHS","shs?":"NO","tech-voc":"NO","latitude":9.433131,"region":"Region VII","id 2":1067,"w.bld":1,"arts&trade":0,"division.2012":"Negros Oriental","sp.prog":"NO","enrtotal":609,"sp.journ":0,"sp.fl":0,"sp.arts":0,"sp.s&t":0,"sch.id":303273,"municipality":"PAMPLONA","fish":0,"sp.program":null,"longitude":123.084921,"id":"ag4rxa7d1dto","province":"NEGROS ORIENTAL","sp.sports":0,"shs?1":0,"sp.prog1":0},"type":"Feature","geometry":{"type":"Point","coordinates":[123.084921,9.433131]}},{"properties":{"agri":0,"school name":"Sta. Catalina NHS","shs?":"NO","tech-voc":"NO","latitude":9.328186,"region":"Region VII","id 2":1069,"w.bld":1,"arts&trade":0,"division.2012":"Negros Oriental","sp.prog":"NO","enrtotal":1230,"sp.journ":0,"sp.fl":0,"sp.arts":0,"sp.s&t":0,"sch.id":303265,"municipality":"SANTA CATALINA","fish":0,"sp.program":null,"longitude":122.871048,"id":"ag4rxa2py13q","province":"NEGROS ORIENTAL","sp.sports":0,"shs?1":0,"sp.prog1":0},"type":"Feature","geometry":{"type":"Point","coordinates":[122.871048,9.328186]}},{"properties":{"agri":0,"school name":"Tagbino NHS","shs?":"NO","tech-voc":"NO","latitude":10.374497,"region":"Region VII","id 2":1075,"w.bld":1,"arts&trade":0,"division.2012":"Negros Oriental","sp.prog":"NO","enrtotal":513,"sp.journ":0,"sp.fl":0,"sp.arts":0,"sp.s&t":0,"sch.id":303275,"municipality":"VALLEHERMOSO","fish":0,"sp.program":null,"longitude":123.271972,"id":"ag4rxaew5krq","province":"NEGROS ORIENTAL","sp.sports":0,"shs?1":0,"sp.prog1":0},"type":"Feature","geometry":{"type":"Point","coordinates":[123.271972,10.374497]}},{"properties":{"agri":0,"school name":"Tambo National High School","shs?":"NO","tech-voc":"NO","latitude":9.892873,"region":"Region VII","id 2":1053,"w.bld":1,"arts&trade":0,"division.2012":"Negros Oriental","sp.prog":"NO","enrtotal":679,"sp.journ":0,"sp.fl":0,"sp.arts":0,"sp.s&t":0,"sch.id":303276,"municipality":"AYUNGON","fish":0,"sp.program":null,"longitude":123.058623,"id":"ag4rxaccfrwk","province":"NEGROS ORIENTAL","sp.sports":0,"shs?1":0,"sp.prog1":0},"type":"Feature","geometry":{"type":"Point","coordinates":[123.058623,9.892873]}},{"properties":{"agri":0,"school name":"Tampi NHS","shs?":"NO","tech-voc":"NO","latitude":9.439602,"region":"Region VII","id 2":1068,"w.bld":1,"arts&trade":0,"division.2012":"Negros Oriental","sp.prog":"NO","enrtotal":410,"sp.journ":0,"sp.fl":0,"sp.arts":0,"sp.s&t":0,"sch.id":303278,"municipality":"SAN JOSE","fish":0,"sp.program":null,"longitude":123.236943,"id":"ag4rxabdqin6","province":"NEGROS ORIENTAL","sp.sports":0,"shs?1":0,"sp.prog1":0},"type":"Feature","geometry":{"type":"Point","coordinates":[123.236943,9.439602]}},{"properties":{"agri":0,"school name":"Tara PCHS","shs?":"NO","tech-voc":"NO","latitude":9.666714,"region":"Region VII","id 2":1065,"w.bld":1,"arts&trade":0,"division.2012":"Negros Oriental","sp.prog":"NO","enrtotal":294,"sp.journ":0,"sp.fl":0,"sp.arts":0,"sp.s&t":0,"sch.id":303248,"municipality":"MABINAY","fish":0,"sp.program":null,"longitude":122.882993,"id":"ag4rxa003tdk","province":"NEGROS ORIENTAL","sp.sports":0,"shs?1":0,"sp.prog1":0},"type":"Feature","geometry":{"type":"Point","coordinates":[122.882993,9.666714]}},{"properties":{"agri":0,"school name":"Tayasan NHS (Main)","shs?":"NO","tech-voc":"NO","latitude":9.918601,"region":"Region VII","id 2":1073,"w.bld":1,"arts&trade":0,"division.2012":"Negros Oriental","sp.prog":"NO","enrtotal":515,"sp.journ":0,"sp.fl":0,"sp.arts":0,"sp.s&t":0,"sch.id":303289,"municipality":"TAYASAN","fish":0,"sp.program":null,"longitude":123.159922,"id":"ag4rxa1wl63i","province":"NEGROS ORIENTAL","sp.sports":0,"shs?1":0,"sp.prog1":0},"type":"Feature","geometry":{"type":"Point","coordinates":[123.159922,9.918601]}},{"properties":{"agri":0,"school name":"Tayasan NHS - Bago Campus","shs?":"NO","tech-voc":"NO","latitude":9.924998,"region":"Region VII","id 2":1073,"w.bld":1,"arts&trade":0,"division.2012":"Negros Oriental","sp.prog":"NO","enrtotal":410,"sp.journ":0,"sp.fl":0,"sp.arts":0,"sp.s&t":0,"sch.id":303290,"municipality":"TAYASAN","fish":0,"sp.program":null,"longitude":123.007691,"id":"ag4rxa9c18id","province":"NEGROS ORIENTAL","sp.sports":0,"shs?1":0,"sp.prog1":0},"type":"Feature","geometry":{"type":"Point","coordinates":[123.007691,9.924998]}},{"properties":{"agri":0,"school name":"Valencia NHS (Valencia Tech. Sch.)","shs?":"NO","tech-voc":"NO","latitude":9.277413,"region":"Region VII","id 2":1074,"w.bld":1,"arts&trade":0,"division.2012":"Negros Oriental","sp.prog":"NO","enrtotal":1086,"sp.journ":0,"sp.fl":0,"sp.arts":0,"sp.s&t":0,"sch.id":303291,"municipality":"VALENCIA (LUZURRIAGA)","fish":0,"sp.program":null,"longitude":123.250979,"id":"ag4rxabiyexh","province":"NEGROS ORIENTAL","sp.sports":0,"shs?1":0,"sp.prog1":0},"type":"Feature","geometry":{"type":"Point","coordinates":[123.250979,9.277413]}},{"properties":{"agri":0,"school name":"Vallehermoso PCHS","shs?":"NO","tech-voc":"NO","latitude":10.329027,"region":"Region VII","id 2":1075,"w.bld":1,"arts&trade":0,"division.2012":"Negros Oriental","sp.prog":"NO","enrtotal":1345,"sp.journ":0,"sp.fl":0,"sp.arts":0,"sp.s&t":0,"sch.id":303292,"municipality":"VALLEHERMOSO","fish":0,"sp.program":null,"longitude":123.327086,"id":"ag4rxa4yg2f5","province":"NEGROS ORIENTAL","sp.sports":0,"shs?1":0,"sp.prog1":0},"type":"Feature","geometry":{"type":"Point","coordinates":[123.327086,10.329027]}},{"properties":{"agri":0,"school name":"Banban National High School","shs?":"NO","tech-voc":"NO","latitude":9.224585,"region":"Region VII","id 2":1414,"w.bld":1,"arts&trade":0,"division.2012":"Siquijor","sp.prog":"NO","enrtotal":336,"sp.journ":0,"sp.fl":0,"sp.arts":0,"sp.s&t":0,"sch.id":303302,"municipality":"SIQUIJOR (Capital)","fish":0,"sp.program":null,"longitude":123.560002,"id":"ag4rxa79t9pp","province":"SIQUIJOR","sp.sports":0,"shs?1":0,"sp.prog1":0},"type":"Feature","geometry":{"type":"Point","coordinates":[123.560002,9.224585]}},{"properties":{"agri":0,"school name":"Cang-alwang National High School","shs?":"NO","tech-voc":"NO","latitude":9.215833,"region":"Region VII","id 2":1414,"w.bld":1,"arts&trade":0,"division.2012":"Siquijor","sp.prog":"NO","enrtotal":265,"sp.journ":0,"sp.fl":0,"sp.arts":0,"sp.s&t":0,"sch.id":303296,"municipality":"SIQUIJOR (Capital)","fish":0,"sp.program":null,"longitude":123.472778,"id":"ag4rxaed6q4n","province":"SIQUIJOR","sp.sports":0,"shs?1":0,"sp.prog1":0},"type":"Feature","geometry":{"type":"Point","coordinates":[123.472778,9.215833]}},{"properties":{"agri":0,"school name":"San Antonio National High School","shs?":"NO","tech-voc":"NO","latitude":9.181543,"region":"Region VII","id 2":1414,"w.bld":1,"arts&trade":0,"division.2012":"Siquijor","sp.prog":"NO","enrtotal":99,"sp.journ":0,"sp.fl":0,"sp.arts":0,"sp.s&t":0,"sch.id":303298,"municipality":"SIQUIJOR (Capital)","fish":0,"sp.program":null,"longitude":123.540485,"id":"ag4rxaffyaz4","province":"SIQUIJOR","sp.sports":0,"shs?1":0,"sp.prog1":0},"type":"Feature","geometry":{"type":"Point","coordinates":[123.540485,9.181543]}},{"properties":{"agri":0,"school name":"Siquijor Provincial Science High School","shs?":"YES","tech-voc":"NO","latitude":9.207283,"region":"Region VII","id 2":1414,"w.bld":1,"arts&trade":0,"division.2012":"Siquijor","sp.prog":"NO","enrtotal":255,"sp.journ":0,"sp.fl":0,"sp.arts":0,"sp.s&t":0,"sch.id":303301,"municipality":"SIQUIJOR (Capital)","fish":0,"sp.program":null,"longitude":123.484591,"id":"ag4rxa2ay0zu","province":"SIQUIJOR","sp.sports":0,"shs?1":1,"sp.prog1":0},"type":"Feature","geometry":{"type":"Point","coordinates":[123.484591,9.207283]}},{"properties":{"agri":0,"school name":"Cogon HS Evening Class","shs?":"NO","tech-voc":"NO","latitude":9.654117,"region":"Region VII","id 2":252,"w.bld":1,"arts&trade":0,"division.2012":"Tagbilaran City","sp.prog":"NO","enrtotal":814,"sp.journ":0,"sp.fl":0,"sp.arts":0,"sp.s&t":0,"sch.id":312302,"municipality":"TAGBILARAN CITY (Capital)","fish":0,"sp.program":null,"longitude":123.854252,"id":"ag4rx9zi35r3","province":"BOHOL","sp.sports":0,"shs?1":0,"sp.prog1":0},"type":"Feature","geometry":{"type":"Point","coordinates":[123.854252,9.654117]}},{"properties":{"agri":0,"school name":"Dr. Cecilio Putong NHS (Bohol NHS)","shs?":"NO","tech-voc":"NO","latitude":9.64946,"region":"Region VII","id 2":252,"w.bld":1,"arts&trade":0,"division.2012":"Tagbilaran City","sp.prog":"YES","enrtotal":3807,"sp.journ":0,"sp.fl":0,"sp.arts":1,"sp.s&t":0,"sch.id":302846,"municipality":"TAGBILARAN CITY (Capital)","fish":0,"sp.program":"Sports, Arts","longitude":123.8554,"id":"ag4rxa2rsgno","province":"BOHOL","sp.sports":1,"shs?1":0,"sp.prog1":1},"type":"Feature","geometry":{"type":"Point","coordinates":[123.8554,9.64946]}},{"properties":{"agri":0,"school name":"Manga National High School","shs?":"NO","tech-voc":"NO","latitude":9.6883,"region":"Region VII","id 2":252,"w.bld":1,"arts&trade":0,"division.2012":"Tagbilaran City","sp.prog":"YES","enrtotal":934,"sp.journ":0,"sp.fl":0,"sp.arts":0,"sp.s&t":0,"sch.id":302874,"municipality":"TAGBILARAN CITY (Capital)","fish":0,"sp.program":"Sports,","longitude":123.863045,"id":"ag4rx9zmm56b","province":"BOHOL","sp.sports":1,"shs?1":0,"sp.prog1":1},"type":"Feature","geometry":{"type":"Point","coordinates":[123.863045,9.6883]}},{"properties":{"agri":0,"school name":"Tagbilaran City Science High School","shs?":"YES","tech-voc":"NO","latitude":9.638587,"region":"Region VII","id 2":252,"w.bld":1,"arts&trade":0,"division.2012":"Tagbilaran City","sp.prog":"NO","enrtotal":393,"sp.journ":0,"sp.fl":0,"sp.arts":0,"sp.s&t":0,"sch.id":302876,"municipality":"TAGBILARAN CITY (Capital)","fish":0,"sp.program":null,"longitude":123.864728,"id":"ag4rxa02t7ev","province":"BOHOL","sp.sports":0,"shs?1":1,"sp.prog1":0},"type":"Feature","geometry":{"type":"Point","coordinates":[123.864728,9.638587]}},{"properties":{"agri":0,"school name":"Tagbilaran High School for the Hearing Impaired","shs?":"NO","tech-voc":"NO","latitude":9.64665,"region":"Region VII","id 2":252,"w.bld":1,"arts&trade":0,"division.2012":"Tagbilaran City","sp.prog":"NO","enrtotal":25,"sp.journ":0,"sp.fl":0,"sp.arts":0,"sp.s&t":0,"sch.id":322101,"municipality":"TAGBILARAN CITY (Capital)","fish":0,"sp.program":null,"longitude":123.853,"id":"ag4rxad0uu3z","province":"BOHOL","sp.sports":0,"shs?1":0,"sp.prog1":0},"type":"Feature","geometry":{"type":"Point","coordinates":[123.853,9.64665]}},{"properties":{"agri":0,"school name":"Bulacao NHS","shs?":"NO","tech-voc":"NO","latitude":10.271105,"region":"Region VII","id 2":490,"w.bld":0,"arts&trade":0,"division.2012":"Talisay City","sp.prog":"NO","enrtotal":554,"sp.journ":0,"sp.fl":0,"sp.arts":0,"sp.s&t":0,"sch.id":322204,"municipality":"CITY OF TALISAY","fish":0,"sp.program":null,"longitude":123.842442,"id":"ag4rxa9ncrh5","province":"CEBU","sp.sports":0,"shs?1":0,"sp.prog1":0},"type":"Feature","geometry":{"type":"Point","coordinates":[123.842442,10.271105]}},{"properties":{"agri":0,"school name":"Lagtang Night HS","shs?":"NO","tech-voc":"NO","latitude":10.270087,"region":"Region VII","id 2":490,"w.bld":0,"arts&trade":0,"division.2012":"Talisay City","sp.prog":"NO","enrtotal":447,"sp.journ":0,"sp.fl":0,"sp.arts":0,"sp.s&t":0,"sch.id":322206,"municipality":"CITY OF TALISAY","fish":0,"sp.program":null,"longitude":123.83136,"id":"ag4rxa0htqyx","province":"CEBU","sp.sports":0,"shs?1":0,"sp.prog1":0},"type":"Feature","geometry":{"type":"Point","coordinates":[123.83136,10.270087]}},{"properties":{"agri":0,"school name":"Lawaan III National High School (Night)","shs?":"NO","tech-voc":"NO","latitude":10.25736,"region":"Region VII","id 2":490,"w.bld":0,"arts&trade":0,"division.2012":"Talisay City","sp.prog":"NO","enrtotal":299,"sp.journ":0,"sp.fl":0,"sp.arts":0,"sp.s&t":0,"sch.id":322209,"municipality":"CITY OF TALISAY","fish":0,"sp.program":null,"longitude":123.829927,"id":"ag4rxa8o2umj","province":"CEBU","sp.sports":0,"shs?1":0,"sp.prog1":0},"type":"Feature","geometry":{"type":"Point","coordinates":[123.829927,10.25736]}},{"properties":{"agri":0,"school name":"Maghaway NHS","shs?":"NO","tech-voc":"NO","latitude":10.2429,"region":"Region VII","id 2":490,"w.bld":1,"arts&trade":0,"division.2012":"Talisay City","sp.prog":"NO","enrtotal":322,"sp.journ":0,"sp.fl":0,"sp.arts":0,"sp.s&t":0,"sch.id":322201,"municipality":"CITY OF TALISAY","fish":0,"sp.program":null,"longitude":123.848,"id":"ag4rxa1152gu","province":"CEBU","sp.sports":0,"shs?1":0,"sp.prog1":0},"type":"Feature","geometry":{"type":"Point","coordinates":[123.848,10.2429]}},{"properties":{"agri":0,"school name":"Mohon NHS (Mohon Divino Amore NHS)","shs?":"NO","tech-voc":"NO","latitude":10.249965,"region":"Region VII","id 2":490,"w.bld":0,"arts&trade":0,"division.2012":"Talisay City","sp.prog":"NO","enrtotal":830,"sp.journ":0,"sp.fl":0,"sp.arts":0,"sp.s&t":0,"sch.id":303056,"municipality":"CITY OF TALISAY","fish":0,"sp.program":null,"longitude":123.835792,"id":"ag4rxa4e3th8","province":"CEBU","sp.sports":0,"shs?1":0,"sp.prog1":0},"type":"Feature","geometry":{"type":"Point","coordinates":[123.835792,10.249965]}},{"properties":{"agri":0,"school name":"Pooc NHS (Jaclupan NHS - Pooc Ext.)","shs?":"NO","tech-voc":"NO","latitude":10.2495,"region":"Region VII","id 2":490,"w.bld":1,"arts&trade":0,"division.2012":"Talisay City","sp.prog":"NO","enrtotal":628,"sp.journ":0,"sp.fl":0,"sp.arts":0,"sp.s&t":0,"sch.id":303020,"municipality":"CITY OF TALISAY","fish":0,"sp.program":null,"longitude":123.826,"id":"ag4rxa5zmsgi","province":"CEBU","sp.sports":0,"shs?1":0,"sp.prog1":0},"type":"Feature","geometry":{"type":"Point","coordinates":[123.826,10.2495]}},{"properties":{"agri":0,"school name":"San Roque NHS ( Laray NHS - Jaclupan NHS Ext.)","shs?":"NO","tech-voc":"NO","latitude":10.295,"region":"Region VII","id 2":490,"w.bld":1,"arts&trade":0,"division.2012":"Talisay City","sp.prog":"NO","enrtotal":414,"sp.journ":0,"sp.fl":0,"sp.arts":0,"sp.s&t":0,"sch.id":303088,"municipality":"CITY OF TALISAY","fish":0,"sp.program":null,"longitude":123.907,"id":"ag4rxachumbo","province":"CEBU","sp.sports":0,"shs?1":0,"sp.prog1":0},"type":"Feature","geometry":{"type":"Point","coordinates":[123.907,10.295]}},{"properties":{"agri":0,"school name":"Tabunok Night HS","shs?":"NO","tech-voc":"NO","latitude":10.265284,"region":"Region VII","id 2":490,"w.bld":0,"arts&trade":0,"division.2012":"Talisay City","sp.prog":"NO","enrtotal":834,"sp.journ":0,"sp.fl":0,"sp.arts":0,"sp.s&t":0,"sch.id":303111,"municipality":"CITY OF TALISAY","fish":0,"sp.program":null,"longitude":123.841281,"id":"ag4rxacxhbkt","province":"CEBU","sp.sports":0,"shs?1":0,"sp.prog1":0},"type":"Feature","geometry":{"type":"Point","coordinates":[123.841281,10.265284]}},{"properties":{"agri":0,"school name":"Talisay City Science HS","shs?":"YES","tech-voc":"NO","latitude":10.245,"region":"Region VII","id 2":490,"w.bld":1,"arts&trade":0,"division.2012":"Talisay City","sp.prog":"NO","enrtotal":140,"sp.journ":0,"sp.fl":0,"sp.arts":0,"sp.s&t":0,"sch.id":322205,"municipality":"CITY OF TALISAY","fish":0,"sp.program":null,"longitude":123.844444,"id":"ag4rxa0b0vgn","province":"CEBU","sp.sports":0,"shs?1":1,"sp.prog1":0},"type":"Feature","geometry":{"type":"Point","coordinates":[123.844444,10.245]}},{"properties":{"agri":0,"school name":"Tanke NHS","shs?":"NO","tech-voc":"NO","latitude":10.25736,"region":"Region VII","id 2":490,"w.bld":0,"arts&trade":0,"division.2012":"Talisay City","sp.prog":"NO","enrtotal":595,"sp.journ":0,"sp.fl":0,"sp.arts":0,"sp.s&t":0,"sch.id":312402,"municipality":"CITY OF TALISAY","fish":0,"sp.program":null,"longitude":123.829927,"id":"ag4rx9znnkwr","province":"CEBU","sp.sports":0,"shs?1":0,"sp.prog1":0},"type":"Feature","geometry":{"type":"Point","coordinates":[123.829927,10.25736]}},{"properties":{"agri":0,"school name":"Lourdes L. del Prado MNHS","shs?":"NO","tech-voc":"NO","latitude":9.529352,"region":"Region VII","id 2":1072,"w.bld":1,"arts&trade":0,"division.2012":"Tanjay City","sp.prog":"NO","enrtotal":594,"sp.journ":0,"sp.fl":0,"sp.arts":0,"sp.s&t":0,"sch.id":303284,"municipality":"CITY OF TANJAY","fish":0,"sp.program":null,"longitude":123.111493,"id":"ag4rxa4tboun","province":"NEGROS ORIENTAL","sp.sports":0,"shs?1":0,"sp.prog1":0},"type":"Feature","geometry":{"type":"Point","coordinates":[123.111493,9.529352]}},{"properties":{"agri":0,"school name":"Lourdes L. del Prado MNHS ( Bahian)","shs?":"NO","tech-voc":"NO","latitude":9.478992,"region":"Region VII","id 2":1072,"w.bld":1,"arts&trade":0,"division.2012":"Tanjay City","sp.prog":"NO","enrtotal":187,"sp.journ":0,"sp.fl":0,"sp.arts":0,"sp.s&t":0,"sch.id":303285,"municipality":"CITY OF TANJAY","fish":0,"sp.program":null,"longitude":123.037378,"id":"ag4rxac7f5ac","province":"NEGROS ORIENTAL","sp.sports":0,"shs?1":0,"sp.prog1":0},"type":"Feature","geometry":{"type":"Point","coordinates":[123.037378,9.478992]}},{"properties":{"agri":0,"school name":"Lourdes L. del Prado MNHS (Pal-ew)","shs?":"NO","tech-voc":"NO","latitude":9.512923,"region":"Region VII","id 2":1072,"w.bld":1,"arts&trade":0,"division.2012":"Tanjay City","sp.prog":"NO","enrtotal":300,"sp.journ":0,"sp.fl":0,"sp.arts":0,"sp.s&t":0,"sch.id":303287,"municipality":"CITY OF TANJAY","fish":0,"sp.program":null,"longitude":123.030427,"id":"ag4rxaa7sbku","province":"NEGROS ORIENTAL","sp.sports":0,"shs?1":0,"sp.prog1":0},"type":"Feature","geometry":{"type":"Point","coordinates":[123.030427,9.512923]}},{"properties":{"agri":0,"school name":"Lourdes L. del Prado MNHS (Sto. Ni¬§o)","shs?":"NO","tech-voc":"NO","latitude":9.512049,"region":"Region VII","id 2":1072,"w.bld":1,"arts&trade":0,"division.2012":"Tanjay City","sp.prog":"NO","enrtotal":226,"sp.journ":0,"sp.fl":0,"sp.arts":0,"sp.s&t":0,"sch.id":303288,"municipality":"CITY OF TANJAY","fish":0,"sp.program":null,"longitude":122.938107,"id":"ag4rx9zbc9av","province":"NEGROS ORIENTAL","sp.sports":0,"shs?1":0,"sp.prog1":0},"type":"Feature","geometry":{"type":"Point","coordinates":[122.938107,9.512049]}},{"properties":{"agri":0,"school name":"Lourdes Ledesma del Prado Memorial High School (Novallas)","shs?":"NO","tech-voc":"NO","latitude":9.499701,"region":"Region VII","id 2":1072,"w.bld":1,"arts&trade":0,"division.2012":"Tanjay City","sp.prog":"NO","enrtotal":252,"sp.journ":0,"sp.fl":0,"sp.arts":0,"sp.s&t":0,"sch.id":303286,"municipality":"CITY OF TANJAY","fish":0,"sp.program":null,"longitude":123.110961,"id":"ag4rxa41fijx","province":"NEGROS ORIENTAL","sp.sports":0,"shs?1":0,"sp.prog1":0},"type":"Feature","geometry":{"type":"Point","coordinates":[123.110961,9.499701]}},{"properties":{"agri":0,"school name":"Tanjay Legislated HS","shs?":"NO","tech-voc":"NO","latitude":9.518827,"region":"Region VII","id 2":1072,"w.bld":1,"arts&trade":0,"division.2012":"Tanjay City","sp.prog":"NO","enrtotal":478,"sp.journ":0,"sp.fl":0,"sp.arts":0,"sp.s&t":0,"sch.id":303279,"municipality":"CITY OF TANJAY","fish":0,"sp.program":null,"longitude":123.161029,"id":"ag4rxaffleev","province":"NEGROS ORIENTAL","sp.sports":0,"shs?1":0,"sp.prog1":0},"type":"Feature","geometry":{"type":"Point","coordinates":[123.161029,9.518827]}},{"properties":{"agri":0,"school name":"Tanjay NHS ( Azagra)","shs?":"NO","tech-voc":"NO","latitude":9.481632,"region":"Region VII","id 2":1072,"w.bld":1,"arts&trade":0,"division.2012":"Tanjay City","sp.prog":"NO","enrtotal":302,"sp.journ":0,"sp.fl":0,"sp.arts":0,"sp.s&t":0,"sch.id":303281,"municipality":"CITY OF TANJAY","fish":0,"sp.program":null,"longitude":123.147038,"id":"ag4rxa894tt2","province":"NEGROS ORIENTAL","sp.sports":0,"shs?1":0,"sp.prog1":0},"type":"Feature","geometry":{"type":"Point","coordinates":[123.147038,9.481632]}},{"properties":{"agri":0,"school name":"Tanjay NHS (Opao)","shs?":"NO","tech-voc":"NO","latitude":9.511844,"region":"Region VII","id 2":1072,"w.bld":1,"arts&trade":0,"division.2012":"Tanjay City","sp.prog":"NO","enrtotal":1093,"sp.journ":0,"sp.fl":0,"sp.arts":0,"sp.s&t":0,"sch.id":303280,"municipality":"CITY OF TANJAY","fish":0,"sp.program":null,"longitude":123.162313,"id":"ag4rxa82ikrp","province":"NEGROS ORIENTAL","sp.sports":0,"shs?1":0,"sp.prog1":0},"type":"Feature","geometry":{"type":"Point","coordinates":[123.162313,9.511844]}},{"properties":{"agri":0,"school name":"Tanjay NHS (Polo)","shs?":"NO","tech-voc":"NO","latitude":9.481614,"region":"Region VII","id 2":1072,"w.bld":1,"arts&trade":0,"division.2012":"Tanjay City","sp.prog":"NO","enrtotal":297,"sp.journ":0,"sp.fl":0,"sp.arts":0,"sp.s&t":0,"sch.id":303282,"municipality":"CITY OF TANJAY","fish":0,"sp.program":null,"longitude":123.181429,"id":"ag4rxa5g2q52","province":"NEGROS ORIENTAL","sp.sports":0,"shs?1":0,"sp.prog1":0},"type":"Feature","geometry":{"type":"Point","coordinates":[123.181429,9.481614]}},{"properties":{"agri":0,"school name":"Tanjay Science HS","shs?":"YES","tech-voc":"NO","latitude":9.510828,"region":"Region VII","id 2":1072,"w.bld":1,"arts&trade":0,"division.2012":"Tanjay City","sp.prog":"YES","enrtotal":257,"sp.journ":0,"sp.fl":0,"sp.arts":0,"sp.s&t":1,"sch.id":303283,"municipality":"CITY OF TANJAY","fish":0,"sp.program":"Sci &amp; Tech","longitude":123.16246,"id":"ag4rxa5o6m1b","province":"NEGROS ORIENTAL","sp.sports":0,"shs?1":1,"sp.prog1":1},"type":"Feature","geometry":{"type":"Point","coordinates":[123.16246,9.510828]}},{"properties":{"agri":0,"school name":"LURAY II NATIONAL HIGH SCHOOL (DAY &amp; NIGHT)","shs?":"NO","tech-voc":"NO","latitude":10.380456,"region":"Region VII","id 2":491,"w.bld":1,"arts&trade":0,"division.2012":"Toledo City","sp.prog":"NO","enrtotal":2295,"sp.journ":0,"sp.fl":0,"sp.arts":0,"sp.s&t":0,"sch.id":303318,"municipality":"TOLEDO CITY","fish":0,"sp.program":null,"longitude":123.643457,"id":"ag4rxaepxg3a","province":"CEBU","sp.sports":0,"shs?1":0,"sp.prog1":0},"type":"Feature","geometry":{"type":"Point","coordinates":[123.643457,10.380456]}},{"properties":{"agri":0,"school name":"Magdugo NHS","shs?":"NO","tech-voc":"NO","latitude":10.387011,"region":"Region VII","id 2":491,"w.bld":1,"arts&trade":0,"division.2012":"Toledo City","sp.prog":"NO","enrtotal":957,"sp.journ":0,"sp.fl":0,"sp.arts":0,"sp.s&t":0,"sch.id":303312,"municipality":"TOLEDO CITY","fish":0,"sp.program":null,"longitude":123.650276,"id":"ag4rxafaop1r","province":"CEBU","sp.sports":0,"shs?1":0,"sp.prog1":0},"type":"Feature","geometry":{"type":"Point","coordinates":[123.650276,10.387011]}},{"properties":{"agri":0,"school name":"Toledo City Science High School","shs?":"YES","tech-voc":"NO","latitude":10.381106,"region":"Region VII","id 2":491,"w.bld":1,"arts&trade":0,"division.2012":"Toledo City","sp.prog":"YES","enrtotal":218,"sp.journ":0,"sp.fl":1,"sp.arts":0,"sp.s&t":1,"sch.id":303315,"municipality":"TOLEDO CITY","fish":0,"sp.program":"Foreign Language, Sci &amp; Tech","longitude":123.655876,"id":"ag4rxa160v5w","province":"CEBU","sp.sports":0,"shs?1":1,"sp.prog1":1},"type":"Feature","geometry":{"type":"Point","coordinates":[123.655876,10.381106]}}],"is_temporal":false,"author":{"url":"","metadata":"","contact_name":"","contact_address":"","source":"","contact_phone":""},"source":"","pagination":{"sort":null,"start":0,"total":325,"limit":1000000},"state":"complete","tags":"","published":"2014-08-16T15:41:15-04:00","id":382147}