{"type":"FeatureCollection","data_type":"Dataset","url_type":null,"permissions":[{"permissions":{"download":true,"view":true},"group_id":81196},{"permissions":{"download":true,"view":true},"group_id":"everyone"}],"classification":null,"title":"Highways WW Map (3)","count":54,"stream_id":382419,"contributor":{"url":"http://geocommons.com/users/69819","name":"adaben"},"data_attributes":null,"calculation_params":null,"icon_link":null,"link":"http://geocommons.com/overlays/382419.json","extent":[0.0,0.0,0.0,0.0],"geometry_types":[],"unique_name":null,"name":"Highways WW Map (3)","feature_count":54,"description":"","next_feature":null,"is_raster":false,"short_classification":"Y","stats":{"lantitude":{"max":55.008649,"mean":52.49220572,"variance":1.28811701091286,"stdev":1.1349524267179,"median":52.230184,"min":50.536473},"longitude":{"max":0.912118,"mean":-2.1175683,"variance":2.44538327547144,"stdev":1.56377213028991,"median":-2.003517,"min":-5.968035}},"features":[{"properties":{"geo_score":0.0,"lantitude":52.484871,"column_1":"Managed Motorway Framework","longitude":-1.906815,"id":"ag5bvrkmm0cv","address":"Live Projects","geo_precision":"unmatched"},"type":"Feature","geometry":null},{"properties":{"geo_score":0.0,"lantitude":53.115666,"column_1":"M1 Junction 28 - 31","longitude":-1.332779,"id":"ag5bvrkscfad","address":"Live Projects","geo_precision":"unmatched"},"type":"Feature","geometry":null},{"properties":{"geo_score":0.0,"lantitude":53.396023,"column_1":"M1 Junction 32 - 35a","longitude":-1.290894,"id":"ag5bvr8otbg2","address":"Live Projects","geo_precision":"unmatched"},"type":"Feature","geometry":null},{"properties":{"geo_score":0.0,"lantitude":53.396432,"column_1":"A556 Knutsford to Bowdon","longitude":-2.48291,"id":"ag5bvrjodhr5","address":"Live Projects","geo_precision":"unmatched"},"type":"Feature","geometry":null},{"properties":{"geo_score":0.0,"lantitude":51.9705,"column_1":"A5 / M1 Link","longitude":-0.501251,"id":"ag5bvradnu1x","address":"Live Projects","geo_precision":"unmatched"},"type":"Feature","geometry":null},{"properties":{"geo_score":0.0,"lantitude":51.81286,"column_1":"A465 Heads of the Valley","longitude":-3.128357,"id":"ag5bvrh3tz7a","address":"Live Projects","geo_precision":"unmatched"},"type":"Feature","geometry":null},{"properties":{"geo_score":0.0,"lantitude":51.491188,"column_1":"Hammersmith Flyover","longitude":-0.223731,"id":"ag5bvrf00dbx","address":"Live Projects","geo_precision":"unmatched"},"type":"Feature","geometry":null},{"properties":{"geo_score":0.0,"lantitude":54.056164,"column_1":"Heysham to M6 link","longitude":-2.787781,"id":"ag5bvrlwlafz","address":"Live Projects","geo_precision":"unmatched"},"type":"Feature","geometry":null},{"properties":{"geo_score":0.0,"lantitude":51.856139,"column_1":"M1 Junction 10 -13","longitude":-0.42572,"id":"ag5bvr87uolh","address":"Live Projects","geo_precision":"unmatched"},"type":"Feature","geometry":null},{"properties":{"geo_score":0.0,"lantitude":52.539168,"column_1":"Asset Support Framework","longitude":-2.003517,"id":"ag5bvrobj8xa","address":"Live Projects","geo_precision":"unmatched"},"type":"Feature","geometry":null},{"properties":{"geo_score":0.0,"lantitude":51.263174,"column_1":"M5 Junction 21","longitude":-2.922248,"id":"ag5bvrnxv389","address":"Live Projects","geo_precision":"unmatched"},"type":"Feature","geometry":null},{"properties":{"geo_score":0.0,"lantitude":52.341184,"column_1":"A14 Huntingdon Viaduct","longitude":-0.212745,"id":"ag5bvrgc330u","address":"Live Projects","geo_precision":"unmatched"},"type":"Feature","geometry":null},{"properties":{"geo_score":0.0,"lantitude":51.591546,"column_1":"Port Talbot","longitude":-3.798408,"id":"ag5bvrn4pnxp","address":"Live Projects","geo_precision":"unmatched"},"type":"Feature","geometry":null},{"properties":{"geo_score":0.0,"lantitude":51.510422,"column_1":"South East Wales Framework","longitude":-3.212013,"id":"ag5bvrhmrqoq","address":"Live Projects","geo_precision":"unmatched"},"type":"Feature","geometry":null},{"properties":{"geo_score":0.0,"lantitude":51.853068,"column_1":"Carmarthensire Framework","longitude":-4.306858,"id":"ag5bvrji8sgb","address":"Live Projects","geo_precision":"unmatched"},"type":"Feature","geometry":null},{"properties":{"geo_score":0.0,"lantitude":51.384758,"column_1":"A244 Walton Bridge","longitude":-0.439692,"id":"ag5bvrmig42k","address":"Live Projects","geo_precision":"unmatched"},"type":"Feature","geometry":null},{"properties":{"geo_score":0.0,"lantitude":54.720605,"column_1":"A8 Duelling","longitude":-5.968035,"id":"ag5bvrcjwjj8","address":"Live Projects","geo_precision":"unmatched"},"type":"Feature","geometry":null},{"properties":{"geo_score":0.0,"lantitude":53.261927,"column_1":"M6 Junction 16 - 19","longitude":-2.393646,"id":"ag5bvrjsbzcz","address":"Live Projects","geo_precision":"unmatched"},"type":"Feature","geometry":null},{"properties":{"geo_score":0.0,"lantitude":53.073199,"column_1":"Area 7","longitude":-1.248388,"id":"ag5bvro5z5nk","address":"Live Projects","geo_precision":"unmatched"},"type":"Feature","geometry":null},{"properties":{"geo_score":0.0,"lantitude":53.70218,"column_1":"Area 12","longitude":-1.392508,"id":"ag5bvrf1n92e","address":"Live Projects","geo_precision":"unmatched"},"type":"Feature","geometry":null},{"properties":{"geo_score":0.0,"lantitude":54.531365,"column_1":"Area 14","longitude":-1.549567,"id":"ag5bvrkj85xe","address":"Live Projects","geo_precision":"unmatched"},"type":"Feature","geometry":null},{"properties":{"geo_score":0.0,"lantitude":51.515904,"column_1":"Traffic Technology Framework","longitude":-0.739048,"id":"ag5bvrajgmd0","address":"Live Projects","geo_precision":"unmatched"},"type":"Feature","geometry":null},{"properties":{"geo_score":0.0,"lantitude":51.505648,"column_1":"All Wales Communications","longitude":-3.199986,"id":"ag5bvrfdicrg","address":"Live Projects","geo_precision":"unmatched"},"type":"Feature","geometry":null},{"properties":{"geo_score":0.0,"lantitude":53.342763,"column_1":"A6 to Manchester","longitude":-2.241898,"id":"ag5bvrfiy8om","address":"Tendering","geo_precision":"unmatched"},"type":"Feature","geometry":null},{"properties":{"geo_score":0.0,"lantitude":53.407815,"column_1":"M&amp;E Framework","longitude":-3.021735,"id":"ag5bvrhmlaxa","address":"Tendering","geo_precision":"unmatched"},"type":"Feature","geometry":null},{"properties":{"geo_score":0.0,"lantitude":51.472747,"column_1":"Heathrow Tunnel","longitude":-0.492133,"id":"ag5bvra8u2kp","address":"Tendering","geo_precision":"unmatched"},"type":"Feature","geometry":null},{"properties":{"geo_score":0.0,"lantitude":51.429957,"column_1":"South Bristol Link Road","longitude":-2.587775,"id":"ag5bvrgwggxg","address":"PQQ Stage","geo_precision":"unmatched"},"type":"Feature","geometry":null},{"properties":{"geo_score":0.0,"lantitude":53.70218,"column_1":"Area 12 ASC &amp; Area 4 ASC","longitude":-1.392508,"id":"ag5bvrbjll0v","address":"PQQ Stage","geo_precision":"unmatched"},"type":"Feature","geometry":null},{"properties":{"geo_score":0.0,"lantitude":54.939669,"column_1":"A1 Lobley Hill","longitude":-1.630359,"id":"ag5bvrkbg1rt","address":"PQQ Stage","geo_precision":"unmatched"},"type":"Feature","geometry":null},{"properties":{"geo_score":0.0,"lantitude":51.443654,"column_1":"Bristol ITS","longitude":-2.607001,"id":"ag5bvrimyzz4","address":"PQQ Stage","geo_precision":"unmatched"},"type":"Feature","geometry":null},{"properties":{"geo_score":0.0,"lantitude":52.815963,"column_1":"RTMC - Midlands","longitude":-2.123603,"id":"ag5bvrd62vyb","address":"Opportunity Stage - Definitely Bid","geo_precision":"unmatched"},"type":"Feature","geometry":null},{"properties":{"geo_score":0.0,"lantitude":52.484871,"column_1":"Collaborative Infrastructutre Delivery Framework","longitude":-1.906815,"id":"ag5bvrj2iyd2","address":"Opportunity Stage - Definitely Bid","geo_precision":"unmatched"},"type":"Feature","geometry":null},{"properties":{"geo_score":0.0,"lantitude":51.597465,"column_1":"M4 relief Road","longitude":-3.020362,"id":"ag5bvr9ljign","address":"Opportunity Stage - Definitely Bid","geo_precision":"unmatched"},"type":"Feature","geometry":null},{"properties":{"geo_score":0.0,"lantitude":54.531365,"column_1":"Area 14 ASC","longitude":-1.549567,"id":"ag5bvr89kxlo","address":"Opportunity Stage - Definitely Bid","geo_precision":"unmatched"},"type":"Feature","geometry":null},{"properties":{"geo_score":0.0,"lantitude":51.734601,"column_1":"A465 HoV Section 5 &amp; 6","longitude":-3.654823,"id":"ag5bvrbjyzed","address":"Opportunity Stage - Definitely Bid","geo_precision":"unmatched"},"type":"Feature","geometry":null},{"properties":{"geo_score":0.0,"lantitude":52.842493,"column_1":"North Wales Tunnels","longitude":-3.695788,"id":"ag5bvri5ut7g","address":"Opportunity Stage - Priority Targets","geo_precision":"unmatched"},"type":"Feature","geometry":null},{"properties":{"geo_score":0.0,"lantitude":null,"column_1":"Bryn Glas tunnel, Newport","longitude":null,"id":"ag5bvra4tkmy","address":"Opportunity Stage - Priority Targets","geo_precision":"unmatched"},"type":"Feature","geometry":null},{"properties":{"geo_score":0.0,"lantitude":null,"column_1":"NRTS2","longitude":null,"id":"ag5bvr9jfhup","address":"Opportunity Stage - Priority Targets","geo_precision":"unmatched"},"type":"Feature","geometry":null},{"properties":{"geo_score":0.0,"lantitude":51.819813,"column_1":"A40 Llandewi Velfry","longitude":-4.689175,"id":"ag5bvrdjn5ys","address":"Opportunity Stage - Priority Targets","geo_precision":"unmatched"},"type":"Feature","geometry":null},{"properties":{"geo_score":0.0,"lantitude":53.21588,"column_1":"A55 Britannia Bridge","longitude":-4.185446,"id":"ag5bvri3r3jx","address":"Opportunity Stage - Priority Targets","geo_precision":"unmatched"},"type":"Feature","geometry":null},{"properties":{"geo_score":0.0,"lantitude":51.177505,"column_1":"A21 Tonbridge to Penbury","longitude":0.291988,"id":"ag5bvre12hjv","address":"Opportunity Stage - Priority Targets","geo_precision":"unmatched"},"type":"Feature","geometry":null},{"properties":{"geo_score":0.0,"lantitude":53.740901,"column_1":"A63 Castle Street","longitude":-0.339102,"id":"ag5bvrnf0828","address":"Opportunity Stage - Priority Targets","geo_precision":"unmatched"},"type":"Feature","geometry":null},{"properties":{"geo_score":0.0,"lantitude":55.008649,"column_1":"A19 Coast Road","longitude":-1.497321,"id":"ag5bvrfymhni","address":"Opportunity Stage - Priority Targets","geo_precision":"unmatched"},"type":"Feature","geometry":null},{"properties":{"geo_score":0.0,"lantitude":51.49772,"column_1":"M25 J30","longitude":0.268565,"id":"ag5bvrg7orqf","address":"Opportunity Stage - Priority Targets","geo_precision":"unmatched"},"type":"Feature","geometry":null},{"properties":{"geo_score":0.0,"lantitude":52.230184,"column_1":"A14 Cambridge to Huntingdon","longitude":0.070087,"id":"ag5bvrfplcr7","address":"Opportunity Stage - Priority Targets","geo_precision":"unmatched"},"type":"Feature","geometry":null},{"properties":{"geo_score":0.0,"lantitude":53.08649,"column_1":"A487 Caernarvon","longitude":-4.281293,"id":"ag5bvrgs8v3c","address":"Opportunity Stage - Priority Targets","geo_precision":"unmatched"},"type":"Feature","geometry":null},{"properties":{"geo_score":0.0,"lantitude":50.536473,"column_1":"A30 Temple","longitude":-4.61966,"id":"ag5bvro79fcy","address":"Opportunity Stage - Priority Targets","geo_precision":"unmatched"},"type":"Feature","geometry":null},{"properties":{"geo_score":0.0,"lantitude":51.560701,"column_1":"M4 J28 ECI","longitude":-3.042388,"id":"ag5bvra0r8av","address":"Opportunity Stage - Contenders","geo_precision":"unmatched"},"type":"Feature","geometry":null},{"properties":{"geo_score":0.0,"lantitude":51.503104,"column_1":"Silvertown","longitude":0.038282,"id":"ag5bvrh6j2ux","address":"Opportunity Stage - Contenders","geo_precision":"unmatched"},"type":"Feature","geometry":null},{"properties":{"geo_score":0.0,"lantitude":null,"column_1":"Lower Thames Crossing","longitude":null,"id":"ag5bvrh7zf23","address":"Opportunity Stage - Contenders","geo_precision":"unmatched"},"type":"Feature","geometry":null},{"properties":{"geo_score":0.0,"lantitude":51.826356,"column_1":"Llandeilo Bypas","longitude":-4.009214,"id":"ag5bvr9rabam","address":"Opportunity Stage - Contenders","geo_precision":"unmatched"},"type":"Feature","geometry":null},{"properties":{"geo_score":0.0,"lantitude":null,"column_1":"M56 to M6 Toll","longitude":null,"id":"ag5bvrjaglks","address":"Opportunity Stage - Contenders","geo_precision":"unmatched"},"type":"Feature","geometry":null},{"properties":{"geo_score":0.0,"lantitude":51.136953,"column_1":"M20 Jct 10a","longitude":0.912118,"id":"ag5bvrgzmkuf","address":"Opportunity Stage - Contenders","geo_precision":"unmatched"},"type":"Feature","geometry":null},{"properties":{"geo_score":0.0,"lantitude":52.150023,"column_1":"Builth Wells","longitude":-3.404592,"id":"ag5bvrekij1z","address":"Opportunity Stage - Contenders","geo_precision":"unmatched"},"type":"Feature","geometry":null}],"is_temporal":false,"author":{"url":"","metadata":"","contact_name":"","contact_address":"","source":"","contact_phone":""},"source":"","pagination":{"sort":null,"start":0,"total":54,"limit":1000000},"state":"complete","tags":"","published":"2014-08-16T16:03:32-04:00","id":382419}