{"type":"FeatureCollection","data_type":"Dataset","url_type":null,"permissions":[{"permissions":{"download":true,"view":true},"group_id":"everyone"}],"classification":null,"title":"bars and clubs","count":23,"stream_id":383010,"contributor":{"url":"http://geocommons.com/users/78868","name":"jallison94"},"data_attributes":null,"calculation_params":null,"icon_link":null,"link":"http://geocommons.com/overlays/383010.json","extent":[-104.847,38.7918,-104.748,38.8811],"geometry_types":["point"],"unique_name":null,"name":"bars and clubs","feature_count":23,"description":"","next_feature":null,"is_raster":false,"short_classification":"Y","stats":{},"features":[{"properties":{"name":"Tony's","geo_score":0.96,"website":"www.tonysdowntownbar.com","phone":"228-6566","id":"ag6n4tra6td3","address":"311 N. Tejon St. Colorado Springs, CO 80903","geo_precision":"range"},"type":"Feature","geometry":{"type":"Point","coordinates":[-104.823134,38.839392]}},{"properties":{"name":"Rabbit Hole","geo_score":0.96,"website":"www.rabbitholedinner.com","phone":"203-5072","id":"ag6n4tm05lhx","address":"101 N. Tejon St. Colorado Springs, CO 80903","geo_precision":"range"},"type":"Feature","geometry":{"type":"Point","coordinates":[-104.823356,38.836679]}},{"properties":{"name":"Shuga's","geo_score":0.954,"website":"www.shugas.com","phone":"328-1412","id":"ag6n4tmipmdn","address":"702 S. Cascade Ave. Colorado Springs, CO 80903","geo_precision":"range"},"type":"Feature","geometry":{"type":"Point","coordinates":[-104.826086,38.823179]}},{"properties":{"name":"Triple Nickel Tavern","geo_score":0.805,"website":"www.triplenickeltavern.com","phone":"477-9555","id":"ag6n4tm8nuyc","address":"26 S. Wahsatch Ave. Colorado Springs, CO 80935","geo_precision":"range"},"type":"Feature","geometry":{"type":"Point","coordinates":[-104.818273,38.832638]}},{"properties":{"name":"Jack Quinn Irish Alehouse and Pub","geo_score":0.96,"website":"www.jackquinnspub.com","phone":"385-0766","id":"ag6n4tqtb501","address":"21 S. Tejon St. Colorado Springs, CO 80903","geo_precision":"range"},"type":"Feature","geometry":{"type":"Point","coordinates":[-104.823483,38.832725]}},{"properties":{"name":"Paradox Lounge","geo_score":0.96,"website":"www.southsidejohnnys.net","phone":"444-8487","id":"ag6n4tlg2clq","address":"528 S. Tejon St. Colorado Springs, CO 80903","geo_precision":"range"},"type":"Feature","geometry":{"type":"Point","coordinates":[-104.824006,38.82587]}},{"properties":{"name":"The Golden Bee","geo_score":0.965,"website":"www.broadmoor.com","phone":"577-5776","id":"ag6n4tf2kzt4","address":"1 Lake Ave. Colorado Springs, CO 80906","geo_precision":"range"},"type":"Feature","geometry":{"type":"Point","coordinates":[-104.847119,38.791768]}},{"properties":{"name":"Bristol Brewing Company","geo_score":0.96,"website":"www.bristolbrewing.com","phone":"633-2555","id":"ag6n4trg9kdh","address":"1647 S. Tejon St. Colorado Springs, CO 80906","geo_precision":"range"},"type":"Feature","geometry":{"type":"Point","coordinates":[-104.82626,38.809245]}},{"properties":{"name":"On the Boulevard","geo_score":0.954,"website":"www.on-the-boulevard.com","phone":"471-4424","id":"ag6n4to3pka2","address":"2855 N. Murray Blvd. Colorado Springs, CO 80917","geo_precision":"range"},"type":"Feature","geometry":{"type":"Point","coordinates":[-104.747795,38.872426]}},{"properties":{"name":"Judge Baldwin's","geo_score":0.954,"website":"www.antlers.com/Restaurants.htm","phone":"473-5600","id":"ag6n4tl69p76","address":"4 S. Cascade Ave. Colorado Springs, CO 80903","geo_precision":"range"},"type":"Feature","geometry":{"type":"Point","coordinates":[-104.825357,38.832552]}},{"properties":{"name":"Zodiac","geo_score":0.96,"website":"www.zodiacvenue.com","phone":"632-5059","id":"ag6n4tck1x3g","address":"230 Pueblo Ave. Colorado Springs, CO 80903","geo_precision":"range"},"type":"Feature","geometry":{"type":"Point","coordinates":[-104.818825,38.8271]}},{"properties":{"name":"The Underground","geo_score":0.956,"website":"www.undergroundbars.com","phone":"578-7771","id":"ag6n4tnq45ga","address":"110 N. Nevada Ave. Colorado Springs, CO 80903","geo_precision":"range"},"type":"Feature","geometry":{"type":"Point","coordinates":[-104.821535,38.836515]}},{"properties":{"name":"Red Martini Lounge","geo_score":0.96,"website":"www.redmartinics.com","phone":"227-1001","id":"ag6n4tf3aqxf","address":"20 N. Tejon St. Colorado Springs, CO 80903","geo_precision":"range"},"type":"Feature","geometry":{"type":"Point","coordinates":[-104.823501,38.835153]}},{"properties":{"name":"Supernova Bar and Arcade","geo_score":0.956,"website":"www.supernovabar.com","phone":"418-3484","id":"ag6n4tlm9wd7","address":"111 E. Boulder St. Colorado Springs, CO 80903","geo_precision":"range"},"type":"Feature","geometry":{"type":"Point","coordinates":[-104.821689,38.839417]}},{"properties":{"name":"Nosh","geo_score":0.96,"website":"www.nosh121.com","phone":"634-6674","id":"ag6n4tfm45on","address":"121 S. Tejon St. Colorado Springs, CO 80903","geo_precision":"range"},"type":"Feature","geometry":{"type":"Point","coordinates":[-104.823548,38.831818]}},{"properties":{"name":"Blue Star","geo_score":0.96,"website":"www.thebluestar.net","phone":"632-1086","id":"ag6n4ti052w9","address":"1645 S. Tejon St. Colorado Springs, CO 80906","geo_precision":"range"},"type":"Feature","geometry":{"type":"Point","coordinates":[-104.826258,38.809226]}},{"properties":{"name":"McCabe's","geo_score":0.96,"website":"www.mccabestavern.com","phone":"633-3300","id":"ag6n4tmv25jv","address":"520 S. Tejon St. Colorado Springs, CO 80903","geo_precision":"range"},"type":"Feature","geometry":{"type":"Point","coordinates":[-104.824009,38.825757]}},{"properties":{"name":"Johnny's Navajo Hogan","geo_score":0.956,"website":"www.johnnyshogan.com","phone":"344-9593","id":"ag6n4tgx0133","address":"2817 N. Nevada Ave. Colorado Springs, CO 80907","geo_precision":"range"},"type":"Feature","geometry":{"type":"Point","coordinates":[-104.819443,38.872919]}},{"properties":{"name":"Cowboys","geo_score":0.96,"website":"www.cowboyscs.com","phone":"596-1212","id":"ag6n4tfg9ayg","address":"25 N. Tejon St. Colorado Springs, CO 80903","geo_precision":"range"},"type":"Feature","geometry":{"type":"Point","coordinates":[-104.823355,38.83506]}},{"properties":{"name":"Blondies","geo_score":0.96,"website":"www.blondiescs.com","phone":null,"id":"ag6n4tpln3zh","address":"20 N. Tejon St. Colorado Springs, CO 80903","geo_precision":"range"},"type":"Feature","geometry":{"type":"Point","coordinates":[-104.823501,38.835153]}},{"properties":{"name":"The Mansion","geo_score":0.96,"website":"www.mansioncs.com","phone":"357-9767","id":"ag6n4tldbee4","address":"20 N. Tejon St. Colorado Springs, CO 80903","geo_precision":"range"},"type":"Feature","geometry":{"type":"Point","coordinates":[-104.823501,38.835153]}},{"properties":{"name":"Gasoline Alley","geo_score":0.96,"website":"www.gasolinealleycs.com","phone":"636-2244","id":"ag6n4tbqw96k","address":"28 N. Tejon St. Colorado Springs, CO 80903","geo_precision":"range"},"type":"Feature","geometry":{"type":"Point","coordinates":[-104.823506,38.835029]}},{"properties":{"name":"Copperhead Road Honkey Tonk Saloon","geo_score":0.953,"website":"www.copperheadroadbar.com","phone":"659-9099","id":"ag6n4tdmuglu","address":"3330 N. Academy Blvd. Colorado Springs, CO 80917","geo_precision":"range"},"type":"Feature","geometry":{"type":"Point","coordinates":[-104.757141,38.8811]}}],"is_temporal":false,"author":{"url":"","metadata":"","contact_name":"","contact_address":"","source":"","contact_phone":""},"source":"","pagination":{"sort":null,"start":0,"total":23,"limit":1000000},"state":"complete","tags":"","published":"2014-08-16T16:54:34-04:00","id":383010}