{"type":"FeatureCollection","data_type":"Dataset","url_type":null,"permissions":[{"permissions":{"download":true,"view":true},"group_id":"everyone"}],"classification":null,"title":"School Pantry Addresses","count":27,"stream_id":383212,"contributor":{"url":"http://geocommons.com/users/77640","name":"esodo"},"data_attributes":null,"calculation_params":null,"icon_link":null,"link":"http://geocommons.com/overlays/383212.json","extent":[-86.8025,38.7126,-84.8941,40.1443],"geometry_types":["point"],"unique_name":null,"name":"School Pantry Addresses","feature_count":27,"description":"","next_feature":null,"is_raster":false,"short_classification":"Y","stats":{},"features":[{"properties":{"city":"Greenwood","county":"Johnson","site name":"Center Grove Care Pantry","geo_score":1.0,"zip code":"46143","street":"2717 South Morgantown Road","id":"ag7bacpwba4m","geo_precision":"range","state":"Indiana"},"type":"Feature","geometry":{"type":"Point","coordinates":[-86.196856,39.576296]}},{"properties":{"city":"Indianapolis","county":"Marion","site name":"Chapelwood","geo_score":1.0,"zip code":"46214","street":"1129 North Girls School Road","id":"ag7bacu5dywe","geo_precision":"range","state":"Indiana"},"type":"Feature","geometry":{"type":"Point","coordinates":[-86.288434,39.782013]}},{"properties":{"city":"Columbus","county":"Bartholomew","site name":"Columbus East HS","geo_score":1.0,"zip code":"47201","street":"230 South Marr Road","id":"ag7bacfqqggb","geo_precision":"range","state":"Indiana"},"type":"Feature","geometry":{"type":"Point","coordinates":[-85.884805,39.194973]}},{"properties":{"city":"Connersville","county":"Fayette","site name":"Connersville HS","geo_score":1.0,"zip code":"47331","street":"1100 Spartan Drive","id":"ag7bacrbmotm","geo_precision":"range","state":"Indiana"},"type":"Feature","geometry":{"type":"Point","coordinates":[-85.160915,39.637491]}},{"properties":{"city":"Indianapolis","county":"Marion","site name":"Crispus Attucks Medical Magnet HS","geo_score":0.604,"zip code":"46202","street":"1140 Dr. Martin Luther King Jr. Drive","id":"ag7bacm48x6v","geo_precision":"street","state":"Indiana"},"type":"Feature","geometry":{"type":"Point","coordinates":[-86.158003,39.769441]}},{"properties":{"city":"Indianapolis","county":"Marion","site name":"Emmerich Manuel HS","geo_score":0.955,"zip code":"46225","street":"2405 South Madison Avenue","id":"ag7bacqwxabm","geo_precision":"range","state":"Indiana"},"type":"Feature","geometry":{"type":"Point","coordinates":[-86.154052,39.733516]}},{"properties":{"city":"Indianapolis","county":"Marion","site name":"Harshman Middle School","geo_score":0.935,"zip code":"46201","street":"1501 East 10th Street","id":"ag7bacf228g3","geo_precision":"range","state":"Indiana"},"type":"Feature","geometry":{"type":"Point","coordinates":[-86.133271,39.7812]}},{"properties":{"city":"Lebanon","county":"Boone","site name":"Hattie B. Stokes","geo_score":0.878,"zip code":"46052","street":"1005 Hendricks Drive","id":"ag7bacrzo2nd","geo_precision":"range","state":"Indiana"},"type":"Feature","geometry":{"type":"Point","coordinates":[-86.454232,40.034438]}},{"properties":{"city":"Indianapolis","county":"Marion","site name":"Indiana School for the Blind &amp; VI","geo_score":1.0,"zip code":"46240","street":"7725 North College Avenue","id":"ag7bacps70my","geo_precision":"range","state":"Indiana"},"type":"Feature","geometry":{"type":"Point","coordinates":[-86.145763,39.895963]}},{"properties":{"city":"Indianapolis","county":"Marion","site name":"Indiana Schol for the Deaf and HI","geo_score":0.74,"zip code":"46222","street":"1200 East 42nd Street","id":"ag7bacra3cgm","geo_precision":"range","state":"Indiana"},"type":"Feature","geometry":{"type":"Point","coordinates":[-86.131767,39.832886]}},{"properties":{"city":"Indianapolis","county":"Marion","site name":"Indianapolis Metropolitan HS","geo_score":1.0,"zip code":"46222","street":"1635 West Michigan Street","id":"ag7baciv7ds8","geo_precision":"range","state":"Indiana"},"type":"Feature","geometry":{"type":"Point","coordinates":[-86.191047,39.774651]}},{"properties":{"city":"Indianapolis","county":"Marion","site name":"IPS #14 Washington Irving","geo_score":1.0,"zip code":"46202","street":"1250 East Market Street","id":"ag7bach73jqv","geo_precision":"range","state":"Indiana"},"type":"Feature","geometry":{"type":"Point","coordinates":[-86.136567,39.768155]}},{"properties":{"city":"Indianapolis","county":"Marion","site name":"IPS #51 James Russel Lowell","geo_score":1.0,"zip code":"46218","street":"3426 Roosevelt Avenue","id":"ag7bacreprux","geo_precision":"range","state":"Indiana"},"type":"Feature","geometry":{"type":"Point","coordinates":[-86.108353,39.79931]}},{"properties":{"city":"Indianapolis","county":"Marion","site name":"IPS #69 Joyce Kilmer Academy","geo_score":1.0,"zip code":"46218","street":"3421 North Keystone Avenue","id":"ag7bactmenak","geo_precision":"range","state":"Indiana"},"type":"Feature","geometry":{"type":"Point","coordinates":[-86.121602,39.819547]}},{"properties":{"city":"Indianapolis","county":"Marion","site name":"IPS #46 Daniel Webster","geo_score":1.0,"zip code":"46221","street":"1450 South Reisner Street","id":"ag7bacr7m0wk","geo_precision":"range","state":"Indiana"},"type":"Feature","geometry":{"type":"Point","coordinates":[-86.189632,39.746642]}},{"properties":{"city":"Indianapolis","county":"Marion","site name":"IPS #56 Francis W. Parker Montessori","geo_score":1.0,"zip code":"46205","street":"2353 Columbia Avenue","id":"ag7baciwy4zp","geo_precision":"range","state":"Indiana"},"type":"Feature","geometry":{"type":"Point","coordinates":[-86.136775,39.800397]}},{"properties":{"city":"Indianapolis","county":"Marion","site name":"IPS #58 Raplh Waldo Emerson","geo_score":1.0,"zip code":"46201","street":"321 North Linwood Avenue","id":"ag7bacih6p5d","geo_precision":"range","state":"Indiana"},"type":"Feature","geometry":{"type":"Point","coordinates":[-86.092548,39.77454]}},{"properties":{"city":"North Vernon","county":"Jennings","site name":"Jennings County HS","geo_score":0.585,"zip code":"47265","street":"800 West Walnut Street","id":"ag7backgkpqg","geo_precision":"zip","state":"Indiana"},"type":"Feature","geometry":{"type":"Point","coordinates":[-85.677194,39.051164]}},{"properties":{"city":"Roachdale","county":"Putnam","site name":"North Putnam Middle/HS","geo_score":0.916,"zip code":"46172","street":"8905 North County 250 East","id":"ag7bacinjgh1","geo_precision":"range","state":"Indiana"},"type":"Feature","geometry":{"type":"Point","coordinates":[-86.802479,39.789484]}},{"properties":{"city":"Indianapolis","county":"Marion","site name":"R.I.S.E. Learning Center","geo_score":1.0,"zip code":"46227","street":"5394 Shelby Street","id":"ag7bacmpc2cc","geo_precision":"range","state":"Indiana"},"type":"Feature","geometry":{"type":"Point","coordinates":[-86.138832,39.691782]}},{"properties":{"city":"Richmond","county":"Wayne","site name":"Richmond HS","geo_score":0.585,"zip code":"47374","street":"380 Hub Etichson Parkway","id":"ag7bacpw2f7k","geo_precision":"zip","state":"Indiana"},"type":"Feature","geometry":{"type":"Point","coordinates":[-84.894127,39.848381]}},{"properties":{"city":"Indianapolis","county":"Marion","site name":"Sense Charter School","geo_score":0.947,"zip code":"46203","street":"1601 South Barth Avenue","id":"ag7baclokrf9","geo_precision":"range","state":"Indiana"},"type":"Feature","geometry":{"type":"Point","coordinates":[-86.141105,39.744395]}},{"properties":{"city":"Sheridan","county":"Hamilton","site name":"Sheridan Middle School","geo_score":0.805,"zip code":"46039","street":"3080 West 246th Street","id":"ag7bacmt2t6x","geo_precision":"range","state":"Indiana"},"type":"Feature","geometry":{"type":"Point","coordinates":[-86.218162,40.144321]}},{"properties":{"city":"Indianapolis","county":"Marion","site name":"Southport HS","geo_score":1.0,"zip code":"46227","street":"971 East Banta Road","id":"ag7baceh9ne9","geo_precision":"range","state":"Indiana"},"type":"Feature","geometry":{"type":"Point","coordinates":[-86.143583,39.672003]}},{"properties":{"city":"Hanover","county":"Jefferson","site name":"Southwestern HS","geo_score":0.941,"zip code":"47243","street":"167 South Main Cross","id":"ag7baclod1hd","geo_precision":"range","state":"Indiana"},"type":"Feature","geometry":{"type":"Point","coordinates":[-85.473759,38.712575]}},{"properties":{"city":"Liberty","county":"Union","site name":"Union County High School","geo_score":1.0,"zip code":"47353","street":"410 Patriot Boulevard","id":"ag7bacjug5w3","geo_precision":"range","state":"Indiana"},"type":"Feature","geometry":{"type":"Point","coordinates":[-84.920573,39.635381]}},{"properties":{"city":"Brownstown","county":"Jackson","site name":"Brownstown Central HS","geo_score":0.89,"zip code":"47220","street":"500 North Elm","id":"ag7bacfkj1jf","geo_precision":"range","state":"Indiana"},"type":"Feature","geometry":{"type":"Point","coordinates":[-86.044215,38.88528]}}],"is_temporal":false,"author":{"url":"","metadata":"","contact_name":"","contact_address":"","source":"","contact_phone":""},"source":"","pagination":{"sort":null,"start":0,"total":27,"limit":1000000},"state":"complete","tags":"","published":"2014-08-16T17:04:43-04:00","id":383212}