{"type":"FeatureCollection","data_type":"Dataset","url_type":null,"permissions":[{"permissions":{"download":true,"view":true},"group_id":"everyone"}],"classification":null,"title":"Story Titles","count":59,"stream_id":383287,"contributor":{"url":"http://geocommons.com/users/79155","name":"mofoty"},"data_attributes":null,"calculation_params":null,"icon_link":null,"link":"http://geocommons.com/overlays/383287.json","extent":[-106.07,34.9892,-106.026,35.0129],"geometry_types":["point"],"unique_name":null,"name":"Story Titles","feature_count":59,"description":"","next_feature":null,"is_raster":false,"short_classification":"Y","stats":{},"features":[{"properties":{"Story Name":"The Mystic of Route 66","District":"Westward","Type":"General Story","id":"ag7f4s75dulr"},"type":"Feature","geometry":{"type":"Point","coordinates":[-106.061583327659,35.0090265580086]}},{"properties":{"Story Name":"Route 66: A Modern Trade Route","District":"Westward","Type":"General Story","id":"ag7f4sa4czte"},"type":"Feature","geometry":{"type":"Point","coordinates":[-106.062309821972,34.9957182601225]}},{"properties":{"Story Name":"Route 66: The Mother Road","District":"Westward","Type":"General Story","id":"ag7f4ryg3p4e"},"type":"Feature","geometry":{"type":"Point","coordinates":[-106.062262258924,34.998351010033]}},{"properties":{"Story Name":"The Building of the Interstate Highway System","District":"Westward","Type":"General Story","id":"ag7f4s6jp6or"},"type":"Feature","geometry":{"type":"Point","coordinates":[-106.063083606803,35.0095794157125]}},{"properties":{"Story Name":"Immigration and Migration: The Dustbowl, Great Depression and WW2","District":"Westward","Type":"General Story","id":"ag7f4s71qdhi"},"type":"Feature","geometry":{"type":"Point","coordinates":[-106.041535029243,35.0049670368036]}},{"properties":{"Story Name":"Motels of Route 66","District":"Westward","Type":"General Story","id":"ag7f4sb4uyyl"},"type":"Feature","geometry":{"type":"Point","coordinates":[-106.052312703816,35.0049833726361]}},{"properties":{"Story Name":"Auto Service Stations on Rt 66","District":"Westward","Type":"General Story","id":"ag7f4s1lb1iq"},"type":"Feature","geometry":{"type":"Point","coordinates":[-106.049821271121,35.0052380270264]}},{"properties":{"Story Name":"Some Things Never Change: NM History and Politics","District":"Westward","Type":"General Story","id":"ag7f4s4axneb"},"type":"Feature","geometry":{"type":"Point","coordinates":[-106.056364070365,35.0062060177758]}},{"properties":{"Story Name":"Automobile Culture as ?Authentic America?","District":"Westward","Type":"General Story","id":"ag7f4saijmbl"},"type":"Feature","geometry":{"type":"Point","coordinates":[-106.0614184155,35.0084535787387]}},{"properties":{"Story Name":"The Literature of Rt 66 and the American West","District":"Westward","Type":"General Story","id":"ag7f4s8hl1jv"},"type":"Feature","geometry":{"type":"Point","coordinates":[-106.054081783225,35.0053936176919]}},{"properties":{"Story Name":"Retribution Road and Governor Higgins","District":"Westward","Type":"Events","id":"ag7f4sblicj0"},"type":"Feature","geometry":{"type":"Point","coordinates":[-106.053704827339,35.0060478789592]}},{"properties":{"Story Name":"Hal Crossley and the Buford Addition","District":"Westward","Type":"People/Place","id":"ag7f4s6bjmwb"},"type":"Feature","geometry":{"type":"Point","coordinates":[-106.043588537603,35.0049711257702]}},{"properties":{"Story Name":"Stay At My Place: The Motels and Owners of Moriarty's Motels","District":"Westward","Type":"People/Place","id":"ag7f4s8beuum"},"type":"Feature","geometry":{"type":"Point","coordinates":[-106.052398865229,35.0048551043708]}},{"properties":{"Story Name":"A Homage to Tourists, Truckers, and Other Travelers","District":"Westward","Type":"People","id":"ag7f4s4ameqv"},"type":"Feature","geometry":{"type":"Point","coordinates":[-106.05865251919,35.0078501479343]}},{"properties":{"Story Name":"Moriarty's Auto Repair Stations","District":"Westward","Type":"Place","id":"ag7f4saxtjwr"},"type":"Feature","geometry":{"type":"Point","coordinates":[-106.049787166534,35.0051466939278]}},{"properties":{"Story Name":"Why are they Always Failing?: A History of Restaurants in Moriarty","District":"Westward","Type":"Place","id":"ag7f4s3u6y34"},"type":"Feature","geometry":{"type":"Point","coordinates":[-106.058552445285,35.0079014128046]}},{"properties":{"Story Name":"The Last Whiting Brothers Station in the Universe","District":"Westward","Type":"Place","id":"ag7f4s8zjtzm"},"type":"Feature","geometry":{"type":"Point","coordinates":[-106.037624879534,35.0051147106611]}},{"properties":{"Story Name":"Historic Buildings of Moriarty","District":"Westward","Type":"Place","id":"ag7f4s5trdkr"},"type":"Feature","geometry":{"type":"Point","coordinates":[-106.050196933686,35.0045547832398]}},{"properties":{"Story Name":"Why Neon Signs Are Still Rad","District":"Westward","Type":"Things","id":"ag7f4s8xkmq6"},"type":"Feature","geometry":{"type":"Point","coordinates":[-106.05191915998,35.0055235425616]}},{"properties":{"Story Name":"How Moriarty was Almost Bypassed","District":"Westward","Type":"Events","id":"ag7f4sba1x82"},"type":"Feature","geometry":{"type":"Point","coordinates":[-106.06294976242,35.0095620095527]}},{"properties":{"Story Name":"How Trucking Makes Your Life Possible","District":"Aviation","Type":"General Story","id":"ag7f4s0ptrdc"},"type":"Feature","geometry":{"type":"Point","coordinates":[-106.060803710703,35.0066461541433]}},{"properties":{"Story Name":"History of Aviation in 5 pictures","District":"Aviation","Type":"General Story","id":"ag7f4s1l3w8g"},"type":"Feature","geometry":{"type":"Point","coordinates":[-106.032857990789,35.0044993513164]}},{"properties":{"Story Name":"Remember, Powered Flight is Awesome","District":"Aviation","Type":"General Story","id":"ag7f4rz7fqaw"},"type":"Feature","geometry":{"type":"Point","coordinates":[-106.06231606324,34.9929828675151]}},{"properties":{"Story Name":"Transportation Technologies: Past, Present and Future","District":"Aviation","Type":"General Story","id":"ag7f4rwzp5sg"},"type":"Feature","geometry":{"type":"Point","coordinates":[-106.030084035454,35.0045200226518]}},{"properties":{"Story Name":"Ted Nelson: The Last (First) of the Great Glider Designers","District":"Aviation","Type":"People","id":"ag7f4s0hwade"},"type":"Feature","geometry":{"type":"Point","coordinates":[-106.037512450516,35.0044050375451]}},{"properties":{"Story Name":"Moriarty Airport: Soaring Above the Rest","District":"Aviation","Type":"Place","id":"ag7f4s9x8cnh"},"type":"Feature","geometry":{"type":"Point","coordinates":[-106.062317783754,34.9922306344404]}},{"properties":{"Story Name":"The Amazing Story of the Otto Building","District":"Aviation","Type":"Place","id":"ag7f4scbcsfu"},"type":"Feature","geometry":{"type":"Point","coordinates":[-106.025513555187,35.0042979306094]}},{"properties":{"Story Name":"Dancing in the Sun: Aviation Events","District":"Aviation","Type":"Events","id":"ag7f4s31r6cm"},"type":"Feature","geometry":{"type":"Point","coordinates":[-106.027742341629,35.0051510440318]}},{"properties":{"Story Name":"Sailing Culture: An International Sport","District":"Aviation","Type":"Things/People","id":"ag7f4s56eyum"},"type":"Feature","geometry":{"type":"Point","coordinates":[-106.033261711246,35.0050386038741]}},{"properties":{"Story Name":"Homesteading is for Badasses","District":"Railway","Type":"General Story","id":"ag7f4rzq16vg"},"type":"Feature","geometry":{"type":"Point","coordinates":[-106.049218561714,34.9967914753776]}},{"properties":{"Story Name":"Who Were All those People with Tuberculosis?","District":"Railway","Type":"General Story","id":"ag7f4s8jokf7"},"type":"Feature","geometry":{"type":"Point","coordinates":[-106.041532102133,35.004415562458]}},{"properties":{"Story Name":"How the Railroad Changed America","District":"Railway","Type":"General Story","id":"ag7f4sbq7mz3"},"type":"Feature","geometry":{"type":"Point","coordinates":[-106.062362844315,34.9906920395216]}},{"properties":{"Story Name":"Railroads in NM","District":"Railway","Type":"General Story","id":"ag7f4s3qqtz7"},"type":"Feature","geometry":{"type":"Point","coordinates":[-106.062364712112,34.9898714212698]}},{"properties":{"Story Name":"Railroad Investors: Your Original Venture Capitalists","District":"Railway","Type":"People","id":"ag7f4rwyzw7f"},"type":"Feature","geometry":{"type":"Point","coordinates":[-106.050690601954,34.9894767004455]}},{"properties":{"Story Name":"John Kennedy: Telegraph Operator","District":"Railway","Type":"People","id":"ag7f4sbmy9qz"},"type":"Feature","geometry":{"type":"Point","coordinates":[-106.062324646315,34.9892217007047]}},{"properties":{"Story Name":"The Railroad in Moriarty","District":"Railway","Type":"Place","id":"ag7f4s0gchys"},"type":"Feature","geometry":{"type":"Point","coordinates":[-106.050099985065,34.9896804209151]}},{"properties":{"Story Name":"Railroad Buildings","District":"Railway","Type":"Place","id":"ag7f4rzpt2jj"},"type":"Feature","geometry":{"type":"Point","coordinates":[-106.049983049802,34.98998842497]}},{"properties":{"Story Name":"Hughes Mercantile Company Building","District":"Railway","Type":"Place","id":"ag7f4rwtl5ff"},"type":"Feature","geometry":{"type":"Point","coordinates":[-106.062338884834,35.0011891057664]}},{"properties":{"Story Name":"Old Moriarty","District":"Railway","Type":"Place","id":"ag7f4sap3pkj"},"type":"Feature","geometry":{"type":"Point","coordinates":[-106.050689483497,34.9899383009091]}},{"properties":{"Story Name":"Cemeteries Aren't Just for Dead People","District":"Railway","Type":"Place","id":"ag7f4rwgl084"},"type":"Feature","geometry":{"type":"Point","coordinates":[-106.069953958334,34.9963111084114]}},{"properties":{"Story Name":"The Incredible Fate of Derailed Railcars","District":"Railway","Type":"Place","id":"ag7f4rz2pn4h"},"type":"Feature","geometry":{"type":"Point","coordinates":[-106.050052658855,34.992809886165]}},{"properties":{"Story Name":"Changing Technology on the Farm","District":"Agriculture","Type":"General Story","id":"ag7f4s33ih1c"},"type":"Feature","geometry":{"type":"Point","coordinates":[-106.062292879179,35.0031380062036]}},{"properties":{"Story Name":"Ranching in NM","District":"Agriculture","Type":"General Story","id":"ag7f4s4603gb"},"type":"Feature","geometry":{"type":"Point","coordinates":[-106.062291473508,35.0037534686038]}},{"properties":{"Story Name":"Drought/Water/Life","District":"Agriculture","Type":"Things","id":"ag7f4s7nx1x8"},"type":"Feature","geometry":{"type":"Point","coordinates":[-106.047376680784,35.0037672003283]}},{"properties":{"Story Name":"Exodus: Dust Bowl Migrations","District":"Agriculture","Type":"General Story","id":"ag7f4s7of92a"},"type":"Feature","geometry":{"type":"Point","coordinates":[-106.041520603226,35.0051675785597]}},{"properties":{"Story Name":"What Your Grandparents Didn't Tell You About the Great Depression","District":"Agriculture","Type":"General Story","id":"ag7f4saap5qh"},"type":"Feature","geometry":{"type":"Point","coordinates":[-106.069731498895,35.0030125055333]}},{"properties":{"Story Name":"A Natural History of Estancia Valley","District":"Agriculture","Type":"General Story","id":"ag7f4s1v1vwz"},"type":"Feature","geometry":{"type":"Point","coordinates":[-106.051077040412,35.0014789008628]}},{"properties":{"Story Name":"Hello, Mr. Moriarty","District":"Agriculture","Type":"People","id":"ag7f4s9czwin"},"type":"Feature","geometry":{"type":"Point","coordinates":[-106.046801885062,35.003694341397]}},{"properties":{"Story Name":"The King Brothers","District":"Agriculture","Type":"People","id":"ag7f4s128idn"},"type":"Feature","geometry":{"type":"Point","coordinates":[-106.042901298156,35.0129400779698]}},{"properties":{"Story Name":"Farming isn't just for old Timers","District":"Agriculture","Type":"People","id":"ag7f4s57l3n3"},"type":"Feature","geometry":{"type":"Point","coordinates":[-106.063968290371,34.9972936701255]}},{"properties":{"Story Name":"The Pinto Bean Capital of the World","District":"Agriculture","Type":"Events","id":"ag7f4sakf13w"},"type":"Feature","geometry":{"type":"Point","coordinates":[-106.059137427848,35.0073961392713]}},{"properties":{"Story Name":"Rodeo as a Way of Life","District":"Agriculture","Type":"Things","id":"ag7f4s8igtzm"},"type":"Feature","geometry":{"type":"Point","coordinates":[-106.069823824332,34.9988069707258]}},{"properties":{"Story Name":"Families of Moriarty","District":"Village Green","Type":"People","id":"ag7f4s71a1xj"},"type":"Feature","geometry":{"type":"Point","coordinates":[-106.055745072136,35.0066866018624]}},{"properties":{"Story Name":"The Anaya Family","District":"Village Green","Type":"People","id":"ag7f4rz4wipp"},"type":"Feature","geometry":{"type":"Point","coordinates":[-106.069950126766,34.9980549228834]}},{"properties":{"Story Name":"Athletes of Moriarty","District":"Village Green","Type":"People","id":"ag7f4rykba3b"},"type":"Feature","geometry":{"type":"Point","coordinates":[-106.070284194276,34.9973031790445]}},{"properties":{"Story Name":"Crossroads of Opportunity: Moriarty's Development","District":"Village Green","Type":"Things","id":"ag7f4s7v9j9c"},"type":"Feature","geometry":{"type":"Point","coordinates":[-106.047257459565,35.004327673627]}},{"properties":{"Story Name":"Moriarty as Gateway: Regional Connections","District":"Village Green","Type":"Things","id":"ag7f4rylcv5b"},"type":"Feature","geometry":{"type":"Point","coordinates":[-106.044299768135,35.004483196136]}},{"properties":{"Story Name":"I Just Bought $400 Worth of Fireworks and My Truck Still Isn't Full","District":"Village Green","Type":"Things","id":"ag7f4sb70hba"},"type":"Feature","geometry":{"type":"Point","coordinates":[-106.062954701112,35.0090457754453]}},{"properties":{"Story Name":"Hidden Assets of Moriarty","District":"Village Green","Type":"Place","id":"ag7f4sbd6khh"},"type":"Feature","geometry":{"type":"Point","coordinates":[-106.049443275086,35.0026131179049]}}],"is_temporal":false,"author":{"url":"","metadata":"","contact_name":"","contact_address":"","source":"","contact_phone":""},"source":"","pagination":{"sort":null,"start":0,"total":59,"limit":1000000},"state":"complete","tags":"","published":"2014-08-16T17:09:55-04:00","id":383287}