{"type":"FeatureCollection","data_type":"Dataset","url_type":null,"permissions":[{"permissions":{"download":true,"view":true},"group_id":"everyone"}],"classification":null,"title":"NRC, Spent Nuclear Fuel Storage Sites, United States, 2008","count":41,"stream_id":3836,"contributor":{"url":"http://geocommons.com/users/330","name":"brian"},"data_attributes":null,"calculation_params":null,"icon_link":null,"link":"http://geocommons.com/overlays/3836.json","extent":[-124.16,31.2232,-69.6708,46.2741],"geometry_types":["point"],"unique_name":null,"name":"NRC, Spent Nuclear Fuel Storage Sites, United States, 2008","feature_count":41,"description":"Locations where spent nuclear fuel is stored in the United States","next_feature":null,"is_raster":false,"short_classification":"Y","stats":{"latitude":{"max":46.274065,"mean":39.4179321463415,"variance":17.3108605444641,"stdev":4.16063222893638,"min":31.22324,"median":40.67598},"longitude":{"max":-69.670757,"mean":-90.2607797560975,"variance":260.017860743404,"stdev":16.1250693252279,"min":-124.159554,"median":-86.272619}},"features":[{"properties":{"city":"Russellville","storage facility":"Arkansas","latitude":35.27827,"longitude":-93.134825,"id":"a675528mlhgv","state":"Arkansas"},"type":"Feature","geometry":{"type":"Point","coordinates":[-93.134825,35.27827]}},{"properties":{"city":"Charlevoix","storage facility":"Big Rock Point","latitude":45.31653,"longitude":-85.260719,"id":"a67552auqmxm","state":"Michigan"},"type":"Feature","geometry":{"type":"Point","coordinates":[-85.260719,45.31653]}},{"properties":{"city":"Athens","storage facility":"Brown's Ferry","latitude":34.80288,"longitude":-86.972149,"id":"a67552fzxgy6","state":"Alabama"},"type":"Feature","geometry":{"type":"Point","coordinates":[-86.972149,34.80288]}},{"properties":{"city":"Lusby","storage facility":"Calvert Cliffs","latitude":38.410372,"longitude":-76.455124,"id":"a67552o06s4j","state":"Maryland"},"type":"Feature","geometry":{"type":"Point","coordinates":[-76.455124,38.410372]}},{"properties":{"city":"Richland","storage facility":"Columbia Generating Station","latitude":46.274065,"longitude":-119.273729,"id":"a67552kv6w4z","state":"Washington"},"type":"Feature","geometry":{"type":"Point","coordinates":[-119.273729,46.274065]}},{"properties":{"city":"Oak Harbor","storage facility":"Davis-Besse","latitude":41.50821,"longitude":-83.145014,"id":"a67552n4dkyy","state":"Ohio"},"type":"Feature","geometry":{"type":"Point","coordinates":[-83.145014,41.50821]}},{"properties":{"city":"Avila Beach","storage facility":"Diablo Canton","latitude":35.17931,"longitude":-120.735454,"id":"a67552nny0ql","state":"California"},"type":"Feature","geometry":{"type":"Point","coordinates":[-120.735454,35.17931]}},{"properties":{"city":"Morris","storage facility":"Dresdon","latitude":41.358655,"longitude":-88.424904,"id":"a67552o2rt42","state":"Illinois"},"type":"Feature","geometry":{"type":"Point","coordinates":[-88.424904,41.358655]}},{"properties":{"city":"Palo","storage facility":"Duane Arnold","latitude":42.065725,"longitude":-91.795779,"id":"a67552dvzpgv","state":"Iowa"},"type":"Feature","geometry":{"type":"Point","coordinates":[-91.795779,42.065725]}},{"properties":{"city":"Dothan","storage facility":"Farley","latitude":31.22324,"longitude":-85.3933,"id":"a67552mun9n8","state":"Alabama"},"type":"Feature","geometry":{"type":"Point","coordinates":[-85.3933,31.22324]}},{"properties":{"city":"Platteville","storage facility":"Fort St. Vrain","latitude":40.214305,"longitude":-104.823249,"id":"a67552oy34ni","state":"Colorado"},"type":"Feature","geometry":{"type":"Point","coordinates":[-104.823249,40.214305]}},{"properties":{"city":"Ft. Calhoun","storage facility":"Ft. Calhoun","latitude":41.456355,"longitude":-96.026344,"id":"a67552jo4geq","state":"Nebraska"},"type":"Feature","geometry":{"type":"Point","coordinates":[-96.026344,41.456355]}},{"properties":{"city":"Morris","storage facility":"GE Morris","latitude":41.358655,"longitude":-88.424904,"id":"a67552own1kf","state":"Illinois"},"type":"Feature","geometry":{"type":"Point","coordinates":[-88.424904,41.358655]}},{"properties":{"city":"Port Gibson","storage facility":"Grand Gulf","latitude":31.96,"longitude":-90.982109,"id":"a67552ko277p","state":"Mississippi"},"type":"Feature","geometry":{"type":"Point","coordinates":[-90.982109,31.96]}},{"properties":{"city":"Hartsville","storage facility":"H.B Robinson","latitude":34.375025,"longitude":-80.07375,"id":"a67552o5lqbr","state":"South Carolina"},"type":"Feature","geometry":{"type":"Point","coordinates":[-80.07375,34.375025]}},{"properties":{"city":"Haddam Neck","storage facility":"Haddam Neck","latitude":41.499093,"longitude":-72.504005,"id":"a67552iwxr62","state":"Connecticut"},"type":"Feature","geometry":{"type":"Point","coordinates":[-72.504005,41.499093]}},{"properties":{"city":"Baxley","storage facility":"Hatch","latitude":31.777214,"longitude":-82.34433,"id":"a67552ogbxds","state":"Georgia"},"type":"Feature","geometry":{"type":"Point","coordinates":[-82.34433,31.777214]}},{"properties":{"city":"Hancock Bridge","storage facility":"Hope Creek","latitude":39.50667,"longitude":-75.462574,"id":"a67552nqmmgo","state":"New Jersey"},"type":"Feature","geometry":{"type":"Point","coordinates":[-75.462574,39.50667]}},{"properties":{"city":"Eureka","storage facility":"Humboldt Bay","latitude":40.803255,"longitude":-124.159554,"id":"a67552gpdiaz","state":"California"},"type":"Feature","geometry":{"type":"Point","coordinates":[-124.159554,40.803255]}},{"properties":{"city":"Oswego","storage facility":"James A. FitzPatrick","latitude":43.45647,"longitude":-76.511179,"id":"a67552dnfhd7","state":"New York"},"type":"Feature","geometry":{"type":"Point","coordinates":[-76.511179,43.45647]}},{"properties":{"city":"Wiscasset","storage facility":"Maine Yankee","latitude":44.004744,"longitude":-69.670757,"id":"a675528ki1g0","state":"Maine"},"type":"Feature","geometry":{"type":"Point","coordinates":[-69.670757,44.004744]}},{"properties":{"city":"Lake Norman","storage facility":"McGuire","latitude":35.17089,"longitude":-79.723294,"id":"a67552m6tlip","state":"North Carolina"},"type":"Feature","geometry":{"type":"Point","coordinates":[-79.723294,35.17089]}},{"properties":{"city":"Millstone","storage facility":"Millstone","latitude":41.314661,"longitude":-72.15906,"id":"a67552cagsv2","state":"Connecticut"},"type":"Feature","geometry":{"type":"Point","coordinates":[-72.15906,41.314661]}},{"properties":{"city":"Louisa County","storage facility":"North Anna","latitude":37.940681,"longitude":-77.996979,"id":"a67552j0q193","state":"Virginia"},"type":"Feature","geometry":{"type":"Point","coordinates":[-77.996979,37.940681]}},{"properties":{"city":"Seneca","storage facility":"Oconee","latitude":34.685484,"longitude":-82.955673,"id":"a67552dx197j","state":"South Carolina"},"type":"Feature","geometry":{"type":"Point","coordinates":[-82.955673,34.685484]}},{"properties":{"city":"Lacey Township","storage facility":"Oyster Creek","latitude":39.859545,"longitude":-74.206719,"id":"a67552azuxrg","state":"New Jersey"},"type":"Feature","geometry":{"type":"Point","coordinates":[-74.206719,39.859545]}},{"properties":{"city":"South Haven","storage facility":"Palisades","latitude":42.40321,"longitude":-86.272619,"id":"a67552g80h3g","state":"Michigan"},"type":"Feature","geometry":{"type":"Point","coordinates":[-86.272619,42.40321]}},{"properties":{"city":"Tonopah","storage facility":"Palo Verde","latitude":33.49246,"longitude":-112.936939,"id":"a67552hjcefe","state":"Arizona"},"type":"Feature","geometry":{"type":"Point","coordinates":[-112.936939,33.49246]}},{"properties":{"city":"Peach Bottom Township","storage facility":"Peach Bottom","latitude":39.743569,"longitude":-76.327171,"id":"a67552eqv57c","state":"Pennsylvania"},"type":"Feature","geometry":{"type":"Point","coordinates":[-76.327171,39.743569]}},{"properties":{"city":"Two Rivers","storage facility":"Point Beach","latitude":44.153135,"longitude":-87.568366,"id":"a67552cnseft","state":"Wisconsin"},"type":"Feature","geometry":{"type":"Point","coordinates":[-87.568366,44.153135]}},{"properties":{"city":"Red Wing","storage facility":"Prairie Island","latitude":44.566585,"longitude":-92.534354,"id":"a67552f49tts","state":"Minnesota"},"type":"Feature","geometry":{"type":"Point","coordinates":[-92.534354,44.566585]}},{"properties":{"city":"Cordova","storage facility":"Quad Cities","latitude":41.679022,"longitude":-90.314707,"id":"a67552m2yiiy","state":"Illinois"},"type":"Feature","geometry":{"type":"Point","coordinates":[-90.314707,41.679022]}},{"properties":{"city":"Clay Station","storage facility":"Rancho Seco","latitude":40.67598,"longitude":-121.429884,"id":"a67552nwa4sw","state":"California"},"type":"Feature","geometry":{"type":"Point","coordinates":[-121.429884,40.67598]}},{"properties":{"city":"West Feliciana","storage facility":"River Bend","latitude":39.454502,"longitude":-91.051165,"id":"a675528lb4p8","state":"Louisiana"},"type":"Feature","geometry":{"type":"Point","coordinates":[-91.051165,39.454502]}},{"properties":{"city":"San Onofre","storage facility":"San Onofre","latitude":33.389376,"longitude":-117.58065,"id":"a67552opym4u","state":"California"},"type":"Feature","geometry":{"type":"Point","coordinates":[-117.58065,33.389376]}},{"properties":{"city":"Soddy-Daisy","storage facility":"Sequoyah","latitude":35.243538,"longitude":-85.176161,"id":"a67552nauq2m","state":"Tennessee"},"type":"Feature","geometry":{"type":"Point","coordinates":[-85.176161,35.243538]}},{"properties":{"city":"Jamestown","storage facility":"Surry","latitude":37.207441,"longitude":-76.763265,"id":"a67552nz0vux","state":"Virginia"},"type":"Feature","geometry":{"type":"Point","coordinates":[-76.763265,37.207441]}},{"properties":{"city":"Berwick","storage facility":"Susquehanna","latitude":41.050885,"longitude":-76.243524,"id":"a67552lgpetd","state":"Pennsylvania"},"type":"Feature","geometry":{"type":"Point","coordinates":[-76.243524,41.050885]}},{"properties":{"city":"Rainier","storage facility":"Trojan","latitude":46.089245,"longitude":-122.936504,"id":"a67552cv1pth","state":"Oregon"},"type":"Feature","geometry":{"type":"Point","coordinates":[-122.936504,46.089245]}},{"properties":{"city":"Rowe","storage facility":"Yankee Rowe","latitude":42.693966,"longitude":-72.89919,"id":"a67552mcqloq","state":"Massachusetts"},"type":"Feature","geometry":{"type":"Point","coordinates":[-72.89919,42.693966]}},{"properties":{"city":"Idaho Falls","storage facility":"idaho spent fuel facility","latitude":43.492,"longitude":-112.041994,"id":"a675528ly4et","state":"Idaho"},"type":"Feature","geometry":{"type":"Point","coordinates":[-112.041994,43.492]}}],"is_temporal":false,"author":{"url":"http://www.nrc.gov/waste/spent-fuel-storage/locations.html","metadata":"","contact_name":"Brian Gopalan","contact_address":"FortiusOne\n2200 Wilson Blvd., Suite 307\nArlington, VA 22201","source":"United State Nuclear Regulatory Commission","contact_phone":"(703)247-9280"},"source":"http://www.nrc.gov/waste/spent-fuel-storage/locations.html","pagination":{"sort":null,"start":0,"total":41,"limit":1000000},"state":"complete","tags":"dump,fuel,nuclear,site,spent,storage","published":"2007-03-16T12:30:00Z","id":3836}