{"type":"FeatureCollection","data_type":"Dataset","url_type":null,"permissions":[{"permissions":{"download":true,"view":true},"group_id":"everyone"}],"classification":null,"title":"Contractor Responses","count":21,"stream_id":384283,"contributor":{"url":"http://geocommons.com/users/78641","name":"steelj15"},"data_attributes":null,"calculation_params":null,"icon_link":null,"link":"http://geocommons.com/overlays/384283.json","extent":[-122.867,28.0547,-71.5355,43.6539],"geometry_types":["point"],"unique_name":null,"name":"Contractor Responses","feature_count":21,"description":"","next_feature":null,"is_raster":false,"short_classification":"Y","stats":{},"features":[{"properties":{"name":"Stuart Murray","company":"Miller Air","city":"Birmingham","zip":"35222","geo_score":0.935,"id":"aga33t0kuyzq","address":"462 35th Street North","geo_precision":"range","state":"AL"},"type":"Feature","geometry":{"type":"Point","coordinates":[-86.786611,33.527098]}},{"properties":{"name":"Garry Schulter","company":"S&amp;S A/C &amp; Heating Inc.","city":"Tucson","zip":"85711","geo_score":0.935,"id":"aga33sxy1v2v","address":"5665 E 22nd Street","geo_precision":"range","state":"AZ"},"type":"Feature","geometry":{"type":"Point","coordinates":[-110.871985,32.206985]}},{"properties":{"name":"Jerry Herrington","company":"Elite Control, Inc.","city":"Diamond Springs","zip":"95619","geo_score":0.889,"id":"aga33suxqan5","address":"6100 Suite A Enterprise Dr.","geo_precision":"range","state":"CA"},"type":"Feature","geometry":{"type":"Point","coordinates":[-120.830306,38.694158]}},{"properties":{"name":"Eric Nelson","company":"Westech Mechanical","city":"Denver","zip":"80216","geo_score":0.464,"id":"aga33sslg4oa","address":"4755 Fox Street","geo_precision":"street","state":"CO"},"type":"Feature","geometry":{"type":"Point","coordinates":[-105.156177,39.664325]}},{"properties":{"name":"Betty Carlson","company":"ATS","city":"Orlando","zip":"32824","geo_score":0.6,"id":"aga33sw8twnn","address":"2544 E. Landstreet Suite 600","geo_precision":"street","state":"FL"},"type":"Feature","geometry":{"type":"Point","coordinates":[-81.38,28.436183]}},{"properties":{"name":"Mike Smith","company":"Sitech Inc.","city":"Plant City","zip":"33565","geo_score":0.809,"id":"aga33t52xozr","address":"852 McGee Rd.","geo_precision":"street","state":"FL"},"type":"Feature","geometry":{"type":"Point","coordinates":[-82.13178,28.054671]}},{"properties":{"name":"John Bell","company":"ATS","city":"Orlando","zip":"32824","geo_score":0.6,"id":"aga33srrk03t","address":"2544 E. Landstreet Suite 600","geo_precision":"street","state":"FL"},"type":"Feature","geometry":{"type":"Point","coordinates":[-81.38,28.436183]}},{"properties":{"name":"Craig Bozaich","company":"Pro Power Solutions","city":"Norcross","zip":"30093","geo_score":1.0,"id":"aga33subg6ib","address":"1785 Corporate Dr.","geo_precision":"range","state":"GA"},"type":"Feature","geometry":{"type":"Point","coordinates":[-84.148233,33.940187]}},{"properties":{"name":"Mike Sciarappa","company":"Telecom Mechanical Solutions","city":"Marietta","zip":"30060","geo_score":0.806,"id":"aga33swi9m8h","address":"530 Roselane St.","geo_precision":"street","state":"GA"},"type":"Feature","geometry":{"type":"Point","coordinates":[-84.556551,33.968626]}},{"properties":{"name":"Bob Midgley","company":"EEC","city":"Marlborough","zip":"1752","geo_score":1.0,"id":"aga33t2mf6is","address":"410 Forest Street","geo_precision":"range","state":"MA"},"type":"Feature","geometry":{"type":"Point","coordinates":[-71.588852,42.329614]}},{"properties":{"name":"Paul Golden","company":"Electronic Environments Corp.","city":"Marlborough","zip":"1752","geo_score":1.0,"id":"aga33sqwte4u","address":"410 Forest Street","geo_precision":"range","state":"MA"},"type":"Feature","geometry":{"type":"Point","coordinates":[-71.588852,42.329614]}},{"properties":{"name":"Ted Bartlett","company":"Jacobs","city":"Bedford","zip":"3110","geo_score":0.585,"id":"aga33st5dp3i","address":"2 Executive Dr.","geo_precision":"zip","state":"NH"},"type":"Feature","geometry":{"type":"Point","coordinates":[-71.535515,42.93743]}},{"properties":{"name":"Ray Deane","company":"Temptrol","city":"Delanco","zip":"8705","geo_score":0.88,"id":"aga33t1sj8es","address":"801 Coppertown Road","geo_precision":"range","state":"NJ"},"type":"Feature","geometry":{"type":"Point","coordinates":[-74.936268,40.047492]}},{"properties":{"name":"Craig Campbell","company":"Reactive Construction","city":"Cinnaminson","zip":"8077","geo_score":0.927,"id":"aga33sqoebwy","address":"2615 River Road","geo_precision":"range","state":"NJ"},"type":"Feature","geometry":{"type":"Point","coordinates":[-74.990571,40.022419]}},{"properties":{"name":"Larry Goodsell","company":"Tug Hill Mechanical, Inc.","city":"Lacona","zip":"13083","geo_score":0.967,"id":"aga33syfmasc","address":"7212 CO RT 17","geo_precision":"range","state":"NY"},"type":"Feature","geometry":{"type":"Point","coordinates":[-75.899875,43.653858]}},{"properties":{"name":"Rod Burkett","company":"Mid Ohio A/C Corp.","city":"Columbus","zip":"43201","geo_score":0.619,"id":"aga33t3eefzx","address":"456 E. 5th Avenue","geo_precision":"street","state":"OH"},"type":"Feature","geometry":{"type":"Point","coordinates":[-83.005513,39.9871]}},{"properties":{"name":"Tim Hilditch","company":"Air Force One","city":"Cleveland","zip":"44125","geo_score":1.0,"id":"aga33t012gys","address":"9880 Sweet Valley Dr.","geo_precision":"range","state":"OH"},"type":"Feature","geometry":{"type":"Point","coordinates":[-81.614191,41.395787]}},{"properties":{"name":"Kevin Corbeil","company":"Polk Mechanical","city":"Grand Prairie","zip":"75051","geo_score":1.0,"id":"aga33swgxpif","address":"2425 Dillard Street","geo_precision":"range","state":"TX"},"type":"Feature","geometry":{"type":"Point","coordinates":[-97.038519,32.729197]}},{"properties":{"name":"Bowers Mechanical","company":"Bowers Mechanical","city":"Medford","zip":"97504","geo_score":0.883,"id":"aga33swwfvwl","address":"711 Medford Ctr 239","geo_precision":"range","state":"OR"},"type":"Feature","geometry":{"type":"Point","coordinates":[-122.867294,42.331131]}},{"properties":{"name":"SPS","company":"SPS","city":"Huntsville","zip":"35805","geo_score":0.807,"id":"aga33t21mnh0","address":"307 Wynn Drive","geo_precision":"street","state":"AL"},"type":"Feature","geometry":{"type":"Point","coordinates":[-86.652912,34.741892]}},{"properties":{"name":"GW Communications","company":"GW Communications","city":"Coppell","zip":"75019","geo_score":0.325,"id":"aga33sula1z7","address":"801 Hammond St. Ste #375","geo_precision":"street","state":"TX"},"type":"Feature","geometry":{"type":"Point","coordinates":[-96.732627,32.978156]}}],"is_temporal":false,"author":{"url":"","metadata":"","contact_name":"","contact_address":"","source":"","contact_phone":""},"source":"","pagination":{"sort":null,"start":0,"total":21,"limit":1000000},"state":"complete","tags":"contractor,online surveys","published":"2014-08-16T18:04:35-04:00","id":384283}