{"type":"FeatureCollection","data_type":"Dataset","url_type":null,"permissions":[{"permissions":{"download":true,"view":true},"group_id":"everyone"}],"classification":null,"title":"Q3 BMO- HEAT MAP- UPB","count":192,"stream_id":386450,"contributor":{"url":"http://geocommons.com/users/71402","name":"jakebierly"},"data_attributes":null,"calculation_params":null,"icon_link":null,"link":"http://geocommons.com/overlays/386450.json","extent":[-114.331,26.3995,-80.0656,46.8374],"geometry_types":["point"],"unique_name":null,"name":"Q3 BMO- HEAT MAP- UPB","feature_count":192,"description":"","next_feature":null,"is_raster":false,"short_classification":"Y","stats":{"upb":{"max":23023690.16,"variance":5130418307895.36,"mean":1507402.246875,"stdev":2265042.67242261,"min":15915.66,"median":919052.53}},"features":[{"properties":{"zip":"85305","geo_score":0.714,"upb":23023690.16,"id":"aghjv5mc9wpm","geo_precision":"zip"},"type":"Feature","geometry":{"type":"Point","coordinates":[-112.18717,33.276539]}},{"properties":{"zip":"46032","geo_score":0.714,"upb":6625916.22,"id":"aghjv5wkvvjv","geo_precision":"zip"},"type":"Feature","geometry":{"type":"Point","coordinates":[-86.061652,39.961427]}},{"properties":{"zip":"46060","geo_score":0.714,"upb":5732250.39,"id":"aghjv5w3918p","geo_precision":"zip"},"type":"Feature","geometry":{"type":"Point","coordinates":[-86.024429,40.053648]}},{"properties":{"zip":"46032","geo_score":0.714,"upb":5618814.49,"id":"aghjv5nxu3lw","geo_precision":"zip"},"type":"Feature","geometry":{"type":"Point","coordinates":[-86.061652,39.961427]}},{"properties":{"zip":"46032","geo_score":0.714,"upb":1106756.97,"id":"aghjv5vz9ud6","geo_precision":"zip"},"type":"Feature","geometry":{"type":"Point","coordinates":[-86.061652,39.961427]}},{"properties":{"zip":"46032","geo_score":0.714,"upb":514857.5,"id":"aghjv5whac73","geo_precision":"zip"},"type":"Feature","geometry":{"type":"Point","coordinates":[-86.061652,39.961427]}},{"properties":{"zip":"46032","geo_score":0.714,"upb":439990.5,"id":"aghjv5p1eial","geo_precision":"zip"},"type":"Feature","geometry":{"type":"Point","coordinates":[-86.061652,39.961427]}},{"properties":{"zip":"55044","geo_score":0.714,"upb":9880616.85,"id":"aghjv5pl9n6t","geo_precision":"zip"},"type":"Feature","geometry":{"type":"Point","coordinates":[-93.265499,44.66302]}},{"properties":{"zip":"55128","geo_score":0.714,"upb":3762270.11,"id":"aghjv5owie2f","geo_precision":"zip"},"type":"Feature","geometry":{"type":"Point","coordinates":[-92.964936,44.963022]}},{"properties":{"zip":"55044","geo_score":0.714,"upb":2967604.32,"id":"aghjv5nb00c5","geo_precision":"zip"},"type":"Feature","geometry":{"type":"Point","coordinates":[-93.265499,44.66302]}},{"properties":{"zip":"55387","geo_score":0.714,"upb":2026873.99,"id":"aghjv5r83666","geo_precision":"zip"},"type":"Feature","geometry":{"type":"Point","coordinates":[-93.746148,44.844847]}},{"properties":{"zip":"53718","geo_score":0.714,"upb":3330638.82,"id":"aghjv5qf0m4o","geo_precision":"zip"},"type":"Feature","geometry":{"type":"Point","coordinates":[-89.249067,43.11416]}},{"properties":{"zip":"53704","geo_score":0.714,"upb":3277230.95,"id":"aghjv5p0s5p4","geo_precision":"zip"},"type":"Feature","geometry":{"type":"Point","coordinates":[-89.379563,43.118328]}},{"properties":{"zip":"53704","geo_score":0.714,"upb":2565324.42,"id":"aghjv5nu2j04","geo_precision":"zip"},"type":"Feature","geometry":{"type":"Point","coordinates":[-89.379563,43.118328]}},{"properties":{"zip":"61115","geo_score":0.714,"upb":1995716.43,"id":"aghjv5qmftc2","geo_precision":"zip"},"type":"Feature","geometry":{"type":"Point","coordinates":[-89.039675,42.354546]}},{"properties":{"zip":"61115","geo_score":0.714,"upb":1849293.71,"id":"aghjv5m2rd78","geo_precision":"zip"},"type":"Feature","geometry":{"type":"Point","coordinates":[-89.039675,42.354546]}},{"properties":{"zip":"53593","geo_score":0.714,"upb":1845000.0,"id":"aghjv5njziw1","geo_precision":"zip"},"type":"Feature","geometry":{"type":"Point","coordinates":[-89.566512,42.995697]}},{"properties":{"zip":"53590","geo_score":0.714,"upb":1387500.0,"id":"aghjv5hjbqi0","geo_precision":"zip"},"type":"Feature","geometry":{"type":"Point","coordinates":[-89.212336,43.266658]}},{"properties":{"zip":"53711","geo_score":0.714,"upb":694549.69,"id":"aghjv5t2zyc9","geo_precision":"zip"},"type":"Feature","geometry":{"type":"Point","coordinates":[-89.417973,43.021252]}},{"properties":{"zip":"53590","geo_score":0.714,"upb":670592.03,"id":"aghjv5tf08vd","geo_precision":"zip"},"type":"Feature","geometry":{"type":"Point","coordinates":[-89.212336,43.266658]}},{"properties":{"zip":"53597","geo_score":0.714,"upb":563545.81,"id":"aghjv5secerw","geo_precision":"zip"},"type":"Feature","geometry":{"type":"Point","coordinates":[-89.322655,43.183972]}},{"properties":{"zip":"53597","geo_score":0.714,"upb":99597.2,"id":"aghjv5k8schj","geo_precision":"zip"},"type":"Feature","geometry":{"type":"Point","coordinates":[-89.322655,43.183972]}},{"properties":{"zip":"53132","geo_score":0.714,"upb":7290310.56,"id":"aghjv5h12fxv","geo_precision":"zip"},"type":"Feature","geometry":{"type":"Point","coordinates":[-88.009597,42.887289]}},{"properties":{"zip":"53132","geo_score":0.714,"upb":4970668.76,"id":"aghjv5nplto9","geo_precision":"zip"},"type":"Feature","geometry":{"type":"Point","coordinates":[-88.009597,42.887289]}},{"properties":{"zip":"53525","geo_score":0.714,"upb":2733247.3,"id":"aghjv5pg6mcb","geo_precision":"zip"},"type":"Feature","geometry":{"type":"Point","coordinates":[-88.859993,42.56239]}},{"properties":{"zip":"54801","geo_score":0.714,"upb":1398840.94,"id":"aghjv5n6y7z1","geo_precision":"zip"},"type":"Feature","geometry":{"type":"Point","coordinates":[-91.839062,45.753282]}},{"properties":{"zip":"53140","geo_score":0.714,"upb":735624.07,"id":"aghjv5x4lmk7","geo_precision":"zip"},"type":"Feature","geometry":{"type":"Point","coordinates":[-87.834241,42.540298]}},{"properties":{"zip":"53525","geo_score":0.714,"upb":199704.61,"id":"aghjv5kvfdr3","geo_precision":"zip"},"type":"Feature","geometry":{"type":"Point","coordinates":[-88.859993,42.56239]}},{"properties":{"zip":"53154","geo_score":0.714,"upb":71813.22,"id":"aghjv5vgf0gt","geo_precision":"zip"},"type":"Feature","geometry":{"type":"Point","coordinates":[-87.89198,42.886266]}},{"properties":{"zip":"86404","geo_score":0.714,"upb":3930045.82,"id":"aghjv5nbgiff","geo_precision":"zip"},"type":"Feature","geometry":{"type":"Point","coordinates":[-114.330704,34.557533]}},{"properties":{"zip":"85024","geo_score":0.714,"upb":1857690.8,"id":"aghjv5h68pk0","geo_precision":"zip"},"type":"Feature","geometry":{"type":"Point","coordinates":[-112.18717,33.276539]}},{"properties":{"zip":"85024","geo_score":0.714,"upb":1792997.23,"id":"aghjv5wndz7g","geo_precision":"zip"},"type":"Feature","geometry":{"type":"Point","coordinates":[-112.18717,33.276539]}},{"properties":{"zip":"85262","geo_score":0.714,"upb":1405870.15,"id":"aghjv5wrep1f","geo_precision":"zip"},"type":"Feature","geometry":{"type":"Point","coordinates":[-111.915298,33.407445]}},{"properties":{"zip":"85262","geo_score":0.714,"upb":1204223.09,"id":"aghjv5icjjc1","geo_precision":"zip"},"type":"Feature","geometry":{"type":"Point","coordinates":[-111.915298,33.407445]}},{"properties":{"zip":"85262","geo_score":0.714,"upb":1101898.26,"id":"aghjv5kg0b2w","geo_precision":"zip"},"type":"Feature","geometry":{"type":"Point","coordinates":[-111.915298,33.407445]}},{"properties":{"zip":"85262","geo_score":0.714,"upb":991000.0,"id":"aghjv5piv91k","geo_precision":"zip"},"type":"Feature","geometry":{"type":"Point","coordinates":[-111.915298,33.407445]}},{"properties":{"zip":"85024","geo_score":0.714,"upb":804893.92,"id":"aghjv5rgsxer","geo_precision":"zip"},"type":"Feature","geometry":{"type":"Point","coordinates":[-112.18717,33.276539]}},{"properties":{"zip":"85262","geo_score":0.714,"upb":797926.12,"id":"aghjv5wohl0w","geo_precision":"zip"},"type":"Feature","geometry":{"type":"Point","coordinates":[-111.915298,33.407445]}},{"properties":{"zip":"85253","geo_score":0.714,"upb":582403.67,"id":"aghjv5hpo23k","geo_precision":"zip"},"type":"Feature","geometry":{"type":"Point","coordinates":[-111.963149,33.360896]}},{"properties":{"zip":"85253","geo_score":0.714,"upb":289963.98,"id":"aghjv5x52add","geo_precision":"zip"},"type":"Feature","geometry":{"type":"Point","coordinates":[-111.963149,33.360896]}},{"properties":{"zip":"85262","geo_score":0.714,"upb":231060.0,"id":"aghjv5qceqsr","geo_precision":"zip"},"type":"Feature","geometry":{"type":"Point","coordinates":[-111.915298,33.407445]}},{"properties":{"zip":"60505","geo_score":0.714,"upb":2827611.32,"id":"aghjv5h7pigj","geo_precision":"zip"},"type":"Feature","geometry":{"type":"Point","coordinates":[-88.405446,41.765478]}},{"properties":{"zip":"60120","geo_score":0.714,"upb":2274157.0,"id":"aghjv5wgq0ap","geo_precision":"zip"},"type":"Feature","geometry":{"type":"Point","coordinates":[-88.235354,42.002805]}},{"properties":{"zip":"60102","geo_score":0.714,"upb":2160579.52,"id":"aghjv5x082x5","geo_precision":"zip"},"type":"Feature","geometry":{"type":"Point","coordinates":[-88.260638,42.188913]}},{"properties":{"zip":"60185","geo_score":0.714,"upb":1865589.57,"id":"aghjv5t7ydkq","geo_precision":"zip"},"type":"Feature","geometry":{"type":"Point","coordinates":[-88.173684,41.942806]}},{"properties":{"zip":"60102","geo_score":0.714,"upb":1326944.26,"id":"aghjv5jh11jm","geo_precision":"zip"},"type":"Feature","geometry":{"type":"Point","coordinates":[-88.260638,42.188913]}},{"properties":{"zip":"60185","geo_score":0.714,"upb":1180275.6,"id":"aghjv5s5m5lc","geo_precision":"zip"},"type":"Feature","geometry":{"type":"Point","coordinates":[-88.173684,41.942806]}},{"properties":{"zip":"60010","geo_score":0.714,"upb":282243.98,"id":"aghjv5vevn3g","geo_precision":"zip"},"type":"Feature","geometry":{"type":"Point","coordinates":[-88.121742,42.091415]}},{"properties":{"zip":"55103","geo_score":0.714,"upb":7513399.79,"id":"aghjv5hzpye3","geo_precision":"zip"},"type":"Feature","geometry":{"type":"Point","coordinates":[-93.125319,44.967215]}},{"properties":{"zip":"55104","geo_score":0.714,"upb":1369373.99,"id":"aghjv5o6iqkw","geo_precision":"zip"},"type":"Feature","geometry":{"type":"Point","coordinates":[-93.16702,44.955615]}},{"properties":{"zip":"55104","geo_score":0.714,"upb":1000000.0,"id":"aghjv5mszjnx","geo_precision":"zip"},"type":"Feature","geometry":{"type":"Point","coordinates":[-93.16702,44.955615]}},{"properties":{"zip":"55047","geo_score":0.714,"upb":600000.0,"id":"aghjv5pcaot0","geo_precision":"zip"},"type":"Feature","geometry":{"type":"Point","coordinates":[-92.825767,45.198774]}},{"properties":{"zip":"55103","geo_score":0.714,"upb":342145.04,"id":"aghjv5m15ik3","geo_precision":"zip"},"type":"Feature","geometry":{"type":"Point","coordinates":[-93.125319,44.967215]}},{"properties":{"zip":"55104","geo_score":0.714,"upb":150000.0,"id":"aghjv5vidqa2","geo_precision":"zip"},"type":"Feature","geometry":{"type":"Point","coordinates":[-93.16702,44.955615]}},{"properties":{"zip":"85260","geo_score":0.714,"upb":11202547.49,"id":"aghjv5wmxsdb","geo_precision":"zip"},"type":"Feature","geometry":{"type":"Point","coordinates":[-112.18717,33.276539]}},{"properties":{"zip":"55376","geo_score":0.714,"upb":3594121.19,"id":"aghjv5nfa1yp","geo_precision":"zip"},"type":"Feature","geometry":{"type":"Point","coordinates":[-93.893628,45.16826]}},{"properties":{"zip":"55374","geo_score":0.714,"upb":3265566.16,"id":"aghjv5oue6t3","geo_precision":"zip"},"type":"Feature","geometry":{"type":"Point","coordinates":[-93.574586,45.168896]}},{"properties":{"zip":"55374","geo_score":0.714,"upb":2565907.72,"id":"aghjv5vau0ev","geo_precision":"zip"},"type":"Feature","geometry":{"type":"Point","coordinates":[-93.574586,45.168896]}},{"properties":{"zip":"55374","geo_score":0.714,"upb":767597.83,"id":"aghjv5l3vlxu","geo_precision":"zip"},"type":"Feature","geometry":{"type":"Point","coordinates":[-93.574586,45.168896]}},{"properties":{"zip":"55374","geo_score":0.714,"upb":403933.66,"id":"aghjv5vcmz4o","geo_precision":"zip"},"type":"Feature","geometry":{"type":"Point","coordinates":[-93.574586,45.168896]}},{"properties":{"zip":"55925","geo_score":0.714,"upb":343111.88,"id":"aghjv5mma75w","geo_precision":"zip"},"type":"Feature","geometry":{"type":"Point","coordinates":[-91.436253,43.904965]}},{"properties":{"zip":"55925","geo_score":0.714,"upb":306091.8,"id":"aghjv5udyuj8","geo_precision":"zip"},"type":"Feature","geometry":{"type":"Point","coordinates":[-91.436253,43.904965]}},{"properties":{"zip":"85335","geo_score":0.714,"upb":4031950.22,"id":"aghjv5im9m95","geo_precision":"zip"},"type":"Feature","geometry":{"type":"Point","coordinates":[-112.314604,33.605595]}},{"properties":{"zip":"85345","geo_score":0.714,"upb":1879990.45,"id":"aghjv5ifke10","geo_precision":"zip"},"type":"Feature","geometry":{"type":"Point","coordinates":[-112.18717,33.276539]}},{"properties":{"zip":"85345","geo_score":0.714,"upb":1381921.04,"id":"aghjv5i2dnxg","geo_precision":"zip"},"type":"Feature","geometry":{"type":"Point","coordinates":[-112.18717,33.276539]}},{"properties":{"zip":"85345","geo_score":0.714,"upb":198048.38,"id":"aghjv5j2bulz","geo_precision":"zip"},"type":"Feature","geometry":{"type":"Point","coordinates":[-112.18717,33.276539]}},{"properties":{"zip":"60563","geo_score":0.714,"upb":2784256.72,"id":"aghjv5vpto9g","geo_precision":"zip"},"type":"Feature","geometry":{"type":"Point","coordinates":[-88.149884,41.782455]}},{"properties":{"zip":"60542","geo_score":0.714,"upb":2566042.91,"id":"aghjv5vnvoph","geo_precision":"zip"},"type":"Feature","geometry":{"type":"Point","coordinates":[-88.335182,41.807369]}},{"properties":{"zip":"78218","geo_score":0.714,"upb":5099909.0,"id":"aghjv5m2r7qx","geo_precision":"zip"},"type":"Feature","geometry":{"type":"Point","coordinates":[-98.461582,29.437532]}},{"properties":{"zip":"60143","geo_score":0.714,"upb":3094368.19,"id":"aghjv5u8dtan","geo_precision":"zip"},"type":"Feature","geometry":{"type":"Point","coordinates":[-88.088716,41.839679]}},{"properties":{"zip":"60143","geo_score":0.714,"upb":1427991.5,"id":"aghjv5s6aswk","geo_precision":"zip"},"type":"Feature","geometry":{"type":"Point","coordinates":[-88.088716,41.839679]}},{"properties":{"zip":"60143","geo_score":0.714,"upb":563599.99,"id":"aghjv5ugwck7","geo_precision":"zip"},"type":"Feature","geometry":{"type":"Point","coordinates":[-88.088716,41.839679]}},{"properties":{"zip":"55428","geo_score":0.714,"upb":3552565.83,"id":"aghjv5gs5hiv","geo_precision":"zip"},"type":"Feature","geometry":{"type":"Point","coordinates":[-93.360229,45.032743]}},{"properties":{"zip":"55433","geo_score":0.714,"upb":799649.58,"id":"aghjv5w80jl9","geo_precision":"zip"},"type":"Feature","geometry":{"type":"Point","coordinates":[-93.265783,45.168021]}},{"properties":{"zip":"60544","geo_score":0.714,"upb":2363521.93,"id":"aghjv5o2ii93","geo_precision":"zip"},"type":"Feature","geometry":{"type":"Point","coordinates":[-88.181452,41.590308]}},{"properties":{"zip":"60505","geo_score":0.714,"upb":519000.0,"id":"aghjv5q2pwfv","geo_precision":"zip"},"type":"Feature","geometry":{"type":"Point","coordinates":[-88.405446,41.765478]}},{"properties":{"zip":"32766","geo_score":0.714,"upb":3625475.62,"id":"aghjv5h8yige","geo_precision":"zip"},"type":"Feature","geometry":{"type":"Point","coordinates":[-81.113444,28.660674]}},{"properties":{"zip":"60632","geo_score":0.714,"upb":2332854.7,"id":"aghjv5irc9qu","geo_precision":"zip"},"type":"Feature","geometry":{"type":"Point","coordinates":[-87.72172,41.793644]}},{"properties":{"zip":"60629","geo_score":0.714,"upb":590082.27,"id":"aghjv5iv0xb8","geo_precision":"zip"},"type":"Feature","geometry":{"type":"Point","coordinates":[-87.68732,41.811929]}},{"properties":{"zip":"60629","geo_score":0.714,"upb":517482.46,"id":"aghjv5tnolpn","geo_precision":"zip"},"type":"Feature","geometry":{"type":"Point","coordinates":[-87.68732,41.811929]}},{"properties":{"zip":"60629","geo_score":0.714,"upb":99319.82,"id":"aghjv5myl4fi","geo_precision":"zip"},"type":"Feature","geometry":{"type":"Point","coordinates":[-87.68732,41.811929]}},{"properties":{"zip":"32773","geo_score":0.714,"upb":2401017.37,"id":"aghjv5p1tfcm","geo_precision":"zip"},"type":"Feature","geometry":{"type":"Point","coordinates":[-81.26418,28.754582]}},{"properties":{"zip":"32773","geo_score":0.714,"upb":1000000.0,"id":"aghjv5hptsbq","geo_precision":"zip"},"type":"Feature","geometry":{"type":"Point","coordinates":[-81.26418,28.754582]}},{"properties":{"zip":"34736","geo_score":0.714,"upb":2399960.0,"id":"aghjv5swhowl","geo_precision":"zip"},"type":"Feature","geometry":{"type":"Point","coordinates":[-81.870269,28.587996]}},{"properties":{"zip":"34736","geo_score":0.714,"upb":924937.32,"id":"aghjv5jh6zsq","geo_precision":"zip"},"type":"Feature","geometry":{"type":"Point","coordinates":[-81.870269,28.587996]}},{"properties":{"zip":"46077","geo_score":0.714,"upb":3287082.02,"id":"aghjv5mlh9d4","geo_precision":"zip"},"type":"Feature","geometry":{"type":"Point","coordinates":[-86.31305,39.95143]}},{"properties":{"zip":"60005","geo_score":0.714,"upb":2465183.2,"id":"aghjv5u582y9","geo_precision":"zip"},"type":"Feature","geometry":{"type":"Point","coordinates":[-87.883073,42.060928]}},{"properties":{"zip":"60640","geo_score":0.714,"upb":808381.79,"id":"aghjv5om032i","geo_precision":"zip"},"type":"Feature","geometry":{"type":"Point","coordinates":[-87.68732,41.811929]}},{"properties":{"zip":"53401","geo_score":0.714,"upb":2970745.94,"id":"aghjv5q0jzkf","geo_precision":"zip"},"type":"Feature","geometry":{"type":"Point","coordinates":[-87.675979,42.727153]}},{"properties":{"zip":"60014","geo_score":0.714,"upb":2886259.27,"id":"aghjv5nwvs18","geo_precision":"zip"},"type":"Feature","geometry":{"type":"Point","coordinates":[-88.291751,42.223079]}},{"properties":{"zip":"60402","geo_score":0.714,"upb":1738096.56,"id":"aghjv5rg2dy3","geo_precision":"zip"},"type":"Feature","geometry":{"type":"Point","coordinates":[-87.68732,41.811929]}},{"properties":{"zip":"60639","geo_score":0.714,"upb":1019938.83,"id":"aghjv5wjv0g9","geo_precision":"zip"},"type":"Feature","geometry":{"type":"Point","coordinates":[-87.68732,41.811929]}},{"properties":{"zip":"60004","geo_score":0.714,"upb":2583000.0,"id":"aghjv5n66vzb","geo_precision":"zip"},"type":"Feature","geometry":{"type":"Point","coordinates":[-87.99822,42.085626]}},{"properties":{"zip":"85338","geo_score":0.714,"upb":2402945.27,"id":"aghjv5u76u10","geo_precision":"zip"},"type":"Feature","geometry":{"type":"Point","coordinates":[-112.18717,33.276539]}},{"properties":{"zip":"85338","geo_score":0.714,"upb":75920.46,"id":"aghjv5pnage8","geo_precision":"zip"},"type":"Feature","geometry":{"type":"Point","coordinates":[-112.18717,33.276539]}},{"properties":{"zip":"85338","geo_score":0.714,"upb":53466.86,"id":"aghjv5lgivau","geo_precision":"zip"},"type":"Feature","geometry":{"type":"Point","coordinates":[-112.18717,33.276539]}},{"properties":{"zip":"65616","geo_score":0.714,"upb":1608546.98,"id":"aghjv5hqscai","geo_precision":"zip"},"type":"Feature","geometry":{"type":"Point","coordinates":[-93.05634,36.653256]}},{"properties":{"zip":"55454","geo_score":0.714,"upb":1272573.26,"id":"aghjv5ma9o9i","geo_precision":"zip"},"type":"Feature","geometry":{"type":"Point","coordinates":[-93.252524,44.980859]}},{"properties":{"zip":"55454","geo_score":0.714,"upb":464677.94,"id":"aghjv5na4jbh","geo_precision":"zip"},"type":"Feature","geometry":{"type":"Point","coordinates":[-93.252524,44.980859]}},{"properties":{"zip":"55454","geo_score":0.714,"upb":300609.7,"id":"aghjv5pruv9a","geo_precision":"zip"},"type":"Feature","geometry":{"type":"Point","coordinates":[-93.252524,44.980859]}},{"properties":{"zip":"55454","geo_score":0.714,"upb":228285.36,"id":"aghjv5pqmbsc","geo_precision":"zip"},"type":"Feature","geometry":{"type":"Point","coordinates":[-93.252524,44.980859]}},{"properties":{"zip":"55454","geo_score":0.714,"upb":172958.04,"id":"aghjv5k8w932","geo_precision":"zip"},"type":"Feature","geometry":{"type":"Point","coordinates":[-93.252524,44.980859]}},{"properties":{"zip":"53716","geo_score":0.714,"upb":1539996.25,"id":"aghjv5lw6rm0","geo_precision":"zip"},"type":"Feature","geometry":{"type":"Point","coordinates":[-89.246227,43.051664]}},{"properties":{"zip":"53711","geo_score":0.714,"upb":370246.91,"id":"aghjv5nwha5m","geo_precision":"zip"},"type":"Feature","geometry":{"type":"Point","coordinates":[-89.417973,43.021252]}},{"properties":{"zip":"53711","geo_score":0.714,"upb":185436.0,"id":"aghjv5kocdd5","geo_precision":"zip"},"type":"Feature","geometry":{"type":"Point","coordinates":[-89.417973,43.021252]}},{"properties":{"zip":"53711","geo_score":0.714,"upb":44771.32,"id":"aghjv5q7ytiy","geo_precision":"zip"},"type":"Feature","geometry":{"type":"Point","coordinates":[-89.417973,43.021252]}},{"properties":{"zip":"55303","geo_score":0.714,"upb":2419355.22,"id":"aghjv5lh27rk","geo_precision":"zip"},"type":"Feature","geometry":{"type":"Point","coordinates":[-93.191893,45.279966]}},{"properties":{"zip":"85233","geo_score":0.714,"upb":787361.96,"id":"aghjv5kt3msa","geo_precision":"zip"},"type":"Feature","geometry":{"type":"Point","coordinates":[-111.337072,33.259499]}},{"properties":{"zip":"53901","geo_score":0.714,"upb":265217.65,"id":"aghjv5x02twl","geo_precision":"zip"},"type":"Feature","geometry":{"type":"Point","coordinates":[-89.443732,43.625536]}},{"properties":{"zip":"53901","geo_score":0.714,"upb":238994.55,"id":"aghjv5rxkc9c","geo_precision":"zip"},"type":"Feature","geometry":{"type":"Point","coordinates":[-89.443732,43.625536]}},{"properties":{"zip":"53901","geo_score":0.714,"upb":128903.47,"id":"aghjv5m04g1h","geo_precision":"zip"},"type":"Feature","geometry":{"type":"Point","coordinates":[-89.443732,43.625536]}},{"properties":{"zip":"53954","geo_score":0.714,"upb":51186.15,"id":"aghjv5tafn27","geo_precision":"zip"},"type":"Feature","geometry":{"type":"Point","coordinates":[-89.31459,43.516772]}},{"properties":{"zip":"62207","geo_score":0.714,"upb":2049999.83,"id":"aghjv5hvzqdo","geo_precision":"zip"},"type":"Feature","geometry":{"type":"Point","coordinates":[-90.127808,38.58705]}},{"properties":{"zip":"62207","geo_score":0.714,"upb":149309.11,"id":"aghjv5ndqvh4","geo_precision":"zip"},"type":"Feature","geometry":{"type":"Point","coordinates":[-90.127808,38.58705]}},{"properties":{"zip":"85701","geo_score":0.714,"upb":1906979.45,"id":"aghjv5tr11cw","geo_precision":"zip"},"type":"Feature","geometry":{"type":"Point","coordinates":[-110.970869,32.217975]}},{"properties":{"zip":"54470","geo_score":0.714,"upb":934431.8,"id":"aghjv5o56qck","geo_precision":"zip"},"type":"Feature","geometry":{"type":"Point","coordinates":[-90.168991,45.208013]}},{"properties":{"zip":"85283","geo_score":0.714,"upb":1366704.64,"id":"aghjv5iyt8dw","geo_precision":"zip"},"type":"Feature","geometry":{"type":"Point","coordinates":[-111.962922,33.37088]}},{"properties":{"zip":"85283","geo_score":0.714,"upb":478875.79,"id":"aghjv5ih3kxg","geo_precision":"zip"},"type":"Feature","geometry":{"type":"Point","coordinates":[-111.962922,33.37088]}},{"properties":{"zip":"64086","geo_score":0.714,"upb":750000.0,"id":"aghjv5p7z8jl","geo_precision":"zip"},"type":"Feature","geometry":{"type":"Point","coordinates":[-94.288086,38.944006]}},{"properties":{"zip":"64086","geo_score":0.714,"upb":650390.38,"id":"aghjv5htrwm9","geo_precision":"zip"},"type":"Feature","geometry":{"type":"Point","coordinates":[-94.288086,38.944006]}},{"properties":{"zip":"64086","geo_score":0.714,"upb":243259.58,"id":"aghjv5sj8csl","geo_precision":"zip"},"type":"Feature","geometry":{"type":"Point","coordinates":[-94.288086,38.944006]}},{"properties":{"zip":"64086","geo_score":0.714,"upb":182829.13,"id":"aghjv5x40xy7","geo_precision":"zip"},"type":"Feature","geometry":{"type":"Point","coordinates":[-94.288086,38.944006]}},{"properties":{"zip":"60514","geo_score":0.714,"upb":1350000.0,"id":"aghjv5u67hyy","geo_precision":"zip"},"type":"Feature","geometry":{"type":"Point","coordinates":[-87.966094,41.774295]}},{"properties":{"zip":"60514","geo_score":0.714,"upb":467000.0,"id":"aghjv5rcww1z","geo_precision":"zip"},"type":"Feature","geometry":{"type":"Point","coordinates":[-87.966094,41.774295]}},{"properties":{"zip":"32773","geo_score":0.714,"upb":1515895.67,"id":"aghjv5j5y5tx","geo_precision":"zip"},"type":"Feature","geometry":{"type":"Point","coordinates":[-81.26418,28.754582]}},{"properties":{"zip":"32773","geo_score":0.714,"upb":296562.24,"id":"aghjv5nvfhk2","geo_precision":"zip"},"type":"Feature","geometry":{"type":"Point","coordinates":[-81.26418,28.754582]}},{"properties":{"zip":"63136","geo_score":0.714,"upb":626608.36,"id":"aghjv5vduftb","geo_precision":"zip"},"type":"Feature","geometry":{"type":"Point","coordinates":[-90.26039,38.719218]}},{"properties":{"zip":"63111","geo_score":0.714,"upb":273117.11,"id":"aghjv5j132d5","geo_precision":"zip"},"type":"Feature","geometry":{"type":"Point","coordinates":[-90.265947,38.556164]}},{"properties":{"zip":"63074","geo_score":0.714,"upb":263133.52,"id":"aghjv5wu5oh6","geo_precision":"zip"},"type":"Feature","geometry":{"type":"Point","coordinates":[-90.389516,38.724651]}},{"properties":{"zip":"63118","geo_score":0.714,"upb":137921.28,"id":"aghjv5tunn4s","geo_precision":"zip"},"type":"Feature","geometry":{"type":"Point","coordinates":[-90.222012,38.593751]}},{"properties":{"zip":"63118","geo_score":0.714,"upb":134937.26,"id":"aghjv5sw3csm","geo_precision":"zip"},"type":"Feature","geometry":{"type":"Point","coordinates":[-90.222012,38.593751]}},{"properties":{"zip":"63111","geo_score":0.714,"upb":122221.6,"id":"aghjv5t88yii","geo_precision":"zip"},"type":"Feature","geometry":{"type":"Point","coordinates":[-90.265947,38.556164]}},{"properties":{"zip":"63116","geo_score":0.714,"upb":110433.05,"id":"aghjv5w8swh8","geo_precision":"zip"},"type":"Feature","geometry":{"type":"Point","coordinates":[-90.268563,38.581401]}},{"properties":{"zip":"63116","geo_score":0.714,"upb":81811.01,"id":"aghjv5w5qadp","geo_precision":"zip"},"type":"Feature","geometry":{"type":"Point","coordinates":[-90.268563,38.581401]}},{"properties":{"zip":"63116","geo_score":0.714,"upb":59955.75,"id":"aghjv5t9hfen","geo_precision":"zip"},"type":"Feature","geometry":{"type":"Point","coordinates":[-90.268563,38.581401]}},{"properties":{"zip":"63132","geo_score":0.714,"upb":756169.76,"id":"aghjv5pd351c","geo_precision":"zip"},"type":"Feature","geometry":{"type":"Point","coordinates":[-90.374716,38.674601]}},{"properties":{"zip":"63132","geo_score":0.714,"upb":15915.66,"id":"aghjv5l43f7c","geo_precision":"zip"},"type":"Feature","geometry":{"type":"Point","coordinates":[-90.374716,38.674601]}},{"properties":{"zip":"85009","geo_score":0.714,"upb":273098.8,"id":"aghjv5ne9po0","geo_precision":"zip"},"type":"Feature","geometry":{"type":"Point","coordinates":[-111.96942,33.447489]}},{"properties":{"zip":"60053","geo_score":0.714,"upb":1221011.66,"id":"aghjv5qfd0vv","geo_precision":"zip"},"type":"Feature","geometry":{"type":"Point","coordinates":[-87.793815,42.039329]}},{"properties":{"zip":"85202","geo_score":0.714,"upb":866761.92,"id":"aghjv5h054sa","geo_precision":"zip"},"type":"Feature","geometry":{"type":"Point","coordinates":[-111.804513,33.393484]}},{"properties":{"zip":"85297","geo_score":0.714,"upb":1570296.4,"id":"aghjv5nd5r4a","geo_precision":"zip"},"type":"Feature","geometry":{"type":"Point","coordinates":[-111.746321,33.310304]}},{"properties":{"zip":"85027","geo_score":0.714,"upb":985376.86,"id":"aghjv5m4xiv0","geo_precision":"zip"},"type":"Feature","geometry":{"type":"Point","coordinates":[-112.18717,33.276539]}},{"properties":{"zip":"85027","geo_score":0.714,"upb":562751.54,"id":"aghjv5ttx5m5","geo_precision":"zip"},"type":"Feature","geometry":{"type":"Point","coordinates":[-112.18717,33.276539]}},{"properties":{"zip":"85323","geo_score":0.714,"upb":1499005.13,"id":"aghjv5sxroa5","geo_precision":"zip"},"type":"Feature","geometry":{"type":"Point","coordinates":[-112.18717,33.276539]}},{"properties":{"zip":"86327","geo_score":0.714,"upb":919052.53,"id":"aghjv5spnmw2","geo_precision":"zip"},"type":"Feature","geometry":{"type":"Point","coordinates":[-112.284396,34.55652]}},{"properties":{"zip":"60606","geo_score":0.714,"upb":1458520.96,"id":"aghjv5unyh0b","geo_precision":"zip"},"type":"Feature","geometry":{"type":"Point","coordinates":[-87.68732,41.811929]}},{"properties":{"zip":"60606","geo_score":0.714,"upb":34152.64,"id":"aghjv5jee6wk","geo_precision":"zip"},"type":"Feature","geometry":{"type":"Point","coordinates":[-87.68732,41.811929]}},{"properties":{"zip":"49953","geo_score":0.714,"upb":495000.0,"id":"aghjv5h1fxua","geo_precision":"zip"},"type":"Feature","geometry":{"type":"Point","coordinates":[-89.439869,46.837444]}},{"properties":{"zip":"49969","geo_score":0.714,"upb":318985.4,"id":"aghjv5ht55xx","geo_precision":"zip"},"type":"Feature","geometry":{"type":"Point","coordinates":[-89.10375,46.296893]}},{"properties":{"zip":"63120","geo_score":0.714,"upb":791308.04,"id":"aghjv5k07fxl","geo_precision":"zip"},"type":"Feature","geometry":{"type":"Point","coordinates":[-90.275113,38.695884]}},{"properties":{"zip":"62204","geo_score":0.714,"upb":410314.5,"id":"aghjv5jxzfyr","geo_precision":"zip"},"type":"Feature","geometry":{"type":"Point","coordinates":[-90.095007,38.6308]}},{"properties":{"zip":"63106","geo_score":0.714,"upb":269071.16,"id":"aghjv5suzl4m","geo_precision":"zip"},"type":"Feature","geometry":{"type":"Point","coordinates":[-90.208361,38.644501]}},{"properties":{"zip":"60542","geo_score":0.714,"upb":1269401.99,"id":"aghjv5kp3xlo","geo_precision":"zip"},"type":"Feature","geometry":{"type":"Point","coordinates":[-88.335182,41.807369]}},{"properties":{"zip":"60506","geo_score":0.714,"upb":145331.3,"id":"aghjv5k0707a","geo_precision":"zip"},"type":"Feature","geometry":{"type":"Point","coordinates":[-88.416837,41.79083]}},{"properties":{"zip":"33954","geo_score":0.714,"upb":1390859.22,"id":"aghjv5ign3nf","geo_precision":"zip"},"type":"Feature","geometry":{"type":"Point","coordinates":[-82.123194,27.019741]}},{"properties":{"zip":"85259","geo_score":0.714,"upb":1362759.25,"id":"aghjv5qsyu8p","geo_precision":"zip"},"type":"Feature","geometry":{"type":"Point","coordinates":[-112.18717,33.276539]}},{"properties":{"zip":"60462","geo_score":0.714,"upb":1341562.09,"id":"aghjv5pyfioy","geo_precision":"zip"},"type":"Feature","geometry":{"type":"Point","coordinates":[-87.68732,41.811929]}},{"properties":{"zip":"53562","geo_score":0.714,"upb":394870.52,"id":"aghjv5sphua5","geo_precision":"zip"},"type":"Feature","geometry":{"type":"Point","coordinates":[-89.484009,43.104162]}},{"properties":{"zip":"53562","geo_score":0.714,"upb":322210.01,"id":"aghjv5s5f4wd","geo_precision":"zip"},"type":"Feature","geometry":{"type":"Point","coordinates":[-89.484009,43.104162]}},{"properties":{"zip":"53202","geo_score":0.714,"upb":46488.18,"id":"aghjv5rme7cr","geo_precision":"zip"},"type":"Feature","geometry":{"type":"Point","coordinates":[-87.894734,43.043213]}},{"properties":{"zip":"67333","geo_score":0.714,"upb":1241471.94,"id":"aghjv5oplvp9","geo_precision":"zip"},"type":"Feature","geometry":{"type":"Point","coordinates":[-95.884949,37.048046]}},{"properties":{"zip":"53716","geo_score":0.714,"upb":1220994.14,"id":"aghjv5q9uhq7","geo_precision":"zip"},"type":"Feature","geometry":{"type":"Point","coordinates":[-89.246227,43.051664]}},{"properties":{"zip":"46236","geo_score":0.714,"upb":1189999.97,"id":"aghjv5oedsqt","geo_precision":"zip"},"type":"Feature","geometry":{"type":"Point","coordinates":[-85.956926,39.872818]}},{"properties":{"zip":"60062","geo_score":0.714,"upb":1178450.0,"id":"aghjv5vmc259","geo_precision":"zip"},"type":"Feature","geometry":{"type":"Point","coordinates":[-87.838815,42.120176]}},{"properties":{"zip":"53051","geo_score":0.714,"upb":881382.56,"id":"aghjv5potrwl","geo_precision":"zip"},"type":"Feature","geometry":{"type":"Point","coordinates":[-88.077868,43.151676]}},{"properties":{"zip":"53051","geo_score":0.714,"upb":263901.58,"id":"aghjv5sqp2hp","geo_precision":"zip"},"type":"Feature","geometry":{"type":"Point","coordinates":[-88.077868,43.151676]}},{"properties":{"zip":"34243","geo_score":0.714,"upb":1140147.99,"id":"aghjv5t1kj3g","geo_precision":"zip"},"type":"Feature","geometry":{"type":"Point","coordinates":[-82.523909,27.402542]}},{"properties":{"zip":"60139","geo_score":0.714,"upb":1105920.27,"id":"aghjv5pg7xka","geo_precision":"zip"},"type":"Feature","geometry":{"type":"Point","coordinates":[-88.088716,41.839679]}},{"properties":{"zip":"43085","geo_score":0.714,"upb":980661.99,"id":"aghjv5kz82nf","geo_precision":"zip"},"type":"Feature","geometry":{"type":"Point","coordinates":[-83.017962,40.093119]}},{"properties":{"zip":"53523","geo_score":0.714,"upb":492333.43,"id":"aghjv5vtr40k","geo_precision":"zip"},"type":"Feature","geometry":{"type":"Point","coordinates":[-89.030945,42.971946]}},{"properties":{"zip":"53533","geo_score":0.714,"upb":245000.0,"id":"aghjv5lzavy5","geo_precision":"zip"},"type":"Feature","geometry":{"type":"Point","coordinates":[-90.073457,43.054717]}},{"properties":{"zip":"53523","geo_score":0.714,"upb":228852.46,"id":"aghjv5hjg5ns","geo_precision":"zip"},"type":"Feature","geometry":{"type":"Point","coordinates":[-89.030945,42.971946]}},{"properties":{"zip":"53523","geo_score":0.714,"upb":123197.29,"id":"aghjv5lf9uji","geo_precision":"zip"},"type":"Feature","geometry":{"type":"Point","coordinates":[-89.030945,42.971946]}},{"properties":{"zip":"46157","geo_score":0.714,"upb":1086285.05,"id":"aghjv5iv0yn9","geo_precision":"zip"},"type":"Feature","geometry":{"type":"Point","coordinates":[-86.531957,39.555178]}},{"properties":{"zip":"86336","geo_score":0.714,"upb":461584.68,"id":"aghjv5qo2bbq","geo_precision":"zip"},"type":"Feature","geometry":{"type":"Point","coordinates":[-111.727101,34.913906]}},{"properties":{"zip":"53094","geo_score":0.714,"upb":955419.11,"id":"aghjv5twetdi","geo_precision":"zip"},"type":"Feature","geometry":{"type":"Point","coordinates":[-88.672047,43.076115]}},{"properties":{"zip":"53094","geo_score":0.714,"upb":99000.0,"id":"aghjv5p7eihu","geo_precision":"zip"},"type":"Feature","geometry":{"type":"Point","coordinates":[-88.672047,43.076115]}},{"properties":{"zip":"54650","geo_score":0.714,"upb":837267.83,"id":"aghjv5t3job7","geo_precision":"zip"},"type":"Feature","geometry":{"type":"Point","coordinates":[-91.257919,43.92913]}},{"properties":{"zip":"64029","geo_score":0.714,"upb":1025443.94,"id":"aghjv5ra4ny7","geo_precision":"zip"},"type":"Feature","geometry":{"type":"Point","coordinates":[-94.193874,38.984966]}},{"properties":{"zip":"62721","geo_score":0.714,"upb":1008063.61,"id":"aghjv5qmn3vc","geo_precision":"zip"},"type":"Feature","geometry":{"type":"Point","coordinates":[-89.606017,39.749457]}},{"properties":{"zip":"32819","geo_score":0.714,"upb":987836.61,"id":"aghjv5gyjzc3","geo_precision":"zip"},"type":"Feature","geometry":{"type":"Point","coordinates":[-81.46784,28.452157]}},{"properties":{"zip":"46406","geo_score":0.714,"upb":904930.32,"id":"aghjv5m8o5dw","geo_precision":"zip"},"type":"Feature","geometry":{"type":"Point","coordinates":[-87.508093,41.377813]}},{"properties":{"zip":"63105","geo_score":0.714,"upb":833334.97,"id":"aghjv5rivnfv","geo_precision":"zip"},"type":"Feature","geometry":{"type":"Point","coordinates":[-90.323726,38.642552]}},{"properties":{"zip":"60612","geo_score":0.714,"upb":801742.18,"id":"aghjv5td36vs","geo_precision":"zip"},"type":"Feature","geometry":{"type":"Point","coordinates":[-87.68732,41.811929]}},{"properties":{"zip":"60612","geo_score":0.714,"upb":42640.77,"id":"aghjv5pj8pg0","geo_precision":"zip"},"type":"Feature","geometry":{"type":"Point","coordinates":[-87.68732,41.811929]}},{"properties":{"zip":"33487","geo_score":0.714,"upb":805206.12,"id":"aghjv5jbktux","geo_precision":"zip"},"type":"Feature","geometry":{"type":"Point","coordinates":[-80.065598,26.39952]}},{"properties":{"zip":"54220","geo_score":0.714,"upb":785259.61,"id":"aghjv5o5xxf1","geo_precision":"zip"},"type":"Feature","geometry":{"type":"Point","coordinates":[-87.714403,44.109709]}},{"properties":{"zip":"60014","geo_score":0.714,"upb":766382.39,"id":"aghjv5p3phsb","geo_precision":"zip"},"type":"Feature","geometry":{"type":"Point","coordinates":[-88.291751,42.223079]}},{"properties":{"zip":"85338","geo_score":0.714,"upb":749777.54,"id":"aghjv5q95s47","geo_precision":"zip"},"type":"Feature","geometry":{"type":"Point","coordinates":[-112.18717,33.276539]}},{"properties":{"zip":"53222","geo_score":0.714,"upb":746988.97,"id":"aghjv5uhqote","geo_precision":"zip"},"type":"Feature","geometry":{"type":"Point","coordinates":[-88.036938,43.082161]}},{"properties":{"zip":"54128","geo_score":0.714,"upb":712903.55,"id":"aghjv5hhe1xk","geo_precision":"zip"},"type":"Feature","geometry":{"type":"Point","coordinates":[-88.82455,44.884976]}},{"properties":{"zip":"60546","geo_score":0.714,"upb":412101.33,"id":"aghjv5jww7io","geo_precision":"zip"},"type":"Feature","geometry":{"type":"Point","coordinates":[-87.823114,41.842809]}}],"is_temporal":false,"author":{"url":"","metadata":"","contact_name":"","contact_address":"","source":"","contact_phone":""},"source":"","pagination":{"sort":null,"start":0,"total":192,"limit":1000000},"state":"complete","tags":"","published":"2014-08-16T20:47:39-04:00","id":386450}