{"type":"FeatureCollection","data_type":"Dataset","url_type":null,"permissions":[{"permissions":{"download":true,"view":true},"group_id":"everyone"}],"classification":null,"title":"unemployed","count":51,"stream_id":386523,"contributor":{"url":"http://geocommons.com/users/28467","name":"bheberto"},"data_attributes":null,"calculation_params":null,"icon_link":null,"link":"http://geocommons.com/overlays/386523.json","extent":[0.0,0.0,0.0,0.0],"geometry_types":null,"unique_name":null,"name":"unemployed","feature_count":51,"description":"","next_feature":null,"is_raster":false,"short_classification":"Y","features":[{"properties":{"id":"aghn95ofa79e","unemployment rate":"3.2","state":"North Dakota"},"type":"Feature","geometry":null},{"properties":{"id":"aghn95gftue3","unemployment rate":"3.8","state":"Nebraska"},"type":"Feature","geometry":null},{"properties":{"id":"aghn95buz8xp","unemployment rate":"4","state":"South Dakota"},"type":"Feature","geometry":null},{"properties":{"id":"aghn95oeemgz","unemployment rate":"4.1","state":"Vermont"},"type":"Feature","geometry":null},{"properties":{"id":"aghn95j5bof2","unemployment rate":"4.6","state":"Iowa"},"type":"Feature","geometry":null},{"properties":{"id":"aghn95pa5gg8","unemployment rate":"4.6","state":"Utah"},"type":"Feature","geometry":null},{"properties":{"id":"aghn95chw0qc","unemployment rate":"4.6","state":"Wyoming"},"type":"Feature","geometry":null},{"properties":{"id":"aghn95fashlc","unemployment rate":"4.7","state":"Hawaii"},"type":"Feature","geometry":null},{"properties":{"id":"aghn95kl4f8v","unemployment rate":"5","state":"Oklahoma"},"type":"Feature","geometry":null},{"properties":{"id":"aghn9602zusm","unemployment rate":"5.3","state":"Minnesota"},"type":"Feature","geometry":null},{"properties":{"id":"aghn961eittf","unemployment rate":"5.3","state":"New Hampshire"},"type":"Feature","geometry":null},{"properties":{"id":"aghn95uxktz1","unemployment rate":"5.3","state":"Virginia"},"type":"Feature","geometry":null},{"properties":{"id":"aghn95w2wnfe","unemployment rate":"5.4","state":"Montana"},"type":"Feature","geometry":null},{"properties":{"id":"aghn95rr8pnl","unemployment rate":"5.7","state":"Kansas"},"type":"Feature","geometry":null},{"properties":{"id":"aghn965mwpwf","unemployment rate":"5.9","state":"Alaska"},"type":"Feature","geometry":null},{"properties":{"id":"aghn95tdexh0","unemployment rate":"6.2","state":"Idaho"},"type":"Feature","geometry":null},{"properties":{"id":"aghn95rb5zyu","unemployment rate":"6.2","state":"West Virginia"},"type":"Feature","geometry":null},{"properties":{"id":"aghn9647akxr","unemployment rate":"6.5","state":"Texas"},"type":"Feature","geometry":null},{"properties":{"id":"aghn962ek55a","unemployment rate":"6.6","state":"Massachusetts"},"type":"Feature","geometry":null},{"properties":{"id":"aghn95w0mv4d","unemployment rate":"6.7","state":"Maryland"},"type":"Feature","geometry":null},{"properties":{"id":"aghn960s2dml","unemployment rate":"6.7","state":"New Mexico"},"type":"Feature","geometry":null},{"properties":{"id":"aghn962madf6","unemployment rate":"6.8","state":"Alabama"},"type":"Feature","geometry":null},{"properties":{"id":"aghn95y59y8p","unemployment rate":"6.8","state":"Louisiana"},"type":"Feature","geometry":null},{"properties":{"id":"aghn95s8faiy","unemployment rate":"6.8","state":"Maine"},"type":"Feature","geometry":null},{"properties":{"id":"aghn95soehix","unemployment rate":"6.8","state":"Missouri"},"type":"Feature","geometry":null},{"properties":{"id":"aghn95rz3ylp","unemployment rate":"6.8","state":"Washington"},"type":"Feature","geometry":null},{"properties":{"id":"aghn95xtyhq7","unemployment rate":"6.9","state":"Colorado"},"type":"Feature","geometry":null},{"properties":{"id":"aghn961mpaga","unemployment rate":"7","state":"Ohio"},"type":"Feature","geometry":null},{"properties":{"id":"aghn95xaq5fy","unemployment rate":"7","state":"Wisconsin"},"type":"Feature","geometry":null},{"properties":{"id":"aghn96663g80","unemployment rate":"7","state":"Florida"},"type":"Feature","geometry":null},{"properties":{"id":"aghn9626hgn9","unemployment rate":"7.2","state":"Delaware"},"type":"Feature","geometry":null},{"properties":{"id":"aghn95vfineo","unemployment rate":"7.3","state":"Arkansas"},"type":"Feature","geometry":null},{"properties":{"id":"aghn965toub4","unemployment rate":"7.5","state":"Pennsylvania"},"type":"Feature","geometry":null},{"properties":{"id":"aghn95to09ho","unemployment rate":"7.6","state":"New York"},"type":"Feature","geometry":null},{"properties":{"id":"aghn961w2eyw","unemployment rate":"7.8","state":"Arizona"},"type":"Feature","geometry":null},{"properties":{"id":"aghn95t06i6n","unemployment rate":"7.8","state":"Oregon"},"type":"Feature","geometry":null},{"properties":{"id":"aghn95u6fdi9","unemployment rate":"8","state":"Connecticut"},"type":"Feature","geometry":null},{"properties":{"id":"aghn9639x2e1","unemployment rate":"8","state":"South Carolina"},"type":"Feature","geometry":null},{"properties":{"id":"aghn95ujhyz1","unemployment rate":"8.1","state":"Kentucky"},"type":"Feature","geometry":null},{"properties":{"id":"aghn961p06py","unemployment rate":"8.3","state":"Georgia"},"type":"Feature","geometry":null},{"properties":{"id":"aghn95wzbt1g","unemployment rate":"8.3","state":"Indiana"},"type":"Feature","geometry":null},{"properties":{"id":"aghn9665jnny","unemployment rate":"8.3","state":"Tennessee"},"type":"Feature","geometry":null},{"properties":{"id":"aghn95svlfts","unemployment rate":"8.4","state":"Michigan"},"type":"Feature","geometry":null},{"properties":{"id":"aghn9605g1iq","unemployment rate":"8.5","state":"District Of Columbia"},"type":"Feature","geometry":null},{"properties":{"id":"aghn95qeid59","unemployment rate":"8.6","state":"California"},"type":"Feature","geometry":null},{"properties":{"id":"aghn95wxd2ld","unemployment rate":"8.6","state":"New Jersey"},"type":"Feature","geometry":null},{"properties":{"id":"aghn95rve0fj","unemployment rate":"8.8","state":"North Carolina"},"type":"Feature","geometry":null},{"properties":{"id":"aghn95t02dzo","unemployment rate":"8.9","state":"Rhode Island"},"type":"Feature","geometry":null},{"properties":{"id":"aghn964fijui","unemployment rate":"9.1","state":"Illinois"},"type":"Feature","geometry":null},{"properties":{"id":"aghn95vauc3g","unemployment rate":"9.1","state":"Mississippi"},"type":"Feature","geometry":null},{"properties":{"id":"aghn965x4ydz","unemployment rate":"9.5","state":"Nevada"},"type":"Feature","geometry":null}],"is_temporal":false,"author":{"url":"","metadata":null,"contact_name":null,"contact_address":null,"source":null,"contact_phone":null},"source":"","pagination":{"sort":null,"start":0,"total":51,"limit":1000000},"state":"parsed","tags":"","published":"2014-08-16T20:50:00-04:00","id":386523}