{"type":"FeatureCollection","data_type":"Dataset","url_type":null,"permissions":[{"permissions":{"download":true,"view":true},"group_id":"everyone"}],"classification":null,"title":"BMW_Mapping","count":31,"stream_id":387497,"contributor":{"url":"http://geocommons.com/users/80088","name":"shijiehenmei@sohu.com"},"data_attributes":null,"calculation_params":null,"icon_link":null,"link":"http://geocommons.com/overlays/387497.json","extent":[0.0,0.0,0.0,0.0],"geometry_types":[],"unique_name":null,"name":"BMW_Mapping","feature_count":31,"description":"","next_feature":null,"is_raster":false,"short_classification":"Y","stats":{"percentage":{"max":19.1,"variance":18.5867956989247,"mean":3.22903225806452,"stdev":4.31124062178449,"min":0.1,"median":1.6}},"features":[{"properties":{"geo_score":0.0,"percentage":1.1,"id":"agkxzem0kp4o","province":"Heilongjiang","geo_precision":"unmatched"},"type":"Feature","geometry":null},{"properties":{"geo_score":0.0,"percentage":0.9,"id":"agkxzek8q3r2","province":"Jilin","geo_precision":"unmatched"},"type":"Feature","geometry":null},{"properties":{"geo_score":0.0,"percentage":3.3,"id":"agkxzefagfnc","province":"Liaoning","geo_precision":"unmatched"},"type":"Feature","geometry":null},{"properties":{"geo_score":0.0,"percentage":4.4,"id":"agkxzep33nqh","province":"Fujian","geo_precision":"unmatched"},"type":"Feature","geometry":null},{"properties":{"geo_score":0.0,"percentage":13.1,"id":"agkxzehj7jdc","province":"Guangdong","geo_precision":"unmatched"},"type":"Feature","geometry":null},{"properties":{"geo_score":0.0,"percentage":0.5,"id":"agkxzeg2z7b9","province":"Hainan","geo_precision":"unmatched"},"type":"Feature","geometry":null},{"properties":{"geo_score":0.0,"percentage":1.8,"id":"agkxzecytzt8","province":"Chongqing","geo_precision":"unmatched"},"type":"Feature","geometry":null},{"properties":{"geo_score":0.0,"percentage":0.3,"id":"agkxzep9j804","province":"Gansu","geo_precision":"unmatched"},"type":"Feature","geometry":null},{"properties":{"geo_score":0.0,"percentage":1.1,"id":"agkxzemvm3bq","province":"Guangxi","geo_precision":"unmatched"},"type":"Feature","geometry":null},{"properties":{"geo_score":0.0,"percentage":0.8,"id":"agkxzebijwda","province":"Guizhou","geo_precision":"unmatched"},"type":"Feature","geometry":null},{"properties":{"geo_score":0.0,"percentage":1.8,"id":"agkxzepgdcx4","province":"Inner Mongolia","geo_precision":"unmatched"},"type":"Feature","geometry":null},{"properties":{"geo_score":0.0,"percentage":0.4,"id":"agkxzeir0cs2","province":"Ningxia Hui","geo_precision":"unmatched"},"type":"Feature","geometry":null},{"properties":{"geo_score":0.0,"percentage":0.1,"id":"agkxzeakp2ci","province":"Qinghai","geo_precision":"unmatched"},"type":"Feature","geometry":null},{"properties":{"geo_score":0.0,"percentage":1.0,"id":"agkxzel7nu0b","province":"Shaanxi","geo_precision":"unmatched"},"type":"Feature","geometry":null},{"properties":{"geo_score":0.0,"percentage":3.9,"id":"agkxzegejjft","province":"Sichuan","geo_precision":"unmatched"},"type":"Feature","geometry":null},{"properties":{"geo_score":0.0,"percentage":0.1,"id":"agkxzeiuoe96","province":"Tibet","geo_precision":"unmatched"},"type":"Feature","geometry":null},{"properties":{"geo_score":0.0,"percentage":0.4,"id":"agkxzemn2qwo","province":"Xinjiang","geo_precision":"unmatched"},"type":"Feature","geometry":null},{"properties":{"geo_score":0.0,"percentage":1.5,"id":"agkxzegnn2gz","province":"Yunnan","geo_precision":"unmatched"},"type":"Feature","geometry":null},{"properties":{"geo_score":0.0,"percentage":9.9,"id":"agkxzeky5tdk","province":"Beijing","geo_precision":"unmatched"},"type":"Feature","geometry":null},{"properties":{"geo_score":0.0,"percentage":2.3,"id":"agkxzecs0w9p","province":"Hebei","geo_precision":"unmatched"},"type":"Feature","geometry":null},{"properties":{"geo_score":0.0,"percentage":4.1,"id":"agkxzef0bt5b","province":"Shandong","geo_precision":"unmatched"},"type":"Feature","geometry":null},{"properties":{"geo_score":0.0,"percentage":1.6,"id":"agkxze9ubujf","province":"Tianjin","geo_precision":"unmatched"},"type":"Feature","geometry":null},{"properties":{"geo_score":0.0,"percentage":1.7,"id":"agkxzen6nqyi","province":"Anhui","geo_precision":"unmatched"},"type":"Feature","geometry":null},{"properties":{"geo_score":0.0,"percentage":1.9,"id":"agkxze9uadbz","province":"Henan","geo_precision":"unmatched"},"type":"Feature","geometry":null},{"properties":{"geo_score":0.0,"percentage":1.6,"id":"agkxzeozboio","province":"Hubei","geo_precision":"unmatched"},"type":"Feature","geometry":null},{"properties":{"geo_score":0.0,"percentage":1.5,"id":"agkxzei3hsfp","province":"Hunan","geo_precision":"unmatched"},"type":"Feature","geometry":null},{"properties":{"geo_score":0.0,"percentage":0.9,"id":"agkxzei5a6ih","province":"Jiangxi","geo_precision":"unmatched"},"type":"Feature","geometry":null},{"properties":{"geo_score":0.0,"percentage":2.2,"id":"agkxzekec34c","province":"Shanxi","geo_precision":"unmatched"},"type":"Feature","geometry":null},{"properties":{"geo_score":0.0,"percentage":9.8,"id":"agkxzehwooal","province":"Jiangsu","geo_precision":"unmatched"},"type":"Feature","geometry":null},{"properties":{"geo_score":0.0,"percentage":7.0,"id":"agkxzemrbxom","province":"Shanghai","geo_precision":"unmatched"},"type":"Feature","geometry":null},{"properties":{"geo_score":0.0,"percentage":19.1,"id":"agkxzehaxaa0","province":"Zhejiang","geo_precision":"unmatched"},"type":"Feature","geometry":null}],"is_temporal":false,"author":{"url":"","metadata":null,"contact_name":null,"contact_address":null,"source":null,"contact_phone":null},"source":"","pagination":{"sort":null,"start":0,"total":31,"limit":1000000},"state":"complete","tags":"","published":"2014-08-16T21:43:22-04:00","id":387497}