{"type":"FeatureCollection","data_type":"Dataset","url_type":null,"permissions":[{"permissions":{"download":true,"view":true},"group_id":"everyone"}],"classification":null,"title":"Spaceports","count":30,"stream_id":387796,"contributor":{"url":"http://geocommons.com/users/80284","name":"mnagni"},"data_attributes":null,"calculation_params":null,"icon_link":null,"link":"http://geocommons.com/overlays/387796.json","extent":[-152.33,-31.1,136.8,69.0],"geometry_types":["point"],"unique_name":null,"name":"Spaceports","feature_count":30,"description":"Main spaceports on Planet Earth","next_feature":null,"is_raster":false,"short_classification":"Y","stats":{"lon":{"max":136.8,"variance":7954.35945535669,"mean":22.0782203333333,"stdev":89.1872157618831,"min":-152.33,"median":40.2134},"launches":{"max":7000,"variance":2105676.91402116,"mean":569.892857142857,"stdev":1451.09507408066,"min":1,"median":39},"end":{"max":2006,"variance":198.696428571429,"mean":1987.125,"stdev":14.0959720690497,"min":1967,"median":1988},"lat":{"max":69.0,"variance":433.647591400793,"mean":33.4758893333333,"stdev":20.8242068612659,"min":-31.1,"median":35.2},"open":{"max":2013,"variance":409.384236453202,"mean":1976.20689655172,"stdev":20.2332458210046,"min":1946,"median":1970}},"features":[{"properties":{"lon":63.3503,"city":"Baikonur","vehicles":"R-7/Soyuz, Kosmos, Proton, Zenit, Energia","launches":1000,"end":null,"highest altitude":"Interplanetary","id":"agm1bqq8x9fg","lat":45.9551,"state":"Kazakhstan","open":1957},"type":"Feature","geometry":{"type":"Point","coordinates":[63.3503,45.9551]}},{"properties":{"lon":-80.5585,"city":"Cape Canaveral","vehicles":"Delta, Scout, Atlas, Titan, Saturn, Athena, Falcon 9","launches":400,"end":null,"highest altitude":"Interplanetary","id":"agm1bqi2nhpk","lat":28.46675,"state":"USA","open":1958},"type":"Feature","geometry":{"type":"Point","coordinates":[-80.5585,28.46675]}},{"properties":{"lon":-120.35,"city":"Vandenberg Air Force Base","vehicles":"Delta, Scout, Atlas, Titan, Taurus, Athena, Minotaur","launches":500,"end":null,"highest altitude":"Orbital","id":"agm1bqf7wrhv","lat":34.4,"state":"USA","open":1959},"type":"Feature","geometry":{"type":"Point","coordinates":[-120.35,34.4]}},{"properties":{"lon":-75.5,"city":"Wallops Island","vehicles":"Scout","launches":19,"end":1985,"highest altitude":null,"id":"agm1bqq0s6zd","lat":37.8,"state":"USA","open":1961},"type":"Feature","geometry":{"type":"Point","coordinates":[-75.5,37.8]}},{"properties":{"lon":-52.8,"city":"Kourou","vehicles":"7 Diamant, 202 Ariane, 3 Soyuz-2, 2 Vega","launches":214,"end":null,"highest altitude":"Orbital","id":"agm1bqjfm87o","lat":5.2,"state":"Frenc Guiana","open":1970},"type":"Feature","geometry":{"type":"Point","coordinates":[-52.8,5.2]}},{"properties":{"lon":-44.4,"city":"Alcantara","vehicles":null,"launches":null,"end":null,"highest altitude":null,"id":"agm1bqn2ijnj","lat":-2.3,"state":"Brazil","open":null},"type":"Feature","geometry":{"type":"Point","coordinates":[-44.4,-2.3]}},{"properties":{"lon":-2.83581,"city":"Hammaguir","vehicles":null,"launches":null,"end":1967,"highest altitude":"Orbital","id":"agm1bqeuuj8o","lat":31.09951,"state":"Algeria (France)","open":1947},"type":"Feature","geometry":{"type":"Point","coordinates":[-2.83581,31.09951]}},{"properties":{"lon":16.0,"city":"Andova","vehicles":"Sounding Rockets","launches":900,"end":null,"highest altitude":null,"id":"agm1bqr6glk4","lat":69.0,"state":"Norway","open":1962},"type":"Feature","geometry":{"type":"Point","coordinates":[16.0,69.0]}},{"properties":{"lon":40.1,"city":"Plesetsk","vehicles":"Soyuz, Kosmos","launches":1500,"end":null,"highest altitude":"Orbital","id":"agm1bqit19o8","lat":62.8,"state":"Russia","open":1966},"type":"Feature","geometry":{"type":"Point","coordinates":[40.1,62.8]}},{"properties":{"lon":128.3,"city":"Svobodny","vehicles":"Start-1","launches":5,"end":2006,"highest altitude":"Orbital","id":"agm1bqiyqj0j","lat":51.4,"state":"Russia","open":1997},"type":"Feature","geometry":{"type":"Point","coordinates":[128.3,51.4]}},{"properties":{"lon":45.8,"city":"Kapustin Yar","vehicles":"Kosmos","launches":85,"end":null,"highest altitude":"Orbital","id":"agm1bqe6nsse","lat":48.4,"state":"Russia","open":1962},"type":"Feature","geometry":{"type":"Point","coordinates":[45.8,48.4]}},{"properties":{"lon":34.5,"city":"Palmachim","vehicles":"Shavit","launches":6,"end":null,"highest altitude":"Orbital","id":"agm1bqgexmxi","lat":31.5,"state":"Israel","open":1988},"type":"Feature","geometry":{"type":"Point","coordinates":[34.5,31.5]}},{"properties":{"lon":40.2134,"city":"San Marco","vehicles":"Scout","launches":27,"end":1988,"highest altitude":"Orbital","id":"agm1bqle240n","lat":-2.9408,"state":"Italy","open":1967},"type":"Feature","geometry":{"type":"Point","coordinates":[40.2134,-2.9408]}},{"properties":{"lon":131.07914,"city":"Uchinoura Space Center","vehicles":"Mu","launches":27,"end":2006,"highest altitude":"Orbital","id":"agm1bqilt92d","lat":31.25186,"state":"Japan","open":1970},"type":"Feature","geometry":{"type":"Point","coordinates":[131.07914,31.25186]}},{"properties":{"lon":136.8,"city":"Woomera","vehicles":"Redstone (Wresat), Black Arrow (UK Prospero X-3)","launches":2,"end":1971,"highest altitude":null,"id":"agm1bqnlqz4a","lat":-31.1,"state":"UK","open":1967},"type":"Feature","geometry":{"type":"Point","coordinates":[136.8,-31.1]}},{"properties":{"lon":-94.1,"city":"Fort Churchill","vehicles":"Sounding Rockets","launches":3500,"end":1985,"highest altitude":null,"id":"agm1bqor97vt","lat":58.8,"state":"Canada","open":1954},"type":"Feature","geometry":{"type":"Point","coordinates":[-94.1,58.8]}},{"properties":{"lon":100.4633,"city":"Jiuquan","vehicles":"Long March","launches":49,"end":null,"highest altitude":"Orbital","id":"agm1bqdt5h4w","lat":41.11803,"state":"China","open":1970},"type":"Feature","geometry":{"type":"Point","coordinates":[100.4633,41.11803]}},{"properties":{"lon":102.02814,"city":"Xichang","vehicles":"Long March","launches":71,"end":null,"highest altitude":"Lunar","id":"agm1bqgacrrz","lat":28.24646,"state":"China","open":1984},"type":"Feature","geometry":{"type":"Point","coordinates":[102.02814,28.24646]}},{"properties":{"lon":111.96741,"city":"Taiyuan","vehicles":"Long March","launches":39,"end":null,"highest altitude":"Orbital","id":"agm1bqlpffsb","lat":39.14321,"state":"China","open":1988},"type":"Feature","geometry":{"type":"Point","coordinates":[111.96741,39.14321]}},{"properties":{"lon":80.2351,"city":"Sriharikota","vehicles":null,"launches":39,"end":null,"highest altitude":"Lunar","id":"agm1bqjx590n","lat":13.7374,"state":"India","open":1971},"type":"Feature","geometry":{"type":"Point","coordinates":[80.2351,13.7374]}},{"properties":{"lon":130.96813,"city":"Tanegashima","vehicles":"9 H-I, 5 H-II, 20 H-IIA","launches":34,"end":null,"highest altitude":"Orbital","id":"agm1bqnjh738","lat":30.39096,"state":"Japan","open":1986},"type":"Feature","geometry":{"type":"Point","coordinates":[130.96813,30.39096]}},{"properties":{"lon":124.0,"city":"Sohae","vehicles":"Unha-3","launches":1,"end":null,"highest altitude":null,"id":"agm1bqjyudo5","lat":39.0,"state":"North Korea","open":2012},"type":"Feature","geometry":{"type":"Point","coordinates":[124.0,39.0]}},{"properties":{"lon":127.0,"city":"Naro","vehicles":"Naro-1","launches":1,"end":null,"highest altitude":null,"id":"agm1bqlnshwa","lat":34.0,"state":"South Korea","open":2013},"type":"Feature","geometry":{"type":"Point","coordinates":[127.0,34.0]}},{"properties":{"lon":-106.8,"city":"White Sands Space Harbor","vehicles":"Sounding rockets","launches":7000,"end":null,"highest altitude":null,"id":"agm1bqm5387w","lat":32.3,"state":"USA","open":1946},"type":"Feature","geometry":{"type":"Point","coordinates":[-106.8,32.3]}},{"properties":{"lon":-80.604,"city":"Kenedy Space Center","vehicles":"17 Saturn, 134 Space Shuttle","launches":151,"end":null,"highest altitude":"Interplanetary","id":"agm1bqemzkf5","lat":28.6082,"state":"USA","open":1967},"type":"Feature","geometry":{"type":"Point","coordinates":[-80.604,28.6082]}},{"properties":{"lon":59.5,"city":"Yasny","vehicles":"Dnepr-1","launches":5,"end":null,"highest altitude":"Orbital","id":"agm1bqpa58cs","lat":50.8,"state":"Russia","open":2006},"type":"Feature","geometry":{"type":"Point","coordinates":[59.5,50.8]}},{"properties":{"lon":53.9,"city":"Semnan","vehicles":"Safir","launches":3,"end":null,"highest altitude":"Orbital","id":"agm1bqslw93y","lat":35.2,"state":"Iran","open":2009},"type":"Feature","geometry":{"type":"Point","coordinates":[53.9,35.2]}},{"properties":{"lon":-152.33,"city":"Kodiak Launch Complex","vehicles":"1 Athena, 2 Minotaur IV","launches":3,"end":null,"highest altitude":"Orbital","id":"agm1bqj65o2q","lat":57.4,"state":"USA","open":2001},"type":"Feature","geometry":{"type":"Point","coordinates":[-152.33,57.4]}},{"properties":{"lon":21.9,"city":"Koroni","vehicles":null,"launches":371,"end":1989,"highest altitude":null,"id":"agm1bqmlrbwu","lat":36.8,"state":"Greece","open":1966},"type":"Feature","geometry":{"type":"Point","coordinates":[21.9,36.8]}},{"properties":{"lon":-75.48,"city":"Mid-Atlantic Regional Spaceport","vehicles":null,"launches":5,"end":null,"highest altitude":"Orbital","id":"agm1bqrkt0if","lat":37.8,"state":"USA","open":2006},"type":"Feature","geometry":{"type":"Point","coordinates":[-75.48,37.8]}}],"is_temporal":false,"author":{"url":"","metadata":"","contact_name":"","contact_address":"","source":"","contact_phone":""},"source":"","pagination":{"sort":null,"start":0,"total":30,"limit":1000000},"state":"complete","tags":"rockets,spaceports","published":"2014-08-16T21:58:37-04:00","id":387796}