{"type":"FeatureCollection","data_type":"Dataset","url_type":null,"permissions":[{"permissions":{"download":true,"view":true},"group_id":"everyone"}],"classification":null,"title":"SmartCities","count":100,"stream_id":389171,"contributor":{"url":"http://geocommons.com/users/80614","name":"dvdhns"},"data_attributes":null,"calculation_params":null,"icon_link":null,"link":"http://geocommons.com/overlays/389171.json","extent":[-122.208,29.05,-70.6495,48.6283],"geometry_types":["point"],"unique_name":null,"name":"SmartCities","feature_count":100,"description":"http://www.policymic.com/articles/52995/you-ll-never-guess-what-the-smartest-city-in-america-is","next_feature":null,"is_raster":false,"short_classification":"Y","stats":{"rank":{}},"features":[{"properties":{"city":"Ithaca","geo_score":0.571,"rank":"1","id":"agpm6lirjxxi","geo_precision":"city","state":"NY"},"type":"Feature","geometry":{"type":"Point","coordinates":[-84.553286,39.937273]}},{"properties":{"city":"State College","geo_score":0.571,"rank":"2","id":"agpm6lf7vma7","geo_precision":"city","state":"PA"},"type":"Feature","geometry":{"type":"Point","coordinates":[-111.247908,32.904485]}},{"properties":{"city":"Lafayette-West Lafayette","geo_score":0.571,"rank":"3","id":"agpm6l9ooul3","geo_precision":"city","state":"IN"},"type":"Feature","geometry":{"type":"Point","coordinates":[-89.97363,41.109823]}},{"properties":{"city":"Iowa City","geo_score":0.571,"rank":"4","id":"agpm6l8k2yg3","geo_precision":"city","state":"IA"},"type":"Feature","geometry":{"type":"Point","coordinates":[-84.93687,31.593502]}},{"properties":{"city":"Ames","geo_score":0.571,"rank":"5","id":"agpm6l7hm9xf","geo_precision":"city","state":"IA"},"type":"Feature","geometry":{"type":"Point","coordinates":[-122.207865,45.450676]}},{"properties":{"city":"Ann Arbor","geo_score":0.571,"rank":"6","id":"agpm6ll4ctnz","geo_precision":"city","state":"MI"},"type":"Feature","geometry":{"type":"Point","coordinates":[-86.176715,42.96502]}},{"properties":{"city":"Bloomington","geo_score":0.571,"rank":"7","id":"agpm6lgng00m","geo_precision":"city","state":"IN"},"type":"Feature","geometry":{"type":"Point","coordinates":[-89.033689,40.480592]}},{"properties":{"city":"Madison","geo_score":0.571,"rank":"8","id":"agpm6lhneifw","geo_precision":"city","state":"WI"},"type":"Feature","geometry":{"type":"Point","coordinates":[-86.754233,34.651409]}},{"properties":{"city":"Lawrence","geo_score":0.571,"rank":"9","id":"agpm6l77l085","geo_precision":"city","state":"KS"},"type":"Feature","geometry":{"type":"Point","coordinates":[-88.215617,41.347254]}},{"properties":{"city":"Pullman","geo_score":0.571,"rank":"10","id":"agpm6lcmbp2l","geo_precision":"city","state":"WA"},"type":"Feature","geometry":{"type":"Point","coordinates":[-94.316595,34.114557]}},{"properties":{"city":"College Station-Bryan","geo_score":0.571,"rank":"11","id":"agpm6lfd0qmf","geo_precision":"city","state":"TX"},"type":"Feature","geometry":{"type":"Point","coordinates":[-111.247908,32.904485]}},{"properties":{"city":"Appleton","geo_score":0.571,"rank":"12","id":"agpm6l8ydl0i","geo_precision":"city","state":"WI"},"type":"Feature","geometry":{"type":"Point","coordinates":[-92.874335,35.425358]}},{"properties":{"city":"Urbana","geo_score":0.571,"rank":"13","id":"agpm6lhv0sw9","geo_precision":"city","state":"IL"},"type":"Feature","geometry":{"type":"Point","coordinates":[-94.956878,30.560479]}},{"properties":{"city":"Blacksburg-Christiansburg-Radford","geo_score":0.571,"rank":"14","id":"agpm6lkijuv9","geo_precision":"city","state":"VA"},"type":"Feature","geometry":{"type":"Point","coordinates":[-92.570024,40.981083]}},{"properties":{"city":"Charlottesville","geo_score":0.571,"rank":"15","id":"agpm6lcz6zmm","geo_precision":"city","state":"VA"},"type":"Feature","geometry":{"type":"Point","coordinates":[-85.625798,39.838824]}},{"properties":{"city":"Boulder","geo_score":0.571,"rank":"16","id":"agpm6lk0171o","geo_precision":"city","state":"CO"},"type":"Feature","geometry":{"type":"Point","coordinates":[-111.308206,37.844777]}},{"properties":{"city":"Provo","geo_score":0.571,"rank":"17","id":"agpm6la1jwvq","geo_precision":"city","state":"UT"},"type":"Feature","geometry":{"type":"Point","coordinates":[-94.107696,34.037614]}},{"properties":{"city":"Harrisonburg","geo_score":0.571,"rank":"18","id":"agpm6lefc2h4","geo_precision":"city","state":"VA"},"type":"Feature","geometry":{"type":"Point","coordinates":[-86.301533,45.980527]}},{"properties":{"city":"Rolla","geo_score":0.571,"rank":"19","id":"agpm6lfnfslw","geo_precision":"city","state":"MO"},"type":"Feature","geometry":{"type":"Point","coordinates":[-100.310675,34.805333]}},{"properties":{"city":"Houghton","geo_score":0.571,"rank":"20","id":"agpm6ll838iz","geo_precision":"city","state":"MI"},"type":"Feature","geometry":{"type":"Point","coordinates":[-70.649513,44.765058]}},{"properties":{"city":"Muncie","geo_score":0.571,"rank":"21","id":"agpm6lbm5nm4","geo_precision":"city","state":"IN"},"type":"Feature","geometry":{"type":"Point","coordinates":[-85.348569,34.930632]}},{"properties":{"city":"Corvallis","geo_score":0.571,"rank":"22","id":"agpm6lan4t3h","geo_precision":"city","state":"OR"},"type":"Feature","geometry":{"type":"Point","coordinates":[-87.908088,34.88592]}},{"properties":{"city":"Boone","geo_score":0.571,"rank":"23","id":"agpm6ljb1ir5","geo_precision":"city","state":"NC"},"type":"Feature","geometry":{"type":"Point","coordinates":[-104.209119,38.319575]}},{"properties":{"city":"Logan","geo_score":0.571,"rank":"24","id":"agpm6ljne460","geo_precision":"city","state":"UT-ID"},"type":"Feature","geometry":{"type":"Point","coordinates":[-86.084135,37.492279]}},{"properties":{"city":"Stillwater","geo_score":0.571,"rank":"25","id":"agpm6lgkd9fo","geo_precision":"city","state":"OK"},"type":"Feature","geometry":{"type":"Point","coordinates":[-83.484352,37.756475]}},{"properties":{"city":"Milwaukee-Waukesha-West Allis","geo_score":0.571,"rank":"26","id":"agpm6lj5omvs","geo_precision":"city","state":"WI"},"type":"Feature","geometry":{"type":"Point","coordinates":[-88.412893,47.287939]}},{"properties":{"city":"Claremont-Lebanon","geo_score":0.571,"rank":"27","id":"agpm6lfghtb6","geo_precision":"city","state":"NH-VT"},"type":"Feature","geometry":{"type":"Point","coordinates":[-77.110535,38.797336]}},{"properties":{"city":"Lebanon","geo_score":0.571,"rank":"28","id":"agpm6lhoctiy","geo_precision":"city","state":"PA"},"type":"Feature","geometry":{"type":"Point","coordinates":[-72.245422,41.628008]}},{"properties":{"city":"Moscow","geo_score":0.571,"rank":"29","id":"agpm6lhc1gdj","geo_precision":"city","state":"ID"},"type":"Feature","geometry":{"type":"Point","coordinates":[-82.824054,38.308138]}},{"properties":{"city":"Cedar Rapids","geo_score":0.571,"rank":"30","id":"agpm6ll1mncf","geo_precision":"city","state":"IA"},"type":"Feature","geometry":{"type":"Point","coordinates":[-76.010219,38.978168]}},{"properties":{"city":"Lincoln","geo_score":0.571,"rank":"31","id":"agpm6l7gqxmw","geo_precision":"city","state":"NE"},"type":"Feature","geometry":{"type":"Point","coordinates":[-79.616986,40.307292]}},{"properties":{"city":"Bloomsburg-Berwick","geo_score":0.571,"rank":"32","id":"agpm6ljehi5o","geo_precision":"city","state":"PA"},"type":"Feature","geometry":{"type":"Point","coordinates":[-76.729694,39.263996]}},{"properties":{"city":"Minneapolis-St","geo_score":0.571,"rank":"33","id":"agpm6l9ebeoe","geo_precision":"city","state":"Paul-Bloomington"},"type":"Feature","geometry":{"type":"Point","coordinates":[-97.650674,39.141097]}},{"properties":{"city":"Starkville","geo_score":0.571,"rank":"34","id":"agpm6l5fxut4","geo_precision":"city","state":"MS"},"type":"Feature","geometry":{"type":"Point","coordinates":[-105.265543,40.415817]}},{"properties":{"city":"Athens","geo_score":0.571,"rank":"35","id":"agpm6lair2lb","geo_precision":"city","state":"OH"},"type":"Feature","geometry":{"type":"Point","coordinates":[-118.281184,33.920015]}},{"properties":{"city":"La Crosse-Onalaska","geo_score":0.571,"rank":"36","id":"agpm6lhqjd4a","geo_precision":"city","state":"WI-MN"},"type":"Feature","geometry":{"type":"Point","coordinates":[-90.042312,35.633413]}},{"properties":{"city":"Brainerd","geo_score":0.571,"rank":"37","id":"agpm6lfrdw7m","geo_precision":"city","state":"MN"},"type":"Feature","geometry":{"type":"Point","coordinates":[-98.044605,39.188663]}},{"properties":{"city":"Burlington-South Burlington","geo_score":0.571,"rank":"38","id":"agpm6lkl1h0a","geo_precision":"city","state":"VT"},"type":"Feature","geometry":{"type":"Point","coordinates":[-93.228236,36.379512]}},{"properties":{"city":"Fargo","geo_score":0.571,"rank":"39","id":"agpm6llbjfd7","geo_precision":"city","state":"ND-MN"},"type":"Feature","geometry":{"type":"Point","coordinates":[-78.43641,42.926449]}},{"properties":{"city":"Stevens Point","geo_score":0.571,"rank":"40","id":"agpm6lh8oth6","geo_precision":"city","state":"WI"},"type":"Feature","geometry":{"type":"Point","coordinates":[-73.331219,42.39953]}},{"properties":{"city":"Columbia","geo_score":0.571,"rank":"41","id":"agpm6l9wxpw1","geo_precision":"city","state":"MO"},"type":"Feature","geometry":{"type":"Point","coordinates":[-75.677708,38.497894]}},{"properties":{"city":"St","geo_score":0.571,"rank":"42","id":"agpm6lh9uek6","geo_precision":"city","state":"Cloud"},"type":"Feature","geometry":{"type":"Point","coordinates":[-84.93687,31.593502]}},{"properties":{"city":"Rochester","geo_score":0.571,"rank":"43","id":"agpm6leicjfm","geo_precision":"city","state":"MN"},"type":"Feature","geometry":{"type":"Point","coordinates":[-84.096878,39.356727]}},{"properties":{"city":"Auburn-","geo_score":0.571,"rank":"44","id":"agpm6lcatpm9","geo_precision":"city","state":"AL"},"type":"Feature","geometry":{"type":"Point","coordinates":[-90.607878,31.359341]}},{"properties":{"city":"Waterloo-Cedar Falls","geo_score":0.571,"rank":"45","id":"agpm6lerbzci","geo_precision":"city","state":"IA"},"type":"Feature","geometry":{"type":"Point","coordinates":[-84.885746,30.219088]}},{"properties":{"city":"Oil City","geo_score":0.571,"rank":"46","id":"agpm6lf5azr0","geo_precision":"city","state":"PA"},"type":"Feature","geometry":{"type":"Point","coordinates":[-104.084655,46.584732]}},{"properties":{"city":"Fort Collins","geo_score":0.571,"rank":"47","id":"agpm6lggih7d","geo_precision":"city","state":"CO"},"type":"Feature","geometry":{"type":"Point","coordinates":[-98.399458,29.049969]}},{"properties":{"city":"Sheboygan","geo_score":0.571,"rank":"48","id":"agpm6lkt4tpj","geo_precision":"city","state":"WI"},"type":"Feature","geometry":{"type":"Point","coordinates":[-84.468639,45.592842]}},{"properties":{"city":"Boston-Cambridge-Newton","geo_score":0.571,"rank":"49","id":"agpm6li4tca8","geo_precision":"city","state":"MA-NH"},"type":"Feature","geometry":{"type":"Point","coordinates":[-73.521233,42.052869]}},{"properties":{"city":"Keene","geo_score":0.571,"rank":"50","id":"agpm6lgwbhfd","geo_precision":"city","state":"NH"},"type":"Feature","geometry":{"type":"Point","coordinates":[-93.075731,34.257037]}},{"properties":{"city":"Oshkosh","geo_score":0.571,"rank":"51","id":"agpm6liuihob","geo_precision":"city","state":"WI"},"type":"Feature","geometry":{"type":"Point","coordinates":[-88.55756,44.005661]}},{"properties":{"city":"Burlington","geo_score":0.571,"rank":"52","id":"agpm6l8lco6w","geo_precision":"city","state":"NC"},"type":"Feature","geometry":{"type":"Point","coordinates":[-93.228236,36.379512]}},{"properties":{"city":"Pittsburgh","geo_score":0.571,"rank":"53","id":"agpm6lj0tdum","geo_precision":"city","state":"PA"},"type":"Feature","geometry":{"type":"Point","coordinates":[-84.219365,33.880659]}},{"properties":{"city":"Fond du Lac","geo_score":0.571,"rank":"54","id":"agpm6l8lfmx6","geo_precision":"city","state":"WI"},"type":"Feature","geometry":{"type":"Point","coordinates":[-96.82308,41.133061]}},{"properties":{"city":"Concord","geo_score":0.571,"rank":"55","id":"agpm6lc9tlqh","geo_precision":"city","state":"NH"},"type":"Feature","geometry":{"type":"Point","coordinates":[-83.491024,38.686185]}},{"properties":{"city":"Morgantown","geo_score":0.571,"rank":"56","id":"agpm6lf08yoe","geo_precision":"city","state":"WV"},"type":"Feature","geometry":{"type":"Point","coordinates":[-92.3396,35.472578]}},{"properties":{"city":"Bellingham","geo_score":0.0,"rank":"57","id":"agpm6ldpocg2","geo_precision":"unmatched","state":"WA"},"type":"Feature","geometry":null},{"properties":{"city":"Mount Pleasant","geo_score":0.571,"rank":"58","id":"agpm6l9lm69g","geo_precision":"city","state":"MI"},"type":"Feature","geometry":{"type":"Point","coordinates":[-93.992955,48.628292]}},{"properties":{"city":"Ottawa","geo_score":0.571,"rank":"59","id":"agpm6l7bpk4w","geo_precision":"city","state":"IL"},"type":"Feature","geometry":{"type":"Point","coordinates":[-95.282668,38.564337]}},{"properties":{"city":"Indianapolis-Carmel-Anderson","geo_score":0.571,"rank":"60","id":"agpm6l9nj0s7","geo_precision":"city","state":"IN"},"type":"Feature","geometry":{"type":"Point","coordinates":[-92.43352,41.396952]}},{"properties":{"city":"Laramie","geo_score":0.571,"rank":"61","id":"agpm6lih5stl","geo_precision":"city","state":"WY"},"type":"Feature","geometry":{"type":"Point","coordinates":[-105.801022,41.43902]}},{"properties":{"city":"Barnstable Town","geo_score":0.571,"rank":"62","id":"agpm6laxky0y","geo_precision":"city","state":"MA"},"type":"Feature","geometry":{"type":"Point","coordinates":[-75.809935,40.104545]}},{"properties":{"city":"Lancaster","geo_score":0.571,"rank":"63","id":"agpm6le0dkqo","geo_precision":"city","state":"PA"},"type":"Feature","geometry":{"type":"Point","coordinates":[-85.243914,43.31392]}},{"properties":{"city":"Reading","geo_score":0.571,"rank":"64","id":"agpm6lduihur","geo_precision":"city","state":"PA"},"type":"Feature","geometry":{"type":"Point","coordinates":[-88.854241,41.0667]}},{"properties":{"city":"Winchester","geo_score":0.571,"rank":"65","id":"agpm6lc9q279","geo_precision":"city","state":"VA-WV"},"type":"Feature","geometry":{"type":"Point","coordinates":[-78.786699,42.864781]}},{"properties":{"city":"Bozeman","geo_score":0.571,"rank":"66","id":"agpm6lbrwcre","geo_precision":"city","state":"MT"},"type":"Feature","geometry":{"type":"Point","coordinates":[-76.273704,38.74955]}},{"properties":{"city":"Bloomington","geo_score":0.571,"rank":"67","id":"agpm6l75mmeg","geo_precision":"city","state":"IL"},"type":"Feature","geometry":{"type":"Point","coordinates":[-89.033689,40.480592]}},{"properties":{"city":"FL","geo_score":0.571,"rank":"68 Gainesville","id":"agpm6lbof8yc","geo_precision":"city","state":null},"type":"Feature","geometry":{"type":"Point","coordinates":[-88.167861,42.326133]}},{"properties":{"city":"Duluth","geo_score":0.571,"rank":"69","id":"agpm6l8gyd1d","geo_precision":"city","state":"MN-WI"},"type":"Feature","geometry":{"type":"Point","coordinates":[-84.168264,37.579528]}},{"properties":{"city":"Michigan City-La Porte","geo_score":0.571,"rank":"70","id":"agpm6lhovccz","geo_precision":"city","state":"IN"},"type":"Feature","geometry":{"type":"Point","coordinates":[-88.910896,39.064766]}},{"properties":{"city":"South Bend-Mishawaka","geo_score":0.571,"rank":"71","id":"agpm6l5qpl9v","geo_precision":"city","state":"IN-MI"},"type":"Feature","geometry":{"type":"Point","coordinates":[-96.246207,41.006712]}},{"properties":{"city":"Des Moines-West Des Moines","geo_score":0.571,"rank":"72","id":"agpm6ljfjyop","geo_precision":"city","state":"IA"},"type":"Feature","geometry":{"type":"Point","coordinates":[-85.348569,34.930632]}},{"properties":{"city":"Omaha-Council Bluffs","geo_score":0.571,"rank":"73","id":"agpm6lbf0dn7","geo_precision":"city","state":"NE-IA"},"type":"Feature","geometry":{"type":"Point","coordinates":[-86.251101,39.568936]}},{"properties":{"city":"Oxford","geo_score":0.571,"rank":"74","id":"agpm6lhsj496","geo_precision":"city","state":"MS"},"type":"Feature","geometry":{"type":"Point","coordinates":[-89.966028,40.100737]}},{"properties":{"city":"Altoona","geo_score":0.571,"rank":"75","id":"agpm6ljvw4qu","geo_precision":"city","state":"PA"},"type":"Feature","geometry":{"type":"Point","coordinates":[-80.213968,38.81927]}},{"properties":{"city":"Wooster","geo_score":0.571,"rank":"76","id":"agpm6lkhhajh","geo_precision":"city","state":"OH"},"type":"Feature","geometry":{"type":"Point","coordinates":[-77.898038,35.96321]}},{"properties":{"city":"Bismarck","geo_score":0.571,"rank":"77","id":"agpm6lgeg1lp","geo_precision":"city","state":"ND"},"type":"Feature","geometry":{"type":"Point","coordinates":[-90.59839,37.753919]}},{"properties":{"city":"Grand Forks","geo_score":0.571,"rank":"78","id":"agpm6lkmvmkp","geo_precision":"city","state":"ND-MN"},"type":"Feature","geometry":{"type":"Point","coordinates":[-116.510261,43.300562]}},{"properties":{"city":"Grand Rapids-Wyoming","geo_score":0.571,"rank":"79","id":"agpm6lgj31op","geo_precision":"city","state":"MI"},"type":"Feature","geometry":{"type":"Point","coordinates":[-84.164088,36.130079]}},{"properties":{"city":"Albany-Schenectady-Troy","geo_score":0.571,"rank":"80","id":"agpm6lkyknrn","geo_precision":"city","state":"NY"},"type":"Feature","geometry":{"type":"Point","coordinates":[-94.07359,45.176909]}},{"properties":{"city":"Binghamton","geo_score":0.0,"rank":"81","id":"agpm6l9c3oy7","geo_precision":"unmatched","state":"NY"},"type":"Feature","geometry":null},{"properties":{"city":"Harrisburg-Carlisle","geo_score":0.571,"rank":"82","id":"agpm6lddbteq","geo_precision":"city","state":"PA"},"type":"Feature","geometry":{"type":"Point","coordinates":[-85.179965,39.686714]}},{"properties":{"city":"Wisconsin Rapids-Marshfield","geo_score":0.571,"rank":"83","id":"agpm6lcqvw5o","geo_precision":"city","state":"WI"},"type":"Feature","geometry":{"type":"Point","coordinates":[-89.918546,44.379694]}},{"properties":{"city":"Ogdensburg-Massena","geo_score":0.571,"rank":"84","id":"agpm6l72yz4q","geo_precision":"city","state":"NY"},"type":"Feature","geometry":{"type":"Point","coordinates":[-88.993214,44.426783]}},{"properties":{"city":"Kansas City","geo_score":0.571,"rank":"85","id":"agpm6lcbyqa1","geo_precision":"city","state":"MO-KS"},"type":"Feature","geometry":{"type":"Point","coordinates":[-84.93687,31.593502]}},{"properties":{"city":"San Luis Obispo-Paso Robles-Arroyo Grande","geo_score":0.571,"rank":"86","id":"agpm6ljg2p1b","geo_precision":"city","state":"CA"},"type":"Feature","geometry":{"type":"Point","coordinates":[-87.418704,44.704999]}},{"properties":{"city":"Torrington","geo_score":0.571,"rank":"87","id":"agpm6l6ch5az","geo_precision":"city","state":"CT"},"type":"Feature","geometry":{"type":"Point","coordinates":[-120.277139,38.301305]}},{"properties":{"city":"Trenton","geo_score":0.571,"rank":"88","id":"agpm6lc416j3","geo_precision":"city","state":"NJ"},"type":"Feature","geometry":{"type":"Point","coordinates":[-85.50208,34.871687]}},{"properties":{"city":"Rochester","geo_score":0.571,"rank":"89","id":"agpm6l54nxno","geo_precision":"city","state":"NY"},"type":"Feature","geometry":{"type":"Point","coordinates":[-84.096878,39.356727]}},{"properties":{"city":"Seattle","geo_score":0.571,"rank":"90","id":"agpm6l9jrua4","geo_precision":"city","state":"WA"},"type":"Feature","geometry":{"type":"Point","coordinates":[-95.456087,38.971112]}},{"properties":{"city":"Oneonta","geo_score":0.571,"rank":"91","id":"agpm6livd74y","geo_precision":"city","state":"NY"},"type":"Feature","geometry":{"type":"Point","coordinates":[-84.301604,38.975064]}},{"properties":{"city":"Eau Claire","geo_score":0.571,"rank":"92","id":"agpm6ldhy51p","geo_precision":"city","state":"WI"},"type":"Feature","geometry":{"type":"Point","coordinates":[-93.604622,31.325461]}},{"properties":{"city":"Warsaw","geo_score":0.571,"rank":"93","id":"agpm6l5z602t","geo_precision":"city","state":"IN"},"type":"Feature","geometry":{"type":"Point","coordinates":[-89.686195,34.83093]}},{"properties":{"city":"Norwich-New London","geo_score":0.571,"rank":"94","id":"agpm6lgujrrm","geo_precision":"city","state":"CT"},"type":"Feature","geometry":{"type":"Point","coordinates":[-86.050237,32.273198]}},{"properties":{"city":"Eugene","geo_score":0.571,"rank":"95","id":"agpm6lkgxcik","geo_precision":"city","state":"OR"},"type":"Feature","geometry":{"type":"Point","coordinates":[-111.837468,43.936578]}},{"properties":{"city":"Topeka","geo_score":0.571,"rank":"96","id":"agpm6l91oc71","geo_precision":"city","state":"KS"},"type":"Feature","geometry":{"type":"Point","coordinates":[-89.885895,40.344336]}},{"properties":{"city":"Allentown-Bethlehem-Easton","geo_score":0.571,"rank":"97","id":"agpm6l7tlj3j","geo_precision":"city","state":"PA-NJ"},"type":"Feature","geometry":{"type":"Point","coordinates":[-85.4577,30.031592]}},{"properties":{"city":"Mankato-North Mankato","geo_score":0.571,"rank":"98","id":"agpm6l6dd4jz","geo_precision":"city","state":"MN"},"type":"Feature","geometry":{"type":"Point","coordinates":[-73.124289,44.254499]}},{"properties":{"city":"Helena","geo_score":0.571,"rank":"99","id":"agpm6lacyt7o","geo_precision":"city","state":"MT"},"type":"Feature","geometry":{"type":"Point","coordinates":[-91.39345,31.871272]}},{"properties":{"city":"Cincinnati","geo_score":0.571,"rank":"100","id":"agpm6l822wss","geo_precision":"city","state":"OH-KY-IN"},"type":"Feature","geometry":{"type":"Point","coordinates":[-75.955301,42.565932]}}],"is_temporal":false,"author":{"url":"http://www.policymic.com/articles/52995/you-ll-never-guess-what-the-smartest-city-in-america-is","metadata":"","contact_name":"","contact_address":"","source":"","contact_phone":""},"source":"http://www.policymic.com/articles/52995/you-ll-never-guess-what-the-smartest-city-in-america-is","pagination":{"sort":null,"start":0,"total":100,"limit":1000000},"state":"complete","tags":"","published":"2014-08-16T23:47:17-04:00","id":389171}