{"type":"FeatureCollection","data_type":"Dataset","url_type":null,"permissions":[{"permissions":{"download":true,"view":true},"group_id":"everyone"}],"classification":null,"title":"EDA","count":75,"stream_id":389114,"contributor":{"url":"http://geocommons.com/users/80591","name":"abjackson"},"data_attributes":null,"calculation_params":null,"icon_link":null,"link":"http://geocommons.com/overlays/389114.json","extent":[-123.005,30.1819,-70.8676,48.2994],"geometry_types":["point"],"unique_name":null,"name":"EDA","feature_count":75,"description":"","next_feature":null,"is_raster":false,"short_classification":"Y","stats":{},"features":[{"properties":{"city":"SCHENECTADY","zip":"12303","type":"EDA","geo_score":0.857,"id":"agpae8i6npuj","geo_precision":"zip","state":"NY"},"type":"Feature","geometry":{"type":"Point","coordinates":[-73.970958,42.787021]}},{"properties":{"city":"ALBUQUERQUE","zip":"87105","type":"EDA","geo_score":0.857,"id":"agpae8qw8ysh","geo_precision":"zip","state":"NM"},"type":"Feature","geometry":{"type":"Point","coordinates":[-106.696692,34.986438]}},{"properties":{"city":"GREENVILLE","zip":"54942","type":"EDA","geo_score":0.857,"id":"agpae8s682gx","geo_precision":"zip","state":"WI"},"type":"Feature","geometry":{"type":"Point","coordinates":[-88.446497,44.202208]}},{"properties":{"city":"AUSTIN","zip":"78753","type":"EDA","geo_score":0.857,"id":"agpae8t80gts","geo_precision":"zip","state":"TX"},"type":"Feature","geometry":{"type":"Point","coordinates":[-97.676445,30.378554]}},{"properties":{"city":"BAKERSFIELD","zip":"93313","type":"EDA","geo_score":0.857,"id":"agpae8it8tre","geo_precision":"zip","state":"CA"},"type":"Feature","geometry":{"type":"Point","coordinates":[-119.013543,35.27581]}},{"properties":{"city":"BUFFALO","zip":"14225","type":"EDA","geo_score":0.857,"id":"agpae8k8gfzw","geo_precision":"zip","state":"NY"},"type":"Feature","geometry":{"type":"Point","coordinates":[-78.784199,42.94478]}},{"properties":{"city":"BILLINGS","zip":"59101","type":"EDA","geo_score":0.857,"id":"agpae8jn19zt","geo_precision":"zip","state":"MT"},"type":"Feature","geometry":{"type":"Point","coordinates":[-108.387392,45.686966]}},{"properties":{"city":"BISMARCK","zip":"58501","type":"EDA","geo_score":0.857,"id":"agpae8qu8drh","geo_precision":"zip","state":"ND"},"type":"Feature","geometry":{"type":"Point","coordinates":[-100.502724,46.981207]}},{"properties":{"city":"BOISE","zip":"83705","type":"EDA","geo_score":0.857,"id":"agpae8os9gqw","geo_precision":"zip","state":"ID"},"type":"Feature","geometry":{"type":"Point","coordinates":[-116.223203,43.565639]}},{"properties":{"city":"CASPER","zip":"82601","type":"EDA","geo_score":0.857,"id":"agpae8k158kf","geo_precision":"zip","state":"WY"},"type":"Feature","geometry":{"type":"Point","coordinates":[-106.342805,42.898577]}},{"properties":{"city":"COLUMBUS","zip":"43215","type":"EDA","geo_score":0.857,"id":"agpae8j2vup1","geo_precision":"zip","state":"OH"},"type":"Feature","geometry":{"type":"Point","coordinates":[-82.877131,39.891745]}},{"properties":{"city":"HANAHAN","zip":"29410","type":"EDA","geo_score":0.857,"id":"agpae8n6w5ds","geo_precision":"zip","state":"SC"},"type":"Feature","geometry":{"type":"Point","coordinates":[-80.022032,32.918507]}},{"properties":{"city":"TRENTON","zip":"30752","type":"EDA","geo_score":0.857,"id":"agpae8tdu9bt","geo_precision":"zip","state":"GA"},"type":"Feature","geometry":{"type":"Point","coordinates":[-85.50208,34.871687]}},{"properties":{"city":"CINCINNATI","zip":"45241","type":"EDA","geo_score":0.857,"id":"agpae8ihrro1","geo_precision":"zip","state":"OH"},"type":"Feature","geometry":{"type":"Point","coordinates":[-84.408275,39.30228]}},{"properties":{"city":"CONOVER","zip":"28613","type":"EDA","geo_score":0.857,"id":"agpae8lmxdkw","geo_precision":"zip","state":"NC"},"type":"Feature","geometry":{"type":"Point","coordinates":[-81.209458,35.740848]}},{"properties":{"city":"STRONGSVILLE","zip":"44149","type":"EDA","geo_score":0.857,"id":"agpae8kf1umm","geo_precision":"zip","state":"OH"},"type":"Feature","geometry":{"type":"Point","coordinates":[-81.856087,41.312349]}},{"properties":{"city":"WEST DES MOINES","zip":"50265","type":"EDA","geo_score":0.857,"id":"agpae8kkdynu","geo_precision":"zip","state":"IA"},"type":"Feature","geometry":{"type":"Point","coordinates":[-93.764667,41.538879]}},{"properties":{"city":"COTTAGE GROVE","zip":"97424","type":"EDA","geo_score":0.857,"id":"agpae8tcz539","geo_precision":"zip","state":"OR"},"type":"Feature","geometry":{"type":"Point","coordinates":[-123.005355,43.776234]}},{"properties":{"city":"EL PASO","zip":"79936","type":"EDA","geo_score":0.857,"id":"agpae8vbaw9q","geo_precision":"zip","state":"TX"},"type":"Feature","geometry":{"type":"Point","coordinates":[-106.243004,31.711209]}},{"properties":{"city":"FRESNO","zip":"93727","type":"EDA","geo_score":0.857,"id":"agpae8hegba1","geo_precision":"zip","state":"CA"},"type":"Feature","geometry":{"type":"Point","coordinates":[-119.700696,36.787728]}},{"properties":{"city":"GARDNER","zip":"01440","type":"EDA","geo_score":0.857,"id":"agpae8mf1rff","geo_precision":"zip","state":"MA"},"type":"Feature","geometry":{"type":"Point","coordinates":[-71.978688,42.558422]}},{"properties":{"city":"GRAND FORKS","zip":"58201","type":"EDA","geo_score":0.857,"id":"agpae8p7feub","geo_precision":"zip","state":"ND"},"type":"Feature","geometry":{"type":"Point","coordinates":[-97.431501,47.9041]}},{"properties":{"city":"GRAND ISLAND","zip":"68801","type":"EDA","geo_score":0.857,"id":"agpae8i54ke2","geo_precision":"zip","state":"NE"},"type":"Feature","geometry":{"type":"Point","coordinates":[-98.347562,40.90279]}},{"properties":{"city":"GRAND JUNCTION","zip":"81505","type":"EDA","geo_score":0.857,"id":"agpae8mytx2e","geo_precision":"zip","state":"CO"},"type":"Feature","geometry":{"type":"Point","coordinates":[-108.608151,39.120814]}},{"properties":{"city":"GREENLAND","zip":"03840","type":"EDA","geo_score":0.857,"id":"agpae8pxn8uq","geo_precision":"zip","state":"NH"},"type":"Feature","geometry":{"type":"Point","coordinates":[-70.867556,43.051477]}},{"properties":{"city":"BIRMINGHAM","zip":"35209","type":"EDA","geo_score":0.857,"id":"agpae8n5810n","geo_precision":"zip","state":"AL"},"type":"Feature","geometry":{"type":"Point","coordinates":[-86.800823,33.471773]}},{"properties":{"city":"HARRISBURG","zip":"17104","type":"EDA","geo_score":0.857,"id":"agpae8ookhiy","geo_precision":"zip","state":"PA"},"type":"Feature","geometry":{"type":"Point","coordinates":[-76.857944,40.253639]}},{"properties":{"city":"WEST HAZLETON","zip":"18202","type":"EDA","geo_score":0.857,"id":"agpae8mchvz8","geo_precision":"zip","state":"PA"},"type":"Feature","geometry":{"type":"Point","coordinates":[-76.013856,40.970058]}},{"properties":{"city":"IDAHO FALLS","zip":"83401","type":"EDA","geo_score":0.857,"id":"agpae8u5iqbt","geo_precision":"zip","state":"ID"},"type":"Feature","geometry":{"type":"Point","coordinates":[-111.966636,43.469637]}},{"properties":{"city":"INDIANAPOLIS","zip":"46218","type":"EDA","geo_score":0.857,"id":"agpae8pl5yw8","geo_precision":"zip","state":"IN"},"type":"Feature","geometry":{"type":"Point","coordinates":[-86.100535,39.806991]}},{"properties":{"city":"JACKSONVILLE","zip":"32254","type":"EDA","geo_score":0.857,"id":"agpae8vjeojh","geo_precision":"zip","state":"FL"},"type":"Feature","geometry":{"type":"Point","coordinates":[-81.674018,30.357888]}},{"properties":{"city":"LA GRANDE","zip":"97850","type":"EDA","geo_score":0.857,"id":"agpae8ujr8nn","geo_precision":"zip","state":"OR"},"type":"Feature","geometry":{"type":"Point","coordinates":[-118.044662,45.340967]}},{"properties":{"city":"LITTLE ROCK","zip":"72204","type":"EDA","geo_score":0.857,"id":"agpae8j5x1ji","geo_precision":"zip","state":"AR"},"type":"Feature","geometry":{"type":"Point","coordinates":[-92.297304,34.711026]}},{"properties":{"city":"LUBBOCK","zip":"79404","type":"EDA","geo_score":0.857,"id":"agpae8mbmd3x","geo_precision":"zip","state":"TX"},"type":"Feature","geometry":{"type":"Point","coordinates":[-101.821415,33.562452]}},{"properties":{"city":"LOUISVILLE","zip":"40258","type":"EDA","geo_score":0.857,"id":"agpae8n7y2sq","geo_precision":"zip","state":"KY"},"type":"Feature","geometry":{"type":"Point","coordinates":[-85.840796,38.123959]}},{"properties":{"city":"N LAS VEGAS","zip":"89030","type":"EDA","geo_score":0.857,"id":"agpae8j9j6hb","geo_precision":"zip","state":"NV"},"type":"Feature","geometry":{"type":"Point","coordinates":[-115.15431,36.225271]}},{"properties":{"city":"MANCHESTER","zip":"06042","type":"EDA","geo_score":0.714,"id":"agpae8ibsd9b","geo_precision":"city","state":"CT"},"type":"Feature","geometry":{"type":"Point","coordinates":[-72.523748,41.776048]}},{"properties":{"city":"SAN ANGELO","zip":"76901","type":"EDA","geo_score":0.857,"id":"agpae8qfrl18","geo_precision":"zip","state":"TX"},"type":"Feature","geometry":{"type":"Point","coordinates":[-100.767047,31.44377]}},{"properties":{"city":"MISSOULA","zip":"59808","type":"EDA","geo_score":0.857,"id":"agpae8mv8p7o","geo_precision":"zip","state":"MT"},"type":"Feature","geometry":{"type":"Point","coordinates":[-114.061856,46.977603]}},{"properties":{"city":"PEORIA","zip":"61602","type":"EDA","geo_score":0.857,"id":"agpae8n7dwlw","geo_precision":"zip","state":"IL"},"type":"Feature","geometry":{"type":"Point","coordinates":[-89.604898,40.683283]}},{"properties":{"city":"MINOT","zip":"58703","type":"EDA","geo_score":0.857,"id":"agpae8irvzdj","geo_precision":"zip","state":"ND"},"type":"Feature","geometry":{"type":"Point","coordinates":[-101.606,48.299433]}},{"properties":{"city":"MEMPHIS","zip":"38118","type":"EDA","geo_score":0.857,"id":"agpae8hq2phq","geo_precision":"zip","state":"TN"},"type":"Feature","geometry":{"type":"Point","coordinates":[-89.930187,35.037585]}},{"properties":{"city":"ST FRANCIS","zip":"53235","type":"EDA","geo_score":0.857,"id":"agpae8og6bv1","geo_precision":"zip","state":"WI"},"type":"Feature","geometry":{"type":"Point","coordinates":[-87.873732,42.969865]}},{"properties":{"city":"NASHVILLE","zip":"37217","type":"EDA","geo_score":0.857,"id":"agpae8v8s6x5","geo_precision":"zip","state":"TN"},"type":"Feature","geometry":{"type":"Point","coordinates":[-86.662914,36.107372]}},{"properties":{"city":"SPARKS","zip":"89431","type":"EDA","geo_score":0.857,"id":"agpae8iw65xy","geo_precision":"zip","state":"NV"},"type":"Feature","geometry":{"type":"Point","coordinates":[-119.640601,40.039169]}},{"properties":{"city":"OLYPHANT","zip":"18447","type":"EDA","geo_score":0.857,"id":"agpae8tgmqbh","geo_precision":"zip","state":"PA"},"type":"Feature","geometry":{"type":"Point","coordinates":[-75.594632,41.480914]}},{"properties":{"city":"OMAHA","zip":"68106","type":"EDA","geo_score":0.857,"id":"agpae8hmhr54","geo_precision":"zip","state":"NE"},"type":"Feature","geometry":{"type":"Point","coordinates":[-95.999367,41.239005]}},{"properties":{"city":"NORMAL","zip":"61761","type":"EDA","geo_score":0.857,"id":"agpae8kv9pwd","geo_precision":"zip","state":"IL"},"type":"Feature","geometry":{"type":"Point","coordinates":[-88.7989,40.530375]}},{"properties":{"city":"PIERRE","zip":"57501","type":"EDA","geo_score":0.857,"id":"agpae8gydu0m","geo_precision":"zip","state":"SD"},"type":"Feature","geometry":{"type":"Point","coordinates":[-100.032068,44.396372]}},{"properties":{"city":"SEWICKLEY","zip":"15143","type":"EDA","geo_score":0.857,"id":"agpae8qv6ve0","geo_precision":"zip","state":"PA"},"type":"Feature","geometry":{"type":"Point","coordinates":[-80.158947,40.526457]}},{"properties":{"city":"PITTSBURGH","zip":"15205","type":"EDA","geo_score":0.857,"id":"agpae8tqyqnh","geo_precision":"zip","state":"PA"},"type":"Feature","geometry":{"type":"Point","coordinates":[-80.082278,40.434513]}},{"properties":{"city":"PENSACOLA","zip":"32534","type":"EDA","geo_score":0.857,"id":"agpae8syqgfp","geo_precision":"zip","state":"FL"},"type":"Feature","geometry":{"type":"Point","coordinates":[-87.292335,30.534235]}},{"properties":{"city":"PENSACOLA","zip":"32514","type":"EDA","geo_score":0.857,"id":"agpae8ulh4vr","geo_precision":"zip","state":"FL"},"type":"Feature","geometry":{"type":"Point","coordinates":[-87.212471,30.510196]}},{"properties":{"city":"RALEIGH","zip":"27615","type":"EDA","geo_score":0.857,"id":"agpae8oyg6fw","geo_precision":"zip","state":"NC"},"type":"Feature","geometry":{"type":"Point","coordinates":[-78.627455,35.918893]}},{"properties":{"city":"RAPID CITY","zip":"57701","type":"EDA","geo_score":0.857,"id":"agpae8q8ytsj","geo_precision":"zip","state":"SD"},"type":"Feature","geometry":{"type":"Point","coordinates":[-102.913505,44.876656]}},{"properties":{"city":"SANDSTON","zip":"23150","type":"EDA","geo_score":0.857,"id":"agpae8p5fn81","geo_precision":"zip","state":"VA"},"type":"Feature","geometry":{"type":"Point","coordinates":[-77.302756,37.520424]}},{"properties":{"city":"RICHMOND","zip":"40475","type":"EDA","geo_score":0.857,"id":"agpae8qtrmnx","geo_precision":"zip","state":"KY"},"type":"Feature","geometry":{"type":"Point","coordinates":[-84.182707,37.741747]}},{"properties":{"city":"ROANOKE","zip":"24012","type":"EDA","geo_score":0.857,"id":"agpae8tv49qc","geo_precision":"zip","state":"VA"},"type":"Feature","geometry":{"type":"Point","coordinates":[-79.865871,37.32597]}},{"properties":{"city":"ROCHESTER","zip":"14624","type":"EDA","geo_score":0.857,"id":"agpae8ighvxh","geo_precision":"zip","state":"NY"},"type":"Feature","geometry":{"type":"Point","coordinates":[-77.731127,43.121612]}},{"properties":{"city":"MCCLELLAN","zip":"95652","type":"EDA","geo_score":0.857,"id":"agpae8j6ffw2","geo_precision":"zip","state":"CA"},"type":"Feature","geometry":{"type":"Point","coordinates":[-121.389613,38.666653]}},{"properties":{"city":"SARTELL","zip":"56377","type":"EDA","geo_score":0.857,"id":"agpae8v3snx9","geo_precision":"zip","state":"MN"},"type":"Feature","geometry":{"type":"Point","coordinates":[-94.355049,45.573808]}},{"properties":{"city":"SAN DIEGO","zip":"92121","type":"EDA","geo_score":0.857,"id":"agpae8ieacy5","geo_precision":"zip","state":"CA"},"type":"Feature","geometry":{"type":"Point","coordinates":[-117.207828,32.90391]}},{"properties":{"city":"SIOUX FALLS","zip":"57104","type":"EDA","geo_score":0.857,"id":"agpae8uqbs8z","geo_precision":"zip","state":"SD"},"type":"Feature","geometry":{"type":"Point","coordinates":[-96.685294,43.589218]}},{"properties":{"city":"SHREVEPORT","zip":"71107","type":"EDA","geo_score":0.857,"id":"agpae8qgnf52","geo_precision":"zip","state":"LA"},"type":"Feature","geometry":{"type":"Point","coordinates":[-93.79768,32.648203]}},{"properties":{"city":"SPOKANE","zip":"99216","type":"EDA","geo_score":0.857,"id":"agpae8s4y70q","geo_precision":"zip","state":"WA"},"type":"Feature","geometry":{"type":"Point","coordinates":[-117.19926,47.671164]}},{"properties":{"city":"SUPERIOR","zip":"54880","type":"EDA","geo_score":0.857,"id":"agpae8nwdlnx","geo_precision":"zip","state":"WI"},"type":"Feature","geometry":{"type":"Point","coordinates":[-92.124358,46.718274]}},{"properties":{"city":"SPRINGFIELD","zip":"65803","type":"EDA","geo_score":0.857,"id":"agpae8pgd5uk","geo_precision":"zip","state":"MO"},"type":"Feature","geometry":{"type":"Point","coordinates":[-93.247965,37.26588]}},{"properties":{"city":"SYRACUSE","zip":"13209","type":"EDA","geo_score":0.857,"id":"agpae8w15u3m","geo_precision":"zip","state":"NY"},"type":"Feature","geometry":{"type":"Point","coordinates":[-76.207426,43.058122]}},{"properties":{"city":"E SYRACUSE","zip":"13057","type":"EDA","geo_score":0.857,"id":"agpae8kc7bsf","geo_precision":"zip","state":"NY"},"type":"Feature","geometry":{"type":"Point","coordinates":[-76.047426,43.096216]}},{"properties":{"city":"TALLAHASSEE","zip":"32304","type":"EDA","geo_score":0.857,"id":"agpae8ukyhqz","geo_precision":"zip","state":"FL"},"type":"Feature","geometry":{"type":"Point","coordinates":[-84.656852,30.181867]}},{"properties":{"city":"OLD HICKORY","zip":"37138","type":"EDA","geo_score":0.857,"id":"agpae8tzv07i","geo_precision":"zip","state":"TN"},"type":"Feature","geometry":{"type":"Point","coordinates":[-86.633545,36.137706]}},{"properties":{"city":"EAGAN","zip":"55121","type":"EDA","geo_score":0.857,"id":"agpae8i7b326","geo_precision":"zip","state":"MN"},"type":"Feature","geometry":{"type":"Point","coordinates":[-93.220499,44.822187]}},{"properties":{"city":"TYLER","zip":"75707","type":"EDA","geo_score":0.857,"id":"agpae8gulweq","geo_precision":"zip","state":"TX"},"type":"Feature","geometry":{"type":"Point","coordinates":[-95.1511,32.286869]}},{"properties":{"city":"WICHITA","zip":"67207","type":"EDA","geo_score":0.857,"id":"agpae8hltkii","geo_precision":"zip","state":"KS"},"type":"Feature","geometry":{"type":"Point","coordinates":[-97.20532,37.653349]}},{"properties":{"city":"WASHINGTON","zip":"84780","type":"EDA","geo_score":0.857,"id":"agpae8q790mh","geo_precision":"zip","state":"UT"},"type":"Feature","geometry":{"type":"Point","coordinates":[-113.583816,37.322604]}}],"is_temporal":false,"author":{"url":"","metadata":null,"contact_name":null,"contact_address":null,"source":null,"contact_phone":null},"source":"","pagination":{"sort":null,"start":0,"total":75,"limit":1000000},"state":"complete","tags":"","published":"2014-08-16T23:43:34-04:00","id":389114}