{"type":"FeatureCollection","data_type":"Dataset","url_type":null,"permissions":[{"permissions":{"download":true,"view":true},"group_id":"everyone"}],"classification":null,"title":"CT Cities","count":207,"stream_id":390079,"contributor":{"url":"http://geocommons.com/users/81070","name":"dsaabye@alm.com"},"data_attributes":null,"calculation_params":null,"icon_link":null,"link":"http://geocommons.com/overlays/390079.json","extent":[-73.6262,41.0349,-71.8087,42.009],"geometry_types":["point"],"unique_name":null,"name":"CT Cities","feature_count":207,"description":"","next_feature":null,"is_raster":false,"short_classification":"Y","stats":{"instances":{"max":7350,"variance":483898.931194597,"mean":254.36231884058,"stdev":695.628443347882,"min":1,"median":49},"page views":{"max":24333,"variance":4505372.72989072,"mean":694.371980676328,"stdev":2122.58633037404,"min":1,"median":119},"unique visitors":{"max":2728,"variance":80953.1873270484,"mean":124.425120772947,"stdev":284.522736045906,"min":1,"median":35}},"features":[{"properties":{"city":"hartford","instances":7350,"geo_score":0.714,"page views":24333,"id":"agspt27znsd3","unique visitors":2728,"geo_precision":"city","state":"Connecticut"},"type":"Feature","geometry":{"type":"Point","coordinates":[-72.677099,41.78007]}},{"properties":{"city":"west hartford","instances":3968,"geo_score":0.714,"page views":10714,"id":"agspt2fbu1e0","unique visitors":1785,"geo_precision":"city","state":"Connecticut"},"type":"Feature","geometry":{"type":"Point","coordinates":[-72.74204,41.762045]}},{"properties":{"city":"new haven","instances":2870,"geo_score":0.714,"page views":7380,"id":"agspt25m0jc2","unique visitors":1129,"geo_precision":"city","state":"Connecticut"},"type":"Feature","geometry":{"type":"Point","coordinates":[-72.927507,41.365709]}},{"properties":{"city":"meriden","instances":2466,"geo_score":0.714,"page views":7325,"id":"agspt2fxup0x","unique visitors":1039,"geo_precision":"city","state":"Connecticut"},"type":"Feature","geometry":{"type":"Point","coordinates":[-72.801901,41.536498]}},{"properties":{"city":"stamford","instances":2447,"geo_score":0.714,"page views":6778,"id":"agspt25wtv6w","unique visitors":1089,"geo_precision":"city","state":"Connecticut"},"type":"Feature","geometry":{"type":"Point","coordinates":[-73.536216,41.054082]}},{"properties":{"city":"bridgeport","instances":2015,"geo_score":0.714,"page views":5518,"id":"agspt22wqaca","unique visitors":659,"geo_precision":"city","state":"Connecticut"},"type":"Feature","geometry":{"type":"Point","coordinates":[-73.363661,41.308873]}},{"properties":{"city":"bloomfield","instances":1492,"geo_score":0.714,"page views":4519,"id":"agspt2blgt9y","unique visitors":672,"geo_precision":"city","state":"Connecticut"},"type":"Feature","geometry":{"type":"Point","coordinates":[-72.738939,41.851961]}},{"properties":{"city":"wallingford","instances":1404,"geo_score":0.714,"page views":3632,"id":"agspt2di5283","unique visitors":773,"geo_precision":"city","state":"Connecticut"},"type":"Feature","geometry":{"type":"Point","coordinates":[-72.81892,41.449868]}},{"properties":{"city":"new britain","instances":1153,"geo_score":0.714,"page views":3231,"id":"agspt25qfjcb","unique visitors":657,"geo_precision":"city","state":"Connecticut"},"type":"Feature","geometry":{"type":"Point","coordinates":[-72.778391,41.666049]}},{"properties":{"city":"manchester","instances":1149,"geo_score":0.714,"page views":2805,"id":"agspt2ezjck7","unique visitors":637,"geo_precision":"city","state":"Connecticut"},"type":"Feature","geometry":{"type":"Point","coordinates":[-72.523748,41.776048]}},{"properties":{"city":"milford","instances":952,"geo_score":0.714,"page views":2483,"id":"agspt2grle2z","unique visitors":456,"geo_precision":"city","state":"Connecticut"},"type":"Feature","geometry":{"type":"Point","coordinates":[-72.951273,41.343773]}},{"properties":{"city":"danbury","instances":870,"geo_score":0.714,"page views":2453,"id":"agspt29yri8m","unique visitors":394,"geo_precision":"city","state":"Connecticut"},"type":"Feature","geometry":{"type":"Point","coordinates":[-73.471416,41.376242]}},{"properties":{"city":"waterbury","instances":875,"geo_score":0.714,"page views":2418,"id":"agspt27z64hx","unique visitors":531,"geo_precision":"city","state":"Connecticut"},"type":"Feature","geometry":{"type":"Point","coordinates":[-72.927507,41.365709]}},{"properties":{"city":"middletown","instances":905,"geo_score":0.714,"page views":2411,"id":"agspt23g6h3m","unique visitors":511,"geo_precision":"city","state":"Connecticut"},"type":"Feature","geometry":{"type":"Point","coordinates":[-72.655357,41.550139]}},{"properties":{"city":"fairfield","instances":768,"geo_score":0.714,"page views":2334,"id":"agspt29rjpvq","unique visitors":410,"geo_precision":"city","state":"Connecticut"},"type":"Feature","geometry":{"type":"Point","coordinates":[-73.282408,41.175173]}},{"properties":{"city":"wethersfield","instances":823,"geo_score":0.714,"page views":2302,"id":"agspt2gv1ad5","unique visitors":543,"geo_precision":"city","state":"Connecticut"},"type":"Feature","geometry":{"type":"Point","coordinates":[-72.667887,41.698899]}},{"properties":{"city":"farmington","instances":689,"geo_score":0.714,"page views":1977,"id":"agspt2fof07u","unique visitors":265,"geo_precision":"city","state":"Connecticut"},"type":"Feature","geometry":{"type":"Point","coordinates":[-72.718832,41.791776]}},{"properties":{"city":"glastonbury","instances":856,"geo_score":0.714,"page views":1915,"id":"agspt2e1sz9w","unique visitors":338,"geo_precision":"city","state":"Connecticut"},"type":"Feature","geometry":{"type":"Point","coordinates":[-72.539332,41.703451]}},{"properties":{"city":"norwalk","instances":760,"geo_score":0.714,"page views":1885,"id":"agspt2301y0z","unique visitors":415,"geo_precision":"city","state":"Connecticut"},"type":"Feature","geometry":{"type":"Point","coordinates":[-73.442423,41.126146]}},{"properties":{"city":"hamden","instances":838,"geo_score":0.714,"page views":1874,"id":"agspt26jj9dy","unique visitors":432,"geo_precision":"city","state":"Connecticut"},"type":"Feature","geometry":{"type":"Point","coordinates":[-72.938747,41.372723]}},{"properties":{"city":"storrs mansfield","instances":630,"geo_score":0.714,"page views":1734,"id":"agspt2f9r92t","unique visitors":285,"geo_precision":"city","state":"Connecticut"},"type":"Feature","geometry":{"type":"Point","coordinates":[-72.26619,41.82732]}},{"properties":{"city":"westport","instances":646,"geo_score":0.714,"page views":1690,"id":"agspt2aiw1l5","unique visitors":303,"geo_precision":"city","state":"Connecticut"},"type":"Feature","geometry":{"type":"Point","coordinates":[-73.343261,41.144496]}},{"properties":{"city":"cheshire","instances":639,"geo_score":0.714,"page views":1629,"id":"agspt2cfuowk","unique visitors":325,"geo_precision":"city","state":"Connecticut"},"type":"Feature","geometry":{"type":"Point","coordinates":[-72.927507,41.365709]}},{"properties":{"city":"branford","instances":489,"geo_score":0.714,"page views":1597,"id":"agspt2bmy0fx","unique visitors":315,"geo_precision":"city","state":"Connecticut"},"type":"Feature","geometry":{"type":"Point","coordinates":[-72.815113,41.277376]}},{"properties":{"city":"shelton","instances":544,"geo_score":0.714,"page views":1539,"id":"agspt289vkpw","unique visitors":224,"geo_precision":"city","state":"Connecticut"},"type":"Feature","geometry":{"type":"Point","coordinates":[-73.137143,41.314347]}},{"properties":{"city":"newington","instances":388,"geo_score":0.714,"page views":1321,"id":"agspt26jg8pi","unique visitors":237,"geo_precision":"city","state":"Connecticut"},"type":"Feature","geometry":{"type":"Point","coordinates":[-72.729646,41.685985]}},{"properties":{"city":"new london","instances":460,"geo_score":0.714,"page views":1216,"id":"agspt25nlt03","unique visitors":179,"geo_precision":"city","state":"Connecticut"},"type":"Feature","geometry":{"type":"Point","coordinates":[-72.10907,41.413998]}},{"properties":{"city":"guilford","instances":454,"geo_score":0.714,"page views":1194,"id":"agspt2clxuro","unique visitors":224,"geo_precision":"city","state":"Connecticut"},"type":"Feature","geometry":{"type":"Point","coordinates":[-72.690089,41.338847]}},{"properties":{"city":"waterbury","instances":492,"geo_score":0.714,"page views":1121,"id":"agspt29ur8b2","unique visitors":221,"geo_precision":"city","state":"Connecticut"},"type":"Feature","geometry":{"type":"Point","coordinates":[-72.927507,41.365709]}},{"properties":{"city":"New Britain","instances":411,"geo_score":0.714,"page views":1090,"id":"agspt21i5d4p","unique visitors":235,"geo_precision":"city","state":"Connecticut"},"type":"Feature","geometry":{"type":"Point","coordinates":[-72.778391,41.666049]}},{"properties":{"city":"bristol","instances":341,"geo_score":0.714,"page views":1025,"id":"agspt2g7py8w","unique visitors":212,"geo_precision":"city","state":"Connecticut"},"type":"Feature","geometry":{"type":"Point","coordinates":[-72.939577,41.681198]}},{"properties":{"city":"seymour","instances":295,"geo_score":0.714,"page views":1020,"id":"agspt2fjqhjc","unique visitors":139,"geo_precision":"city","state":"Connecticut"},"type":"Feature","geometry":{"type":"Point","coordinates":[-73.102078,41.417646]}},{"properties":{"city":"windsor","instances":416,"geo_score":0.714,"page views":1019,"id":"agspt25v8hxe","unique visitors":209,"geo_precision":"city","state":"Connecticut"},"type":"Feature","geometry":{"type":"Point","coordinates":[-72.660245,41.933846]}},{"properties":{"city":"avon","instances":387,"geo_score":0.714,"page views":1011,"id":"agspt2a4bcm6","unique visitors":223,"geo_precision":"city","state":"Connecticut"},"type":"Feature","geometry":{"type":"Point","coordinates":[-72.728272,41.757944]}},{"properties":{"city":"greenwich","instances":335,"geo_score":0.714,"page views":894,"id":"agspt25r0xbv","unique visitors":173,"geo_precision":"city","state":"Connecticut"},"type":"Feature","geometry":{"type":"Point","coordinates":[-73.62617,41.042746]}},{"properties":{"city":"cornwall bridge","instances":336,"geo_score":0.714,"page views":835,"id":"agspt25oy7pe","unique visitors":217,"geo_precision":"city","state":"Connecticut"},"type":"Feature","geometry":{"type":"Point","coordinates":[-73.332345,41.828067]}},{"properties":{"city":"southington","instances":318,"geo_score":0.714,"page views":783,"id":"agspt291w6y1","unique visitors":215,"geo_precision":"city","state":"Connecticut"},"type":"Feature","geometry":{"type":"Point","coordinates":[-72.871945,41.604786]}},{"properties":{"city":"north haven","instances":296,"geo_score":0.714,"page views":759,"id":"agspt2afgxjg","unique visitors":198,"geo_precision":"city","state":"Connecticut"},"type":"Feature","geometry":{"type":"Point","coordinates":[-72.862644,41.384381]}},{"properties":{"city":"stratford","instances":308,"geo_score":0.714,"page views":722,"id":"agspt239r9vu","unique visitors":174,"geo_precision":"city","state":"Connecticut"},"type":"Feature","geometry":{"type":"Point","coordinates":[-73.130503,41.207146]}},{"properties":{"city":"torrington","instances":264,"geo_score":0.714,"page views":663,"id":"agspt28emf79","unique visitors":141,"geo_precision":"city","state":"Connecticut"},"type":"Feature","geometry":{"type":"Point","coordinates":[-73.126763,41.87484]}},{"properties":{"city":"norwich","instances":253,"geo_score":0.714,"page views":607,"id":"agspt29ot7aj","unique visitors":177,"geo_precision":"city","state":"Connecticut"},"type":"Feature","geometry":{"type":"Point","coordinates":[-71.994757,41.499398]}},{"properties":{"city":"orange","instances":227,"geo_score":0.714,"page views":596,"id":"agspt2b8vxev","unique visitors":96,"geo_precision":"city","state":"Connecticut"},"type":"Feature","geometry":{"type":"Point","coordinates":[-73.031018,41.279896]}},{"properties":{"city":"east hartford","instances":290,"geo_score":0.714,"page views":584,"id":"agspt2g3nwch","unique visitors":168,"geo_precision":"city","state":"Connecticut"},"type":"Feature","geometry":{"type":"Point","coordinates":[-72.677099,41.78007]}},{"properties":{"city":"berlin","instances":217,"geo_score":0.714,"page views":522,"id":"agspt2e4obdh","unique visitors":121,"geo_precision":"city","state":"Connecticut"},"type":"Feature","geometry":{"type":"Point","coordinates":[-72.745652,41.621488]}},{"properties":{"city":"west haven","instances":190,"geo_score":0.714,"page views":517,"id":"agspt22dbpuo","unique visitors":103,"geo_precision":"city","state":"Connecticut"},"type":"Feature","geometry":{"type":"Point","coordinates":[-72.940335,41.272452]}},{"properties":{"city":"south windsor","instances":182,"geo_score":0.714,"page views":492,"id":"agspt21wv6b9","unique visitors":93,"geo_precision":"city","state":"Connecticut"},"type":"Feature","geometry":{"type":"Point","coordinates":[-72.564632,41.834198]}},{"properties":{"city":"canton","instances":177,"geo_score":0.714,"page views":474,"id":"agspt2f7f456","unique visitors":86,"geo_precision":"city","state":"Connecticut"},"type":"Feature","geometry":{"type":"Point","coordinates":[-72.899645,41.842882]}},{"properties":{"city":"new milford","instances":199,"geo_score":0.714,"page views":460,"id":"agspt2bzk48w","unique visitors":108,"geo_precision":"city","state":"Connecticut"},"type":"Feature","geometry":{"type":"Point","coordinates":[-72.951273,41.343773]}},{"properties":{"city":"madison","instances":121,"geo_score":0.714,"page views":443,"id":"agspt2ezlvql","unique visitors":75,"geo_precision":"city","state":"Connecticut"},"type":"Feature","geometry":{"type":"Point","coordinates":[-72.788392,41.350397]}},{"properties":{"city":"prospect","instances":139,"geo_score":0.714,"page views":438,"id":"agspt25ixt86","unique visitors":66,"geo_precision":"city","state":"Connecticut"},"type":"Feature","geometry":{"type":"Point","coordinates":[-72.975694,41.499097]}},{"properties":{"city":"east haven","instances":183,"geo_score":0.714,"page views":437,"id":"agspt2c7oean","unique visitors":114,"geo_precision":"city","state":"Connecticut"},"type":"Feature","geometry":{"type":"Point","coordinates":[-72.865894,41.290997]}},{"properties":{"city":"simsbury","instances":217,"geo_score":0.714,"page views":430,"id":"agspt2hvi78i","unique visitors":96,"geo_precision":"city","state":"Connecticut"},"type":"Feature","geometry":{"type":"Point","coordinates":[-72.819742,41.868647]}},{"properties":{"city":"clinton","instances":189,"geo_score":0.714,"page views":427,"id":"agspt2d8x2pr","unique visitors":102,"geo_precision":"city","state":"Connecticut"},"type":"Feature","geometry":{"type":"Point","coordinates":[-72.532934,41.298201]}},{"properties":{"city":"watertown","instances":171,"geo_score":0.714,"page views":421,"id":"agspt2a54wtk","unique visitors":83,"geo_precision":"city","state":"Connecticut"},"type":"Feature","geometry":{"type":"Point","coordinates":[-73.162003,41.759427]}},{"properties":{"city":"groton","instances":169,"geo_score":0.714,"page views":405,"id":"agspt26y0abx","unique visitors":114,"geo_precision":"city","state":"Connecticut"},"type":"Feature","geometry":{"type":"Point","coordinates":[-72.038268,41.355405]}},{"properties":{"city":"ellington","instances":164,"geo_score":0.714,"page views":400,"id":"agspt21ovrbg","unique visitors":79,"geo_precision":"city","state":"Connecticut"},"type":"Feature","geometry":{"type":"Point","coordinates":[-72.411777,41.849319]}},{"properties":{"city":"trumbull","instances":207,"geo_score":0.714,"page views":399,"id":"agspt24en62t","unique visitors":137,"geo_precision":"city","state":"Connecticut"},"type":"Feature","geometry":{"type":"Point","coordinates":[-73.206957,41.259996]}},{"properties":{"city":"north branford","instances":147,"geo_score":0.714,"page views":394,"id":"agspt2arb7b3","unique visitors":65,"geo_precision":"city","state":"Connecticut"},"type":"Feature","geometry":{"type":"Point","coordinates":[-72.780892,41.332347]}},{"properties":{"city":"monroe","instances":176,"geo_score":0.714,"page views":390,"id":"agspt26qwvrk","unique visitors":99,"geo_precision":"city","state":"Connecticut"},"type":"Feature","geometry":{"type":"Point","coordinates":[-73.236918,41.341845]}},{"properties":{"city":"weatogue","instances":151,"geo_score":0.714,"page views":383,"id":"agspt25ytwm1","unique visitors":49,"geo_precision":"city","state":"Connecticut"},"type":"Feature","geometry":{"type":"Point","coordinates":[-72.704,41.889965]}},{"properties":{"city":"southport","instances":130,"geo_score":0.714,"page views":382,"id":"agspt2f7cjhc","unique visitors":75,"geo_precision":"city","state":"Connecticut"},"type":"Feature","geometry":{"type":"Point","coordinates":[-73.289859,41.143396]}},{"properties":{"city":"plainville","instances":157,"geo_score":0.714,"page views":377,"id":"agspt2ckhnt4","unique visitors":86,"geo_precision":"city","state":"Connecticut"},"type":"Feature","geometry":{"type":"Point","coordinates":[-72.859695,41.672983]}},{"properties":{"city":"woodbridge","instances":146,"geo_score":0.714,"page views":377,"id":"agspt26webbg","unique visitors":113,"geo_precision":"city","state":"Connecticut"},"type":"Feature","geometry":{"type":"Point","coordinates":[-73.013981,41.353296]}},{"properties":{"city":"southbury","instances":144,"geo_score":0.714,"page views":375,"id":"agspt28moeok","unique visitors":79,"geo_precision":"city","state":"Connecticut"},"type":"Feature","geometry":{"type":"Point","coordinates":[-73.240839,41.470921]}},{"properties":{"city":"tolland","instances":146,"geo_score":0.714,"page views":349,"id":"agspt27y801a","unique visitors":91,"geo_precision":"city","state":"Connecticut"},"type":"Feature","geometry":{"type":"Point","coordinates":[-72.361039,41.882553]}},{"properties":{"city":"newtown","instances":181,"geo_score":0.714,"page views":347,"id":"agspt2h91avt","unique visitors":108,"geo_precision":"city","state":"Connecticut"},"type":"Feature","geometry":{"type":"Point","coordinates":[-73.310561,41.396295]}},{"properties":{"city":"cromwell","instances":155,"geo_score":0.714,"page views":345,"id":"agspt2d8cxbj","unique visitors":93,"geo_precision":"city","state":"Connecticut"},"type":"Feature","geometry":{"type":"Point","coordinates":[-72.667807,41.608529]}},{"properties":{"city":"wilton","instances":161,"geo_score":0.714,"page views":335,"id":"agspt2ga5dxn","unique visitors":102,"geo_precision":"city","state":"Connecticut"},"type":"Feature","geometry":{"type":"Point","coordinates":[-73.439165,41.209695]}},{"properties":{"city":"new canaan","instances":151,"geo_score":0.714,"page views":335,"id":"agspt23sjzg1","unique visitors":107,"geo_precision":"city","state":"Connecticut"},"type":"Feature","geometry":{"type":"Point","coordinates":[-73.501267,41.162209]}},{"properties":{"city":"old saybrook","instances":104,"geo_score":0.714,"page views":296,"id":"agspt23o5v00","unique visitors":50,"geo_precision":"city","state":"Connecticut"},"type":"Feature","geometry":{"type":"Point","coordinates":[-72.389129,41.300448]}},{"properties":{"city":"enfield","instances":138,"geo_score":0.714,"page views":294,"id":"agspt2ercmzu","unique visitors":107,"geo_precision":"city","state":"Connecticut"},"type":"Feature","geometry":{"type":"Point","coordinates":[-72.557731,41.984646]}},{"properties":{"city":"brookfield","instances":127,"geo_score":0.714,"page views":281,"id":"agspt28nik3o","unique visitors":78,"geo_precision":"city","state":"Connecticut"},"type":"Feature","geometry":{"type":"Point","coordinates":[-73.38762,41.466206]}},{"properties":{"city":"darien","instances":147,"geo_score":0.714,"page views":276,"id":"agspt276u64u","unique visitors":87,"geo_precision":"city","state":"Connecticut"},"type":"Feature","geometry":{"type":"Point","coordinates":[-73.480765,41.075846]}},{"properties":{"city":"durham","instances":92,"geo_score":0.714,"page views":267,"id":"agspt2gwvr9z","unique visitors":43,"geo_precision":"city","state":"Connecticut"},"type":"Feature","geometry":{"type":"Point","coordinates":[-72.682297,41.462468]}},{"properties":{"city":"willimantic","instances":116,"geo_score":0.714,"page views":266,"id":"agspt21kqf5t","unique visitors":84,"geo_precision":"city","state":"Connecticut"},"type":"Feature","geometry":{"type":"Point","coordinates":[-72.091889,41.845504]}},{"properties":{"city":"colchester","instances":134,"geo_score":0.714,"page views":251,"id":"agspt25v0c5k","unique visitors":48,"geo_precision":"city","state":"Connecticut"},"type":"Feature","geometry":{"type":"Point","coordinates":[-72.338832,41.546443]}},{"properties":{"city":"south glastonbury","instances":78,"geo_score":0.714,"page views":244,"id":"agspt26146w9","unique visitors":52,"geo_precision":"city","state":"Connecticut"},"type":"Feature","geometry":{"type":"Point","coordinates":[-72.539332,41.703451]}},{"properties":{"city":"wolcott","instances":104,"geo_score":0.714,"page views":223,"id":"agspt25t83i0","unique visitors":78,"geo_precision":"city","state":"Connecticut"},"type":"Feature","geometry":{"type":"Point","coordinates":[-72.980578,41.598347]}},{"properties":{"city":"vernon rockville","instances":103,"geo_score":0.714,"page views":212,"id":"agspt2ahhmcf","unique visitors":59,"geo_precision":"city","state":"Connecticut"},"type":"Feature","geometry":{"type":"Point","coordinates":[-72.454917,41.8372]}},{"properties":{"city":"seymour","instances":84,"geo_score":0.714,"page views":206,"id":"agspt230hadv","unique visitors":53,"geo_precision":"city","state":"Connecticut"},"type":"Feature","geometry":{"type":"Point","coordinates":[-73.102078,41.417646]}},{"properties":{"city":"east hampton","instances":102,"geo_score":0.714,"page views":201,"id":"agspt258r56h","unique visitors":72,"geo_precision":"city","state":"Connecticut"},"type":"Feature","geometry":{"type":"Point","coordinates":[-71.808682,42.008987]}},{"properties":{"city":"old lyme","instances":99,"geo_score":0.714,"page views":201,"id":"agspt2cup2mo","unique visitors":54,"geo_precision":"city","state":"Connecticut"},"type":"Feature","geometry":{"type":"Point","coordinates":[-72.274803,41.290375]}},{"properties":{"city":"plantsville","instances":71,"geo_score":0.714,"page views":199,"id":"agspt25zifqi","unique visitors":52,"geo_precision":"city","state":"Connecticut"},"type":"Feature","geometry":{"type":"Point","coordinates":[-72.902496,41.577845]}},{"properties":{"city":"deep river","instances":71,"geo_score":0.714,"page views":191,"id":"agspt2d2rsxk","unique visitors":40,"geo_precision":"city","state":"Connecticut"},"type":"Feature","geometry":{"type":"Point","coordinates":[-72.452284,41.368124]}},{"properties":{"city":"litchfield","instances":79,"geo_score":0.714,"page views":163,"id":"agspt286ilrf","unique visitors":35,"geo_precision":"city","state":"Connecticut"},"type":"Feature","geometry":{"type":"Point","coordinates":[-73.229787,41.791598]}},{"properties":{"city":"weston","instances":81,"geo_score":0.714,"page views":153,"id":"agspt2d0txul","unique visitors":40,"geo_precision":"city","state":"Connecticut"},"type":"Feature","geometry":{"type":"Point","coordinates":[-73.376263,41.222945]}},{"properties":{"city":"ledyard","instances":76,"geo_score":0.714,"page views":153,"id":"agspt2c79cpr","unique visitors":55,"geo_precision":"city","state":"Connecticut"},"type":"Feature","geometry":{"type":"Point","coordinates":[-71.965554,41.492843]}},{"properties":{"city":"granby","instances":84,"geo_score":0.714,"page views":150,"id":"agspt2d0ny97","unique visitors":48,"geo_precision":"city","state":"Connecticut"},"type":"Feature","geometry":{"type":"Point","coordinates":[-72.796407,41.966062]}},{"properties":{"city":"ansonia","instances":76,"geo_score":0.714,"page views":150,"id":"agspt24uk0oo","unique visitors":70,"geo_precision":"city","state":"Connecticut"},"type":"Feature","geometry":{"type":"Point","coordinates":[-73.070301,41.342514]}},{"properties":{"city":"mystic","instances":65,"geo_score":0.714,"page views":148,"id":"agspt29nw76t","unique visitors":46,"geo_precision":"city","state":"Connecticut"},"type":"Feature","geometry":{"type":"Point","coordinates":[-72.000748,41.485188]}},{"properties":{"city":"portland","instances":63,"geo_score":0.714,"page views":146,"id":"agspt21uv08i","unique visitors":43,"geo_precision":"city","state":"Connecticut"},"type":"Feature","geometry":{"type":"Point","coordinates":[-72.601307,41.598339]}},{"properties":{"city":"bethany","instances":52,"geo_score":0.714,"page views":144,"id":"agspt2g78y01","unique visitors":38,"geo_precision":"city","state":"Connecticut"},"type":"Feature","geometry":{"type":"Point","coordinates":[-72.996191,41.428088]}},{"properties":{"city":"north stonington","instances":42,"geo_score":0.714,"page views":143,"id":"agspt21t8mn2","unique visitors":11,"geo_precision":"city","state":"Connecticut"},"type":"Feature","geometry":{"type":"Point","coordinates":[-71.880694,41.466851]}},{"properties":{"city":"killingworth","instances":66,"geo_score":0.714,"page views":135,"id":"agspt2dgx0ww","unique visitors":38,"geo_precision":"city","state":"Connecticut"},"type":"Feature","geometry":{"type":"Point","coordinates":[-72.493446,41.417962]}},{"properties":{"city":"derby","instances":64,"geo_score":0.714,"page views":134,"id":"agspt24r8jrp","unique visitors":41,"geo_precision":"city","state":"Connecticut"},"type":"Feature","geometry":{"type":"Point","coordinates":[-73.084252,41.327246]}},{"properties":{"city":"moodus","instances":24,"geo_score":0.714,"page views":131,"id":"agspt29juj34","unique visitors":7,"geo_precision":"city","state":"Connecticut"},"type":"Feature","geometry":{"type":"Point","coordinates":[-72.440086,41.508904]}},{"properties":{"city":"woodbury","instances":55,"geo_score":0.714,"page views":129,"id":"agspt2a3fa8i","unique visitors":48,"geo_precision":"city","state":"Connecticut"},"type":"Feature","geometry":{"type":"Point","coordinates":[-73.135499,41.733106]}},{"properties":{"city":"thompson","instances":72,"geo_score":0.714,"page views":126,"id":"agspt296amct","unique visitors":65,"geo_precision":"city","state":"Connecticut"},"type":"Feature","geometry":{"type":"Point","coordinates":[-71.862047,41.975796]}},{"properties":{"city":"gales ferry","instances":36,"geo_score":0.714,"page views":126,"id":"agspt2euuwma","unique visitors":18,"geo_precision":"city","state":"Connecticut"},"type":"Feature","geometry":{"type":"Point","coordinates":[-72.021165,41.523377]}},{"properties":{"city":"coventry","instances":66,"geo_score":0.714,"page views":124,"id":"agspt22sw0r2","unique visitors":44,"geo_precision":"city","state":"Connecticut"},"type":"Feature","geometry":{"type":"Point","coordinates":[-72.323642,41.778623]}},{"properties":{"city":"chester","instances":56,"geo_score":0.714,"page views":124,"id":"agspt2eg6c6c","unique visitors":27,"geo_precision":"city","state":"Connecticut"},"type":"Feature","geometry":{"type":"Point","coordinates":[-72.461805,41.39027]}},{"properties":{"city":"bethel","instances":49,"geo_score":0.714,"page views":123,"id":"agspt2grn69c","unique visitors":35,"geo_precision":"city","state":"Connecticut"},"type":"Feature","geometry":{"type":"Point","coordinates":[-73.39908,41.381244]}},{"properties":{"city":"burlington","instances":42,"geo_score":0.714,"page views":123,"id":"agspt284whf3","unique visitors":33,"geo_precision":"city","state":"Connecticut"},"type":"Feature","geometry":{"type":"Point","coordinates":[-72.95826,41.761773]}},{"properties":{"city":"ridgefield","instances":67,"geo_score":0.714,"page views":119,"id":"agspt2cfgrsh","unique visitors":49,"geo_precision":"city","state":"Connecticut"},"type":"Feature","geometry":{"type":"Point","coordinates":[-73.494637,41.308201]}},{"properties":{"city":"bolton","instances":46,"geo_score":0.714,"page views":117,"id":"agspt2gw1sid","unique visitors":42,"geo_precision":"city","state":"Connecticut"},"type":"Feature","geometry":{"type":"Point","coordinates":[-72.439278,41.768648]}},{"properties":{"city":"niantic","instances":59,"geo_score":0.714,"page views":115,"id":"agspt2aj4evh","unique visitors":42,"geo_precision":"city","state":"Connecticut"},"type":"Feature","geometry":{"type":"Point","coordinates":[-72.215623,41.323447]}},{"properties":{"city":"hebron","instances":58,"geo_score":0.714,"page views":115,"id":"agspt2dg0pwq","unique visitors":28,"geo_precision":"city","state":"Connecticut"},"type":"Feature","geometry":{"type":"Point","coordinates":[-72.398627,41.689249]}},{"properties":{"city":"windsor locks","instances":55,"geo_score":0.714,"page views":115,"id":"agspt292tytr","unique visitors":48,"geo_precision":"city","state":"Connecticut"},"type":"Feature","geometry":{"type":"Point","coordinates":[-72.660245,41.933846]}},{"properties":{"city":"stonington","instances":47,"geo_score":0.714,"page views":109,"id":"agspt2a8zyx0","unique visitors":27,"geo_precision":"city","state":"Connecticut"},"type":"Feature","geometry":{"type":"Point","coordinates":[-71.917915,41.378598]}},{"properties":{"city":"unionville","instances":43,"geo_score":0.714,"page views":109,"id":"agspt25pdj2o","unique visitors":20,"geo_precision":"city","state":"Connecticut"},"type":"Feature","geometry":{"type":"Point","coordinates":[-72.933467,41.860009]}},{"properties":{"city":"redding","instances":46,"geo_score":0.714,"page views":108,"id":"agspt2cgme4v","unique visitors":27,"geo_precision":"city","state":"Connecticut"},"type":"Feature","geometry":{"type":"Point","coordinates":[-73.383453,41.302596]}},{"properties":{"city":"centerbrook","instances":51,"geo_score":0.714,"page views":104,"id":"agspt26996qw","unique visitors":47,"geo_precision":"city","state":"Connecticut"},"type":"Feature","geometry":{"type":"Point","coordinates":[-72.41338,41.349098]}},{"properties":{"city":"winsted","instances":49,"geo_score":0.714,"page views":102,"id":"agspt2giy2er","unique visitors":42,"geo_precision":"city","state":"Connecticut"},"type":"Feature","geometry":{"type":"Point","coordinates":[-73.058157,41.925671]}},{"properties":{"city":"higganum","instances":29,"geo_score":0.714,"page views":99,"id":"agspt2hin0ps","unique visitors":17,"geo_precision":"city","state":"Connecticut"},"type":"Feature","geometry":{"type":"Point","coordinates":[-72.578971,41.462718]}},{"properties":{"city":"woodstock","instances":47,"geo_score":0.714,"page views":97,"id":"agspt2a1zyte","unique visitors":17,"geo_precision":"city","state":"Connecticut"},"type":"Feature","geometry":{"type":"Point","coordinates":[-72.057134,41.952846]}},{"properties":{"city":"middlefield","instances":33,"geo_score":0.714,"page views":94,"id":"agspt2h6c362","unique visitors":32,"geo_precision":"city","state":"Connecticut"},"type":"Feature","geometry":{"type":"Point","coordinates":[-72.712988,41.515346]}},{"properties":{"city":"middlebury","instances":37,"geo_score":0.714,"page views":93,"id":"agspt2cg31wp","unique visitors":34,"geo_precision":"city","state":"Connecticut"},"type":"Feature","geometry":{"type":"Point","coordinates":[-73.116458,41.528274]}},{"properties":{"city":"danielson","instances":35,"geo_score":0.714,"page views":90,"id":"agspt23e2f4m","unique visitors":28,"geo_precision":"city","state":"Connecticut"},"type":"Feature","geometry":{"type":"Point","coordinates":[-71.874354,41.864901]}},{"properties":{"city":"new hartford","instances":22,"geo_score":0.714,"page views":90,"id":"agspt23d1nat","unique visitors":15,"geo_precision":"city","state":"Connecticut"},"type":"Feature","geometry":{"type":"Point","coordinates":[-73.045918,41.883102]}},{"properties":{"city":"salem","instances":26,"geo_score":0.714,"page views":87,"id":"agspt2ea5u2o","unique visitors":18,"geo_precision":"city","state":"Connecticut"},"type":"Feature","geometry":{"type":"Point","coordinates":[-72.269141,41.527441]}},{"properties":{"city":"stafford springs","instances":33,"geo_score":0.714,"page views":85,"id":"agspt222sxn4","unique visitors":31,"geo_precision":"city","state":"Connecticut"},"type":"Feature","geometry":{"type":"Point","coordinates":[-72.908713,41.36343]}},{"properties":{"city":"mansfield center","instances":33,"geo_score":0.714,"page views":83,"id":"agspt287fz62","unique visitors":25,"geo_precision":"city","state":"Connecticut"},"type":"Feature","geometry":{"type":"Point","coordinates":[-72.26619,41.82732]}},{"properties":{"city":"suffield","instances":41,"geo_score":0.714,"page views":81,"id":"agspt23ubi9m","unique visitors":27,"geo_precision":"city","state":"Connecticut"},"type":"Feature","geometry":{"type":"Point","coordinates":[-72.658135,41.989646]}},{"properties":{"city":"new fairfield","instances":30,"geo_score":0.714,"page views":76,"id":"agspt231wag3","unique visitors":23,"geo_precision":"city","state":"Connecticut"},"type":"Feature","geometry":{"type":"Point","coordinates":[-73.491042,41.486689]}},{"properties":{"city":"cos cob","instances":32,"geo_score":0.714,"page views":72,"id":"agspt29n4n71","unique visitors":25,"geo_precision":"city","state":"Connecticut"},"type":"Feature","geometry":{"type":"Point","coordinates":[-73.587618,41.058646]}},{"properties":{"city":"east granby","instances":23,"geo_score":0.714,"page views":72,"id":"agspt2eoomuo","unique visitors":23,"geo_precision":"city","state":"Connecticut"},"type":"Feature","geometry":{"type":"Point","coordinates":[-73.30734,41.809262]}},{"properties":{"city":"jewett city","instances":13,"geo_score":0.714,"page views":72,"id":"agspt2hgc8i9","unique visitors":11,"geo_precision":"city","state":"Connecticut"},"type":"Feature","geometry":{"type":"Point","coordinates":[-71.982619,41.599562]}},{"properties":{"city":"stonington","instances":37,"geo_score":0.714,"page views":68,"id":"agspt29earty","unique visitors":29,"geo_precision":"city","state":"Connecticut"},"type":"Feature","geometry":{"type":"Point","coordinates":[-71.917915,41.378598]}},{"properties":{"city":"marlborough","instances":34,"geo_score":0.714,"page views":67,"id":"agspt244j6kc","unique visitors":30,"geo_precision":"city","state":"Connecticut"},"type":"Feature","geometry":{"type":"Point","coordinates":[-72.463179,41.636949]}},{"properties":{"city":"broad brook","instances":29,"geo_score":0.714,"page views":63,"id":"agspt24d97kz","unique visitors":24,"geo_precision":"city","state":"Connecticut"},"type":"Feature","geometry":{"type":"Point","coordinates":[-72.708388,41.842097]}},{"properties":{"city":"waterford","instances":26,"geo_score":0.714,"page views":62,"id":"agspt24foopq","unique visitors":6,"geo_precision":"city","state":"Connecticut"},"type":"Feature","geometry":{"type":"Point","coordinates":[-72.126498,41.456698]}},{"properties":{"city":"plainfield","instances":11,"geo_score":0.714,"page views":59,"id":"agspt2goc160","unique visitors":5,"geo_precision":"city","state":"Connecticut"},"type":"Feature","geometry":{"type":"Point","coordinates":[-72.859695,41.672983]}},{"properties":{"city":"plymouth","instances":15,"geo_score":0.714,"page views":57,"id":"agspt2cwmmio","unique visitors":4,"geo_precision":"city","state":"Connecticut"},"type":"Feature","geometry":{"type":"Point","coordinates":[-73.044364,41.65873]}},{"properties":{"city":"beacon falls","instances":22,"geo_score":0.714,"page views":54,"id":"agspt2arc3cn","unique visitors":10,"geo_precision":"city","state":"Connecticut"},"type":"Feature","geometry":{"type":"Point","coordinates":[-73.058835,41.435134]}},{"properties":{"city":"sandy hook","instances":29,"geo_score":0.714,"page views":53,"id":"agspt26h3bya","unique visitors":21,"geo_precision":"city","state":"Connecticut"},"type":"Feature","geometry":{"type":"Point","coordinates":[-73.249671,41.408137]}},{"properties":{"city":"uncasville","instances":24,"geo_score":0.714,"page views":51,"id":"agspt29cldxw","unique visitors":21,"geo_precision":"city","state":"Connecticut"},"type":"Feature","geometry":{"type":"Point","coordinates":[-72.069578,41.424507]}},{"properties":{"city":"putnam","instances":14,"geo_score":0.714,"page views":47,"id":"agspt27o7xhs","unique visitors":13,"geo_precision":"city","state":"Connecticut"},"type":"Feature","geometry":{"type":"Point","coordinates":[-71.887712,41.862904]}},{"properties":{"city":"east haddam","instances":24,"geo_score":0.714,"page views":44,"id":"agspt262lq0c","unique visitors":10,"geo_precision":"city","state":"Connecticut"},"type":"Feature","geometry":{"type":"Point","coordinates":[-72.389729,41.475478]}},{"properties":{"city":"haddam","instances":14,"geo_score":0.714,"page views":43,"id":"agspt2gxjaub","unique visitors":11,"geo_precision":"city","state":"Connecticut"},"type":"Feature","geometry":{"type":"Point","coordinates":[-72.511376,41.471457]}},{"properties":{"city":"old greenwich","instances":15,"geo_score":0.714,"page views":42,"id":"agspt285nafi","unique visitors":14,"geo_precision":"city","state":"Connecticut"},"type":"Feature","geometry":{"type":"Point","coordinates":[-73.566968,41.034946]}},{"properties":{"city":"easton","instances":15,"geo_score":0.714,"page views":42,"id":"agspt23w0say","unique visitors":12,"geo_precision":"city","state":"Connecticut"},"type":"Feature","geometry":{"type":"Point","coordinates":[-73.297721,41.273016]}},{"properties":{"city":"north granby","instances":14,"geo_score":0.714,"page views":42,"id":"agspt2899vwo","unique visitors":6,"geo_precision":"city","state":"Connecticut"},"type":"Feature","geometry":{"type":"Point","coordinates":[-72.796407,41.966062]}},{"properties":{"city":"lebanon","instances":25,"geo_score":0.714,"page views":40,"id":"agspt2c9zix4","unique visitors":18,"geo_precision":"city","state":"Connecticut"},"type":"Feature","geometry":{"type":"Point","coordinates":[-72.245422,41.628008]}},{"properties":{"city":"centerbrook","instances":21,"geo_score":0.714,"page views":39,"id":"agspt22l0hsa","unique visitors":16,"geo_precision":"city","state":"Connecticut"},"type":"Feature","geometry":{"type":"Point","coordinates":[-72.41338,41.349098]}},{"properties":{"city":"riverside","instances":15,"geo_score":0.714,"page views":38,"id":"agspt2hudmj0","unique visitors":14,"geo_precision":"city","state":"Connecticut"},"type":"Feature","geometry":{"type":"Point","coordinates":[-73.246782,41.428429]}},{"properties":{"city":"westbrook","instances":17,"geo_score":0.714,"page views":34,"id":"agspt2bvdjrn","unique visitors":17,"geo_precision":"city","state":"Connecticut"},"type":"Feature","geometry":{"type":"Point","coordinates":[-72.463381,41.307899]}},{"properties":{"city":"sharon","instances":16,"geo_score":0.714,"page views":32,"id":"agspt2a5b7i2","unique visitors":10,"geo_precision":"city","state":"Connecticut"},"type":"Feature","geometry":{"type":"Point","coordinates":[-73.433903,41.874681]}},{"properties":{"city":"willington","instances":20,"geo_score":0.714,"page views":30,"id":"agspt25qgmwj","unique visitors":15,"geo_precision":"city","state":"Connecticut"},"type":"Feature","geometry":{"type":"Point","coordinates":[-72.263968,41.875097]}},{"properties":{"city":"thomaston","instances":16,"geo_score":0.714,"page views":27,"id":"agspt2b9gzoz","unique visitors":16,"geo_precision":"city","state":"Connecticut"},"type":"Feature","geometry":{"type":"Point","coordinates":[-73.098657,41.658721]}},{"properties":{"city":"mansfield depot","instances":16,"geo_score":0.714,"page views":26,"id":"agspt2aerlp7","unique visitors":15,"geo_precision":"city","state":"Connecticut"},"type":"Feature","geometry":{"type":"Point","coordinates":[-72.26619,41.82732]}},{"properties":{"city":"terryville","instances":15,"geo_score":0.714,"page views":26,"id":"agspt289q8j9","unique visitors":15,"geo_precision":"city","state":"Connecticut"},"type":"Feature","geometry":{"type":"Point","coordinates":[-73.022449,41.66353]}},{"properties":{"city":"somersville","instances":11,"geo_score":0.714,"page views":26,"id":"agspt2gl37kk","unique visitors":8,"geo_precision":"city","state":"Connecticut"},"type":"Feature","geometry":{"type":"Point","coordinates":[-72.490593,41.976466]}},{"properties":{"city":"ivoryton","instances":3,"geo_score":0.714,"page views":24,"id":"agspt2e1j3qj","unique visitors":3,"geo_precision":"city","state":"Connecticut"},"type":"Feature","geometry":{"type":"Point","coordinates":[-72.444369,41.344076]}},{"properties":{"city":"oakville","instances":14,"geo_score":0.714,"page views":23,"id":"agspt22ruji0","unique visitors":12,"geo_precision":"city","state":"Connecticut"},"type":"Feature","geometry":{"type":"Point","coordinates":[-73.216887,41.604052]}},{"properties":{"city":"northford","instances":7,"geo_score":0.714,"page views":21,"id":"agspt23b8orh","unique visitors":5,"geo_precision":"city","state":"Connecticut"},"type":"Feature","geometry":{"type":"Point","coordinates":[-72.772991,41.379797]}},{"properties":{"city":"barkhamsted","instances":3,"geo_score":0.714,"page views":21,"id":"agspt2666xux","unique visitors":2,"geo_precision":"city","state":"Connecticut"},"type":"Feature","geometry":{"type":"Point","coordinates":[-72.91399,41.929263]}},{"properties":{"city":"andover","instances":8,"geo_score":0.714,"page views":19,"id":"agspt25wrr67","unique visitors":5,"geo_precision":"city","state":"Connecticut"},"type":"Feature","geometry":{"type":"Point","coordinates":[-72.374634,41.731847]}},{"properties":{"city":"oakdale","instances":13,"geo_score":0.714,"page views":18,"id":"agspt25m4b9i","unique visitors":11,"geo_precision":"city","state":"Connecticut"},"type":"Feature","geometry":{"type":"Point","coordinates":[-72.102302,41.512172]}},{"properties":{"city":"somers","instances":14,"geo_score":0.714,"page views":17,"id":"agspt22exopb","unique visitors":14,"geo_precision":"city","state":"Connecticut"},"type":"Feature","geometry":{"type":"Point","coordinates":[-72.433046,41.919603]}},{"properties":{"city":"pomfret center","instances":11,"geo_score":0.714,"page views":17,"id":"agspt2footcw","unique visitors":8,"geo_precision":"city","state":"Connecticut"},"type":"Feature","geometry":{"type":"Point","coordinates":[-71.935906,41.849543]}},{"properties":{"city":"ashford","instances":10,"geo_score":0.714,"page views":17,"id":"agspt24zm93q","unique visitors":9,"geo_precision":"city","state":"Connecticut"},"type":"Feature","geometry":{"type":"Point","coordinates":[-72.147561,41.889043]}},{"properties":{"city":"bethlehem","instances":9,"geo_score":0.714,"page views":16,"id":"agspt2a3vz0m","unique visitors":6,"geo_precision":"city","state":"Connecticut"},"type":"Feature","geometry":{"type":"Point","coordinates":[-73.203076,41.640099]}},{"properties":{"city":"brooklyn","instances":8,"geo_score":0.714,"page views":16,"id":"agspt2aqf9eu","unique visitors":7,"geo_precision":"city","state":"Connecticut"},"type":"Feature","geometry":{"type":"Point","coordinates":[-71.983412,41.847758]}},{"properties":{"city":"west suffield","instances":4,"geo_score":0.714,"page views":16,"id":"agspt21r76xh","unique visitors":3,"geo_precision":"city","state":"Connecticut"},"type":"Feature","geometry":{"type":"Point","coordinates":[-72.727337,42.005795]}},{"properties":{"city":"north windham","instances":5,"geo_score":0.714,"page views":15,"id":"agspt27z3qaa","unique visitors":2,"geo_precision":"city","state":"Connecticut"},"type":"Feature","geometry":{"type":"Point","coordinates":[-72.040003,41.778469]}},{"properties":{"city":"canaan","instances":4,"geo_score":0.714,"page views":15,"id":"agspt222kurx","unique visitors":4,"geo_precision":"city","state":"Connecticut"},"type":"Feature","geometry":{"type":"Point","coordinates":[-73.295891,42.001585]}},{"properties":{"city":"amston","instances":8,"geo_score":0.714,"page views":14,"id":"agspt2gkdygc","unique visitors":8,"geo_precision":"city","state":"Connecticut"},"type":"Feature","geometry":{"type":"Point","coordinates":[-72.3728,41.626377]}},{"properties":{"city":"west granby","instances":9,"geo_score":0.714,"page views":13,"id":"agspt21pdc3e","unique visitors":9,"geo_precision":"city","state":"Connecticut"},"type":"Feature","geometry":{"type":"Point","coordinates":[-72.861993,41.955645]}},{"properties":{"city":"staffordville","instances":7,"geo_score":0.714,"page views":13,"id":"agspt24ilc10","unique visitors":7,"geo_precision":"city","state":"Connecticut"},"type":"Feature","geometry":{"type":"Point","coordinates":[-72.257735,41.991645]}},{"properties":{"city":"baltic","instances":6,"geo_score":0.714,"page views":13,"id":"agspt234wf63","unique visitors":3,"geo_precision":"city","state":"Connecticut"},"type":"Feature","geometry":{"type":"Point","coordinates":[-72.044306,41.501708]}},{"properties":{"city":"lakeville","instances":10,"geo_score":0.714,"page views":12,"id":"agspt2h1v6rl","unique visitors":5,"geo_precision":"city","state":"Connecticut"},"type":"Feature","geometry":{"type":"Point","coordinates":[-73.38138,41.951917]}},{"properties":{"city":"yantic","instances":2,"geo_score":0.714,"page views":12,"id":"agspt25f1yb0","unique visitors":1,"geo_precision":"city","state":"Connecticut"},"type":"Feature","geometry":{"type":"Point","coordinates":[-72.122672,41.559648]}},{"properties":{"city":"canterbury","instances":7,"geo_score":0.714,"page views":11,"id":"agspt2c2e96f","unique visitors":7,"geo_precision":"city","state":"Connecticut"},"type":"Feature","geometry":{"type":"Point","coordinates":[-71.998277,41.696753]}},{"properties":{"city":"kent","instances":4,"geo_score":0.714,"page views":10,"id":"agspt2a3bnw4","unique visitors":3,"geo_precision":"city","state":"Connecticut"},"type":"Feature","geometry":{"type":"Point","coordinates":[-73.401908,41.774725]}},{"properties":{"city":"moosup","instances":4,"geo_score":0.714,"page views":9,"id":"agspt2ady7pm","unique visitors":4,"geo_precision":"city","state":"Connecticut"},"type":"Feature","geometry":{"type":"Point","coordinates":[-71.849772,41.704931]}},{"properties":{"city":"sherman","instances":4,"geo_score":0.714,"page views":9,"id":"agspt2hz0xi0","unique visitors":4,"geo_precision":"city","state":"Connecticut"},"type":"Feature","geometry":{"type":"Point","coordinates":[-73.490891,41.525631]}},{"properties":{"city":"taftville","instances":1,"geo_score":0.714,"page views":9,"id":"agspt2ap4asj","unique visitors":1,"geo_precision":"city","state":"Connecticut"},"type":"Feature","geometry":{"type":"Point","coordinates":[-72.05522,41.563998]}},{"properties":{"city":"east windsor hill","instances":8,"geo_score":0.714,"page views":8,"id":"agspt2dbbhv5","unique visitors":2,"geo_precision":"city","state":"Connecticut"},"type":"Feature","geometry":{"type":"Point","coordinates":[-72.592883,41.903347]}},{"properties":{"city":"east lyme","instances":6,"geo_score":0.714,"page views":8,"id":"agspt26esdf8","unique visitors":5,"geo_precision":"city","state":"Connecticut"},"type":"Feature","geometry":{"type":"Point","coordinates":[-72.236794,41.378842]}},{"properties":{"city":"chaplin","instances":4,"geo_score":0.714,"page views":8,"id":"agspt2e19xz4","unique visitors":4,"geo_precision":"city","state":"Connecticut"},"type":"Feature","geometry":{"type":"Point","coordinates":[-72.126036,41.80294]}},{"properties":{"city":"bridgewater","instances":2,"geo_score":0.714,"page views":8,"id":"agspt24tnt2h","unique visitors":2,"geo_precision":"city","state":"Connecticut"},"type":"Feature","geometry":{"type":"Point","coordinates":[-73.363875,41.520312]}},{"properties":{"city":"east berlin","instances":4,"geo_score":0.714,"page views":7,"id":"agspt23gmban","unique visitors":4,"geo_precision":"city","state":"Connecticut"},"type":"Feature","geometry":{"type":"Point","coordinates":[-71.897295,41.796765]}},{"properties":{"city":"middle haddam","instances":4,"geo_score":0.714,"page views":7,"id":"agspt2abbwb2","unique visitors":3,"geo_precision":"city","state":"Connecticut"},"type":"Feature","geometry":{"type":"Point","coordinates":[-72.511376,41.471457]}},{"properties":{"city":"sterling","instances":3,"geo_score":0.714,"page views":7,"id":"agspt2dnsj9g","unique visitors":3,"geo_precision":"city","state":"Connecticut"},"type":"Feature","geometry":{"type":"Point","coordinates":[-73.225948,41.473985]}},{"properties":{"city":"hanover","instances":1,"geo_score":0.714,"page views":7,"id":"agspt255o81i","unique visitors":1,"geo_precision":"city","state":"Connecticut"},"type":"Feature","geometry":{"type":"Point","coordinates":[-72.06769,41.644546]}},{"properties":{"city":"grosvenor dale","instances":5,"geo_score":0.714,"page views":6,"id":"agspt26kzsf5","unique visitors":4,"geo_precision":"city","state":"Connecticut"},"type":"Feature","geometry":{"type":"Point","coordinates":[-71.891732,41.971116]}},{"properties":{"city":"south kent","instances":2,"geo_score":0.714,"page views":6,"id":"agspt2f8p432","unique visitors":1,"geo_precision":"city","state":"Connecticut"},"type":"Feature","geometry":{"type":"Point","coordinates":[-73.401908,41.774725]}},{"properties":{"city":"harwinton","instances":4,"geo_score":0.714,"page views":5,"id":"agspt2dtqw3n","unique visitors":4,"geo_precision":"city","state":"Connecticut"},"type":"Feature","geometry":{"type":"Point","coordinates":[-73.176163,41.649639]}},{"properties":{"city":"north franklin","instances":3,"geo_score":0.714,"page views":5,"id":"agspt29za0lq","unique visitors":3,"geo_precision":"city","state":"Connecticut"},"type":"Feature","geometry":{"type":"Point","coordinates":[-72.772991,41.379797]}},{"properties":{"city":"columbia","instances":3,"geo_score":0.714,"page views":5,"id":"agspt2gijq0s","unique visitors":3,"geo_precision":"city","state":"Connecticut"},"type":"Feature","geometry":{"type":"Point","coordinates":[-72.300043,41.696124]}},{"properties":{"city":"bozrah","instances":2,"geo_score":0.714,"page views":5,"id":"agspt2djes2x","unique visitors":1,"geo_precision":"city","state":"Connecticut"},"type":"Feature","geometry":{"type":"Point","coordinates":[-72.177023,41.544598]}},{"properties":{"city":"bantam","instances":3,"geo_score":0.714,"page views":3,"id":"agspt25vpfwh","unique visitors":3,"geo_precision":"city","state":"Connecticut"},"type":"Feature","geometry":{"type":"Point","coordinates":[-73.251598,41.714352]}},{"properties":{"city":"west simsbury","instances":2,"geo_score":0.714,"page views":3,"id":"agspt2hwkx69","unique visitors":2,"geo_precision":"city","state":"Connecticut"},"type":"Feature","geometry":{"type":"Point","coordinates":[-72.819742,41.868647]}},{"properties":{"city":"falls village","instances":1,"geo_score":0.714,"page views":3,"id":"agspt2a51oak","unique visitors":1,"geo_precision":"city","state":"Connecticut"},"type":"Feature","geometry":{"type":"Point","coordinates":[-73.304403,41.949717]}},{"properties":{"city":"georgetown","instances":2,"geo_score":0.714,"page views":2,"id":"agspt27svrs9","unique visitors":1,"geo_precision":"city","state":"Connecticut"},"type":"Feature","geometry":{"type":"Point","coordinates":[-73.427915,41.25553]}},{"properties":{"city":"scotland","instances":1,"geo_score":0.714,"page views":2,"id":"agspt2f9rkck","unique visitors":1,"geo_precision":"city","state":"Connecticut"},"type":"Feature","geometry":{"type":"Point","coordinates":[-72.087045,41.695803]}},{"properties":{"city":"gaylordsville","instances":1,"geo_score":0.714,"page views":1,"id":"agspt26ec9aw","unique visitors":1,"geo_precision":"city","state":"Connecticut"},"type":"Feature","geometry":{"type":"Point","coordinates":[-73.472048,41.634686]}},{"properties":{"city":"windham","instances":1,"geo_score":0.714,"page views":1,"id":"agspt2dbgqpl","unique visitors":1,"geo_precision":"city","state":"Connecticut"},"type":"Feature","geometry":{"type":"Point","coordinates":[-72.137843,41.693914]}},{"properties":{"city":"greens farms","instances":1,"geo_score":0.714,"page views":1,"id":"agspt2hsukzw","unique visitors":1,"geo_precision":"city","state":"Connecticut"},"type":"Feature","geometry":{"type":"Point","coordinates":[-73.363661,41.308873]}},{"properties":{"city":"redding center","instances":1,"geo_score":0.714,"page views":1,"id":"agspt28efrv2","unique visitors":1,"geo_precision":"city","state":"Connecticut"},"type":"Feature","geometry":{"type":"Point","coordinates":[-73.363661,41.308873]}},{"properties":{"city":"north grosvenordale","instances":1,"geo_score":0.714,"page views":1,"id":"agspt2fna0rs","unique visitors":1,"geo_precision":"city","state":"Connecticut"},"type":"Feature","geometry":{"type":"Point","coordinates":[-71.891732,41.971116]}},{"properties":{"city":"colebrook","instances":1,"geo_score":0.714,"page views":1,"id":"agspt2fl1z4j","unique visitors":1,"geo_precision":"city","state":"Connecticut"},"type":"Feature","geometry":{"type":"Point","coordinates":[-73.118329,42.005809]}},{"properties":{"city":"eastford","instances":1,"geo_score":0.714,"page views":1,"id":"agspt26g1skv","unique visitors":1,"geo_precision":"city","state":"Connecticut"},"type":"Feature","geometry":{"type":"Point","coordinates":[-72.776208,41.731767]}},{"properties":{"city":"east windsor","instances":1,"geo_score":0.714,"page views":1,"id":"agspt2epvnbc","unique visitors":1,"geo_precision":"city","state":"Connecticut"},"type":"Feature","geometry":{"type":"Point","coordinates":[-72.592883,41.903347]}},{"properties":{"city":"east glastonbury","instances":1,"geo_score":0.714,"page views":1,"id":"agspt2amcpj8","unique visitors":1,"geo_precision":"city","state":"Connecticut"},"type":"Feature","geometry":{"type":"Point","coordinates":[-72.539332,41.703451]}},{"properties":{"city":"tariffville","instances":1,"geo_score":0.714,"page views":1,"id":"agspt2f14btd","unique visitors":1,"geo_precision":"city","state":"Connecticut"},"type":"Feature","geometry":{"type":"Point","coordinates":[-72.767239,41.905269]}},{"properties":{"city":"dayville","instances":1,"geo_score":0.714,"page views":1,"id":"agspt2fesjkk","unique visitors":1,"geo_precision":"city","state":"Connecticut"},"type":"Feature","geometry":{"type":"Point","coordinates":[-71.858826,41.854975]}}],"is_temporal":false,"author":{"url":"","metadata":"","contact_name":"","contact_address":"","source":"","contact_phone":""},"source":"","pagination":{"sort":null,"start":0,"total":207,"limit":1000000},"state":"complete","tags":"","published":"2014-08-16T13:05:55-04:00","id":390079}