{"type":"FeatureCollection","data_type":"Dataset","url_type":null,"permissions":[{"permissions":{"download":true,"view":true},"group_id":"everyone"}],"classification":null,"title":"Cooperating Attorneys - August 2013","count":95,"stream_id":390218,"contributor":{"url":"http://geocommons.com/users/46932","name":"lherrera"},"data_attributes":null,"calculation_params":null,"icon_link":null,"link":"http://geocommons.com/overlays/390218.json","extent":[-73.6243,41.0376,-72.1024,41.9928],"geometry_types":["point"],"unique_name":null,"name":"Cooperating Attorneys - August 2013","feature_count":95,"description":"","next_feature":null,"is_raster":false,"short_classification":"Y","stats":{"city":{"count":37,"counts_by_value":{"Uncasville":1,"West Hartford":4,"Glastonbury":3,"Hartford":14,"Bloomfield":2,"Shelton":1,"Bristol":1,"New Canaan":2,"Stamford":13,"Trumbull":2,"New London":1,"Stratford":1,"Somers":1,"Bridgeport":2,"Simsbury":1,"Milford":2,"Willimantic":1,"Ridgefield":1,"Montgomery":1,"New Britain":3,"Greenwich":1,"Fairfield":1,"Torrington":3,"Westport":4,"Columbia":1,"Winsted":1,"Waterford":2,"Orange":1,"Cheshire":1,"Hamden":4,"Norwalk":2,"Litchfield":1,"Naugatuck":1,"Manchester":2,"Waterbury":1,"Storrs Mansfield":1,"New Haven":11},"list":["Fairfield","Stamford","New Haven","Hamden","Stratford","Hartford","Westport","Cheshire","Winsted","Glastonbury","Manchester","New Canaan","Litchfield","Columbia","Bridgeport","Greenwich","Storrs Mansfield","Torrington","Bristol","New Britain","Montgomery","West Hartford","New London","Ridgefield","Uncasville","Naugatuck","Norwalk","Orange","Trumbull","Willimantic","Somers","Milford","Waterford","Shelton","Bloomfield","Simsbury","Waterbury"]},"county":{"count":8,"counts_by_value":{"Hartford":30,"Windham":1,"New London":4,"Montgomery":1,"Fairfield":30,"Tolland":3,"Litchfield":5,"New Haven":21},"list":["Fairfield","New Haven","Hartford","Litchfield","Tolland","Montgomery","New London","Windham"]},"contact name":{"count":95,"counts_by_value":{"Arnowitz, Seth":1,"Marlow, Lee":1,"Nerenberg, Eliot":1,"Poriss, Sarah":1,"Spaide, Heather":1,"Francois, Linda":1,"Silva, Leslie":1,"Garlinghouse, Paul":1,"Summons, Sarah":1,"O'Neil, Patricia":1,"Gans, Myrna":1,"Barba, Ronald":1,"Wolf, Kristen":1,"Magistrali, Michael":1,"Oberst, Sharon":1,"Moreno, Rudy":1,"Lynch, Karen Renzulli":1,"Hudson, John":1,"Ward II, Frederick":1,"Cohn, Barbara":1,"Fox, Michael":1,"Rosenberg, Judith":1,"Esposito, Thomas":1,"Segore-Freshman, Nancy":1,"Dixon, Judith":1,"Garrison, Joseph":1,"Kweskin, Edward":1,"McGlynn, Louise":1,"Yeomans, Ronald":1,"Tarpey, Kerry":1,"Scott, Ronald":1,"Hoffman, Kristin":1,"Badoyannis, Mary":1,"Costello, Kieran":1,"Kelly, Mary":1,"Lucci, Virginia":1,"Schuyler, Jeffrey":1,"Margolis, Emanuel":1,"Swaine, James":1,"McCoy, William":1,"Canino, Cheryl":1,"Pickel, Alan Scott":1,"Alfin, Jared":1,"Mata, Maxine":1,"Orleans, Jonathan":1,"Maurer, Elisabeth Seieroe":1,"Mills, Jamie":1,"DiNardi, Teresa":1,"Cuomo Shore, Shari-Lynn":1,"Eldergill, Kathleen":1,"Hockla, Terry":1,"Mendillo, Kirsten":1,"Savona, Lindsay":1,"Sinder, Joan":1,"Bodie, Kelly":1,"Chambers, Jeanette":1,"Morris Paul, Julia":1,"Young, Thomas":1,"Redman, Renee":1,"Crockett, Cynthia":1,"Leete, Elizabeth":1,"Adelman, Daniel":1,"Hoffkins, Kevin":1,"Philpot, W. Martyn":1,"Prince, Wendy":1,"Fenlator, Shanique":1,"Sierra Vazquez, Mailene":1,"McKenna, Deborah":1,"Cohen, David":1,"Friar, Marguerite":1,"McDermott, Leonard":1,"Harper, Monica":1,"Berry, Peter":1,"Gale, John":1,"Simpson, Robert":1,"Haakonsen, Kate":1,"Blackburn, Tegan":1,"Talbot, Jeannine":1,"Spodnick, Jonathan":1,"Riordan Lucibello, Emily":1,"Oberst, Gary":1,"Hartwell, Cynthia":1,"Carron, Mark":1,"Henderson, Mark":1,"Telker, Ellen":1,"Boni-Vendola, Corrine":1,"Rosen, David":1,"Melocowsky, Steven":1,"Barry, Lisa":1,"Kosinski, Richard":1,"Eisenburg, Deborah":1,"Evans, Tamra":1,"Diamond, Bruce":1,"Pearl, Helen":1,"Rubinson, Elaine":1},"list":["Costello, Kieran","Badoyannis, Mary","Boni-Vendola, Corrine","Adelman, Daniel","Arnowitz, Seth","Barba, Ronald","Bodie, Kelly","Canino, Cheryl","Carron, Mark","Chambers, Jeanette","Cohen, David","Crockett, Cynthia","Cuomo Shore, Shari-Lynn","Wolf, Kristen","Diamond, Bruce","Dixon, Judith","Eisenburg, Deborah","Eldergill, Kathleen","Esposito, Thomas","Evans, Tamra","Fox, Michael","Francois, Linda","Friar, Marguerite","Gale, John","Gans, Myrna","Garlinghouse, Paul","Garrison, Joseph","Haakonsen, Kate","Harper, Monica","Hartwell, Cynthia","Henderson, Mark","Hockla, Terry","Hoffkins, Kevin","Hoffman, Kristin","Hudson, John","Kelly, Mary","Kosinski, Richard","Kweskin, Edward","Leete, Elizabeth","Lucci, Virginia","Lynch, Karen Renzulli","Magistrali, Michael","Margolis, Emanuel","Marlow, Lee","Mata, Maxine","Maurer, Elisabeth Seieroe","McCoy, William","McDermott, Leonard","McGlynn, Louise","McKenna, Deborah","Mendillo, Kirsten","Mills, Jamie","Moreno, Rudy","Nerenberg, Eliot","Oberst, Gary","Oberst, Sharon","O'Neil, Patricia","Orleans, Jonathan","Pearl, Helen","Pickel, Alan Scott","Poriss, Sarah","Prince, Wendy","Riordan Lucibello, Emily","Rosen, David","Rosenberg, Judith","Rubinson, Elaine","Scott, Ronald","Segore-Freshman, Nancy","Simpson, Robert","Sinder, Joan","Spodnick, Jonathan","Summons, Sarah","Swaine, James","Talbot, Jeannine","Tarpey, Kerry","Telker, Ellen","Ward II, Frederick","Yeomans, Ronald","Young, Thomas","Savona, Lindsay","Schuyler, Jeffrey","DiNardi, Teresa","Berry, Peter","Blackburn, Tegan","Cohn, Barbara","Alfin, Jared","Redman, Renee","Spaide, Heather","Barry, Lisa","Philpot, W. Martyn","Sierra Vazquez, Mailene","Silva, Leslie","Melocowsky, Steven","Fenlator, Shanique","Morris Paul, Julia"]},"zip code":{"count":45,"counts_by_value":{"06382":1,"06877":1,"06107":3,"06460":2,"06053":1,"06790":3,"06614":1,"06010":1,"06604":2,"06098":1,"06901":9,"06824":1,"06484":1,"06385":2,"06902":1,"06110":1,"06770":1,"06759":1,"06033":3,"06880":4,"06705":1,"06320":1,"06518":4,"06002":2,"06112":1,"06410":1,"06905":3,"06070":1,"06477":1,"06851":2,"06103":4,"36104":1,"06268":1,"06840":2,"06510":5,"06071":1,"06830":1,"06511":6,"06226":1,"06611":2,"06105":1,"06237":1,"06051":2,"06040":2,"06106":8},"list":["06824","06905","06510","06511","06901","06518","06614","06112","06880","06106","06410","06098","06033","06040","06840","06759","06237","06604","06830","06268","06790","06010","06053","06105","36104","06107","06320","06877","06382","06770","06103","06851","06051","06477","06611","06226","06071","06460","06110","06902","06385","06484","06002","06070","06705"]},"state":{"count":2,"counts_by_value":{"AL":1,"CT":94},"list":["CT","AL"]}},"features":[{"properties":{"city":"Fairfield","geometry_id":"a964eaxrys3l","county":"Fairfield","contact name":"Costello, Kieran","zip code":"06824","id":"agt9rgk3beih","state":"CT"},"type":"Feature","geometry":{"type":"Point","coordinates":[-73.280818,41.173039]}},{"properties":{"city":"Stamford","geometry_id":"a964eb5vlvaz","county":"Fairfield","contact name":"Badoyannis, Mary","zip code":"06905","id":"agt9rgsocr5b","state":"CT"},"type":"Feature","geometry":{"type":"Point","coordinates":[-73.542669,41.088293]}},{"properties":{"city":"New Haven","geometry_id":"a964eatfbzw7","county":"New Haven","contact name":"Boni-Vendola, Corrine","zip code":"06510","id":"agt9rgr2yumg","state":"CT"},"type":"Feature","geometry":{"type":"Point","coordinates":[-72.926004,41.306521]}},{"properties":{"city":"New Haven","geometry_id":"a964eawwcbe3","county":"New Haven","contact name":"Adelman, Daniel","zip code":"06511","id":"agt9rgpnotqe","state":"CT"},"type":"Feature","geometry":{"type":"Point","coordinates":[-72.927295,41.317046]}},{"properties":{"city":"Stamford","geometry_id":"a964eavevmlm","county":"Fairfield","contact name":"Arnowitz, Seth","zip code":"06901","id":"agt9rgsei70h","state":"CT"},"type":"Feature","geometry":{"type":"Point","coordinates":[-73.538141,41.053607]}},{"properties":{"city":"Hamden","geometry_id":"a964eaqrldr7","county":"New Haven","contact name":"Barba, Ronald","zip code":"06518","id":"agt9rgn0tqrg","state":"CT"},"type":"Feature","geometry":{"type":"Point","coordinates":[-72.912031,41.430806]}},{"properties":{"city":"Stratford","geometry_id":"a964eaqm1os3","county":"Fairfield","contact name":"Bodie, Kelly","zip code":"06614","id":"agt9rgx6fqbi","state":"CT"},"type":"Feature","geometry":{"type":"Point","coordinates":[-73.129767,41.232717]}},{"properties":{"city":"Hartford","geometry_id":"a964eash15f3","county":"Hartford","contact name":"Canino, Cheryl","zip code":"06112","id":"agt9rgm75lmz","state":"CT"},"type":"Feature","geometry":{"type":"Point","coordinates":[-72.695823,41.793336]}},{"properties":{"city":"Westport","geometry_id":"a964easauflp","county":"Fairfield","contact name":"Carron, Mark","zip code":"06880","id":"agt9rglcwqus","state":"CT"},"type":"Feature","geometry":{"type":"Point","coordinates":[-73.347921,41.133235]}},{"properties":{"city":"Hartford","geometry_id":"a964eb10bkg7","county":"Hartford","contact name":"Chambers, Jeanette","zip code":"06106","id":"agt9rgo1ruai","state":"CT"},"type":"Feature","geometry":{"type":"Point","coordinates":[-72.696006,41.748587]}},{"properties":{"city":"Stamford","geometry_id":"a964eavevmlm","county":"Fairfield","contact name":"Cohen, David","zip code":"06901","id":"agt9rgz404bz","state":"CT"},"type":"Feature","geometry":{"type":"Point","coordinates":[-73.538141,41.053607]}},{"properties":{"city":"Hartford","geometry_id":"a964eb10bkg7","county":"Hartford","contact name":"Crockett, Cynthia","zip code":"06106","id":"agt9rgyyruam","state":"CT"},"type":"Feature","geometry":{"type":"Point","coordinates":[-72.696006,41.748587]}},{"properties":{"city":"Hamden","geometry_id":"a964eaqrldr7","county":"New Haven","contact name":"Cuomo Shore, Shari-Lynn","zip code":"06518","id":"agt9rgtuafwx","state":"CT"},"type":"Feature","geometry":{"type":"Point","coordinates":[-72.912031,41.430806]}},{"properties":{"city":"Hamden","geometry_id":"a964eaqrldr7","county":"New Haven","contact name":"Wolf, Kristen","zip code":"06518","id":"agt9rgn5oq75","state":"CT"},"type":"Feature","geometry":{"type":"Point","coordinates":[-72.912031,41.430806]}},{"properties":{"city":"Cheshire","geometry_id":"a964eazdz7ak","county":"New Haven","contact name":"Diamond, Bruce","zip code":"06410","id":"agt9rgnhzdk6","state":"CT"},"type":"Feature","geometry":{"type":"Point","coordinates":[-72.903617,41.511827]}},{"properties":{"city":"Winsted","geometry_id":"a964eawib94j","county":"Litchfield","contact name":"Dixon, Judith","zip code":"06098","id":"agt9rgu4ia8d","state":"CT"},"type":"Feature","geometry":{"type":"Point","coordinates":[-73.086362,41.956185]}},{"properties":{"city":"Glastonbury","geometry_id":"a964eaqrk3mq","county":"Hartford","contact name":"Eisenburg, Deborah","zip code":"06033","id":"agt9rgxo3xym","state":"CT"},"type":"Feature","geometry":{"type":"Point","coordinates":[-72.53893,41.707461]}},{"properties":{"city":"Manchester","geometry_id":"a964eaumno4w","county":"Hartford","contact name":"Eldergill, Kathleen","zip code":"06040","id":"agt9rgsgbu1x","state":"CT"},"type":"Feature","geometry":{"type":"Point","coordinates":[-72.525608,41.761415]}},{"properties":{"city":"New Haven","geometry_id":"a964eawwcbe3","county":"New Haven","contact name":"Esposito, Thomas","zip code":"06511","id":"agt9rgrlcflb","state":"CT"},"type":"Feature","geometry":{"type":"Point","coordinates":[-72.927295,41.317046]}},{"properties":{"city":"New Canaan","geometry_id":"a964eb14nhu0","county":"Fairfield","contact name":"Evans, Tamra","zip code":"06840","id":"agt9rgqsilwt","state":"CT"},"type":"Feature","geometry":{"type":"Point","coordinates":[-73.501184,41.161054]}},{"properties":{"city":"Litchfield","geometry_id":"a964eb4kxhxh","county":"Litchfield","contact name":"Fox, Michael","zip code":"06759","id":"agt9rgz6qxgc","state":"CT"},"type":"Feature","geometry":{"type":"Point","coordinates":[-73.212028,41.75364]}},{"properties":{"city":"New Haven","geometry_id":"a964eatfbzw7","county":"New Haven","contact name":"Francois, Linda","zip code":"06510","id":"agt9rgq5ka8j","state":"CT"},"type":"Feature","geometry":{"type":"Point","coordinates":[-72.926004,41.306521]}},{"properties":{"city":"Columbia","geometry_id":"a964eauo1yi3","county":"Tolland","contact name":"Friar, Marguerite","zip code":"06237","id":"agt9rgpae7zd","state":"CT"},"type":"Feature","geometry":{"type":"Point","coordinates":[-72.305414,41.694527]}},{"properties":{"city":"Hartford","geometry_id":"a964eb10bkg7","county":"Hartford","contact name":"Gale, John","zip code":"06106","id":"agt9rgs1yc7c","state":"CT"},"type":"Feature","geometry":{"type":"Point","coordinates":[-72.696006,41.748587]}},{"properties":{"city":"Bridgeport","geometry_id":"a964eay0yery","county":"Fairfield","contact name":"Gans, Myrna","zip code":"06604","id":"agt9rgm8spqh","state":"CT"},"type":"Feature","geometry":{"type":"Point","coordinates":[-73.208027,41.18292]}},{"properties":{"city":"New Haven","geometry_id":"a964eatfbzw7","county":"New Haven","contact name":"Garlinghouse, Paul","zip code":"06510","id":"agt9rgjdjubb","state":"CT"},"type":"Feature","geometry":{"type":"Point","coordinates":[-72.926004,41.306521]}},{"properties":{"city":"New Haven","geometry_id":"a964eawwcbe3","county":"New Haven","contact name":"Garrison, Joseph","zip code":"06511","id":"agt9rgwavo3n","state":"CT"},"type":"Feature","geometry":{"type":"Point","coordinates":[-72.927295,41.317046]}},{"properties":{"city":"Glastonbury","geometry_id":"a964eaqrk3mq","county":"Hartford","contact name":"Haakonsen, Kate","zip code":"06033","id":"agt9rgqt8fkf","state":"CT"},"type":"Feature","geometry":{"type":"Point","coordinates":[-72.53893,41.707461]}},{"properties":{"city":"Hartford","geometry_id":"a964eb10bkg7","county":"Hartford","contact name":"Harper, Monica","zip code":"06106","id":"agt9rgl3gbss","state":"CT"},"type":"Feature","geometry":{"type":"Point","coordinates":[-72.696006,41.748587]}},{"properties":{"city":"Greenwich","geometry_id":"a964eazn0g3d","county":"Fairfield","contact name":"Hartwell, Cynthia","zip code":"06830","id":"agt9rgvdewgx","state":"CT"},"type":"Feature","geometry":{"type":"Point","coordinates":[-73.624339,41.037605]}},{"properties":{"city":"Stamford","geometry_id":"a964eavevmlm","county":"Fairfield","contact name":"Henderson, Mark","zip code":"06901","id":"agt9rgjo75sn","state":"CT"},"type":"Feature","geometry":{"type":"Point","coordinates":[-73.538141,41.053607]}},{"properties":{"city":"Storrs Mansfield","geometry_id":"a964eb5qhgy1","county":"Tolland","contact name":"Hockla, Terry","zip code":"06268","id":"agt9rguj5xek","state":"CT"},"type":"Feature","geometry":{"type":"Point","coordinates":[-72.245399,41.801119]}},{"properties":{"city":"Westport","geometry_id":"a964easauflp","county":"Fairfield","contact name":"Hoffkins, Kevin","zip code":"06880","id":"agt9rgrxlje0","state":"CT"},"type":"Feature","geometry":{"type":"Point","coordinates":[-73.347921,41.133235]}},{"properties":{"city":"Hartford","geometry_id":"a964eb10bkg7","county":"Hartford","contact name":"Hoffman, Kristin","zip code":"06106","id":"agt9rgoiwwxc","state":"CT"},"type":"Feature","geometry":{"type":"Point","coordinates":[-72.696006,41.748587]}},{"properties":{"city":"Torrington","geometry_id":"a964eaxca6zt","county":"Litchfield","contact name":"Hudson, John","zip code":"06790","id":"agt9rgllmb42","state":"CT"},"type":"Feature","geometry":{"type":"Point","coordinates":[-73.13152,41.834255]}},{"properties":{"city":"Bristol","geometry_id":"a964easx5rq4","county":"Hartford","contact name":"Kelly, Mary","zip code":"06010","id":"agt9rgruke90","state":"CT"},"type":"Feature","geometry":{"type":"Point","coordinates":[-72.940749,41.681578]}},{"properties":{"city":"New Britain","geometry_id":"a964eaynhiyl","county":"Hartford","contact name":"Kosinski, Richard","zip code":"06053","id":"agt9rgoz6icw","state":"CT"},"type":"Feature","geometry":{"type":"Point","coordinates":[-72.79194,41.690145]}},{"properties":{"city":"Stamford","geometry_id":"a964eavevmlm","county":"Fairfield","contact name":"Kweskin, Edward","zip code":"06901","id":"agt9rgvffo6w","state":"CT"},"type":"Feature","geometry":{"type":"Point","coordinates":[-73.538141,41.053607]}},{"properties":{"city":"Hartford","geometry_id":"a964eavjpoog","county":"Hartford","contact name":"Leete, Elizabeth","zip code":"06105","id":"agt9rgkt8o4o","state":"CT"},"type":"Feature","geometry":{"type":"Point","coordinates":[-72.705032,41.77468]}},{"properties":{"city":"Montgomery","county":"Montgomery","contact name":"Lucci, Virginia","zip code":"36104","id":"agt9rgxahg88","state":"AL"},"type":"Feature","geometry":null},{"properties":{"city":"West Hartford","geometry_id":"a964eaxjt9gi","county":"Hartford","contact name":"Lynch, Karen Renzulli","zip code":"06107","id":"agt9rgkh2p29","state":"CT"},"type":"Feature","geometry":{"type":"Point","coordinates":[-72.758098,41.752304]}},{"properties":{"city":"Torrington","geometry_id":"a964eaxca6zt","county":"Litchfield","contact name":"Magistrali, Michael","zip code":"06790","id":"agt9rgqe1vhb","state":"CT"},"type":"Feature","geometry":{"type":"Point","coordinates":[-73.13152,41.834255]}},{"properties":{"city":"Stamford","geometry_id":"a964eavevmlm","county":"Fairfield","contact name":"Margolis, Emanuel","zip code":"06901","id":"agt9rgxt1kcd","state":"CT"},"type":"Feature","geometry":{"type":"Point","coordinates":[-73.538141,41.053607]}},{"properties":{"city":"New Haven","geometry_id":"a964eawwcbe3","county":"New Haven","contact name":"Marlow, Lee","zip code":"06511","id":"agt9rglvmd67","state":"CT"},"type":"Feature","geometry":{"type":"Point","coordinates":[-72.927295,41.317046]}},{"properties":{"city":"New London","geometry_id":"a964eazg3l3z","county":"New London","contact name":"Mata, Maxine","zip code":"06320","id":"agt9rglkel7m","state":"CT"},"type":"Feature","geometry":{"type":"Point","coordinates":[-72.102451,41.34785]}},{"properties":{"city":"Ridgefield","geometry_id":"a964eatjw8zv","county":"Fairfield","contact name":"Maurer, Elisabeth Seieroe","zip code":"06877","id":"agt9rgxb7a4x","state":"CT"},"type":"Feature","geometry":{"type":"Point","coordinates":[-73.501019,41.306249]}},{"properties":{"city":"Uncasville","geometry_id":"a964eaw26hnq","county":"New London","contact name":"McCoy, William","zip code":"06382","id":"agt9rgx0jeok","state":"CT"},"type":"Feature","geometry":{"type":"Point","coordinates":[-72.122235,41.467256]}},{"properties":{"city":"Naugatuck","geometry_id":"a964eay8ez1x","county":"New Haven","contact name":"McDermott, Leonard","zip code":"06770","id":"agt9rgrf2jk2","state":"CT"},"type":"Feature","geometry":{"type":"Point","coordinates":[-73.053383,41.488428]}},{"properties":{"city":"Westport","geometry_id":"a964easauflp","county":"Fairfield","contact name":"McGlynn, Louise","zip code":"06880","id":"agt9rgvqdn5z","state":"CT"},"type":"Feature","geometry":{"type":"Point","coordinates":[-73.347921,41.133235]}},{"properties":{"city":"Stamford","geometry_id":"a964eavevmlm","county":"Fairfield","contact name":"McKenna, Deborah","zip code":"06901","id":"agt9rgj3fqy4","state":"CT"},"type":"Feature","geometry":{"type":"Point","coordinates":[-73.538141,41.053607]}},{"properties":{"city":"New Haven","geometry_id":"a964eatfbzw7","county":"New Haven","contact name":"Mendillo, Kirsten","zip code":"06510","id":"agt9rgt4b5ok","state":"CT"},"type":"Feature","geometry":{"type":"Point","coordinates":[-72.926004,41.306521]}},{"properties":{"city":"Hartford","geometry_id":"a964eb10bkg7","county":"Hartford","contact name":"Mills, Jamie","zip code":"06106","id":"agt9rgppbh3x","state":"CT"},"type":"Feature","geometry":{"type":"Point","coordinates":[-72.696006,41.748587]}},{"properties":{"city":"Hartford","geometry_id":"a964eat4ad1a","county":"Hartford","contact name":"Moreno, Rudy","zip code":"06103","id":"agt9rgpqvjyo","state":"CT"},"type":"Feature","geometry":{"type":"Point","coordinates":[-72.674257,41.767208]}},{"properties":{"city":"West Hartford","geometry_id":"a964eaxjt9gi","county":"Hartford","contact name":"Nerenberg, Eliot","zip code":"06107","id":"agt9rgq68nbh","state":"CT"},"type":"Feature","geometry":{"type":"Point","coordinates":[-72.758098,41.752304]}},{"properties":{"city":"Norwalk","geometry_id":"a964eb2hpmv0","county":"Fairfield","contact name":"Oberst, Gary","zip code":"06851","id":"agt9rgwn487h","state":"CT"},"type":"Feature","geometry":{"type":"Point","coordinates":[-73.401526,41.138233]}},{"properties":{"city":"Norwalk","geometry_id":"a964eb2hpmv0","county":"Fairfield","contact name":"Oberst, Sharon","zip code":"06851","id":"agt9rgxwsgxd","state":"CT"},"type":"Feature","geometry":{"type":"Point","coordinates":[-73.401526,41.138233]}},{"properties":{"city":"Hartford","geometry_id":"a964eb10bkg7","county":"Hartford","contact name":"O'Neil, Patricia","zip code":"06106","id":"agt9rgorugo3","state":"CT"},"type":"Feature","geometry":{"type":"Point","coordinates":[-72.696006,41.748587]}},{"properties":{"city":"Bridgeport","geometry_id":"a964eay0yery","county":"Fairfield","contact name":"Orleans, Jonathan","zip code":"06604","id":"agt9rglsr43h","state":"CT"},"type":"Feature","geometry":{"type":"Point","coordinates":[-73.208027,41.18292]}},{"properties":{"city":"New Britain","geometry_id":"a964eaw2chs3","county":"Hartford","contact name":"Pearl, Helen","zip code":"06051","id":"agt9rgpzilhj","state":"CT"},"type":"Feature","geometry":{"type":"Point","coordinates":[-72.769832,41.665141]}},{"properties":{"city":"Stamford","geometry_id":"a964eavevmlm","county":"Fairfield","contact name":"Pickel, Alan Scott","zip code":"06901","id":"agt9rgjw3z6e","state":"CT"},"type":"Feature","geometry":{"type":"Point","coordinates":[-73.538141,41.053607]}},{"properties":{"city":"West Hartford","geometry_id":"a964eaxjt9gi","county":"Hartford","contact name":"Poriss, Sarah","zip code":"06107","id":"agt9rgxxl7ai","state":"CT"},"type":"Feature","geometry":{"type":"Point","coordinates":[-72.758098,41.752304]}},{"properties":{"city":"Stamford","geometry_id":"a964eavevmlm","county":"Fairfield","contact name":"Prince, Wendy","zip code":"06901","id":"agt9rgkkzost","state":"CT"},"type":"Feature","geometry":{"type":"Point","coordinates":[-73.538141,41.053607]}},{"properties":{"city":"Orange","geometry_id":"a964earywgeh","county":"New Haven","contact name":"Riordan Lucibello, Emily","zip code":"06477","id":"agt9rgkaqqsb","state":"CT"},"type":"Feature","geometry":{"type":"Point","coordinates":[-73.024637,41.284951]}},{"properties":{"city":"New Haven","geometry_id":"a964eawwcbe3","county":"New Haven","contact name":"Rosen, David","zip code":"06511","id":"agt9rgvrt5w1","state":"CT"},"type":"Feature","geometry":{"type":"Point","coordinates":[-72.927295,41.317046]}},{"properties":{"city":"Stamford","geometry_id":"a964eavevmlm","county":"Fairfield","contact name":"Rosenberg, Judith","zip code":"06901","id":"agt9rguq95gf","state":"CT"},"type":"Feature","geometry":{"type":"Point","coordinates":[-73.538141,41.053607]}},{"properties":{"city":"Trumbull","geometry_id":"a964eb1m15sy","county":"Fairfield","contact name":"Rubinson, Elaine","zip code":"06611","id":"agt9rgpeaqg4","state":"CT"},"type":"Feature","geometry":{"type":"Point","coordinates":[-73.213691,41.267861]}},{"properties":{"city":"Hartford","geometry_id":"a964eat4ad1a","county":"Hartford","contact name":"Scott, Ronald","zip code":"06103","id":"agt9rgjyfflv","state":"CT"},"type":"Feature","geometry":{"type":"Point","coordinates":[-72.674257,41.767208]}},{"properties":{"city":"Westport","geometry_id":"a964easauflp","county":"Fairfield","contact name":"Segore-Freshman, Nancy","zip code":"06880","id":"agt9rgvflytb","state":"CT"},"type":"Feature","geometry":{"type":"Point","coordinates":[-73.347921,41.133235]}},{"properties":{"city":"Hartford","geometry_id":"a964eat4ad1a","county":"Hartford","contact name":"Simpson, Robert","zip code":"06103","id":"agt9rgrufndb","state":"CT"},"type":"Feature","geometry":{"type":"Point","coordinates":[-72.674257,41.767208]}},{"properties":{"city":"Willimantic","geometry_id":"a964eb27k1yi","county":"Windham","contact name":"Sinder, Joan","zip code":"06226","id":"agt9rgx2ou32","state":"CT"},"type":"Feature","geometry":{"type":"Point","coordinates":[-72.208549,41.708238]}},{"properties":{"city":"Trumbull","geometry_id":"a964eb1m15sy","county":"Fairfield","contact name":"Spodnick, Jonathan","zip code":"06611","id":"agt9rgybsrm2","state":"CT"},"type":"Feature","geometry":{"type":"Point","coordinates":[-73.213691,41.267861]}},{"properties":{"city":"Stamford","geometry_id":"a964eb5vlvaz","county":"Fairfield","contact name":"Summons, Sarah","zip code":"06905","id":"agt9rgjb2m0s","state":"CT"},"type":"Feature","geometry":{"type":"Point","coordinates":[-73.542669,41.088293]}},{"properties":{"city":"Hamden","geometry_id":"a964eaqrldr7","county":"New Haven","contact name":"Swaine, James","zip code":"06518","id":"agt9rguiutdx","state":"CT"},"type":"Feature","geometry":{"type":"Point","coordinates":[-72.912031,41.430806]}},{"properties":{"city":"Torrington","geometry_id":"a964eaxca6zt","county":"Litchfield","contact name":"Talbot, Jeannine","zip code":"06790","id":"agt9rgv8wimj","state":"CT"},"type":"Feature","geometry":{"type":"Point","coordinates":[-73.13152,41.834255]}},{"properties":{"city":"Somers","geometry_id":"a964ear97xgy","county":"Tolland","contact name":"Tarpey, Kerry","zip code":"06071","id":"agt9rgnlkbah","state":"CT"},"type":"Feature","geometry":{"type":"Point","coordinates":[-72.45363,41.992781]}},{"properties":{"city":"Milford","geometry_id":"a964earyvl1b","county":"New Haven","contact name":"Telker, Ellen","zip code":"06460","id":"agt9rgjs0dd7","state":"CT"},"type":"Feature","geometry":{"type":"Point","coordinates":[-73.050812,41.214266]}},{"properties":{"city":"West Hartford","geometry_id":"a964eawp3ear","county":"Hartford","contact name":"Ward II, Frederick","zip code":"06110","id":"agt9rgm56o1c","state":"CT"},"type":"Feature","geometry":{"type":"Point","coordinates":[-72.733602,41.732684]}},{"properties":{"city":"Stamford","geometry_id":"a964eawow116","county":"Fairfield","contact name":"Yeomans, Ronald","zip code":"06902","id":"agt9rgqu5i31","state":"CT"},"type":"Feature","geometry":{"type":"Point","coordinates":[-73.544337,41.059353]}},{"properties":{"city":"Milford","geometry_id":"a964earyvl1b","county":"New Haven","contact name":"Young, Thomas","zip code":"06460","id":"agt9rgpvdxa6","state":"CT"},"type":"Feature","geometry":{"type":"Point","coordinates":[-73.050812,41.214266]}},{"properties":{"city":"Waterford","geometry_id":"a964eax2gh7j","county":"New London","contact name":"Savona, Lindsay","zip code":"06385","id":"agt9rgpffo9u","state":"CT"},"type":"Feature","geometry":{"type":"Point","coordinates":[-72.156576,41.36173]}},{"properties":{"city":"New Britain","geometry_id":"a964eaw2chs3","county":"Hartford","contact name":"Schuyler, Jeffrey","zip code":"06051","id":"agt9rgp27gw5","state":"CT"},"type":"Feature","geometry":{"type":"Point","coordinates":[-72.769832,41.665141]}},{"properties":{"city":"Shelton","geometry_id":"a964eb5yrr2v","county":"Fairfield","contact name":"DiNardi, Teresa","zip code":"06484","id":"agt9rgv58pmy","state":"CT"},"type":"Feature","geometry":{"type":"Point","coordinates":[-73.139041,41.304515]}},{"properties":{"city":"Bloomfield","geometry_id":"a964eavvzw9g","county":"Hartford","contact name":"Berry, Peter","zip code":"06002","id":"agt9rgrzm9ly","state":"CT"},"type":"Feature","geometry":{"type":"Point","coordinates":[-72.740951,41.84493]}},{"properties":{"city":"Simsbury","geometry_id":"a964eb00xwit","county":"Hartford","contact name":"Blackburn, Tegan","zip code":"06070","id":"agt9rgvmtxvp","state":"CT"},"type":"Feature","geometry":{"type":"Point","coordinates":[-72.80894,41.874256]}},{"properties":{"city":"Waterbury","geometry_id":"a964eb4sb5ap","county":"New Haven","contact name":"Cohn, Barbara","zip code":"06705","id":"agt9rgwgpcz0","state":"CT"},"type":"Feature","geometry":{"type":"Point","coordinates":[-72.992727,41.547103]}},{"properties":{"city":"Hartford","geometry_id":"a964eat4ad1a","county":"Hartford","contact name":"Alfin, Jared","zip code":"06103","id":"agt9rgty3hhy","state":"CT"},"type":"Feature","geometry":{"type":"Point","coordinates":[-72.674257,41.767208]}},{"properties":{"city":"New Haven","geometry_id":"a964eatfbzw7","county":"New Haven","contact name":"Redman, Renee","zip code":"06510","id":"agt9rgnuftip","state":"CT"},"type":"Feature","geometry":{"type":"Point","coordinates":[-72.926004,41.306521]}},{"properties":{"city":"New Canaan","geometry_id":"a964eb14nhu0","county":"Fairfield","contact name":"Spaide, Heather","zip code":"06840","id":"agt9rgu0daak","state":"CT"},"type":"Feature","geometry":{"type":"Point","coordinates":[-73.501184,41.161054]}},{"properties":{"city":"Waterford","geometry_id":"a964eax2gh7j","county":"New London","contact name":"Barry, Lisa","zip code":"06385","id":"agt9rgrs6x9g","state":"CT"},"type":"Feature","geometry":{"type":"Point","coordinates":[-72.156576,41.36173]}},{"properties":{"city":"New Haven","geometry_id":"a964eawwcbe3","county":"New Haven","contact name":"Philpot, W. Martyn","zip code":"06511","id":"agt9rgs7wrqh","state":"CT"},"type":"Feature","geometry":{"type":"Point","coordinates":[-72.927295,41.317046]}},{"properties":{"city":"Hartford","geometry_id":"a964eb10bkg7","county":"Hartford","contact name":"Sierra Vazquez, Mailene","zip code":"06106","id":"agt9rgteyntt","state":"CT"},"type":"Feature","geometry":{"type":"Point","coordinates":[-72.696006,41.748587]}},{"properties":{"city":"Stamford","geometry_id":"a964eb5vlvaz","county":"Fairfield","contact name":"Silva, Leslie","zip code":"06905","id":"agt9rgqc8pax","state":"CT"},"type":"Feature","geometry":{"type":"Point","coordinates":[-73.542669,41.088293]}},{"properties":{"city":"Glastonbury","geometry_id":"a964eaqrk3mq","county":"Hartford","contact name":"Melocowsky, Steven","zip code":"06033","id":"agt9rglb9l1z","state":"CT"},"type":"Feature","geometry":{"type":"Point","coordinates":[-72.53893,41.707461]}},{"properties":{"city":"Bloomfield","geometry_id":"a964eavvzw9g","county":"Hartford","contact name":"Fenlator, Shanique","zip code":"06002","id":"agt9rgyltnsd","state":"CT"},"type":"Feature","geometry":{"type":"Point","coordinates":[-72.740951,41.84493]}},{"properties":{"city":"Manchester","geometry_id":"a964eaumno4w","county":"Hartford","contact name":"Morris Paul, Julia","zip code":"06040","id":"agt9rgu1jpb3","state":"CT"},"type":"Feature","geometry":{"type":"Point","coordinates":[-72.525608,41.761415]}}],"is_temporal":false,"author":{"url":"","metadata":"","contact_name":"","contact_address":"","source":"","contact_phone":""},"source":"","pagination":{"sort":null,"start":0,"total":95,"limit":1000000},"state":"complete","tags":"","published":"2014-08-16T13:12:07-04:00","id":390218}