{"type":"FeatureCollection","data_type":"Dataset","url_type":null,"permissions":[{"permissions":{"download":true,"view":true},"group_id":"everyone"}],"classification":null,"title":"state only","count":51,"stream_id":390532,"contributor":{"url":"http://geocommons.com/users/75499","name":"rlongo2125"},"data_attributes":null,"calculation_params":null,"icon_link":null,"link":"http://geocommons.com/overlays/390532.json","extent":[-157.517,20.5755,-69.0284,61.4946],"geometry_types":["point"],"unique_name":null,"name":"state only","feature_count":51,"description":"","next_feature":null,"is_raster":false,"short_classification":"Y","stats":{"latitude":{"max":61.49463401,"variance":38.3922918638312,"mean":39.5229986709804,"stdev":6.19615137515468,"min":20.57545311,"median":39.49702344},"longitude":{"max":-69.02839014,"variance":371.685916205864,"mean":-93.6093900221569,"stdev":19.2791575595477,"min":-157.5167511,"median":-89.86707555}},"features":[{"properties":{"latitude":32.62481896,"longitude":-86.6834839,"id":"agu8e8jaslnr","state":"Alabama"},"type":"Feature","geometry":{"type":"Point","coordinates":[-86.6834839,32.62481896]}},{"properties":{"latitude":61.49463401,"longitude":-154.1049169,"id":"agu8e8ib7i08","state":"Alaska"},"type":"Feature","geometry":{"type":"Point","coordinates":[-154.1049169,61.49463401]}},{"properties":{"latitude":34.16978002,"longitude":-111.9336881,"id":"agu8e8hat0rc","state":"Arizona"},"type":"Feature","geometry":{"type":"Point","coordinates":[-111.9336881,34.16978002]}},{"properties":{"latitude":34.75148134,"longitude":-92.13136815,"id":"agu8e8lcqgxo","state":"Arkansas"},"type":"Feature","geometry":{"type":"Point","coordinates":[-92.13136815,34.75148134]}},{"properties":{"latitude":37.26898656,"longitude":-119.2589342,"id":"agu8e8jqyk71","state":"California"},"type":"Feature","geometry":{"type":"Point","coordinates":[-119.2589342,37.26898656]}},{"properties":{"latitude":38.99618452,"longitude":-105.5465344,"id":"agu8e8iqwl31","state":"Colorado"},"type":"Feature","geometry":{"type":"Point","coordinates":[-105.5465344,38.99618452]}},{"properties":{"latitude":41.52291025,"longitude":-72.75674326,"id":"agu8e87wc2i7","state":"Connecticut"},"type":"Feature","geometry":{"type":"Point","coordinates":[-72.75674326,41.52291025]}},{"properties":{"latitude":39.1448606,"longitude":-75.41835879,"id":"agu8e8gz2uvt","state":"Delaware"},"type":"Feature","geometry":{"type":"Point","coordinates":[-75.41835879,39.1448606]}},{"properties":{"latitude":38.89088755,"longitude":-77.0166165,"id":"agu8e8gdusbi","state":"District of Columbia"},"type":"Feature","geometry":{"type":"Point","coordinates":[-77.0166165,38.89088755]}},{"properties":{"latitude":27.97976682,"longitude":-83.83831119,"id":"agu8e8nenb0h","state":"Florida"},"type":"Feature","geometry":{"type":"Point","coordinates":[-83.83831119,27.97976682]}},{"properties":{"latitude":32.68082927,"longitude":-83.2518569,"id":"agu8e89d0bf4","state":"Georgia"},"type":"Feature","geometry":{"type":"Point","coordinates":[-83.2518569,32.68082927]}},{"properties":{"latitude":20.57545311,"longitude":-157.5167511,"id":"agu8e89h4ttz","state":"Hawaii"},"type":"Feature","geometry":{"type":"Point","coordinates":[-157.5167511,20.57545311]}},{"properties":{"latitude":45.49727496,"longitude":-114.141846,"id":"agu8e8bcdx1w","state":"Idaho"},"type":"Feature","geometry":{"type":"Point","coordinates":[-114.141846,45.49727496]}},{"properties":{"latitude":39.74809298,"longitude":-89.51209675,"id":"agu8e8fciazx","state":"Illinois"},"type":"Feature","geometry":{"type":"Point","coordinates":[-89.51209675,39.74809298]}},{"properties":{"latitude":39.77088229,"longitude":-86.44446803,"id":"agu8e8n1cysl","state":"Indiana"},"type":"Feature","geometry":{"type":"Point","coordinates":[-86.44446803,39.77088229]}},{"properties":{"latitude":41.93670203,"longitude":-93.39175297,"id":"agu8e8dfvgqh","state":"Iowa"},"type":"Feature","geometry":{"type":"Point","coordinates":[-93.39175297,41.93670203]}},{"properties":{"latitude":38.49593181,"longitude":-98.32637995,"id":"agu8e8ehqkwb","state":"Kansas"},"type":"Feature","geometry":{"type":"Point","coordinates":[-98.32637995,38.49593181]}},{"properties":{"latitude":37.81931706,"longitude":-85.76390324,"id":"agu8e8mwp8ym","state":"Kentucky"},"type":"Feature","geometry":{"type":"Point","coordinates":[-85.76390324,37.81931706]}},{"properties":{"latitude":30.98153904,"longitude":-91.53179419,"id":"agu8e88rc1ri","state":"Louisiana"},"type":"Feature","geometry":{"type":"Point","coordinates":[-91.53179419,30.98153904]}},{"properties":{"latitude":45.27219253,"longitude":-69.02839014,"id":"agu8e8dby0s4","state":"Maine"},"type":"Feature","geometry":{"type":"Point","coordinates":[-69.02839014,45.27219253]}},{"properties":{"latitude":38.84785799,"longitude":-77.2677439,"id":"agu8e8d7ebsj","state":"Maryland"},"type":"Feature","geometry":{"type":"Point","coordinates":[-77.2677439,38.84785799]}},{"properties":{"latitude":42.06257858,"longitude":-71.7083099,"id":"agu8e8gxmrwo","state":"Massachusetts"},"type":"Feature","geometry":{"type":"Point","coordinates":[-71.7083099,42.06257858]}},{"properties":{"latitude":44.93564502,"longitude":-86.41401786,"id":"agu8e8ep6vr3","state":"Michigan"},"type":"Feature","geometry":{"type":"Point","coordinates":[-86.41401786,44.93564502]}},{"properties":{"latitude":46.43491612,"longitude":-93.38005479,"id":"agu8e8a472ti","state":"Minnesota"},"type":"Feature","geometry":{"type":"Point","coordinates":[-93.38005479,46.43491612]}},{"properties":{"latitude":32.59998842,"longitude":-89.86707555,"id":"agu8e8h5gfo4","state":"Mississippi"},"type":"Feature","geometry":{"type":"Point","coordinates":[-89.86707555,32.59998842]}},{"properties":{"latitude":38.2997204,"longitude":-92.43625673,"id":"agu8e8h1sea0","state":"Missouri"},"type":"Feature","geometry":{"type":"Point","coordinates":[-92.43625673,38.2997204]}},{"properties":{"latitude":46.67683322,"longitude":-110.0533018,"id":"agu8e8n72a43","state":"Montana"},"type":"Feature","geometry":{"type":"Point","coordinates":[-110.0533018,46.67683322]}},{"properties":{"latitude":41.49782869,"longitude":-99.6824583,"id":"agu8e8d7vnpo","state":"Nebraska"},"type":"Feature","geometry":{"type":"Point","coordinates":[-99.6824583,41.49782869]}},{"properties":{"latitude":38.49777576,"longitude":-117.0168584,"id":"agu8e87j92ul","state":"Nevada"},"type":"Feature","geometry":{"type":"Point","coordinates":[-117.0168584,38.49777576]}},{"properties":{"latitude":44.00003633,"longitude":-71.64378366,"id":"agu8e8czbcq2","state":"New Hampshire"},"type":"Feature","geometry":{"type":"Point","coordinates":[-71.64378366,44.00003633]}},{"properties":{"latitude":40.15362776,"longitude":-74.73319127,"id":"agu8e8n9v8y1","state":"New Jersey"},"type":"Feature","geometry":{"type":"Point","coordinates":[-74.73319127,40.15362776]}},{"properties":{"latitude":34.17160662,"longitude":-106.0243736,"id":"agu8e8i2g6gk","state":"New Mexico"},"type":"Feature","geometry":{"type":"Point","coordinates":[-106.0243736,34.17160662]}},{"properties":{"latitude":42.75607104,"longitude":-75.81661084,"id":"agu8e8j2d7bu","state":"New York"},"type":"Feature","geometry":{"type":"Point","coordinates":[-75.81661084,42.75607104]}},{"properties":{"latitude":35.23596621,"longitude":-79.89017696,"id":"agu8e8btvzbm","state":"North Carolina"},"type":"Feature","geometry":{"type":"Point","coordinates":[-79.89017696,35.23596621]}},{"properties":{"latitude":47.46542445,"longitude":-100.307461,"id":"agu8e8gwvpkb","state":"North Dakota"},"type":"Feature","geometry":{"type":"Point","coordinates":[-100.307461,47.46542445]}},{"properties":{"latitude":40.19369154,"longitude":-82.66603338,"id":"agu8e8kfd40t","state":"Ohio"},"type":"Feature","geometry":{"type":"Point","coordinates":[-82.66603338,40.19369154]}},{"properties":{"latitude":35.31130735,"longitude":-98.71313073,"id":"agu8e8ezk1xd","state":"Oklahoma"},"type":"Feature","geometry":{"type":"Point","coordinates":[-98.71313073,35.31130735]}},{"properties":{"latitude":44.11188188,"longitude":-120.5150179,"id":"agu8e8lzvpi2","state":"Oregon"},"type":"Feature","geometry":{"type":"Point","coordinates":[-120.5150179,44.11188188]}},{"properties":{"latitude":40.99332035,"longitude":-77.61305381,"id":"agu8e8eevewj","state":"Pennsylvania"},"type":"Feature","geometry":{"type":"Point","coordinates":[-77.61305381,40.99332035]}},{"properties":{"latitude":41.66824148,"longitude":-71.49190558,"id":"agu8e8ko0f5m","state":"Rhode Island"},"type":"Feature","geometry":{"type":"Point","coordinates":[-71.49190558,41.66824148]}},{"properties":{"latitude":33.63826517,"longitude":-80.96506932,"id":"agu8e8id1i81","state":"South Carolina"},"type":"Feature","geometry":{"type":"Point","coordinates":[-80.96506932,33.63826517]}},{"properties":{"latitude":44.21600327,"longitude":-100.2502154,"id":"agu8e8ghoug4","state":"South Dakota"},"type":"Feature","geometry":{"type":"Point","coordinates":[-100.2502154,44.21600327]}},{"properties":{"latitude":35.83422151,"longitude":-85.97886026,"id":"agu8e88em8z6","state":"Tennessee"},"type":"Feature","geometry":{"type":"Point","coordinates":[-85.97886026,35.83422151]}},{"properties":{"latitude":31.16973507,"longitude":-100.0787254,"id":"agu8e8l93176","state":"Texas"},"type":"Feature","geometry":{"type":"Point","coordinates":[-100.0787254,31.16973507]}},{"properties":{"latitude":39.49702344,"longitude":-111.5452397,"id":"agu8e8h7l5qn","state":"Utah"},"type":"Feature","geometry":{"type":"Point","coordinates":[-111.5452397,39.49702344]}},{"properties":{"latitude":43.86960212,"longitude":-72.47068651,"id":"agu8e8n8tvyb","state":"Vermont"},"type":"Feature","geometry":{"type":"Point","coordinates":[-72.47068651,43.86960212]}},{"properties":{"latitude":37.99931082,"longitude":-79.45869803,"id":"agu8e8g03r4p","state":"Virginia"},"type":"Feature","geometry":{"type":"Point","coordinates":[-79.45869803,37.99931082]}},{"properties":{"latitude":47.27151208,"longitude":-120.8259511,"id":"agu8e8fyjbrd","state":"Washington"},"type":"Feature","geometry":{"type":"Point","coordinates":[-120.8259511,47.27151208]}},{"properties":{"latitude":38.9210566,"longitude":-80.18731287,"id":"agu8e8e34rzg","state":"West Virginia"},"type":"Feature","geometry":{"type":"Point","coordinates":[-80.18731287,38.9210566]}},{"properties":{"latitude":44.72081619,"longitude":-89.92655482,"id":"agu8e8ht3naa","state":"Wisconsin"},"type":"Feature","geometry":{"type":"Point","coordinates":[-89.92655482,44.72081619]}},{"properties":{"latitude":42.99854103,"longitude":-107.5525671,"id":"agu8e8d8tu9z","state":"Wyoming"},"type":"Feature","geometry":{"type":"Point","coordinates":[-107.5525671,42.99854103]}}],"is_temporal":false,"author":{"url":"","metadata":"","contact_name":"","contact_address":"","source":"","contact_phone":""},"source":"","pagination":{"sort":null,"start":0,"total":51,"limit":1000000},"state":"complete","tags":"","published":"2014-08-16T13:28:23-04:00","id":390532}