{"type":"FeatureCollection","data_type":"Dataset","url_type":null,"permissions":[{"permissions":{"download":true,"view":true},"group_id":"everyone"}],"classification":null,"title":"InDevelopment 8.29.13","count":139,"stream_id":390582,"contributor":{"url":"http://geocommons.com/users/71562","name":"csuch"},"data_attributes":null,"calculation_params":null,"icon_link":null,"link":"http://geocommons.com/overlays/390582.json","extent":[-122.704,26.1706,-73.4163,47.6708],"geometry_types":["point"],"unique_name":null,"name":"InDevelopment 8.29.13","feature_count":139,"description":"","next_feature":null,"is_raster":false,"short_classification":"Y","stats":{},"features":[{"properties":{"city":"Pflugerville","lead status":"SNO- in Construction","zip":"78660","last name":"Odom","unit":"1 of 10","geo_score":0.812,"id":"agub7o79lhbs","address":"1608 Town Center Dr.","geo_precision":"range","state":"TX"},"type":"Feature","geometry":{"type":"Point","coordinates":[-97.664902,30.450958]}},{"properties":{"city":"New York","lead status":"SNO- in Construction","zip":"10022","last name":"Gallo","unit":"Jersey Mike's 56th AND 3rd LLC","geo_score":1.0,"id":"agub7o6twnbo","address":"938 3rd Ave","geo_precision":"range","state":"NY"},"type":"Feature","geometry":{"type":"Point","coordinates":[-73.967723,40.760065]}},{"properties":{"city":"Los Angeles","lead status":"SNO- in Construction","zip":"90048","last name":"Baldieri","unit":"1 of 3","geo_score":1.0,"id":"agub7o6u0ob3","address":"6361 Wilshire Blvd","geo_precision":"range","state":"CA"},"type":"Feature","geometry":{"type":"Point","coordinates":[-118.366835,34.063625]}},{"properties":{"city":"Bee Cave - Hill Country Galleria","lead status":"SNO- in Construction","zip":"78738","last name":"Cullen","unit":"1 of 3","geo_score":0.504,"id":"agub7o39blgl","address":"4005 Market Street","geo_precision":"street","state":"TX"},"type":"Feature","geometry":{"type":"Point","coordinates":[-97.751133,30.326409]}},{"properties":{"city":"Largo","lead status":"SNO- in Construction","zip":"33760","last name":"Connolly","unit":"3 of 3","geo_score":0.932,"id":"agub7o3b4cr1","address":"2687 Roosevelt Blvd","geo_precision":"range","state":"FL"},"type":"Feature","geometry":{"type":"Point","coordinates":[-82.728855,27.916194]}},{"properties":{"city":"Golden Valley","lead status":"SNO- in Construction","zip":"91387","last name":"Youlios","unit":"Single Unit","geo_score":0.531,"id":"agub7o4fop8v","address":"19159 Golden Valley Rd","geo_precision":"street","state":"CA"},"type":"Feature","geometry":{"type":"Point","coordinates":[-118.447259,34.417078]}},{"properties":{"city":"Chula Vista","lead status":"SNO- in Construction","zip":"91915","last name":"Jehamy","unit":"1 of 5","geo_score":0.537,"id":"agub7o3mcajf","address":"2015 Birch Road","geo_precision":"street","state":"CA"},"type":"Feature","geometry":{"type":"Point","coordinates":[-117.00351,32.716679]}},{"properties":{"city":"Winter Springs","lead status":"SNO- in Construction","zip":"32708","last name":"Gillespie","unit":null,"geo_score":1.0,"id":"agub7o8cp23n","address":"5655 Red Bug Lake Rd","geo_precision":"range","state":"FL"},"type":"Feature","geometry":{"type":"Point","coordinates":[-81.267772,28.647723]}},{"properties":{"city":"Fort Wayne","lead status":"SNO- in Construction","zip":"46803","last name":"Lee Pines","unit":"1 of 3","geo_score":0.787,"id":"agub7ob0ckio","address":"6404 W Jefferson Blvd","geo_precision":"street","state":"IN"},"type":"Feature","geometry":{"type":"Point","coordinates":[-85.125607,41.077858]}},{"properties":{"city":"Oceanside","lead status":"SNO- in Construction","zip":"92056","last name":"Ensberg","unit":"1 of 3","geo_score":1.0,"id":"agub7o5k1s36","address":"4111 Oceanside Blvd","geo_precision":"range","state":"CA"},"type":"Feature","geometry":{"type":"Point","coordinates":[-117.284971,33.20724]}},{"properties":{"city":"San Diego Area","lead status":"SNO- in Construction","zip":"92120","last name":"Downey","unit":"1 of 3","geo_score":0.452,"id":"agub7o27ig3g","address":"6545 Mission Gorge","geo_precision":"street","state":"CA"},"type":"Feature","geometry":{"type":"Point","coordinates":[-117.105625,32.703637]}},{"properties":{"city":"Carlsbad (Plaza South)","lead status":"SNO- in Construction","zip":"92010","last name":"Weir","unit":"3 of 3","geo_score":0.662,"id":"agub7o50t4p2","address":"2604 El Camino Real","geo_precision":"street","state":"CA"},"type":"Feature","geometry":{"type":"Point","coordinates":[-117.276627,33.141019]}},{"properties":{"city":"Marlton","lead status":"SNO- in Construction","zip":"8053","last name":"Helm","unit":"4 of 5","geo_score":0.805,"id":"agub7ocwctzl","address":"900 Route 73 North","geo_precision":"range","state":"NJ"},"type":"Feature","geometry":{"type":"Point","coordinates":[-74.921675,39.862323]}},{"properties":{"city":"Redding","lead status":"SNO- in Construction","zip":"96003","last name":"Ball","unit":"1 of 3c","geo_score":1.0,"id":"agub7nxe86iq","address":"835 Browning Street","geo_precision":"range","state":"CA"},"type":"Feature","geometry":{"type":"Point","coordinates":[-122.35797,40.592933]}},{"properties":{"city":"East Peoria","lead status":"SNO- in Construction","zip":"61611","last name":"Rubba/Abu-Saba","unit":"single","geo_score":0.633,"id":"agub7o7bsiof","address":"W Washington St &amp; Clock Tower Dr","geo_precision":"street","state":"IL"},"type":"Feature","geometry":{"type":"Point","coordinates":[-89.536754,40.675409]}},{"properties":{"city":"Portland (Landmark)","lead status":"SNO- in Construction","zip":"97232","last name":"Baluyut","unit":"4 of 5A","geo_score":0.881,"id":"agub7ocnxlt4","address":"628 NE Broadway","geo_precision":"range","state":"OR"},"type":"Feature","geometry":{"type":"Point","coordinates":[-122.658804,45.534989]}},{"properties":{"city":"W Long Branch","lead status":"SNO- in Construction","zip":"7764","last name":"Gomez","unit":"Aramark","geo_score":0.982,"id":"agub7o1j60kr","address":"400 Cedar Ave","geo_precision":"range","state":"NJ"},"type":"Feature","geometry":{"type":"Point","coordinates":[-74.004804,40.281751]}},{"properties":{"city":"Frisco","lead status":"SNO- in Construction","zip":"75035","last name":"Zeigler","unit":"2 of 3","geo_score":0.647,"id":"agub7o7zf8gk","address":"15962 W Eldorado","geo_precision":"street","state":"TX"},"type":"Feature","geometry":{"type":"Point","coordinates":[-96.781793,33.174563]}},{"properties":{"city":"Salisbury","lead status":"SNO- in Construction","zip":"21801","last name":"Mouly","unit":"1 of 10","geo_score":0.598,"id":"agub7o64go6u","address":"1405 S. Salisbury Blvd","geo_precision":"street","state":"MD"},"type":"Feature","geometry":{"type":"Point","coordinates":[-75.601432,38.366226]}},{"properties":{"city":"Lincoln","lead status":"SNO- in Construction","zip":"68510","last name":"Marcotte","unit":"2 of 3B","geo_score":1.0,"id":"agub7o1bz4sr","address":"5001 O Street","geo_precision":"range","state":"NE"},"type":"Feature","geometry":{"type":"Point","coordinates":[-96.648929,40.813401]}},{"properties":{"city":"Farmington Hills","lead status":"SNO- in Construction","zip":"48334","last name":"Middleton","unit":"3 of 10A","geo_score":0.963,"id":"agub7oa8wavm","address":"33216 W 12 Mile Road","geo_precision":"range","state":"MI"},"type":"Feature","geometry":{"type":"Point","coordinates":[-83.377331,42.498785]}},{"properties":{"city":"Carlsbad (Palomar)","lead status":"SNO- in Construction","zip":"92011","last name":"Weir","unit":"2 of 3","geo_score":0.843,"id":"agub7odgm79o","address":"2521 Palomar Airport Rd","geo_precision":"range","state":"CA"},"type":"Feature","geometry":{"type":"Point","coordinates":[-117.275414,33.125409]}},{"properties":{"city":"Riverside","lead status":"SNO- in Construction","zip":"92532","last name":"Samaan","unit":"1 of 3","geo_score":0.319,"id":"agub7odmcstq","address":"497 E. Alessandro","geo_precision":"street","state":"CA"},"type":"Feature","geometry":{"type":"Point","coordinates":[-116.95383,33.778321]}},{"properties":{"city":"Murrieta","lead status":"SNO- in Construction","zip":"92562","last name":"Ilic","unit":"Single Unit","geo_score":0.805,"id":"agub7o5pz7vu","address":"27614 Clinton Keith Road","geo_precision":"street","state":"CA"},"type":"Feature","geometry":{"type":"Point","coordinates":[-117.257624,33.579034]}},{"properties":{"city":"El Cajon","lead status":"SNO- in Construction","zip":"92021","last name":"Ibrahim","unit":"1 of 5","geo_score":1.0,"id":"agub7o7guwfq","address":"141 Broadway","geo_precision":"range","state":"CA"},"type":"Feature","geometry":{"type":"Point","coordinates":[-116.960747,32.80761]}},{"properties":{"city":"Las Vegas","lead status":"SNO- in Construction","zip":"89119","last name":"Mapes","unit":null,"geo_score":0.77,"id":"agub7o2taw1j","address":"7390 Las Vegas Blvd","geo_precision":"street","state":"NV"},"type":"Feature","geometry":{"type":"Point","coordinates":[-115.172347,36.060429]}},{"properties":{"city":"DeKalb","lead status":"SNO- in Construction","zip":"60115","last name":"Shaw","unit":"1 of 3","geo_score":0.604,"id":"agub7o668d89","address":"1101 W. Lincoln Hwy","geo_precision":"street","state":"IL"},"type":"Feature","geometry":{"type":"Point","coordinates":[-88.752719,41.930333]}},{"properties":{"city":"Lynchburg","lead status":"SNO- in Construction","zip":"24501","last name":"Buckner","unit":null,"geo_score":1.0,"id":"agub7oc7mr9j","address":"Lakeside Dr &amp; Lynchburg Expressway","geo_precision":"street","state":"VA"},"type":"Feature","geometry":{"type":"Point","coordinates":[-79.168539,37.404948]}},{"properties":{"city":"Auburn","lead status":"SNO- in Construction","zip":"98001","last name":"Neyens","unit":null,"geo_score":0.65,"id":"agub7obpe499","address":"920 15th St NW","geo_precision":"street","state":"WA"},"type":"Feature","geometry":{"type":"Point","coordinates":[-122.238618,47.322209]}},{"properties":{"city":"Fountain","lead status":"SNO- in Construction","zip":"80817","last name":"Holliday","unit":"2 of 5","geo_score":0.669,"id":"agub7o5r7bpq","address":"6925 Mesa Ridge Parkway","geo_precision":"street","state":"CO"},"type":"Feature","geometry":{"type":"Point","coordinates":[-104.714229,38.715513]}},{"properties":{"city":"Ontario","lead status":"SNO- in Construction","zip":"91764","last name":"Cuellar","unit":"1 of 3","geo_score":0.805,"id":"agub7o2kipep","address":"1150 E Philadelphia St","geo_precision":"range","state":"CA"},"type":"Feature","geometry":{"type":"Point","coordinates":[-117.629536,34.033893]}},{"properties":{"city":"Lady Lake","lead status":"SNO- in Construction","zip":"32159","last name":"Richard/Price","unit":"1 of 3","geo_score":0.514,"id":"agub7od9q2wf","address":"506 South US Hwy 441/27","geo_precision":"street","state":"FL"},"type":"Feature","geometry":{"type":"Point","coordinates":[-81.921508,28.915698]}},{"properties":{"city":"Elizabeth City","lead status":"SNO- in Construction","zip":"27909","last name":"Hayman/Evans","unit":"1 of 5","geo_score":0.776,"id":"agub7od4wx2n","address":"103 Tanglewood Pkwy","geo_precision":"street","state":"NC"},"type":"Feature","geometry":{"type":"Point","coordinates":[-76.261701,36.316195]}},{"properties":{"city":"Encino (Northridge)","lead status":"SNO- in Construction","zip":"91324","last name":"Armenta","unit":"Single Unit","geo_score":0.805,"id":"agub7o91qemf","address":"12052 Beaufait Avenue","geo_precision":"range","state":"CA"},"type":"Feature","geometry":{"type":"Point","coordinates":[-118.536423,34.28898]}},{"properties":{"city":"La Habra","lead status":"SNO- in Construction","zip":"90631","last name":"May","unit":"2 of 3","geo_score":1.0,"id":"agub7oa9rg20","address":"1370 S Beach Blvd","geo_precision":"range","state":"CA"},"type":"Feature","geometry":{"type":"Point","coordinates":[-117.968083,33.91721]}},{"properties":{"city":"Mt. Airy","lead status":"SNO- in Construction","zip":"21771","last name":"Sargent","unit":"SINGLE","geo_score":0.943,"id":"agub7o42idop","address":"East Ridgeville Blvd","geo_precision":"street","state":"MD"},"type":"Feature","geometry":{"type":"Point","coordinates":[-77.165796,39.365444]}},{"properties":{"city":"Bakersefield","lead status":"SNO- in Construction","zip":"93313","last name":"Knight","unit":"2 of 3","geo_score":0.621,"id":"agub7o8noqfx","address":"11350 Ming Avenue","geo_precision":"street","state":"CA"},"type":"Feature","geometry":{"type":"Point","coordinates":[-119.072617,35.304781]}},{"properties":{"city":"Joliet","lead status":"SNO- in Construction","zip":"60435","last name":"Shaw","unit":"2 of 3","geo_score":0.805,"id":"agub7o4rechc","address":"4806 Caton Farm Rd","geo_precision":"street","state":"IL"},"type":"Feature","geometry":{"type":"Point","coordinates":[-88.160407,41.565524]}},{"properties":{"city":"St. Petersburg","lead status":"SNO- in Construction","zip":"33709","last name":"Griffith","unit":"1 of 5","geo_score":0.781,"id":"agub7od6mvf8","address":"3832 Tyrone Blvd","geo_precision":"street","state":"FL"},"type":"Feature","geometry":{"type":"Point","coordinates":[-82.755232,27.810247]}},{"properties":{"city":"Virginia Beach (Lynnhaven)","lead status":"SNO- in Construction","zip":"23452","last name":"Anderson","unit":"5 of 10A","geo_score":0.955,"id":"agub7o1fajw5","address":"687 Lynnhaven Parkway","geo_precision":"range","state":"VA"},"type":"Feature","geometry":{"type":"Point","coordinates":[-76.067093,36.81793]}},{"properties":{"city":"Newport Beach","lead status":"SNO- in Construction","zip":"92660","last name":"Haget","unit":"3 of 10","geo_score":0.815,"id":"agub7o0wtidc","address":"1318 Bison Avenue","geo_precision":"street","state":"CA"},"type":"Feature","geometry":{"type":"Point","coordinates":[-117.864681,33.637612]}},{"properties":{"city":"Temecula","lead status":"SNO-in Permit","zip":"92590","last name":"Leonard","unit":"2 of 5","geo_score":0.52,"id":"agub7o1scnor","address":"32068 Temecula Parkway","geo_precision":"street","state":"CA"},"type":"Feature","geometry":{"type":"Point","coordinates":[-117.118569,33.471796]}},{"properties":{"city":"Madison Heights","lead status":"SNO-in Permit","zip":"48071","last name":"Middleton","unit":"3 of 10B","geo_score":1.0,"id":"agub7nykmreg","address":"Fourteen Mile Rd &amp; John R Rd","geo_precision":"street","state":"MI"},"type":"Feature","geometry":{"type":"Point","coordinates":[-83.104694,42.476734]}},{"properties":{"city":"Birmingham","lead status":"SNO-in Permit","zip":"33779","last name":"Middleton","unit":"2 of10A","geo_score":0.488,"id":"agub7oa6ypop","address":"33779 Woodward Avenue","geo_precision":"zip","state":"MI"},"type":"Feature","geometry":{"type":"Point","coordinates":[-82.772483,27.839698]}},{"properties":{"city":"Odessa- Parks Lagado","lead status":"SNO-in Permit","zip":"79765","last name":"Betancourt","unit":"2 of 3B","geo_score":0.61,"id":"agub7ob03t3j","address":"7270 State Hwy 191","geo_precision":"street","state":"TX"},"type":"Feature","geometry":{"type":"Point","coordinates":[-102.223876,31.98159]}},{"properties":{"city":"New Lenox","lead status":"SNO-in Permit","zip":"60451","last name":"Shimmon","unit":"2 of 10","geo_score":1.0,"id":"agub7o4a89zu","address":"501 E Lincoln Hwy","geo_precision":"range","state":"IL"},"type":"Feature","geometry":{"type":"Point","coordinates":[-87.953791,41.512335]}},{"properties":{"city":"Midland","lead status":"SNO-in Permit","zip":"79707","last name":"Betancourt","unit":"1 of 3B","geo_score":0.707,"id":"agub7odsofr2","address":"4400 N. Midland Dr.  Ste. 700","geo_precision":"range","state":"TX"},"type":"Feature","geometry":{"type":"Point","coordinates":[-102.134095,31.993605]}},{"properties":{"city":"Owings Mills","lead status":"SNO-in Permit","zip":"21117","last name":"Horn","unit":"1 of 10","geo_score":1.0,"id":"agub7nyxqpqu","address":"9402 Reisterstown Rd","geo_precision":"range","state":"MD"},"type":"Feature","geometry":{"type":"Point","coordinates":[-76.751881,39.39953]}},{"properties":{"city":"Washington","lead status":"SNO-in Permit","zip":"20001","last name":"Schoonover","unit":"Single Unit","geo_score":0.805,"id":"agub7o7dird2","address":"1100 Vermont Avenue NW","geo_precision":"street","state":"DC"},"type":"Feature","geometry":{"type":"Point","coordinates":[-77.02653,38.914933]}},{"properties":{"city":"Somers Point","lead status":"SNO-in Permit","zip":"8244","last name":"Hurley","unit":"1 of 3","geo_score":1.0,"id":"agub7o3336ys","address":"319 New Rd","geo_precision":"range","state":"NJ"},"type":"Feature","geometry":{"type":"Point","coordinates":[-74.597084,39.327865]}},{"properties":{"city":"Pleasanton","lead status":"SNO-in Permit","zip":"94566","last name":"Ball","unit":"2 of 5a","geo_score":1.0,"id":"agub7oao2q6t","address":"6654 Koll Center Parkway","geo_precision":"range","state":"CA"},"type":"Feature","geometry":{"type":"Point","coordinates":[-121.898709,37.659287]}},{"properties":{"city":"Long Beach","lead status":"SNO-in Permit","zip":"90808","last name":"Garcia","unit":"3 of 10C","geo_score":0.708,"id":"agub7nz29cuo","address":"3821 Lakewood Blvd","geo_precision":"street","state":"CA"},"type":"Feature","geometry":{"type":"Point","coordinates":[-118.14254,33.83329]}},{"properties":{"city":"El Paso- Joe Battle","lead status":"SNO-in Permit","zip":"79936","last name":"Betancourt","unit":"1 of 3A","geo_score":0.767,"id":"agub7o7tfpjq","address":"Joe Battle","geo_precision":"street","state":"TX"},"type":"Feature","geometry":{"type":"Point","coordinates":[-106.285709,31.699613]}},{"properties":{"city":"Santee","lead status":"SNO-in Permit","zip":"92071","last name":"Ibrahim","unit":"2 of 5","geo_score":0.673,"id":"agub7ocr4hue","address":"9331 Mission Gorge Ave","geo_precision":"street","state":"CA"},"type":"Feature","geometry":{"type":"Point","coordinates":[-116.997749,32.83981]}},{"properties":{"city":"Ft Lauderdale","lead status":"SNO-in Permit","zip":"33309","last name":"Cancro","unit":"JM Andrews LLC","geo_score":0.651,"id":"agub7oavvxw5","address":"Cypress &amp; Andrews","geo_precision":"street","state":"FL"},"type":"Feature","geometry":{"type":"Point","coordinates":[-80.146564,26.170572]}},{"properties":{"city":"City Of Industry","lead status":"SNO-in Permit","zip":"91748","last name":"Bates","unit":"Single Unit","geo_score":0.921,"id":"agub7o35g5c3","address":"18200 Gale Ave","geo_precision":"range","state":"CA"},"type":"Feature","geometry":{"type":"Point","coordinates":[-117.909666,33.994872]}},{"properties":{"city":"Chantilly (Eastgate)","lead status":"SNO-in Permit","zip":"20152","last name":"Switaj","unit":"5 of 5","geo_score":0.921,"id":"agub7o0pwhiw","address":"Tall Cedars Parkway","geo_precision":"street","state":"VA"},"type":"Feature","geometry":{"type":"Point","coordinates":[-77.544356,38.932825]}},{"properties":{"city":"San Dimas","lead status":"SNO-in Permit","zip":"91773","last name":"Garcia","unit":"7 of 10A","geo_score":0.914,"id":"agub7nynzabo","address":"Lonehill Ave &amp; Gladstone St","geo_precision":"street","state":"CA"},"type":"Feature","geometry":{"type":"Point","coordinates":[-117.828827,34.106587]}},{"properties":{"city":"Lake Oswego","lead status":"SNO-in Permit","zip":"97035","last name":"Baluyut","unit":"3 of 5","geo_score":0.902,"id":"agub7o7amayv","address":"3 Monroe Parkway","geo_precision":"street","state":"OR"},"type":"Feature","geometry":{"type":"Point","coordinates":[-122.703769,45.432365]}},{"properties":{"city":"Chesterfield","lead status":"SNO-in Permit","zip":"63005","last name":"Shanahan","unit":null,"geo_score":1.0,"id":"agub7o7kxci5","address":"17273 Chesterfield Airport Rd","geo_precision":"range","state":"MO"},"type":"Feature","geometry":{"type":"Point","coordinates":[-90.591585,38.66853]}},{"properties":{"city":"Fullerton","lead status":"SNO-in Permit","zip":"92831","last name":"Palomaria","unit":"Single Unit","geo_score":0.604,"id":"agub7o7ei7d2","address":"2561 E. Chapman Avenue","geo_precision":"street","state":"CA"},"type":"Feature","geometry":{"type":"Point","coordinates":[-117.91303,33.87404]}},{"properties":{"city":"DeLand","lead status":"SNO-in Permit","zip":"32724","last name":"Padgett","unit":"3 of 5","geo_score":0.713,"id":"agub7nymj2s8","address":"112 N Woodland Blvd","geo_precision":"street","state":"FL"},"type":"Feature","geometry":{"type":"Point","coordinates":[-81.304707,29.071921]}},{"properties":{"city":"New Braunfels","lead status":"SNO-in Permit","zip":"78132","last name":"Odom","unit":"2 of 10","geo_score":0.958,"id":"agub7o4nbx53","address":"1691 State Highway 46 W","geo_precision":"range","state":"TX"},"type":"Feature","geometry":{"type":"Point","coordinates":[-98.159139,29.715641]}},{"properties":{"city":"Red Bank","lead status":"SNO-in Permit","zip":"7701","last name":"Cancro","unit":null,"geo_score":1.0,"id":"agub7o8mal1w","address":"100 Water St","geo_precision":"range","state":"NJ"},"type":"Feature","geometry":{"type":"Point","coordinates":[-74.070217,40.350235]}},{"properties":{"city":"North Charleston","lead status":"SNO-in Permit","zip":"29485","last name":"Delman","unit":null,"geo_score":0.817,"id":"agub7o4nt5tg","address":"9500 Dorchester Rd","geo_precision":"range","state":"SC"},"type":"Feature","geometry":{"type":"Point","coordinates":[-80.096885,32.907885]}},{"properties":{"city":"Bloomingdale","lead status":"SNO-in Permit","zip":"60108","last name":"Michalak","unit":null,"geo_score":0.961,"id":"agub7o1u3c1u","address":"383 W Army Trail Rd","geo_precision":"range","state":"IL"},"type":"Feature","geometry":{"type":"Point","coordinates":[-88.111473,41.939321]}},{"properties":{"city":"Aiken","lead status":"SNO-in Permit","zip":"29803","last name":"Clark","unit":"3 of 5","geo_score":0.585,"id":"agub7o274g06","address":"238 Eastgate Dr","geo_precision":"zip","state":"SC"},"type":"Feature","geometry":{"type":"Point","coordinates":[-81.654275,33.554586]}},{"properties":{"city":"Flower Mound","lead status":"SNO-in Permit","zip":"75022","last name":"Selden","unit":"3 of 5f","geo_score":0.61,"id":"agub7o2me3cm","address":"FM 407 &amp; Chinn Chapel Rd","geo_precision":"street","state":"TX"},"type":"Feature","geometry":{"type":"Point","coordinates":[-97.17728,33.043659]}},{"properties":{"city":"Suffolk","lead status":"SNO-in Permit","zip":null,"last name":"Anderson","unit":"4 of 10B","geo_score":0.714,"id":"agub7o88tnuh","address":null,"geo_precision":"city","state":"VA"},"type":"Feature","geometry":{"type":"Point","coordinates":[-76.553061,36.874916]}},{"properties":{"city":"Frankfort","lead status":"SNO-in Permit","zip":"60423","last name":"Shimmon","unit":"3 of 10","geo_score":1.0,"id":"agub7nxuebkr","address":"Route 30 &amp; La Grange Rd","geo_precision":"street","state":"IL"},"type":"Feature","geometry":{"type":"Point","coordinates":[-87.807177,41.506599]}},{"properties":{"city":"Surprise","lead status":"SNO-in Permit","zip":"85374","last name":"Mapes","unit":"Single","geo_score":0.619,"id":"agub7nyv63l8","address":"14071 W. Bell Rd","geo_precision":"street","state":"AZ"},"type":"Feature","geometry":{"type":"Point","coordinates":[-112.302124,33.638599]}},{"properties":{"city":"Springfield","lead status":"SNO-in Permit","zip":"22150","last name":"Treacy","unit":"3 of 10","geo_score":1.0,"id":"agub7o0cyfat","address":"7000 Brookfield Plaza","geo_precision":"range","state":"VA"},"type":"Feature","geometry":{"type":"Point","coordinates":[-77.186514,38.773756]}},{"properties":{"city":"Irving","lead status":"SNO - Lease Executed","zip":"75063","last name":"Selden","unit":"1 of 5f","geo_score":0.602,"id":"agub7o8v5h4o","address":"SEQ Beltline &amp; US 635","geo_precision":"street","state":"TX"},"type":"Feature","geometry":{"type":"Point","coordinates":[-96.991141,32.892725]}},{"properties":{"city":"TBD - Troy","lead status":"SNO - Lease Executed","zip":"48034","last name":"Middleton","unit":"1 of 10A","geo_score":0.714,"id":"agub7odgihwo","address":"NWC of Crooks Rd / Corporate Dr","geo_precision":"street","state":"MI"},"type":"Feature","geometry":{"type":"Point","coordinates":[-83.170762,42.598203]}},{"properties":{"city":"Freehold","lead status":"SNO - Lease Executed","zip":"7764","last name":"Cancro","unit":null,"geo_score":0.457,"id":"agub7o3wywyk","address":"Route 9","geo_precision":"street","state":"NJ"},"type":"Feature","geometry":{"type":"Point","coordinates":[-74.304152,40.299112]}},{"properties":{"city":"Cary","lead status":"SNO - Lease Executed","zip":"27519","last name":"Cancro","unit":null,"geo_score":0.286,"id":"agub7nz8oolu","address":"7165 OKelly Chapel Rd","geo_precision":"street","state":"NC"},"type":"Feature","geometry":{"type":"Point","coordinates":[-78.651277,36.119035]}},{"properties":{"city":"Phoenix","lead status":"SNO - Lease Executed","zip":"85040","last name":"Rosenfield","unit":"6 of 10A","geo_score":0.932,"id":"agub7nxhhm9o","address":"3120 E Broadway","geo_precision":"range","state":"AZ"},"type":"Feature","geometry":{"type":"Point","coordinates":[-112.014741,33.407094]}},{"properties":{"city":"Tampa","lead status":"SNO - Lease Executed","zip":"33625","last name":"Mcclure","unit":null,"geo_score":1.0,"id":"agub7nzm16e6","address":"6917 Gunn Highway","geo_precision":"range","state":"FL"},"type":"Feature","geometry":{"type":"Point","coordinates":[-82.566252,28.065809]}},{"properties":{"city":"Atlanta - Hatsfield Airport","lead status":"SNO- in Design","zip":"30324","last name":"Tabb","unit":null,"geo_score":0.876,"id":"agub7ob6kgsp","address":"680 Greystone Park","geo_precision":"range","state":"GA"},"type":"Feature","geometry":{"type":"Point","coordinates":[-84.365855,33.800646]}},{"properties":{"city":"Deerfield Beach","lead status":"SNO- in Design","zip":"33441","last name":"Cancro","unit":"JM Deerfield LLC","geo_score":1.0,"id":"agub7nzhj4ef","address":"1041 E Hillsboro Blvd","geo_precision":"range","state":"FL"},"type":"Feature","geometry":{"type":"Point","coordinates":[-80.090543,26.318047]}},{"properties":{"city":"Menifee","lead status":"SNO- in Design","zip":"92584","last name":"Ilic","unit":"Single Unit","geo_score":1.0,"id":"agub7o9z16ev","address":"Newport Rd &amp; Haun Rd","geo_precision":"street","state":"CA"},"type":"Feature","geometry":{"type":"Point","coordinates":[-117.175579,33.677707]}},{"properties":{"city":"Virginia Beach (Landstown)","lead status":"SNO- in Design","zip":"23456","last name":"Anderson","unit":"4 of 10A","geo_score":0.934,"id":"agub7odra16l","address":"Princess Anne Rd &amp; Landstown Centre Way","geo_precision":"street","state":"VA"},"type":"Feature","geometry":{"type":"Point","coordinates":[-76.023104,36.68308]}},{"properties":{"city":"Waterford","lead status":"SNO- in Design","zip":"48328","last name":"Semaan","unit":"Single","geo_score":0.477,"id":"agub7nze6mi9","address":"4399 Highland Rd","geo_precision":"street","state":"MI"},"type":"Feature","geometry":{"type":"Point","coordinates":[-83.224826,42.787621]}},{"properties":{"city":"Manassas","lead status":"SNO- in Design","zip":"20109","last name":"White","unit":"3 of 10","geo_score":1.0,"id":"agub7o5aqn3f","address":"7418 Sudley Rd","geo_precision":"range","state":"VA"},"type":"Feature","geometry":{"type":"Point","coordinates":[-77.516555,38.793355]}},{"properties":{"city":"Canton","lead status":"SNO- in Design","zip":"48187","last name":"Shipman","unit":null,"geo_score":1.0,"id":"agub7o82e4fd","address":"42448 Ford Rd","geo_precision":"range","state":"MI"},"type":"Feature","geometry":{"type":"Point","coordinates":[-83.462811,42.322557]}},{"properties":{"city":"Fleming Island","lead status":"SNO- in Design","zip":"32003","last name":"Maider","unit":"Single","geo_score":0.551,"id":"agub7nxn2eoc","address":"1647 County Road","geo_precision":"street","state":"FL"},"type":"Feature","geometry":{"type":"Point","coordinates":[-81.432568,26.697184]}},{"properties":{"city":"Corona (Corona Hills Plaza)","lead status":"SNO- in Design","zip":"92879","last name":"Rubalcaba","unit":"3 of 3","geo_score":0.364,"id":"agub7o11igdv","address":"Route 91 &amp; McKinley St","geo_precision":"street","state":"CA"},"type":"Feature","geometry":{"type":"Point","coordinates":[-117.601843,33.859332]}},{"properties":{"city":"San Marcos","lead status":"SNO- in Design","zip":"92069","last name":"Leonard","unit":"3 of 5","geo_score":1.0,"id":"agub7o4hv3j9","address":"730 Nordahl Rd","geo_precision":"range","state":"CA"},"type":"Feature","geometry":{"type":"Point","coordinates":[-117.120391,33.133639]}},{"properties":{"city":"Lake Orion","lead status":"SNO- in Design","zip":"48362","last name":"Staub","unit":null,"geo_score":1.0,"id":"agub7o3m39bw","address":"N Lapeer Rd","geo_precision":"street","state":"MI"},"type":"Feature","geometry":{"type":"Point","coordinates":[-83.239828,42.78192]}},{"properties":{"city":"Keller","lead status":"SNO - Site Approved","zip":"76248","last name":"Selden","unit":"2 of 10C","geo_score":0.844,"id":"agub7o5svoao","address":"Keller Blvd &amp; Keller-Smithfield Rd","geo_precision":"street","state":"TX"},"type":"Feature","geometry":{"type":"Point","coordinates":[-97.252597,32.934585]}},{"properties":{"city":"Houston - Louetta","lead status":"SNO - Site Approved","zip":"77070","last name":"Nordenstrom","unit":"4 of 10","geo_score":0.916,"id":"agub7o3v12so","address":"Louetta Rd &amp; Cutten Rd","geo_precision":"street","state":"TX"},"type":"Feature","geometry":{"type":"Point","coordinates":[-95.558881,29.994163]}},{"properties":{"city":"Lewisville (The Colony)","lead status":"SNO - Site Approved","zip":"75056","last name":"Hito","unit":"1 of 3","geo_score":0.59,"id":"agub7o3bvhmn","address":"State Hwy 121 &amp; Josey Lane","geo_precision":"street","state":"TX"},"type":"Feature","geometry":{"type":"Point","coordinates":[-96.911051,33.056215]}},{"properties":{"city":"Southlake","lead status":"SNO - Site Approved","zip":"76092","last name":"Selden","unit":"4 of 10C","geo_score":0.839,"id":"agub7oajiu29","address":"Southlake Blvd &amp; Nolen","geo_precision":"street","state":"TX"},"type":"Feature","geometry":{"type":"Point","coordinates":[-97.108576,32.932623]}},{"properties":{"city":"Columbia","lead status":"SNO - Site Approved","zip":"21075","last name":"Malamis","unit":null,"geo_score":0.484,"id":"agub7o0esxrt","address":"6630 Marie Curie Drive","geo_precision":"street","state":"MD"},"type":"Feature","geometry":{"type":"Point","coordinates":[-76.936715,39.53139]}},{"properties":{"city":"Plano- Park &amp; Toll","lead status":"SNO - Site Approved","zip":"75093","last name":"Hito","unit":"2 of 3","geo_score":0.819,"id":"agub7o1u71hw","address":"Park Blvd &amp; Dallas North Tollway","geo_precision":"street","state":"TX"},"type":"Feature","geometry":{"type":"Point","coordinates":[-96.771796,33.026871]}},{"properties":{"city":"Tulsa - Tulsa Hills","lead status":"SNO - Site Approved","zip":"74132","last name":"Redmon","unit":"2 of 3","geo_score":0.526,"id":"agub7o3eistv","address":"7336 S Olympia Dr W","geo_precision":"street","state":"OK"},"type":"Feature","geometry":{"type":"Point","coordinates":[-96.00495,36.092318]}},{"properties":{"city":"Palos Heights","lead status":"SNO - Site Approved","zip":"60463","last name":"Shimmon","unit":"4 of 10","geo_score":1.0,"id":"agub7o8lt4a1","address":"12801 S Harlem Ave","geo_precision":"range","state":"IL"},"type":"Feature","geometry":{"type":"Point","coordinates":[-87.796208,41.660312]}},{"properties":{"city":"Austin- Cedar Park","lead status":"SNO - Site Approved","zip":"78613","last name":"Odom","unit":"3 of 10","geo_score":0.937,"id":"agub7nzmz563","address":"Discovery Blvd &amp; FM 1431 White Stone Blvd","geo_precision":"street","state":"TX"},"type":"Feature","geometry":{"type":"Point","coordinates":[-97.828502,30.518386]}},{"properties":{"city":"Woodbury","lead status":"SNO - Site Approved","zip":"55125","last name":"Risch","unit":"2 of 3","geo_score":0.857,"id":"agub7o4dmpop","address":"Commerce Drive &amp; County 19","geo_precision":"street","state":"MN"},"type":"Feature","geometry":{"type":"Point","coordinates":[-92.905402,44.927239]}},{"properties":{"city":"Tulsa - Warren Place","lead status":"SNO - Site Approved","zip":"74136","last name":"Redmon","unit":"3 of 3","geo_score":0.737,"id":"agub7nxgyjhi","address":"61st Street South &amp; Yale Blvd","geo_precision":"street","state":"OK"},"type":"Feature","geometry":{"type":"Point","coordinates":[-95.981178,36.075235]}},{"properties":{"city":"Pooler","lead status":"SNO - Site Approved","zip":"31322","last name":"Brown","unit":null,"geo_score":1.0,"id":"agub7od2bhs5","address":"Pooler Parkway &amp; Benton Blvd","geo_precision":"street","state":"GA"},"type":"Feature","geometry":{"type":"Point","coordinates":[-81.267438,32.122309]}},{"properties":{"city":"Chicago (E Lake/N Wabash)","lead status":"SNO - Site Approved","zip":"60601","last name":"Patel","unit":"3 of 10","geo_score":0.897,"id":"agub7obshggs","address":"E Lake St &amp; N Wabash Ave","geo_precision":"street","state":"IL"},"type":"Feature","geometry":{"type":"Point","coordinates":[-87.626277,41.885737]}},{"properties":{"city":"Merrifield","lead status":"SNO - Site Approved","zip":"22180","last name":"Treacy","unit":"4 of 10","geo_score":0.665,"id":"agub7ocyx3ls","address":"TBD - 2700 Gallows Rd","geo_precision":"range","state":"VA"},"type":"Feature","geometry":{"type":"Point","coordinates":[-77.228,38.883068]}},{"properties":{"city":"Shelby Township","lead status":"SNO - Site Approved","zip":"48315","last name":"Middleton","unit":"4 of 10B","geo_score":0.914,"id":"agub7oa4qdb7","address":"Hall Rd &amp; Market St","geo_precision":"street","state":"MI"},"type":"Feature","geometry":{"type":"Point","coordinates":[-82.995274,42.627365]}},{"properties":{"city":"Orange City","lead status":"SNO - Site Approved","zip":"32763","last name":"Padgett","unit":"2 of 5","geo_score":0.902,"id":"agub7nxcqmbn","address":"2596 Enterprise Road","geo_precision":"range","state":"FL"},"type":"Feature","geometry":{"type":"Point","coordinates":[-81.29353,28.914162]}},{"properties":{"city":"Durham","lead status":"SNO - Site Approved","zip":"27713","last name":"Cancro","unit":null,"geo_score":1.0,"id":"agub7o7hwvze","address":"Fayettville Rd &amp; Herndon Rd","geo_precision":"street","state":"NC"},"type":"Feature","geometry":{"type":"Point","coordinates":[-78.927625,35.896926]}},{"properties":{"city":"Marietta - W.Cobb","lead status":"SNO - Site Approved","zip":"30064","last name":"Boone","unit":"Single Unit","geo_score":0.948,"id":"agub7ock7evs","address":"2500 Dallas Hwy","geo_precision":"range","state":"GA"},"type":"Feature","geometry":{"type":"Point","coordinates":[-84.627056,33.946463]}},{"properties":{"city":"Moreno Valley","lead status":"SNO - Site Approved","zip":"92553","last name":"Cuellar","unit":"2 of 3","geo_score":1.0,"id":"agub7o52f71z","address":"12625 Frederick Street","geo_precision":"range","state":"CA"},"type":"Feature","geometry":{"type":"Point","coordinates":[-117.261396,33.935221]}},{"properties":{"city":"Rockford","lead status":"SNO - Site Approved","zip":"61108","last name":"Tarara","unit":"3 of 3","geo_score":1.0,"id":"agub7o6jtzw9","address":"2500 South Alpine Road","geo_precision":"range","state":"IL"},"type":"Feature","geometry":{"type":"Point","coordinates":[-89.02908,42.238189]}},{"properties":{"city":"Chapel Hill","lead status":"SNO - Site Approved","zip":"27514","last name":"Farris","unit":"Single Unit","geo_score":0.805,"id":"agub7o48s2r8","address":"1802 Martin Luther King Jr Blvd","geo_precision":"street","state":"NC"},"type":"Feature","geometry":{"type":"Point","coordinates":[-79.055061,35.922962]}},{"properties":{"city":"Hemet","lead status":"SNO - Site Approved","zip":"92545","last name":"Ilic","unit":"Single Unit","geo_score":0.604,"id":"agub7o64gt5r","address":"719 S. Sanderson Ave","geo_precision":"street","state":"CA"},"type":"Feature","geometry":{"type":"Point","coordinates":[-117.006509,33.750994]}},{"properties":{"city":"Redmond","lead status":"SNO - Site Approved","zip":"98052","last name":"Mcconnell","unit":"1 of 3","geo_score":1.0,"id":"agub7oayyvvp","address":"17181 Redmond Way","geo_precision":"range","state":"WA"},"type":"Feature","geometry":{"type":"Point","coordinates":[-122.111336,47.67081]}},{"properties":{"city":"Chesapeake","lead status":"SNO - Site Approved","zip":"23321","last name":"Anderson","unit":"5 of 10B","geo_score":0.588,"id":"agub7ocnzfu4","address":"2400 Chesapeake Rd","geo_precision":"street","state":"VA"},"type":"Feature","geometry":{"type":"Point","coordinates":[-76.274102,36.805659]}},{"properties":{"city":"Hamilton","lead status":"SNO - Site Approved","zip":"7726","last name":"Curran","unit":"1 of 5","geo_score":0.865,"id":"agub7nyrn33i","address":"337 State Highway 33","geo_precision":"range","state":"NJ"},"type":"Feature","geometry":{"type":"Point","coordinates":[-74.379645,40.255418]}},{"properties":{"city":"Princeton","lead status":"SNO - Site Approved","zip":"8540","last name":"Curran","unit":"2 of 5","geo_score":0.688,"id":"agub7o5totqt","address":"Route 1 South","geo_precision":"street","state":"NJ"},"type":"Feature","geometry":{"type":"Point","coordinates":[-74.6329,40.325744]}},{"properties":{"city":"Puyallup","lead status":"SNO - Site Approved","zip":"98373","last name":"Gates","unit":"2 of 3","geo_score":0.878,"id":"agub7o0ohluw","address":"4009 S Meridian","geo_precision":"range","state":"WA"},"type":"Feature","geometry":{"type":"Point","coordinates":[-122.29325,47.164231]}},{"properties":{"city":"Whitewater","lead status":"SNO - Site Approved","zip":"53090","last name":"Sawyer","unit":"SawyerSubs  LLC","geo_score":0.889,"id":"agub7o09ozos","address":"1115 West Main Street","geo_precision":"range","state":"WI"},"type":"Feature","geometry":{"type":"Point","coordinates":[-88.184486,43.435583]}},{"properties":{"city":"Maple Grove","lead status":"SNO - Site Approved","zip":"55311","last name":"Griparis","unit":"Single","geo_score":0.823,"id":"agub7o1wcnlw","address":"16401-16445 County Rd 30","geo_precision":"range","state":"MN"},"type":"Feature","geometry":{"type":"Point","coordinates":[-93.486394,45.125376]}},{"properties":{"city":"Culpeper","lead status":"SNO - Site Approved","zip":"22701","last name":"White","unit":"5 of 10","geo_score":0.805,"id":"agub7o91az31","address":"765 Nalles Mill Road","geo_precision":"street","state":"VA"},"type":"Feature","geometry":{"type":"Point","coordinates":[-77.977068,38.479251]}},{"properties":{"city":"Omaha- 72nd","lead status":"SNO - Site Approved","zip":"68106","last name":"Marcotte","unit":"1 of 10A","geo_score":0.494,"id":"agub7odakwsl","address":"72nd &amp; Poppleton","geo_precision":"street","state":"NE"},"type":"Feature","geometry":{"type":"Point","coordinates":[-95.98061,41.246961]}},{"properties":{"city":"Gainesville","lead status":"SNO - Site Approved","zip":"20155","last name":"White","unit":"4 of 10","geo_score":0.528,"id":"agub7o9dam7c","address":"8297 Stonewall Shops Square","geo_precision":"street","state":"VA"},"type":"Feature","geometry":{"type":"Point","coordinates":[-77.506312,38.919928]}},{"properties":{"city":"Papillon","lead status":"SNO - Site Approved","zip":"68046","last name":"Marcotte","unit":"2 of 10A","geo_score":0.651,"id":"agub7obtenqm","address":"72nd &amp; Cornhusker","geo_precision":"street","state":"NE"},"type":"Feature","geometry":{"type":"Point","coordinates":[-96.023825,41.19065]}},{"properties":{"city":"Hopkins","lead status":"SNO - Site Approved","zip":"55343","last name":"Mcguire","unit":"2 of 5","geo_score":1.0,"id":"agub7o653khb","address":"525 Blake Road North","geo_precision":"range","state":"MN"},"type":"Feature","geometry":{"type":"Point","coordinates":[-93.385647,44.933983]}},{"properties":{"city":"Holmdel","lead status":"SNO - Site Approved","zip":"7733","last name":"Cancro","unit":null,"geo_score":1.0,"id":"agub7o4bt1q0","address":"2145 State Route 35","geo_precision":"range","state":"NJ"},"type":"Feature","geometry":{"type":"Point","coordinates":[-74.142108,40.411982]}},{"properties":{"city":"Rock Hill","lead status":"SNO - Site Approved","zip":"29730","last name":"Blake-Ward","unit":null,"geo_score":0.659,"id":"agub7od31isy","address":"1460 Meeting Blvd","geo_precision":"range","state":"SC"},"type":"Feature","geometry":{"type":"Point","coordinates":[-80.805487,34.712099]}},{"properties":{"city":"Richmond","lead status":"SNO - Site Approved","zip":"23230","last name":"Waldrop","unit":null,"geo_score":1.0,"id":"agub7o4rb872","address":"Glenside Drive","geo_precision":"street","state":"VA"},"type":"Feature","geometry":{"type":"Point","coordinates":[-77.513235,37.610956]}},{"properties":{"city":"Flemington","lead status":"SNO - Site Approved","zip":"8822","last name":"Stiffler","unit":null,"geo_score":1.0,"id":"agub7oa4qqwl","address":"75 Reaville Avenue","geo_precision":"range","state":"NJ"},"type":"Feature","geometry":{"type":"Point","coordinates":[-74.850499,40.49776]}},{"properties":{"city":"Indian Trail","lead status":"SNO - Site Approved","zip":"28079","last name":"Blake-Ward","unit":null,"geo_score":1.0,"id":"agub7o2suhui","address":"6610 Old Monroe Rd","geo_precision":"range","state":"NC"},"type":"Feature","geometry":{"type":"Point","coordinates":[-80.650812,35.050472]}},{"properties":{"city":"West Bloomfield","lead status":"SNO - Site Approved","zip":"48322","last name":"Middleton","unit":"4 of 10 A","geo_score":0.786,"id":"agub7obad012","address":"Orchard Lake &amp; Maple","geo_precision":"street","state":"MI"},"type":"Feature","geometry":{"type":"Point","coordinates":[-83.323646,42.543878]}},{"properties":{"city":"Sarasota","lead status":"SNO - Site Approved","zip":"34232","last name":"Kariofyllis","unit":"1 of 3","geo_score":1.0,"id":"agub7nyvmoox","address":"5855 Fruitville Rd","geo_precision":"range","state":"FL"},"type":"Feature","geometry":{"type":"Point","coordinates":[-82.450364,27.338293]}},{"properties":{"city":"Nags Head","lead status":"SNO - Site Approved","zip":"27959","last name":"Hayman/Evans","unit":"2 of 5","geo_score":0.805,"id":"agub7o67k13j","address":"2424 S Croatan Highway","geo_precision":"street","state":"NC"},"type":"Feature","geometry":{"type":"Point","coordinates":[-75.625154,35.955726]}},{"properties":{"city":"Wilton","lead status":"SNO - Site Approved","zip":"6897","last name":"O'Hagan","unit":"1 of 10","geo_score":1.0,"id":"agub7oc5s1fs","address":"35 Danbury Road","geo_precision":"range","state":"CT"},"type":"Feature","geometry":{"type":"Point","coordinates":[-73.416291,41.169192]}},{"properties":{"city":"Chesterfield Township","lead status":"SNO - Site Approved","zip":"48051","last name":"Middleton","unit":"5 of 10B","geo_score":0.717,"id":"agub7obwcxce","address":"23 Mile Rd &amp; Gratiot Ave","geo_precision":"street","state":"MI"},"type":"Feature","geometry":{"type":"Point","coordinates":[-82.838501,42.694057]}},{"properties":{"city":"Largo","lead status":"SNO - Site Approved","zip":"33778","last name":"Griffith","unit":"2 of 5","geo_score":1.0,"id":"agub7o7d5cnf","address":"13100 Seminole Blvd","geo_precision":"range","state":"FL"},"type":"Feature","geometry":{"type":"Point","coordinates":[-82.787168,27.892054]}},{"properties":{"city":"Florence","lead status":"SNO - Site Approved","zip":"41042","last name":"Potter","unit":null,"geo_score":0.585,"id":"agub7oayxbhw","address":"1035 Vandercar Way","geo_precision":"zip","state":"KY"},"type":"Feature","geometry":{"type":"Point","coordinates":[-84.656711,38.989548]}},{"properties":{"city":"Redlands","lead status":"SNO - Site Approved","zip":"92374","last name":"Chatterjee","unit":"Single","geo_score":0.947,"id":"agub7ob3uf5x","address":"414-2A N Orange St","geo_precision":"range","state":"CA"},"type":"Feature","geometry":{"type":"Point","coordinates":[-117.18248,34.059566]}},{"properties":{"city":"Jupiter (Indiantown)","lead status":"SNO - Site Approved","zip":"33477","last name":"Cancro","unit":null,"geo_score":0.937,"id":"agub7od9kx4a","address":"287 E Indiantown Rd","geo_precision":"range","state":"FL"},"type":"Feature","geometry":{"type":"Point","coordinates":[-80.086826,26.934042]}},{"properties":{"city":"Yucaipa","lead status":"SNO - Site Approved","zip":"92399","last name":"Andrian","unit":"1 of 3","geo_score":1.0,"id":"agub7nz87e6c","address":"33423 Yucaipa Blvd","geo_precision":"range","state":"CA"},"type":"Feature","geometry":{"type":"Point","coordinates":[-117.072985,34.03393]}},{"properties":{"city":"Carmel","lead status":"SNO - Site Approved","zip":"46032","last name":"Watson","unit":"1 of 3","geo_score":1.0,"id":"agub7odsg75x","address":"2271 Pointe Parkway","geo_precision":"range","state":"IN"},"type":"Feature","geometry":{"type":"Point","coordinates":[-86.116165,39.955691]}}],"is_temporal":false,"author":{"url":"","metadata":"","contact_name":"","contact_address":"","source":"","contact_phone":""},"source":"","pagination":{"sort":null,"start":0,"total":139,"limit":1000000},"state":"complete","tags":"","published":"2014-08-16T13:33:04-04:00","id":390582}