{"type":"FeatureCollection","data_type":"Dataset","url_type":null,"permissions":[{"permissions":{"download":true,"view":true},"group_id":"everyone"}],"classification":null,"title":"North Central","count":18,"stream_id":391476,"contributor":{"url":"http://geocommons.com/users/51090","name":"ICheccio"},"data_attributes":null,"calculation_params":null,"icon_link":null,"link":"http://geocommons.com/overlays/391476.json","extent":[-94.3726,37.4427,-81.4148,44.9932],"geometry_types":["point"],"unique_name":null,"name":"North Central","feature_count":18,"description":"","next_feature":null,"is_raster":false,"short_classification":"Y","stats":{},"features":[{"properties":{"city":"Minneapolis","organization name":"AccessAbility","region":"North Central","geo_score":0.894,"street address":"360 Hoover Street NE","zip code":"55413","id":"agylwxxpka88","geo_precision":"range","state":"Minnesota"},"type":"Feature","geometry":{"type":"Point","coordinates":[-93.217779,44.993209]}},{"properties":{"city":"Rock Island","organization name":"Arc of the Quad Cities Area","region":"North Central","geo_score":0.797,"street address":"4016 9th St","zip code":"61201","id":"agylwxzwgjue","geo_precision":"range","state":"Illinois"},"type":"Feature","geometry":{"type":"Point","coordinates":[-90.58688,41.471686]}},{"properties":{"city":"Galesburg","organization name":"Bridgeway Training Services","region":"North Central","geo_score":0.893,"street address":"2323 Windish Drive","zip code":"61401","id":"agylwxu7g7sq","geo_precision":"range","state":"Illinois"},"type":"Feature","geometry":{"type":"Point","coordinates":[-90.361105,40.974553]}},{"properties":{"city":"Jackson","organization name":"Cape Girardeau Community Sheltered Workshop, Inc.","region":"North Central","geo_score":0.89,"street address":"5616 US Highway 61","zip code":"63755","id":"agylwxuemgi8","geo_precision":"range","state":"Missouri"},"type":"Feature","geometry":{"type":"Point","coordinates":[-89.636378,37.442703]}},{"properties":{"city":"Alton","organization name":"Challenge Unlimited","region":"North Central","geo_score":0.405,"street address":"4 Emmie L. Kaus Ln.","zip code":"62002","id":"agylwxliud3y","geo_precision":"street","state":"Illinois"},"type":"Feature","geometry":{"type":"Point","coordinates":[-90.134822,38.890468]}},{"properties":{"city":"Arlington Heights","organization name":"Clearbrook Center, Inc","region":"North Central","geo_score":0.902,"street address":"1835 West Central Road","zip code":"60005","id":"agylwxulk1oe","geo_precision":"range","state":"Illinois"},"type":"Feature","geometry":{"type":"Point","coordinates":[-88.002361,42.066544]}},{"properties":{"city":"Akron","organization name":"Coleman Data Solutions","region":"North Central","geo_score":0.841,"street address":"3043 Sanitarium Rd","zip code":"44312","id":"agylwxmp40hk","geo_precision":"range","state":"Ohio"},"type":"Feature","geometry":{"type":"Point","coordinates":[-81.41484,41.019828]}},{"properties":{"city":"Port Huron","organization name":"Community Enterprises of St Clair County","region":"North Central","geo_score":0.81,"street address":"1033 26th St","zip code":"48060","id":"agylwxrvpjgq","geo_precision":"range","state":"Michigan"},"type":"Feature","geometry":{"type":"Point","coordinates":[-82.455765,42.973213]}},{"properties":{"city":"Indianapolis","organization name":"Crossroads Rehabilitation Center, Inc.","region":"North Central","geo_score":0.895,"street address":"4740 Kingsway Dr","zip code":"46205","id":"agylwxys2l94","geo_precision":"range","state":"Indianapolis"},"type":"Feature","geometry":{"type":"Point","coordinates":[-86.119545,39.84664]}},{"properties":{"city":"Jefferson","organization name":"Genesis Development","region":"North Central","geo_score":0.714,"street address":"401 W. McKinley","zip code":"50129","id":"agylwxm4yxfe","geo_precision":"zip","state":"Iowa"},"type":"Feature","geometry":{"type":"Point","coordinates":[-94.372586,42.007323]}},{"properties":{"city":"Northbrook","organization name":"Glenkirk","region":"North Central","geo_score":0.894,"street address":"3504 Commercial Avenue","zip code":"60062","id":"agylwxl9dpkp","geo_precision":"range","state":"Illinois"},"type":"Feature","geometry":{"type":"Point","coordinates":[-87.865662,42.146646]}},{"properties":{"city":"Milwaukee","organization name":"Goodwill of Southern Wisconsin","region":"North Central","geo_score":0.828,"street address":"6055 N 91st St","zip code":"53225","id":"agylwxs26gj5","geo_precision":"range","state":"Wisconsin"},"type":"Feature","geometry":{"type":"Point","coordinates":[-88.025717,43.126995]}},{"properties":{"city":"Grand Rapids","organization name":"Hope Network Services Corporation","region":"North Central","geo_score":0.864,"street address":"3075 Orchard Vista Drive SE","zip code":"49546","id":"agylwxxn2uxw","geo_precision":"range","state":"Michigan"},"type":"Feature","geometry":{"type":"Point","coordinates":[-85.521948,42.907668]}},{"properties":{"city":"Independence","organization name":"JobOne","region":"North Central","geo_score":0.46,"street address":"1085 S. Yuma Ave.","zip code":"64056","id":"agylwxrbf8o2","geo_precision":"street","state":"Missouri"},"type":"Feature","geometry":{"type":"Point","coordinates":[-94.363189,39.092679]}},{"properties":{"city":"Fort Atkinson","organization name":"Opportunities, Inc.","region":"North Central","geo_score":0.457,"street address":"200 E. Cramer Street","zip code":"53538","id":"agylwxlemul4","geo_precision":"street","state":"Wisconsin"},"type":"Feature","geometry":{"type":"Point","coordinates":[-88.834144,42.939603]}},{"properties":{"city":"La Crosse","organization name":"ORC Industries, Inc.","region":"North Central","geo_score":0.692,"street address":"2700 Commerce St","zip code":"54603","id":"agylwxqsp7tu","geo_precision":"street","state":"Wisconsin"},"type":"Feature","geometry":{"type":"Point","coordinates":[-91.226563,43.867112]}},{"properties":{"city":"Lansing","organization name":"Peckham, Inc.","region":"North Central","geo_score":0.873,"street address":"3510 Capital City Blvd","zip code":"48906","id":"agylwxshemip","geo_precision":"range","state":"Michigan"},"type":"Feature","geometry":{"type":"Point","coordinates":[-84.588852,42.773108]}},{"properties":{"city":"Chicago","organization name":"TRI Industries","region":"North Central","geo_score":0.89,"street address":"1556 W Carroll Ave","zip code":"60607","id":"agylwxxov666","geo_precision":"range","state":"Illinois"},"type":"Feature","geometry":{"type":"Point","coordinates":[-87.666523,41.887468]}}],"is_temporal":false,"author":{"url":"","metadata":"","contact_name":"","contact_address":"","source":"","contact_phone":""},"source":"","pagination":{"sort":null,"start":0,"total":18,"limit":1000000},"state":"complete","tags":"","published":"2014-08-16T14:36:59-04:00","id":391476}