{"type":"FeatureCollection","data_type":"Dataset Analysis","url_type":null,"permissions":[{"permissions":{"download":true,"view":true},"group_id":"everyone"}],"classification":null,"title":"Filtered Features of 'Bass Pro Locations' based on 'S13 Mall List (Maps) 7 29 13'","count":37,"stream_id":391877,"contributor":{"url":"http://geocommons.com/users/74498","name":"mterranova"},"data_attributes":null,"calculation_params":{"input":{"min_distance":"1","near_id":"382202","unit":"miles","distance":"20","include_distance":true,"id":"391863"},"calculation":"buffer_intersect"},"icon_link":null,"link":"http://geocommons.com/overlays/391877.json","extent":[-122.444,25.7842,-71.2494,47.2537],"geometry_types":["point"],"unique_name":null,"name":"Filtered Features of 'Bass Pro Locations' based on 'S13 Mall List (Maps) 7 29 13'","feature_count":37,"description":"Dataset created by filtering features of 'Bass Pro Locations' that are within a buffer of 1 to 20 miles around the features in 'S13 Mall List (Maps) 7 29 13'","next_feature":null,"is_raster":false,"short_classification":"Y","stats":{"geo_score":{"max":1.0,"variance":0.0286566186186186,"mean":0.722783783783784,"stdev":0.169282658942429,"min":0.397,"median":0.714},"distance":{"max":19.0960491542311,"variance":34.6874305851458,"mean":12.00240953813,"stdev":5.889603601699,"min":0.249804505707612,"median":13.8057736934696}},"features":[{"properties":{"city":"Miami","zip":"33172","future":"N","geo_score":0.747,"store":"Miami","id":"agzf28xeylmc","geo_precision":"street","address":"11551 NW 12th St","state":"FL","distance":0.249804505707612},"type":"Feature","geometry":{"type":"Point","coordinates":[-80.368642,25.784222]}},{"properties":{"city":"Dania Beach","zip":"33004","future":"N","geo_score":1.0,"store":"Dania Beach (Ft. Lauderdale)","id":"agzf28qgck97","geo_precision":"range","address":"200 Gulf Stream Way","state":"FL","distance":14.2101957562716},"type":"Feature","geometry":{"type":"Point","coordinates":[-80.1678,26.054528]}},{"properties":{"city":"Harlingen","zip":"78552","future":"N","geo_score":0.867,"store":"Harlingen","id":"agzf28wbaxp0","geo_precision":"range","address":"101 Bass Pro Drive","state":"TX","distance":17.7575933869273},"type":"Feature","geometry":{"type":"Point","coordinates":[-97.780214,26.160335]}},{"properties":{"city":"Ft. Meyers","zip":"33913","future":"N","geo_score":0.536,"store":"Ft. Myers","id":"agzf28q6mkl9","geo_precision":"street","address":"10040 Gulf Center Drive","state":"FL","distance":6.72300665135612},"type":"Feature","geometry":{"type":"Point","coordinates":[-81.658583,26.555923]}},{"properties":{"city":"Palm Bay","zip":null,"future":"Y","geo_score":0.714,"store":"Palm Bay (Future Store)","id":"agzf290ndzaf","geo_precision":"city","address":null,"state":"FL","distance":12.9302390265667},"type":"Feature","geometry":{"type":"Point","coordinates":[-80.611642,27.96861]}},{"properties":{"city":"Tampa","zip":null,"future":"Y","geo_score":0.714,"store":"Tampa (Future Store)","id":"agzf28ppob6s","geo_precision":"city","address":null,"state":"FL","distance":17.7199130562339},"type":"Feature","geometry":{"type":"Point","coordinates":[-82.582035,27.996097]}},{"properties":{"city":"Orlando","zip":"32819","future":"N","geo_score":1.0,"store":"Orlando","id":"agzf28uqsb1r","geo_precision":"range","address":"5156 International Dr.","state":"FL","distance":17.3407798207117},"type":"Feature","geometry":{"type":"Point","coordinates":[-81.45032,28.468499]}},{"properties":{"city":"San Antonio","zip":"78257","future":"N","geo_score":0.585,"store":"San Antonio","id":"agzf28o3fthd","geo_precision":"zip","address":"17907 IH-10 West","state":"TX","distance":9.45910217877539},"type":"Feature","geometry":{"type":"Point","coordinates":[-98.461582,29.437532]}},{"properties":{"city":"Pearland","zip":"77047","future":"N","geo_score":0.585,"store":"Pearland (Houston)","id":"agzf28v0jqeo","geo_precision":"zip","address":"1000 Basspro Drive","state":"TX","distance":10.8919136861458},"type":"Feature","geometry":{"type":"Point","coordinates":[-95.387721,29.614782]}},{"properties":{"city":"Round Rock","zip":null,"future":"Y","geo_score":0.714,"store":"Round Rock (Future Store)","id":"agzf28wleou9","geo_precision":"city","address":null,"state":"TX","distance":3.48749976582246},"type":"Feature","geometry":{"type":"Point","coordinates":[-97.635103,30.530497]}},{"properties":{"city":"Garland","zip":"75043","future":"N","geo_score":0.593,"store":"Garland","id":"agzf291armjk","geo_precision":"street","address":"5001 Bass Pro Drive","state":"TX","distance":19.0665943912423},"type":"Feature","geometry":{"type":"Point","coordinates":[-96.561732,32.842551]}},{"properties":{"city":"Macon","zip":"31210","future":"N","geo_score":0.67,"store":"Macon","id":"agzf28ole606","geo_precision":"street","address":"5000 Bass Pro Blvd","state":"GA","distance":12.5258992105579},"type":"Feature","geometry":{"type":"Point","coordinates":[-83.71946,32.936631]}},{"properties":{"city":"Grapevine","zip":"76051","future":"N","geo_score":1.0,"store":"Grapevine (Dallas/Ft. Worth)","id":"agzf28q3da2c","geo_precision":"range","address":"2501 Bass Pro Drive","state":"TX","distance":17.8489134704132},"type":"Feature","geometry":{"type":"Point","coordinates":[-97.036933,32.955132]}},{"properties":{"city":"Myrtle Beach","zip":"29572","future":"N","geo_score":1.0,"store":"Myrtle Beach","id":"agzf28rpfdpi","geo_precision":"range","address":"10177 North Kings Hwy.","state":"SC","distance":12.8924870874559},"type":"Feature","geometry":{"type":"Point","coordinates":[-78.764898,33.79064]}},{"properties":{"city":"Lawrenceville","zip":"30043","future":"N","geo_score":0.805,"store":"Lawrenceville (Atlanta)","id":"agzf28nyuhxt","geo_precision":"street","address":"5900 Sugarloaf Parkway","state":"GA","distance":3.33932477788549},"type":"Feature","geometry":{"type":"Point","coordinates":[-84.06903,33.967327]}},{"properties":{"city":"Memphis","zip":"38134","future":"N","geo_score":1.0,"store":"Memphis","id":"agzf28w7cir9","geo_precision":"range","address":"6140 Macon Rd","state":"TN","distance":15.5892355689269},"type":"Feature","geometry":{"type":"Point","coordinates":[-89.856447,35.163101]}},{"properties":{"city":"Memphis","zip":null,"future":"Y","geo_score":0.714,"store":"Memphis Pyramid (Future Store)","id":"agzf28xg9bz4","geo_precision":"city","address":null,"state":"TN","distance":9.2263386422395},"type":"Feature","geometry":{"type":"Point","coordinates":[-89.990415,35.169255]}},{"properties":{"city":"Concord","zip":"28027","future":"N","geo_score":1.0,"store":"Concord (Charlotte)","id":"agzf28v0a362","geo_precision":"range","address":"8181 Concord Mills Blvd.","state":"NC","distance":17.1248493466072},"type":"Feature","geometry":{"type":"Point","coordinates":[-80.718616,35.371428]}},{"properties":{"city":"Oklahoma City","zip":"73104","future":"N","geo_score":0.397,"store":"Oklahoma City","id":"agzf28o2g44q","geo_precision":"street","address":"200 Bass Pro Drive","state":"OK","distance":1.72277728849767},"type":"Feature","geometry":{"type":"Point","coordinates":[-97.38609,35.460844]}},{"properties":{"city":"Tulsa","zip":"74012","future":"N","geo_score":0.461,"store":"Tulsa (Tulsa)","id":"agzf28p1wjk8","geo_precision":"street","address":"101 Bass Pro Drive","state":"OK","distance":12.9835575224356},"type":"Feature","geometry":{"type":"Point","coordinates":[-95.77112,36.077647]}},{"properties":{"city":"Kodak","zip":"37764","future":"N","geo_score":0.457,"store":"Kodak (Sevierville)","id":"agzf290ha54v","geo_precision":"street","address":"3629 Outdoor Sportsmans Place","state":"TN","distance":16.4493713509244},"type":"Feature","geometry":{"type":"Point","coordinates":[-84.014986,36.222933]}},{"properties":{"city":"Hampton","zip":"23666","future":"N","geo_score":1.0,"store":"Hampton","id":"agzf2904paw8","geo_precision":"range","address":"1972 Power Plant Parkway","state":"VA","distance":13.8057736934696},"type":"Feature","geometry":{"type":"Point","coordinates":[-76.401182,37.038721]}},{"properties":{"city":"Branson","zip":"65616","future":"N","geo_score":0.504,"store":"Branson","id":"agzf28r59fbr","geo_precision":"street","address":"1 Bass Pro Drive","state":"MO","distance":17.5530719145362},"type":"Feature","geometry":{"type":"Point","coordinates":[-93.010427,37.138719]}},{"properties":{"city":"Springfield","zip":"65807","future":"N","geo_score":0.602,"store":"Springfield (Catalog Outlet)","id":"agzf28x8qcnd","geo_precision":"street","address":"2011 S. Campbell Avenue","state":"MO","distance":17.6864045736319},"type":"Feature","geometry":{"type":"Point","coordinates":[-93.294559,37.19592]}},{"properties":{"city":"Springfield","zip":"65807","future":"N","geo_score":0.602,"store":"Springfield","id":"agzf28n25md8","geo_precision":"street","address":"1935 S. Campbell","state":"MO","distance":17.6864045736319},"type":"Feature","geometry":{"type":"Point","coordinates":[-93.294559,37.19592]}},{"properties":{"city":"Ashland","zip":"23005","future":"N","geo_score":0.805,"store":"Ashland (Richmond)","id":"agzf28q6lneo","geo_precision":"street","address":"11550 Lakeridge Parkway","state":"VA","distance":19.0960491542311},"type":"Feature","geometry":{"type":"Point","coordinates":[-77.453786,37.702695]}},{"properties":{"city":"Colorado Springs","zip":null,"future":"Y","geo_score":0.714,"store":"Colorado Springs (Future Store)","id":"agzf28lewm5i","geo_precision":"city","address":null,"state":"CO","distance":11.6676323215944},"type":"Feature","geometry":{"type":"Point","coordinates":[-104.857828,38.861469]}},{"properties":{"city":"Olathe","zip":"66061","future":"N","geo_score":0.592,"store":"Olathe (Kansas City)","id":"agzf28rkrdta","geo_precision":"street","address":"12051 Bass Pro Dr.","state":"KS","distance":17.0173551129676},"type":"Feature","geometry":{"type":"Point","coordinates":[-94.829308,38.869974]}},{"properties":{"city":"Atlantic City","zip":null,"future":"Y","geo_score":0.714,"store":"Atlantic City (Future Store)","id":"agzf28xq37n2","geo_precision":"city","address":null,"state":"NJ","distance":4.88639775381356},"type":"Feature","geometry":{"type":"Point","coordinates":[-74.05617,40.404762]}},{"properties":{"city":"Sayreville","zip":null,"future":"Y","geo_score":0.714,"store":"Sayreville (Future Store)","id":"agzf28n2jty7","geo_precision":"city","address":null,"state":"NJ","distance":2.21340193787602},"type":"Feature","geometry":{"type":"Point","coordinates":[-74.417344,40.430006]}},{"properties":{"city":"East Peoria","zip":"61611","future":"N","geo_score":0.581,"store":"East Peoria","id":"agzf28wiipjb","geo_precision":"street","address":"1000 Bass Pro Shops Drive","state":"IL","distance":14.6501718535192},"type":"Feature","geometry":{"type":"Point","coordinates":[-89.576743,40.665897]}},{"properties":{"city":"Bridgeport","zip":null,"future":"Y","geo_score":0.714,"store":"Bridgeport (Future Store)","id":"agzf28rtutsj","geo_precision":"city","address":null,"state":"CT","distance":15.092985543909},"type":"Feature","geometry":{"type":"Point","coordinates":[-73.363661,41.308873]}},{"properties":{"city":"Boilingbrook","zip":"60440","future":"N","geo_score":0.797,"store":"Bolingbrook (Chicago)","id":"agzf28ukd8wo","geo_precision":"street","address":"709 Janes Ave","state":"IL","distance":15.18793987401},"type":"Feature","geometry":{"type":"Point","coordinates":[-88.039317,41.708908]}},{"properties":{"city":"Foxborough","zip":"2035","future":"N","geo_score":0.703,"store":"Foxborough","id":"agzf28xc3k4b","geo_precision":"street","address":"One Bass Pro Drive","state":"MA","distance":2.24521595248731},"type":"Feature","geometry":{"type":"Point","coordinates":[-71.249389,42.104749]}},{"properties":{"city":"Hooksett","zip":null,"future":"Y","geo_score":0.714,"store":"Hooksett (Future Store)","id":"agzf28pss8t6","geo_precision":"city","address":null,"state":"NH","distance":7.60378416919335},"type":"Feature","geometry":{"type":"Point","coordinates":[-71.443616,43.065097]}},{"properties":{"city":"Utica","zip":null,"future":"Y","geo_score":0.714,"store":"Utica (Future Store)","id":"agzf290rg7fv","geo_precision":"city","address":null,"state":"NY","distance":15.786848898648},"type":"Feature","geometry":{"type":"Point","coordinates":[-75.233208,43.077369]}},{"properties":{"city":"Tacoma","zip":null,"future":"Y","geo_score":0.714,"store":"Tacoma (Future Store)","id":"agzf28n29chx","geo_precision":"city","address":null,"state":"WA","distance":2.37031909158552},"type":"Feature","geometry":{"type":"Point","coordinates":[-122.444335,47.253671]}}],"is_temporal":false,"author":{"url":null,"metadata":null,"contact_name":null,"contact_address":null,"source":null,"contact_phone":null},"source":null,"pagination":{"sort":null,"start":0,"total":37,"limit":1000000},"state":"complete","tags":"","published":"2014-08-16T15:01:58-04:00","id":391877}