{"type":"FeatureCollection","data_type":"Dataset Analysis","url_type":null,"permissions":[{"permissions":{"download":true,"view":true},"group_id":"everyone"}],"classification":null,"title":"Filtered Features of 'S13 Netsuite Mall List (9 4 13)' based on 'Bass Pro Locations - Non New'","count":33,"stream_id":391894,"contributor":{"url":"http://geocommons.com/users/74498","name":"mterranova"},"data_attributes":null,"calculation_params":{"input":{"min_distance":"1","unit":"miles","near_id":"391888","distance":"20","id":"391891"},"calculation":"buffer_intersect"},"icon_link":null,"link":"http://geocommons.com/overlays/391894.json","extent":[-98.6186,25.6866,-71.0286,42.3064],"geometry_types":["point"],"unique_name":null,"name":"Filtered Features of 'S13 Netsuite Mall List (9 4 13)' based on 'Bass Pro Locations - Non New'","feature_count":33,"description":"Dataset created by filtering features of 'S13 Netsuite Mall List (9 4 13)' that are within a buffer of 1 to 20 miles around the features in 'Bass Pro Locations - Non New'","next_feature":null,"is_raster":false,"short_classification":"Y","stats":{"geo_score":{"max":1.0,"variance":0.0380119962121212,"mean":0.724393939393939,"stdev":0.194966654103006,"min":0.363,"median":0.737},"previous santa sales":{"max":195636.18,"variance":2857890797.19789,"mean":83041.1327272727,"stdev":53459.2442632506,"min":0.0,"median":80443.87}},"features":[{"properties":{"city":"Miami","name (no hierarchy)":"Dadeland Mall","zip":"33156","santa opening date":"11/16/13","region":"25","state/province":"FL","geo_score":0.715,"previous santa sales":56995.61,"address 1":"7535 Dadeland Mall","sub of":"Simon Property Group","division":"10","mall level":"D","location id":"DMFL","phone":"305.665.6227","santa pricing":"17.99","id":"agzhr3bt3jgf","geo_precision":"street","new location":"No"},"type":"Feature","geometry":{"type":"Point","coordinates":[-80.313408,25.686567]}},{"properties":{"city":"Harlingen","name (no hierarchy)":"Valle Vista Mall","zip":"78552","santa opening date":"11/16/13","region":"10","state/province":"TX","geo_score":0.617,"previous santa sales":32056.95,"address 1":"2020 S Expressway 83","sub of":"Simon Property Group","division":"03","mall level":"E","location id":"VVTX","phone":"956.425.8392","santa pricing":"17.99","id":"agzhr39nf4us","geo_precision":"street","new location":"No"},"type":"Feature","geometry":{"type":"Point","coordinates":[-97.739469,26.183684]}},{"properties":{"city":"Coral Springs","name (no hierarchy)":"Coral Square","zip":"33065","santa opening date":"11/9/13","region":"25","state/province":"FL","geo_score":0.616,"previous santa sales":92057.52,"address 1":"9469 W Atlantic Blvd","sub of":"Simon Property Group","division":"10","mall level":"D","location id":"CSFL","phone":"954.755.5552","santa pricing":"19.99","id":"agzhr34eqetu","geo_precision":"street","new location":"No"},"type":"Feature","geometry":{"type":"Point","coordinates":[-80.254317,26.240313]}},{"properties":{"city":"Fort Meyers","name (no hierarchy)":"Edison Mall","zip":"33901","santa opening date":"11/9/13","region":"24","state/province":"FL","geo_score":0.743,"previous santa sales":70677.0,"address 1":"Ste 154, 4125 Cleveland Ave","sub of":"Simon Property Group","division":"10","mall level":"D","location id":"EMFL","phone":"239.939.1933","santa pricing":"19.99","id":"agzhr36j8wm8","geo_precision":"range","new location":"No"},"type":"Feature","geometry":{"type":"Point","coordinates":[-81.871794,26.602732]}},{"properties":{"city":"Orlando","name (no hierarchy)":"Florida Mall","zip":"32809","santa opening date":"11/7/13","region":"24","state/province":"FL","geo_score":0.756,"previous santa sales":80443.87,"address 1":"Rm 420, 8001 South Orange Blossom Trail","sub of":"Simon Property Group","division":"10","mall level":"D","location id":"FMFL","phone":"407.851.7234","santa pricing":"19.99","id":"agzhr3crv9nr","geo_precision":"range","new location":"No"},"type":"Feature","geometry":{"type":"Point","coordinates":[-81.364292,28.453994]}},{"properties":{"city":"San Antonio","name (no hierarchy)":"Rolling Oaks Mall","zip":"78246","santa opening date":"11/7/13","region":"10","state/province":"TX","geo_score":0.575,"previous santa sales":112973.34,"address 1":"6909 N Loop 1604 E","sub of":"Simon Property Group","division":"03","mall level":"C","location id":"ROTX","phone":"210.651.5601","santa pricing":"21.99","id":"agzhr3c6scqa","geo_precision":"range","new location":"No"},"type":"Feature","geometry":{"type":"Point","coordinates":[-98.290516,29.491396]}},{"properties":{"city":"San Antonio","name (no hierarchy)":"Ingram Park Mall","zip":"78238","santa opening date":"11/7/13","region":"10","state/province":"TX","geo_score":0.585,"previous santa sales":121752.7,"address 1":"6301 NW Loop 410","sub of":"Simon Property Group","division":"03","mall level":"C","location id":"IPTX","phone":"210.523.1228","santa pricing":"22.99","id":"agzhr32njg3n","geo_precision":"zip","new location":"No"},"type":"Feature","geometry":{"type":"Point","coordinates":[-98.618632,29.495231]}},{"properties":{"city":"Houston","name (no hierarchy)":"Houston Galleria","zip":"77056-5606","santa opening date":"11/7/13","region":"10","state/province":"TX","geo_score":0.775,"previous santa sales":147213.14,"address 1":"Ste 875, 5075 Westheimer","sub of":"Simon Property Group","division":"03","mall level":"C","location id":"TGTX","phone":"713.621.1907","santa pricing":"21.99","id":"agzhr321ztih","geo_precision":"range","new location":"No"},"type":"Feature","geometry":{"type":"Point","coordinates":[-95.463071,29.740615]}},{"properties":{"city":"Macon","name (no hierarchy)":"Macon Mall","zip":"31206","santa opening date":"11/22/13","region":"22","state/province":"GA","geo_score":1.0,"previous santa sales":0.0,"address 1":"3661 Eisenhower Parkway","sub of":"Hull Storey Gibson Companies, LLC","division":"09","mall level":"E","location id":"MMGA","phone":null,"santa pricing":"19.99","id":"agzhr36ztaxo","geo_precision":"range","new location":"Yes"},"type":"Feature","geometry":{"type":"Point","coordinates":[-83.69625,32.815981]}},{"properties":{"city":"Hurst","name (no hierarchy)":"North East Mall","zip":"76053","santa opening date":"11/9/13","region":"09","state/province":"TX","geo_score":0.707,"previous santa sales":177651.36,"address 1":"Ste 1000, 1101 Melbourne St","sub of":"Simon Property Group","division":"03","mall level":"B","location id":"NETX","phone":"817.589.9603","santa pricing":"22.99","id":"agzhr312zrph","geo_precision":"range","new location":"No"},"type":"Feature","geometry":{"type":"Point","coordinates":[-97.197171,32.829429]}},{"properties":{"city":"Irving","name (no hierarchy)":"Irving Mall","zip":"75062","santa opening date":"11/16/13","region":"09","state/province":"TX","geo_score":1.0,"previous santa sales":26769.22,"address 1":"3880 Irving Mall","sub of":"Simon Property Group","division":"03","mall level":"E","location id":"IMTX","phone":"972.255.0572","santa pricing":"17.99","id":"agzhr3bjjh0v","geo_precision":"range","new location":"No"},"type":"Feature","geometry":{"type":"Point","coordinates":[-96.993603,32.840767]}},{"properties":{"city":"Garland","name (no hierarchy)":"Firewheel Town Center Mall","zip":"75040","santa opening date":"11/22/13","region":"09","state/province":"TX","geo_score":0.696,"previous santa sales":41700.18,"address 1":"245 Cedar Sage Dr","sub of":"Simon Property Group","division":"03","mall level":"E","location id":"FTTX","phone":"972.495.8085","santa pricing":"17.99","id":"agzhr33kndhw","geo_precision":"street","new location":"No"},"type":"Feature","geometry":{"type":"Point","coordinates":[-96.634347,32.901407]}},{"properties":{"city":"Dallas","name (no hierarchy)":"Galleria Dallas","zip":"75240","santa opening date":"11/23/13","region":"09","state/province":"TX","geo_score":0.55,"previous santa sales":116412.78,"address 1":"Ste 3080, 13350 Dallas Parkway","sub of":"Simon Property Group","division":"03","mall level":"C","location id":"DGTX","phone":"972.661.2800","santa pricing":"21.99","id":"agzhr3ac98rt","geo_precision":"street","new location":"No"},"type":"Feature","geometry":{"type":"Point","coordinates":[-96.816406,32.932916]}},{"properties":{"city":"Atlanta","name (no hierarchy)":"Northlake Mall","zip":"30345","santa opening date":"11/16/13","region":"22","state/province":"GA","geo_score":0.707,"previous santa sales":45208.51,"address 1":"1000 Northlake Mall","sub of":"Simon Property Group","division":"09","mall level":"E","location id":"NMGA","phone":"770.938.3565","santa pricing":"17.99","id":"agzhr32vebme","geo_precision":"street","new location":"No"},"type":"Feature","geometry":{"type":"Point","coordinates":[-84.251944,33.858686]}},{"properties":{"city":"Duluth","name (no hierarchy)":"Gwinnett Place","zip":"30096","santa opening date":"11/22/13","region":"22","state/province":"GA","geo_score":1.0,"previous santa sales":21310.9,"address 1":"2100 Pleasant Hill Road","sub of":"Merrill Lynch MG TR COM MTG P-T CT Series 2007-C1 REMIC 1","division":"09","mall level":"E","location id":"GPGA","phone":"770.813.6840","santa pricing":"19.99","id":"agzhr2ygg6bg","geo_precision":"range","new location":"No"},"type":"Feature","geometry":{"type":"Point","coordinates":[-84.134287,33.95863]}},{"properties":{"city":"Buford","name (no hierarchy)":"Mall of Georgia","zip":"30519","santa opening date":"11/7/13","region":"22","state/province":"GA","geo_score":0.585,"previous santa sales":167560.35,"address 1":"Ste 1000, 3333 Buford Drive","sub of":"Simon Property Group","division":"09","mall level":"B","location id":"MGGA","phone":"770.271.9458","santa pricing":"22.99","id":"agzhr3a6zr38","geo_precision":"range","new location":"No"},"type":"Feature","geometry":{"type":"Point","coordinates":[-83.985458,34.079583]}},{"properties":{"city":"Memphis","name (no hierarchy)":"Oak Court Mall","zip":"38117","santa opening date":"11/16/13","region":"20","state/province":"TN","geo_score":0.391,"previous santa sales":37054.39,"address 1":"Ste 365, 530 Oak Court Drive","sub of":"Simon Property Group","division":"09","mall level":"E","location id":"OCTN","phone":"901.681.0642","santa pricing":"17.99","id":"agzhr3dj4vgt","geo_precision":"street","new location":"No"},"type":"Feature","geometry":{"type":"Point","coordinates":[-90.079875,35.023886]}},{"properties":{"city":"Charlotte","name (no hierarchy)":"SouthPark Mall (NC)","zip":"28211-3531","santa opening date":"11/8/13","region":"21","state/province":"NC","geo_score":1.0,"previous santa sales":152747.26,"address 1":"4400 Sharon Rd","sub of":"Simon Property Group","division":"09","mall level":"B","location id":"SPNC","phone":"704.295.0975","santa pricing":"19.99 VS","id":"agzhr2yskfj4","geo_precision":"range","new location":"No"},"type":"Feature","geometry":{"type":"Point","coordinates":[-80.829365,35.150679]}},{"properties":{"city":"Memphis","name (no hierarchy)":"Wolfchase Galleria","zip":"38133","santa opening date":"11/8/13","region":"20","state/province":"TN","geo_score":0.737,"previous santa sales":122012.32,"address 1":"2760 N Germantown Pkwy","sub of":"Simon Property Group","division":"09","mall level":"C","location id":"WGTN","phone":"901.381.2769","santa pricing":"19.99 VS","id":"agzhr36nngru","geo_precision":"street","new location":"No"},"type":"Feature","geometry":{"type":"Point","coordinates":[-89.791835,35.207589]}},{"properties":{"city":"Tinker AFB","name (no hierarchy)":"Tinker AFB","zip":"73145-9062","santa opening date":"11/22/13","region":"06","state/province":"OK","geo_score":0.857,"previous santa sales":0.0,"address 1":"3360 N. Avenue, Building 685","sub of":"Exchange","division":"02","mall level":"M","location id":"TAOK","phone":"405.733.1994 x402","santa pricing":"Military","id":"agzhr37q4tct","geo_precision":"zip","new location":"Yes"},"type":"Feature","geometry":{"type":"Point","coordinates":[-97.396184,35.430406]}},{"properties":{"city":"Oklahoma City","name (no hierarchy)":"Penn Square","zip":"73118","santa opening date":"11/8/13","region":"06","state/province":"OK","geo_score":0.382,"previous santa sales":111507.98,"address 1":"Ste 1889, 1901 NW Expressway","sub of":"Simon Property Group","division":"02","mall level":"C","location id":"PSOK","phone":"405.841.2696","santa pricing":"19.99 VS","id":"agzhr2xwk9qq","geo_precision":"street","new location":"No"},"type":"Feature","geometry":{"type":"Point","coordinates":[-97.622481,35.570926]}},{"properties":{"city":"Knoxville","name (no hierarchy)":"Knoxville Center","zip":"37924","santa opening date":"11/9/13","region":"20","state/province":"TN","geo_score":0.619,"previous santa sales":54356.98,"address 1":"3000 A Mall Rd. North","sub of":"Simon Property Group","division":"09","mall level":"D","location id":"KCTN","phone":"865.544.1501","santa pricing":"19.99","id":"agzhr3dayv8t","geo_precision":"street","new location":"No"},"type":"Feature","geometry":{"type":"Point","coordinates":[-83.878534,36.031037]}},{"properties":{"city":"Tulsa","name (no hierarchy)":"Woodland Hills Mall","zip":"74133","santa opening date":"11/7/13","region":"06","state/province":"OK","geo_score":0.752,"previous santa sales":114131.08,"address 1":"Ste 225B, 7021 So Memorial Dr","sub of":"Simon Property Group","division":"02","mall level":"C","location id":"WHOK","phone":"918.252.7511","santa pricing":"19.99 VS","id":"agzhr3ca2tv7","geo_precision":"range","new location":"No"},"type":"Feature","geometry":{"type":"Point","coordinates":[-95.88627,36.062097]}},{"properties":{"city":"Chesapeake","name (no hierarchy)":"Chesapeake Square","zip":"23321","santa opening date":"11/9/13","region":"19","state/province":"VA","geo_score":0.6,"previous santa sales":50593.45,"address 1":"Ste 1, 4200 Portsmouth Blvd","sub of":"Simon Property Group","division":"09","mall level":"D","location id":"CSVA","phone":"757.488.9639","santa pricing":"17.99","id":"agzhr3clhxzr","geo_precision":"street","new location":"No"},"type":"Feature","geometry":{"type":"Point","coordinates":[-76.437828,36.776769]}},{"properties":{"city":"Norfolk","name (no hierarchy)":"NEX Norfolk","zip":"23511-3839","santa opening date":"12/2/13","region":"19","state/province":"VA","geo_score":0.363,"previous santa sales":22898.41,"address 1":"1560 Mall Drive","sub of":"NEXCOM","division":"09","mall level":"M","location id":"XNVA","phone":"757.440.2000","santa pricing":"Military","id":"agzhr38w3zoo","geo_precision":"street","new location":"No"},"type":"Feature","geometry":{"type":"Point","coordinates":[-76.299663,36.857047]}},{"properties":{"city":"Springfield","name (no hierarchy)":"Battlefield Mall","zip":"65804","santa opening date":"11/7/13","region":"06","state/province":"MO","geo_score":0.785,"previous santa sales":96754.5,"address 1":"Ste 101, 2825 S Glenstone Ave","sub of":"Simon Property Group","division":"02","mall level":"D","location id":"BMMO","phone":"417.883.4111","santa pricing":"21.99","id":"agzhr37galod","geo_precision":"range","new location":"No"},"type":"Feature","geometry":{"type":"Point","coordinates":[-93.262649,37.160053]}},{"properties":{"city":"Glen Allen","name (no hierarchy)":"Virginia Center Commons","zip":"23059","santa opening date":"11/9/13","region":"19","state/province":"VA","geo_score":0.878,"previous santa sales":49435.38,"address 1":"10101 Brook Rd","sub of":"Simon Property Group","division":"09","mall level":"E","location id":"VCVA","phone":"804.266.9002","santa pricing":"19.99","id":"agzhr37o90hc","geo_precision":"street","new location":"No"},"type":"Feature","geometry":{"type":"Point","coordinates":[-77.461252,37.676186]}},{"properties":{"city":"Kansas City","name (no hierarchy)":"Ward Parkway Center","zip":"64114","santa opening date":"11/22/13","region":"06","state/province":"MO","geo_score":1.0,"previous santa sales":19442.75,"address 1":"8600 Ward Parkway","sub of":"CK Real Estate Services, LLC","division":"02","mall level":"E","location id":"WPMO","phone":"816.363.3545","santa pricing":"17.99","id":"agzhr2z1lqp2","geo_precision":"range","new location":"No"},"type":"Feature","geometry":{"type":"Point","coordinates":[-94.60625,38.973097]}},{"properties":{"city":"Peoria","name (no hierarchy)":"Northwoods Mall","zip":"61613","santa opening date":"11/7/13","region":"07","state/province":"IL","geo_score":0.805,"previous santa sales":54371.46,"address 1":"4501 War Memorial Drive","sub of":"Simon Property Group","division":"02","mall level":"D","location id":"NMIL","phone":"309.688.0444","santa pricing":"19.99","id":"agzhr2zdztct","geo_precision":"range","new location":"No"},"type":"Feature","geometry":{"type":"Point","coordinates":[-89.628119,40.742292]}},{"properties":{"city":"Orland Park","name (no hierarchy)":"Orland Square Mall","zip":"60462","santa opening date":"11/7/13","region":"07","state/province":"IL","geo_score":0.74,"previous santa sales":156036.85,"address 1":"288 Orland Square","sub of":"Simon Property Group","division":"02","mall level":"B","location id":"OSIL","phone":"708.349.1647","santa pricing":"22.99","id":"agzhr30irlhn","geo_precision":"street","new location":"No"},"type":"Feature","geometry":{"type":"Point","coordinates":[-87.839501,41.618569]}},{"properties":{"city":"North Attleboro","name (no hierarchy)":"Emerald Square","zip":"02760","santa opening date":"11/7/13","region":"15","state/province":"MA","geo_score":1.0,"previous santa sales":96187.82,"address 1":"999 South Washington St","sub of":"Simon Property Group","division":"07","mall level":"D","location id":"EMMA","phone":"508.699.4100","santa pricing":"21.99","id":"agzhr32l4nn4","geo_precision":"range","new location":"No"},"type":"Feature","geometry":{"type":"Point","coordinates":[-71.345119,41.951148]}},{"properties":{"city":"Braintree","name (no hierarchy)":"South Shore Plaza","zip":"02184-2809","santa opening date":"11/1/13","region":"14","state/province":"MA","geo_score":1.0,"previous santa sales":195636.18,"address 1":"250 Granite Street","sub of":"Simon Property Group","division":"06","mall level":"B","location id":"SSMA","phone":"781.843.8201","santa pricing":"22.99","id":"agzhr32d1bg0","geo_precision":"range","new location":"No"},"type":"Feature","geometry":{"type":"Point","coordinates":[-71.028615,42.221083]}},{"properties":{"city":"Marlborough","name (no hierarchy)":"Solomon Pond Mall","zip":"01752","santa opening date":"11/7/13","region":"14","state/province":"MA","geo_score":0.369,"previous santa sales":96407.14,"address 1":"601 Donald Lynch Blvd","sub of":"Simon Property Group","division":"06","mall level":"D","location id":"SPMA","phone":"508.303.0204","santa pricing":"22.99","id":"agzhr30xwp29","geo_precision":"street","new location":"No"},"type":"Feature","geometry":{"type":"Point","coordinates":[-71.362538,42.306349]}}],"is_temporal":false,"author":{"url":null,"metadata":null,"contact_name":null,"contact_address":null,"source":null,"contact_phone":null},"source":null,"pagination":{"sort":null,"start":0,"total":33,"limit":1000000},"state":"complete","tags":"","published":"2014-08-16T15:05:15-04:00","id":391894}