{"type":"FeatureCollection","data_type":"Dataset","url_type":null,"permissions":[{"permissions":{"download":true,"view":true},"group_id":"everyone"}],"classification":null,"title":"Santa Barbara County Schools with 50% FRPM","count":66,"stream_id":393845,"contributor":{"url":"http://geocommons.com/users/81941","name":"emilyaltman"},"data_attributes":null,"calculation_params":null,"icon_link":null,"link":"http://geocommons.com/overlays/393845.json","extent":[-120.578,34.3955,-119.514,35.0679],"geometry_types":["point"],"unique_name":null,"name":"Santa Barbara County Schools with 50% FRPM","feature_count":66,"description":"","next_feature":null,"is_raster":false,"short_classification":"Y","stats":{},"features":[{"properties":{"city":"Goleta","zip":"93117-2439","geo_score":1.0,"street":"7686 Hollister Ave.","id":"ah5h3il8wjg5","school":"Ellwood Elementary","geo_precision":"range","state":"CA"},"type":"Feature","geometry":{"type":"Point","coordinates":[-119.89495,34.429826]}},{"properties":{"city":"Santa Barbara","zip":"93110-1042","geo_score":1.0,"street":"4400 Cathedral Oaks Rd.","id":"ah5h3ik3sgpm","school":"Santa Barbara County Special Education","geo_precision":"range","state":"CA"},"type":"Feature","geometry":{"type":"Point","coordinates":[-119.765576,34.449981]}},{"properties":{"city":"Santa Barbara","zip":"93103-3184","geo_score":1.0,"street":"721 East Cota St.","id":"ah5h3izaer5z","school":"Santa Barbara Junior High","geo_precision":"range","state":"CA"},"type":"Feature","geometry":{"type":"Point","coordinates":[-119.687994,34.426037]}},{"properties":{"city":"Santa Maria","zip":"93455-2643","geo_score":1.0,"street":"255 Winter Rd.","id":"ah5h3iv9aiui","school":"Joe Nightingale Elementary","geo_precision":"range","state":"CA"},"type":"Feature","geometry":{"type":"Point","coordinates":[-120.432884,34.898225]}},{"properties":{"city":"Carpinteria","zip":"93013-3084","geo_score":1.0,"street":"4698 Foothill Rd.","id":"ah5h3ilcxumu","school":"Rincon High (Continuation)","geo_precision":"range","state":"CA"},"type":"Feature","geometry":{"type":"Point","coordinates":[-119.522989,34.412715]}},{"properties":{"city":"Lompoc","zip":"93436","geo_score":1.0,"street":"3745 Via Lato","id":"ah5h3ir8jf55","school":"Los Berros Elementary","geo_precision":"range","state":"CA"},"type":"Feature","geometry":{"type":"Point","coordinates":[-120.432722,34.696359]}},{"properties":{"city":"Carpinteria","zip":"93013-3084","geo_score":1.0,"street":"4810 Foothill Rd.","id":"ah5h3itl3ofn","school":"Carpinteria Senior High","geo_precision":"range","state":"CA"},"type":"Feature","geometry":{"type":"Point","coordinates":[-119.524056,34.413587]}},{"properties":{"city":"Santa Ynez","zip":"93460-9425","geo_score":1.0,"street":"3525 Pine St.","id":"ah5h3il7j42l","school":"College Elementary","geo_precision":"range","state":"CA"},"type":"Feature","geometry":{"type":"Point","coordinates":[-120.081403,34.615853]}},{"properties":{"city":"Buellton","zip":"93427","geo_score":0.709,"street":"595 Second St.","id":"ah5h3ipnrtyv","school":"Oak Valley Elementary","geo_precision":"street","state":"CA"},"type":"Feature","geometry":{"type":"Point","coordinates":[-120.201691,34.61877]}},{"properties":{"city":"Santa Ynez","zip":"93460-0398","geo_score":0.842,"street":"2975 East Highway 246","id":"ah5h3iwinid4","school":"Refugio High","geo_precision":"range","state":"CA"},"type":"Feature","geometry":{"type":"Point","coordinates":[-120.098816,34.606692]}},{"properties":{"city":"Goleta","zip":"93117-4317","geo_score":1.0,"street":"6875 El Colegio Rd.","id":"ah5h3in5enae","school":"Isla Vista Elementary","geo_precision":"range","state":"CA"},"type":"Feature","geometry":{"type":"Point","coordinates":[-119.867644,34.417269]}},{"properties":{"city":"Goleta","zip":"93117-1507","geo_score":0.979,"street":"555 North La Patera Ln.","id":"ah5h3iogretr","school":"La Patera Elementary","geo_precision":"range","state":"CA"},"type":"Feature","geometry":{"type":"Point","coordinates":[-119.846557,34.446754]}},{"properties":{"city":"Buellton","zip":"93427","geo_score":0.902,"street":"301 Second St","id":"ah5h3ir2dkac","school":"Jonata Elementary","geo_precision":"range","state":"CA"},"type":"Feature","geometry":{"type":"Point","coordinates":[-120.199113,34.6179]}},{"properties":{"city":"Lompoc","zip":"93436","geo_score":1.0,"street":"1600 West Olive Ave.","id":"ah5h3ismidsy","school":"Miguelito Elementary","geo_precision":"range","state":"CA"},"type":"Feature","geometry":{"type":"Point","coordinates":[-120.475562,34.634287]}},{"properties":{"city":"Carpinteria","zip":"93013-1414","geo_score":1.0,"street":"1480 Linden Ave.","id":"ah5h3iqku57q","school":"Canalino Elementary","geo_precision":"range","state":"CA"},"type":"Feature","geometry":{"type":"Point","coordinates":[-119.515783,34.404474]}},{"properties":{"city":"Carpinteria","zip":"93013-2101","geo_score":1.0,"street":"5351 Carpinteria Ave.","id":"ah5h3ik7kws7","school":"Carpinteria Middle","geo_precision":"range","state":"CA"},"type":"Feature","geometry":{"type":"Point","coordinates":[-119.514333,34.395508]}},{"properties":{"city":"New Cuyama","zip":"93254-0271","geo_score":0.67,"street":"4500 Highway 166","id":"ah5h3iwvfw7u","school":"Cuyama Valley High","geo_precision":"street","state":"CA"},"type":"Feature","geometry":{"type":"Point","coordinates":[-119.984715,35.067859]}},{"properties":{"city":"Lompoc","zip":"93436","geo_score":1.0,"street":"515 West College Ave.","id":"ah5h3ioybami","school":"Lompoc High","geo_precision":"range","state":"CA"},"type":"Feature","geometry":{"type":"Point","coordinates":[-120.463039,34.647177]}},{"properties":{"city":"Santa Barbara","zip":"93109-1101","geo_score":0.958,"street":"431 Flora Vista Dr.","id":"ah5h3imjkshg","school":"Monroe Elementary","geo_precision":"range","state":"CA"},"type":"Feature","geometry":{"type":"Point","coordinates":[-119.729482,34.404376]}},{"properties":{"city":"Santa Maria","zip":"93455-4880","geo_score":1.0,"street":"4893 Bethany Ln.","id":"ah5h3ipbygy9","school":"Delta High","geo_precision":"range","state":"CA"},"type":"Feature","geometry":{"type":"Point","coordinates":[-120.433363,34.865726]}},{"properties":{"city":"Santa Maria","zip":"93454-9700","geo_score":0.585,"street":"675 Panther Dr.","id":"ah5h3izonkar","school":"Pioneer Valley High","geo_precision":"zip","state":"CA"},"type":"Feature","geometry":{"type":"Point","coordinates":[-120.291546,34.864702]}},{"properties":{"city":"Vandenberg AFB","zip":"93437-1209","geo_score":0.925,"street":"991 Mountain View Blvd.","id":"ah5h3in3xfpx","school":"Manzanita Public Charter","geo_precision":"range","state":"CA"},"type":"Feature","geometry":{"type":"Point","coordinates":[-120.517707,34.749364]}},{"properties":{"city":"Lompoc","zip":"93436","geo_score":1.0,"street":"4010 Jupiter Ave","id":"ah5h3ixcskxx","school":"Maple High","geo_precision":"range","state":"CA"},"type":"Feature","geometry":{"type":"Point","coordinates":[-120.46653,34.69283]}},{"properties":{"city":"Santa Barbara","zip":"93101-2971","geo_score":0.902,"street":"850 Portesuello Ave.","id":"ah5h3isxj093","school":"Santa Barbara Community Academy","geo_precision":"range","state":"CA"},"type":"Feature","geometry":{"type":"Point","coordinates":[-119.727388,34.423975]}},{"properties":{"city":"Lompoc","zip":"93436","geo_score":0.894,"street":"621 West North Ave.","id":"ah5h3isp1vvi","school":"La Canada Elementary","geo_precision":"range","state":"CA"},"type":"Feature","geometry":{"type":"Point","coordinates":[-120.464288,34.653523]}},{"properties":{"city":"Lompoc","zip":"93436-4238","geo_score":1.0,"street":"1211 East Pine Ave.","id":"ah5h3iofwvas","school":"Leonora Fillmore Elementary","geo_precision":"range","state":"CA"},"type":"Feature","geometry":{"type":"Point","coordinates":[-120.442665,34.650121]}},{"properties":{"city":"Santa Maria","zip":"93454","geo_score":0.761,"street":"1921 North Carlotti Dr.","id":"ah5h3ip81f2k","school":"Taylor (Ida Redmond) Elementary","geo_precision":"street","state":"CA"},"type":"Feature","geometry":{"type":"Point","coordinates":[-120.422259,34.970003]}},{"properties":{"city":"Santa Maria","zip":"93454-2551","geo_score":0.941,"street":"1248 East Dena Way","id":"ah5h3iydnolt","school":"Tunnell (Martin Luther) Elementary","geo_precision":"range","state":"CA"},"type":"Feature","geometry":{"type":"Point","coordinates":[-120.416015,34.964919]}},{"properties":{"city":"Santa Maria","zip":"93454-6603","geo_score":1.0,"street":"901 South Broadway","id":"ah5h3iyvdg6m","school":"Santa Maria High","geo_precision":"range","state":"CA"},"type":"Feature","geometry":{"type":"Point","coordinates":[-120.436084,34.943118]}},{"properties":{"city":"Santa Barbara","zip":"93111","geo_score":1.0,"street":"5020 San Simeon Dr.","id":"ah5h3ionjm9r","school":"El Camino Elementary","geo_precision":"range","state":"CA"},"type":"Feature","geometry":{"type":"Point","coordinates":[-119.797138,34.43938]}},{"properties":{"city":"Lompoc","zip":"93436","geo_score":1.0,"street":"234 South N St.","id":"ah5h3it41hsp","school":"Lompoc Valley Middle","geo_precision":"range","state":"CA"},"type":"Feature","geometry":{"type":"Point","coordinates":[-120.465475,34.636329]}},{"properties":{"city":"Santa Barbara","zip":"93105-3739","geo_score":1.0,"street":"2701 Las Positas Rd.","id":"ah5h3iun73xc","school":"Adams Elementary","geo_precision":"range","state":"CA"},"type":"Feature","geometry":{"type":"Point","coordinates":[-119.733644,34.433323]}},{"properties":{"city":"Santa Barbara","zip":"93101-3935","geo_score":1.0,"street":"2255 Modoc Rd.","id":"ah5h3ivqrcb1","school":"La Cumbre Junior High","geo_precision":"range","state":"CA"},"type":"Feature","geometry":{"type":"Point","coordinates":[-119.7261,34.424721]}},{"properties":{"city":"Santa Maria","zip":"93458","geo_score":0.805,"street":"930 Hidden Pines Way","id":"ah5h3izcu4f3","school":"Tommie Kunst Junior High","geo_precision":"street","state":"CA"},"type":"Feature","geometry":{"type":"Point","coordinates":[-120.436758,34.985966]}},{"properties":{"city":"Carpinteria","zip":"93013-1811","geo_score":1.0,"street":"4545 Carpinteria Ave.","id":"ah5h3ikbn3zq","school":"Aliso Elementary","geo_precision":"range","state":"CA"},"type":"Feature","geometry":{"type":"Point","coordinates":[-119.527657,34.401752]}},{"properties":{"city":"Santa Barbara","zip":"93110-1042","geo_score":1.0,"street":"4400 Cathedral Oaks Rd.","id":"ah5h3iqhd4es","school":"Santa Barbara County Community","geo_precision":"range","state":"CA"},"type":"Feature","geometry":{"type":"Point","coordinates":[-119.765576,34.449981]}},{"properties":{"city":"Santa Barbara","zip":"93103-3167","geo_score":0.854,"street":"1102 East Yanonali St.","id":"ah5h3ijs4057","school":"Adelante Charter","geo_precision":"street","state":"CA"},"type":"Feature","geometry":{"type":"Point","coordinates":[-119.679793,34.425073]}},{"properties":{"city":"Santa Maria","zip":"93458","geo_score":0.625,"street":"1300 West Sonya Ln.","id":"ah5h3iz06bas","school":"Liberty Elementary","geo_precision":"street","state":"CA"},"type":"Feature","geometry":{"type":"Point","coordinates":[-120.443748,34.927704]}},{"properties":{"city":"Los Alamos","zip":"93440-0318","geo_score":0.815,"street":"480 Centennial St.","id":"ah5h3iwdvuh1","school":"Olga L. Reed Elementary","geo_precision":"street","state":"CA"},"type":"Feature","geometry":{"type":"Point","coordinates":[-120.27992,34.73873]}},{"properties":{"city":"Santa Maria","zip":"93454-4611","geo_score":1.0,"street":"1100 East Fesler St.","id":"ah5h3imp6qff","school":"Fesler (Isaac) Junior High","geo_precision":"range","state":"CA"},"type":"Feature","geometry":{"type":"Point","coordinates":[-120.418114,34.956387]}},{"properties":{"city":"Lompoc","zip":"93436-5006","geo_score":1.0,"street":"501 North W St.","id":"ah5h3in7wqof","school":"Clarence Ruth Elementary","geo_precision":"range","state":"CA"},"type":"Feature","geometry":{"type":"Point","coordinates":[-120.476502,34.645575]}},{"properties":{"city":"Lompoc","zip":"93436","geo_score":0.805,"street":"1213 North A St.","id":"ah5h3iwsfgsz","school":"La Honda Elementary","geo_precision":"street","state":"CA"},"type":"Feature","geometry":{"type":"Point","coordinates":[-120.449055,34.642157]}},{"properties":{"city":"Santa Maria","zip":"93454","geo_score":1.0,"street":"605 East Battles Road","id":"ah5h3ixk8hl2","school":"George Washington Battles Elementary","geo_precision":"range","state":"CA"},"type":"Feature","geometry":{"type":"Point","coordinates":[-120.427219,34.931402]}},{"properties":{"city":"Santa Maria","zip":"93454","geo_score":0.614,"street":"410 E. Camino Colegio","id":"ah5h3iq8f1qz","school":"Miller (Isaac) Elementary","geo_precision":"street","state":"CA"},"type":"Feature","geometry":{"type":"Point","coordinates":[-120.424821,34.952041]}},{"properties":{"city":"Santa Maria","zip":"93454-2236","geo_score":0.44,"street":"700 East Vickie Ave.","id":"ah5h3iuaf9u1","school":"Rice (William) Elementary","geo_precision":"street","state":"CA"},"type":"Feature","geometry":{"type":"Point","coordinates":[-120.46934,34.709163]}},{"properties":{"city":"Lompoc","zip":"93438-8000","geo_score":0.805,"street":"324 South A St.","id":"ah5h3inbu9hb","school":"Arthur Hapgood Elementary","geo_precision":"range","state":"CA"},"type":"Feature","geometry":{"type":"Point","coordinates":[-120.448949,34.635261]}},{"properties":{"city":"Santa Barbara","zip":"93110-1042","geo_score":1.0,"street":"4400 Cathedral Oaks Rd.","id":"ah5h3it91bxy","school":"Santa Barbara County Juvenile Court","geo_precision":"range","state":"CA"},"type":"Feature","geometry":{"type":"Point","coordinates":[-119.765576,34.449981]}},{"properties":{"city":"Santa Barbara","zip":"93101","geo_score":1.0,"street":"710 Santa Barbara St.","id":"ah5h3iv2nkdz","school":"La Cuesta Continuation High","geo_precision":"range","state":"CA"},"type":"Feature","geometry":{"type":"Point","coordinates":[-119.696877,34.421692]}},{"properties":{"city":"Santa Maria","zip":"93455-2846","geo_score":1.0,"street":"1890 Sandalwood Dr.","id":"ah5h3izk6iqe","school":"Arellanes (Don Juan Bautista) Elementary","geo_precision":"range","state":"CA"},"type":"Feature","geometry":{"type":"Point","coordinates":[-120.483923,34.896287]}},{"properties":{"city":"Santa Maria","zip":"93458","geo_score":0.958,"street":"930 West Rancho Verde","id":"ah5h3ip23ngg","school":"Ontiveros (Juan Pacifico) Elementary","geo_precision":"range","state":"CA"},"type":"Feature","geometry":{"type":"Point","coordinates":[-120.446798,34.977153]}},{"properties":{"city":"Santa Maria","zip":"93458","geo_score":1.0,"street":"1120 Harding Avenue","id":"ah5h3ir3tn99","school":"Calvin C. Oakley Elementary","geo_precision":"range","state":"CA"},"type":"Feature","geometry":{"type":"Point","coordinates":[-120.451215,34.966951]}},{"properties":{"city":"Guadalupe","zip":"93434-0788","geo_score":1.0,"street":"1050 Peralta St.","id":"ah5h3it6e38v","school":"Mary Buren Elementary","geo_precision":"range","state":"CA"},"type":"Feature","geometry":{"type":"Point","coordinates":[-120.56751,34.970283]}},{"properties":{"city":"Guadalupe","zip":"93434-1788","geo_score":1.0,"street":"4710 West Main St.","id":"ah5h3iv3nfd2","school":"Kermit McKenzie Junior High","geo_precision":"range","state":"CA"},"type":"Feature","geometry":{"type":"Point","coordinates":[-120.578474,34.957508]}},{"properties":{"city":"Santa Maria","zip":"93455","geo_score":1.0,"street":"1890 Sandalwood Dr.","id":"ah5h3ip4h90d","school":"Arellanes Junior High","geo_precision":"range","state":"CA"},"type":"Feature","geometry":{"type":"Point","coordinates":[-120.483923,34.896287]}},{"properties":{"city":"Santa Maria","zip":"93458","geo_score":1.0,"street":"601 West Alvin Ave.","id":"ah5h3is069ib","school":"Bruce (Robert) Elementary","geo_precision":"range","state":"CA"},"type":"Feature","geometry":{"type":"Point","coordinates":[-120.442595,34.960568]}},{"properties":{"city":"Santa Maria","zip":"93458","geo_score":0.854,"street":"500 West Windsor","id":"ah5h3iwov36e","school":"Adam (William Laird) Elementary","geo_precision":"range","state":"CA"},"type":"Feature","geometry":{"type":"Point","coordinates":[-120.441592,34.936517]}},{"properties":{"city":"Santa Maria","zip":"93458","geo_score":0.875,"street":"219 West El Camino","id":"ah5h3iqkyzv6","school":"El Camino Junior High","geo_precision":"range","state":"CA"},"type":"Feature","geometry":{"type":"Point","coordinates":[-120.437543,34.958607]}},{"properties":{"city":"Santa Maria","zip":"93458","geo_score":0.807,"street":"804 Liberty Street","id":"ah5h3ijqnv4r","school":"David J. Sanchez Sr. Elementary","geo_precision":"street","state":"CA"},"type":"Feature","geometry":{"type":"Point","coordinates":[-120.448708,34.939523]}},{"properties":{"city":"Santa Maria","zip":"93454-3703","geo_score":1.0,"street":"301 East Alvin Ave.","id":"ah5h3itfna5f","school":"Alvin Elementary","geo_precision":"range","state":"CA"},"type":"Feature","geometry":{"type":"Point","coordinates":[-120.433585,34.960525]}},{"properties":{"city":"Santa Maria","zip":"93454","geo_score":0.571,"street":"120 N. Mary Dr.","id":"ah5h3iovk77v","school":"Fairlawn Elementary","geo_precision":"street","state":"CA"},"type":"Feature","geometry":{"type":"Point","coordinates":[-120.414665,34.958681]}},{"properties":{"city":"Santa Maria","zip":"93458","geo_score":1.0,"street":"2715 West Main St.","id":"ah5h3iwlps3h","school":"Bonita Elementary","geo_precision":"range","state":"CA"},"type":"Feature","geometry":{"type":"Point","coordinates":[-120.515822,34.957838]}},{"properties":{"city":"Santa Barbara","zip":"93103-2899","geo_score":1.0,"street":"123 Alameda Padre Serra","id":"ah5h3iwbp40v","school":"Cleveland Elementary","geo_precision":"range","state":"CA"},"type":"Feature","geometry":{"type":"Point","coordinates":[-119.673363,34.428801]}},{"properties":{"city":"Santa Barbara","zip":"93103-2723","geo_score":1.0,"street":"1111 East Mason St.","id":"ah5h3iyo5a5o","school":"Franklin Elementary","geo_precision":"range","state":"CA"},"type":"Feature","geometry":{"type":"Point","coordinates":[-119.677707,34.424949]}},{"properties":{"city":"Santa Barbara","zip":"93101-1709","geo_score":1.0,"street":"430 East Gutierrez St.","id":"ah5h3iuzyhug","school":"Summit High School, II","geo_precision":"range","state":"CA"},"type":"Feature","geometry":{"type":"Point","coordinates":[-119.688774,34.420782]}},{"properties":{"city":"Santa Barbara","zip":"93101-4734","geo_score":1.0,"street":"1625 Robbins St.","id":"ah5h3ix07v5p","school":"Harding University Partnership","geo_precision":"range","state":"CA"},"type":"Feature","geometry":{"type":"Point","coordinates":[-119.721681,34.417066]}},{"properties":{"city":"Santa Barbara","zip":"93109-2359","geo_score":1.0,"street":"350 Loma Alta Dr.","id":"ah5h3iw4y86f","school":"McKinley Elementary","geo_precision":"range","state":"CA"},"type":"Feature","geometry":{"type":"Point","coordinates":[-119.702352,34.407183]}}],"is_temporal":false,"author":{"url":"","metadata":"","contact_name":"","contact_address":"","source":"","contact_phone":""},"source":"","pagination":{"sort":null,"start":0,"total":66,"limit":1000000},"state":"complete","tags":"","published":"2014-08-16T17:22:48-04:00","id":393845}