{"type":"FeatureCollection","data_type":"Dataset","url_type":null,"permissions":[{"permissions":{"download":true,"view":true},"group_id":"everyone"}],"classification":null,"title":"Marriage Family Therapist","count":622,"stream_id":394396,"contributor":{"url":"http://geocommons.com/users/73518","name":"aelmore"},"data_attributes":null,"calculation_params":null,"icon_link":null,"link":"http://geocommons.com/overlays/394396.json","extent":[-159.415,0.0,0.0,64.8569],"geometry_types":["point"],"unique_name":null,"name":"Marriage Family Therapist","feature_count":622,"description":"","next_feature":null,"is_raster":false,"short_classification":"Y","stats":{"latitude":{"max":64.856865,"variance":32.9076064144363,"mean":36.9200569742765,"stdev":5.73651518035439,"min":0.0,"median":37.336849},"longitude":{"max":0.0,"variance":370.217070740433,"mean":-100.338840218649,"stdev":19.2410257195513,"min":-159.415459,"median":-98.493481}},"features":[{"properties":{"city":"Wyomissing","latitude":40.331001,"zip":"19610","job title":"Marriage and Family Therapist","employer":"DGR Behavioral Health LLC","longitude":-75.965698,"id":"ah74x1oejvt2","state":"PA"},"type":"Feature","geometry":{"type":"Point","coordinates":[-75.965698,40.331001]}},{"properties":{"city":"San Diego","latitude":32.921303,"zip":null,"job title":"Marriage\\u00A0&amp;\\u00A0Family\\u00A0Therapist","employer":"Sharp Mesa Vista","longitude":-117.06221,"id":"ah74x1ng0l2b","state":"CA"},"type":"Feature","geometry":{"type":"Point","coordinates":[-117.06221,32.921303]}},{"properties":{"city":"Jacksonville","latitude":30.341465,"zip":null,"job title":"Marriage and Family Therapist","employer":"Department of Veterans Affairs","longitude":-81.716705,"id":"ah74x1mys1n9","state":"FL"},"type":"Feature","geometry":{"type":"Point","coordinates":[-81.716705,30.341465]}},{"properties":{"city":"New York","latitude":40.706652,"zip":null,"job title":"Licensed Marriage and Family Therapist","employer":"Comunilife, Inc.","longitude":-73.972569,"id":"ah74x1t3hx5u","state":"NY"},"type":"Feature","geometry":{"type":"Point","coordinates":[-73.972569,40.706652]}},{"properties":{"city":"Phoenix","latitude":33.690716,"zip":"85024","job title":"Marriage and Family Therapist","employer":"Arko Counseling Center","longitude":-112.037495,"id":"ah74x1gl7qbx","state":"AZ"},"type":"Feature","geometry":{"type":"Point","coordinates":[-112.037495,33.690716]}},{"properties":{"city":"Canandaigua","latitude":42.890219,"zip":null,"job title":"Marriage and Family Therapist (MFT)","employer":"Department of Veterans Affairs","longitude":-77.279537,"id":"ah74x1kufcnc","state":"NY"},"type":"Feature","geometry":{"type":"Point","coordinates":[-77.279537,42.890219]}},{"properties":{"city":"Martinez","latitude":37.995628,"zip":null,"job title":"Marriage Family Therapist (MT09032013AX3) (Job Number: 201648)","employer":"Kaiser Permanente","longitude":-122.125256,"id":"ah74x1f57td8","state":"CA"},"type":"Feature","geometry":{"type":"Point","coordinates":[-122.125256,37.995628]}},{"properties":{"city":"Long Beach","latitude":33.7862,"zip":"90804","job title":"Marriage &amp; Family Therapist (licensed &amp; intern position avialable)","employer":"Hanna Counseling Services","longitude":-118.144497,"id":"ah74x1qqpt0w","state":"CA"},"type":"Feature","geometry":{"type":"Point","coordinates":[-118.144497,33.7862]}},{"properties":{"city":"San Bernardino","latitude":34.124065,"zip":"92411","job title":"BEHAV THERAPIST I - Marriage &amp; Family Therapists","employer":"Community Hospital San Bernardino","longitude":-117.3279,"id":"ah74x1lybdkr","state":"CA"},"type":"Feature","geometry":{"type":"Point","coordinates":[-117.3279,34.124065]}},{"properties":{"city":"Fayetteville","latitude":35.071825,"zip":null,"job title":"Marriage Family Therapist (Inpatient\\/Outpatient)","employer":"Department of Veterans Affairs","longitude":-78.929287,"id":"ah74x1op7e0j","state":"NC"},"type":"Feature","geometry":{"type":"Point","coordinates":[-78.929287,35.071825]}},{"properties":{"city":"San Francisco","latitude":37.782341,"zip":null,"job title":"Marriage Family Therapist - LMFT - [184] SF082913x2 (Job Number: 201175)","employer":"Kaiser Permanente","longitude":-122.443024,"id":"ah74x1lw1ztt","state":"CA"},"type":"Feature","geometry":{"type":"Point","coordinates":[-122.443024,37.782341]}},{"properties":{"city":"Wilbraham","latitude":36.209605,"zip":"1095","job title":"Licensed Marriage and Family Therapist\\/Licensed Mental Health Counselor","employer":"Family Care Counseling Associates, Inc.","longitude":-107.458454,"id":"ah74x1gpvk52","state":"MA"},"type":"Feature","geometry":{"type":"Point","coordinates":[-107.458454,36.209605]}},{"properties":{"city":"Livermore","latitude":37.669336,"zip":null,"job title":"Family Therapist","employer":"City of Livermore, CA","longitude":-121.764816,"id":"ah74x1rfc1j0","state":"CA"},"type":"Feature","geometry":{"type":"Point","coordinates":[-121.764816,37.669336]}},{"properties":{"city":"Olivette","latitude":38.673435,"zip":null,"job title":"Licensed Family Therapist (FT)","employer":"Bridgeway Behavioral Health","longitude":-90.38007,"id":"ah74x1o7jxzz","state":"MO"},"type":"Feature","geometry":{"type":"Point","coordinates":[-90.38007,38.673435]}},{"properties":{"city":"Livermore","latitude":37.669336,"zip":null,"job title":"Family Therapist","employer":null,"longitude":-121.764816,"id":"ah74x1fjshg0","state":"CA"},"type":"Feature","geometry":{"type":"Point","coordinates":[-121.764816,37.669336]}},{"properties":{"city":"Bethesda","latitude":38.984755,"zip":null,"job title":"Marriage and Family Therapist","employer":"Spectrum Healthcare Resources","longitude":-77.10981,"id":"ah74x1jgtzr4","state":"MD"},"type":"Feature","geometry":{"type":"Point","coordinates":[-77.10981,38.984755]}},{"properties":{"city":"Hutchinson","latitude":38.054165,"zip":null,"job title":"Therapist","employer":"Saint Francis Community Services","longitude":-97.915176,"id":"ah74x1eio6d2","state":"KS"},"type":"Feature","geometry":{"type":"Point","coordinates":[-97.915176,38.054165]}},{"properties":{"city":"Beaver Dam","latitude":43.464836,"zip":null,"job title":"Family &amp; Community Therapist","employer":"Lutheran Social Services","longitude":-88.832222,"id":"ah74x1nzirmi","state":"WI"},"type":"Feature","geometry":{"type":"Point","coordinates":[-88.832222,43.464836]}},{"properties":{"city":"Fremont","latitude":37.55091,"zip":null,"job title":"Marriage Family Therapist 5247 Child Team Fremont (Job Number: 196964)","employer":"Kaiser Permanente","longitude":-121.982169,"id":"ah74x1kf175e","state":"CA"},"type":"Feature","geometry":{"type":"Point","coordinates":[-121.982169,37.55091]}},{"properties":{"city":"Spokane","latitude":47.672976,"zip":null,"job title":"Therapist II Child and Family","employer":"Spokane Mental Health","longitude":-117.385822,"id":"ah74x1hldamj","state":"WA"},"type":"Feature","geometry":{"type":"Point","coordinates":[-117.385822,47.672976]}},{"properties":{"city":"Wayne County","latitude":39.860559,"zip":null,"job title":"Therapist","employer":"Meridian Health Services","longitude":-85.01601,"id":"ah74x1kpxnhy","state":"IN"},"type":"Feature","geometry":{"type":"Point","coordinates":[-85.01601,39.860559]}},{"properties":{"city":"Salinas","latitude":36.687616,"zip":null,"job title":"Bilingual Mental Health Therapist","employer":"Seneca Family of Agencies","longitude":-121.634834,"id":"ah74x1lmy5c7","state":"CA"},"type":"Feature","geometry":{"type":"Point","coordinates":[-121.634834,36.687616]}},{"properties":{"city":"Fremont","latitude":37.55091,"zip":null,"job title":"Marriage Family Therapist 5252 IOP Fremont (Job Number: 197643)","employer":"Kaiser Permanente","longitude":-121.982169,"id":"ah74x1exgv48","state":"CA"},"type":"Feature","geometry":{"type":"Point","coordinates":[-121.982169,37.55091]}},{"properties":{"city":"Fremont","latitude":37.55091,"zip":null,"job title":"Marriage Family Therapist 5246 Adult Fremont (Job Number: 197036)","employer":"Kaiser Permanente","longitude":-121.982169,"id":"ah74x1s8n2tl","state":"CA"},"type":"Feature","geometry":{"type":"Point","coordinates":[-121.982169,37.55091]}},{"properties":{"city":"Santa Rosa","latitude":38.290331,"zip":null,"job title":"Licensed Clinical Social Worker \\/ Marriage Family Therapist - EXTRA-HELP","employer":"County of Sonoma","longitude":-122.450447,"id":"ah74x1mx58d7","state":"CA"},"type":"Feature","geometry":{"type":"Point","coordinates":[-122.450447,38.290331]}},{"properties":{"city":"Culver City","latitude":34.007294,"zip":null,"job title":"Therapist","employer":"BROTMAN MEDICAL CENTER","longitude":-118.408607,"id":"ah74x1scboyi","state":"CA"},"type":"Feature","geometry":{"type":"Point","coordinates":[-118.408607,34.007294]}},{"properties":{"city":"Winston-Salem","latitude":36.105585,"zip":null,"job title":"Child and Family Therapist (License Req.)","employer":"The Children\\'s Home, Inc.","longitude":-80.242615,"id":"ah74x1hqz031","state":"NC"},"type":"Feature","geometry":{"type":"Point","coordinates":[-80.242615,36.105585]}},{"properties":{"city":"Sacramento","latitude":38.556339,"zip":null,"job title":"Marriage Family Therapist SH (Job Number: 195407)","employer":"Kaiser Permanente","longitude":-121.427334,"id":"ah74x1i3f9wn","state":"CA"},"type":"Feature","geometry":{"type":"Point","coordinates":[-121.427334,38.556339]}},{"properties":{"city":"Madison","latitude":43.089371,"zip":null,"job title":"Child and Family Therapist II","employer":"Children\\'s Hospital &amp; Health System","longitude":-89.392056,"id":"ah74x1s8tj8f","state":"WI"},"type":"Feature","geometry":{"type":"Point","coordinates":[-89.392056,43.089371]}},{"properties":{"city":"William Penn Annex East","latitude":39.949129,"zip":"19106","job title":"Marriage Counselor","employer":"The Center for Growth, Inc","longitude":-75.144527,"id":"ah74x1o8j56x","state":"PA"},"type":"Feature","geometry":{"type":"Point","coordinates":[-75.144527,39.949129]}},{"properties":{"city":"Tullahoma","latitude":35.374266,"zip":null,"job title":"Outpatient Therapist","employer":"Centerstone","longitude":-86.22374,"id":"ah74x1dr66rb","state":"TN"},"type":"Feature","geometry":{"type":"Point","coordinates":[-86.22374,35.374266]}},{"properties":{"city":"Cleveland","latitude":41.486511,"zip":null,"job title":"Clinical Therapist","employer":"OhioGuidestone","longitude":-81.678085,"id":"ah74x1qjsvuz","state":"OH"},"type":"Feature","geometry":{"type":"Point","coordinates":[-81.678085,41.486511]}},{"properties":{"city":"Cerritos","latitude":33.867229,"zip":null,"job title":"Bilingual (Spanish\\/English) Outpatient Therapist","employer":"Community Family Guidance Center","longitude":-118.06884,"id":"ah74x1jpodx0","state":"CA"},"type":"Feature","geometry":{"type":"Point","coordinates":[-118.06884,33.867229]}},{"properties":{"city":"Santa Rosa","latitude":38.290331,"zip":null,"job title":"Marriage, Family Therapist Intern\\/Associate Social Worker - EXTRA-HELP","employer":"County of Sonoma","longitude":-122.450447,"id":"ah74x1elofv8","state":"CA"},"type":"Feature","geometry":{"type":"Point","coordinates":[-122.450447,38.290331]}},{"properties":{"city":"Oxford","latitude":36.317381,"zip":"27565","job title":"Child, Adolescent and Family Therapist","employer":"Granville Health System","longitude":-78.585552,"id":"ah74x1qhmdyx","state":"NC"},"type":"Feature","geometry":{"type":"Point","coordinates":[-78.585552,36.317381]}},{"properties":{"city":"College Park","latitude":38.996389,"zip":null,"job title":"Assistant\\/Associate Professor, Couple and Family Therapy","employer":"University of Maryland","longitude":-76.93552,"id":"ah74x1cw3n0m","state":"MD"},"type":"Feature","geometry":{"type":"Point","coordinates":[-76.93552,38.996389]}},{"properties":{"city":"Yakima","latitude":46.598909,"zip":null,"job title":"Bilingual\\/Biliterate (preferred) Child &amp; Family Therapist","employer":"Catholic Charities","longitude":-120.540104,"id":"ah74x1hmvks2","state":"WA"},"type":"Feature","geometry":{"type":"Point","coordinates":[-120.540104,46.598909]}},{"properties":{"city":"Tucson","latitude":32.24498,"zip":"85716","job title":"Bilingual Therapist","employer":"Emerge! Center Against Domestic Abuse","longitude":-110.921417,"id":"ah74x1nkyrmw","state":"AZ"},"type":"Feature","geometry":{"type":"Point","coordinates":[-110.921417,32.24498]}},{"properties":{"city":"Portland","latitude":45.53784,"zip":null,"job title":"Group Therapist- Outpatient","employer":"Providence Health &amp; Services","longitude":-122.662384,"id":"ah74x1t0mc3l","state":"OR"},"type":"Feature","geometry":{"type":"Point","coordinates":[-122.662384,45.53784]}},{"properties":{"city":"Columbus","latitude":40.074799,"zip":null,"job title":"Clinical Therapist","employer":"The Ohio State University","longitude":-83.075119,"id":"ah74x1dn6oge","state":"OH"},"type":"Feature","geometry":{"type":"Point","coordinates":[-83.075119,40.074799]}},{"properties":{"city":"South Lake","latitude":26.004445,"zip":null,"job title":"Therapist - CCOS","employer":"LifeStream Behavioral Center","longitude":-80.129696,"id":"ah74x1kwlh24","state":"FL"},"type":"Feature","geometry":{"type":"Point","coordinates":[-80.129696,26.004445]}},{"properties":{"city":null,"latitude":35.786949,"zip":null,"job title":"Community Based Therapist","employer":"Community Health Network","longitude":-93.943672,"id":"ah74x1er6gjn","state":"IN"},"type":"Feature","geometry":{"type":"Point","coordinates":[-93.943672,35.786949]}},{"properties":{"city":"Oakland","latitude":37.776915,"zip":"94601","job title":"Outpatient Therapist","employer":"WestCoast Children\\'s Clinic","longitude":-122.215919,"id":"ah74x1e4umsi","state":"CA"},"type":"Feature","geometry":{"type":"Point","coordinates":[-122.215919,37.776915]}},{"properties":{"city":"American Fork","latitude":40.377819,"zip":"84003","job title":"Full-Time Therapist","employer":"Ascend Recovery","longitude":-111.797356,"id":"ah74x1o53fuf","state":"UT"},"type":"Feature","geometry":{"type":"Point","coordinates":[-111.797356,40.377819]}},{"properties":{"city":"Riviera Beach","latitude":26.787525,"zip":null,"job title":"0-5 Therapist","employer":"Community Partnership Group","longitude":-80.075375,"id":"ah74x1cyeikk","state":"FL"},"type":"Feature","geometry":{"type":"Point","coordinates":[-80.075375,26.787525]}},{"properties":{"city":"Strafford County","latitude":43.32671,"zip":null,"job title":"Behavioral Health: Youth &amp; Family Therapist","employer":"Community Partners NH","longitude":-71.028683,"id":"ah74x1ghv9hf","state":"NH"},"type":"Feature","geometry":{"type":"Point","coordinates":[-71.028683,43.32671]}},{"properties":{"city":"Prescott Valley","latitude":34.593765,"zip":null,"job title":"Child &amp; Family Therapist (Outpatient &amp; In-Home) - SequelCare of Arizona","employer":"Sequel Youth and Family Services","longitude":-112.2953,"id":"ah74x1jbrhkm","state":"AZ"},"type":"Feature","geometry":{"type":"Point","coordinates":[-112.2953,34.593765]}},{"properties":{"city":"Abilene","latitude":32.418499,"zip":null,"job title":"Supervisory Licensed Marriage Family Therapist (Vet Center Team Leader)-Readjustment Counseling Svc","employer":"Department Of Veterans Affairs","longitude":-99.756874,"id":"ah74x1i2cvc1","state":"TX"},"type":"Feature","geometry":{"type":"Point","coordinates":[-99.756874,32.418499]}},{"properties":{"city":"San Joaquin County","latitude":37.89097,"zip":null,"job title":"Speech Therapist III-Senior - SJGH","employer":"San Joaquin County","longitude":-121.250992,"id":"ah74x1rvulvg","state":"CA"},"type":"Feature","geometry":{"type":"Point","coordinates":[-121.250992,37.89097]}},{"properties":{"city":"Saint Petersburg","latitude":27.769895,"zip":null,"job title":"Trauma Service Therapist Saint","employer":"Suncoast Center, Inc.","longitude":-82.703667,"id":"ah74x1jokp8j","state":"FL"},"type":"Feature","geometry":{"type":"Point","coordinates":[-82.703667,27.769895]}},{"properties":{"city":"Santa Rosa","latitude":38.290331,"zip":"95401","job title":"Licensed Clinical Social Worker Marriage Family Therapist","employer":"County of Sonoma","longitude":-122.450447,"id":"ah74x1ri416e","state":"CA"},"type":"Feature","geometry":{"type":"Point","coordinates":[-122.450447,38.290331]}},{"properties":{"city":"Parsons","latitude":37.34017,"zip":null,"job title":"Intensive In-Home Therapist","employer":"KVC Health Systems, Inc","longitude":-95.266609,"id":"ah74x1iy50w8","state":"KS"},"type":"Feature","geometry":{"type":"Point","coordinates":[-95.266609,37.34017]}},{"properties":{"city":"San Jose","latitude":37.336849,"zip":null,"job title":"Therapist IV (Lead)","employer":"Catholic Charities of Santa Clara County","longitude":-121.84771,"id":"ah74x1i9aukn","state":"CA"},"type":"Feature","geometry":{"type":"Point","coordinates":[-121.84771,37.336849]}},{"properties":{"city":"Philadelphia","latitude":40.009691,"zip":null,"job title":"THERAPIST - Child &amp; Family","employer":"WES Health System","longitude":-75.111057,"id":"ah74x1pmx4c4","state":"PA"},"type":"Feature","geometry":{"type":"Point","coordinates":[-75.111057,40.009691]}},{"properties":{"city":"Glenmoore","latitude":40.09045,"zip":null,"job title":"Licensed Clinical Therapist","employer":"Devereux","longitude":-75.774071,"id":"ah74x1fdmaz4","state":"PA"},"type":"Feature","geometry":{"type":"Point","coordinates":[-75.774071,40.09045]}},{"properties":{"city":"Bellevue","latitude":47.595051,"zip":null,"job title":"Mental Health Therapist, Outpatient","employer":"Seattle Children\\'s Hospital","longitude":-122.157402,"id":"ah74x1spnyuk","state":"WA"},"type":"Feature","geometry":{"type":"Point","coordinates":[-122.157402,47.595051]}},{"properties":{"city":"Houston","latitude":29.750265,"zip":"77001","job title":"Youth Lead Therapist","employer":"Kingwood Pines Hospital","longitude":-95.367298,"id":"ah74x1jjl3kh","state":"TX"},"type":"Feature","geometry":{"type":"Point","coordinates":[-95.367298,29.750265]}},{"properties":{"city":"Waldorf","latitude":38.595634,"zip":null,"job title":"THERAPISTS NEEDED","employer":"Lantern Therapeutic Services, Inc.","longitude":-76.925892,"id":"ah74x1j2p8b8","state":"MD"},"type":"Feature","geometry":{"type":"Point","coordinates":[-76.925892,38.595634]}},{"properties":{"city":"Bismarck","latitude":36.209605,"zip":null,"job title":"Bismarck, North Dakota - SPA Military Family Life Counselor","employer":"MHN Government Services - 7012","longitude":-107.458454,"id":"ah74x1n7twcu","state":"ND"},"type":"Feature","geometry":{"type":"Point","coordinates":[-107.458454,36.209605]}},{"properties":{"city":"Cupertino","latitude":37.308849,"zip":null,"job title":"Marriage Family Therapist Assistant, (#130340) (Job Number: 195423)","employer":"Kaiser Permanente","longitude":-122.041931,"id":"ah74x1do0yjj","state":"CA"},"type":"Feature","geometry":{"type":"Point","coordinates":[-122.041931,37.308849]}},{"properties":{"city":"Reno","latitude":39.55397,"zip":"89512","job title":"Therapist","employer":"West Hills Hospital","longitude":-119.801434,"id":"ah74x1lg0lye","state":"NV"},"type":"Feature","geometry":{"type":"Point","coordinates":[-119.801434,39.55397]}},{"properties":{"city":"Murrieta","latitude":33.565825,"zip":null,"job title":"Family Therapist - Therapist","employer":"American Addiction Centers","longitude":-117.19928,"id":"ah74x1jlj1gt","state":"CA"},"type":"Feature","geometry":{"type":"Point","coordinates":[-117.19928,33.565825]}},{"properties":{"city":"Santa Rosa","latitude":38.290331,"zip":"95401","job title":"Marriage Family Therapist Intern Associate Social Worker","employer":"County of Sonoma","longitude":-122.450447,"id":"ah74x1e2l5uz","state":"CA"},"type":"Feature","geometry":{"type":"Point","coordinates":[-122.450447,38.290331]}},{"properties":{"city":"Monroe","latitude":32.525219,"zip":null,"job title":"Clinical Therapist","employer":"St. Francis Medical Center","longitude":-92.078899,"id":"ah74x1j4hl7t","state":"LA"},"type":"Feature","geometry":{"type":"Point","coordinates":[-92.078899,32.525219]}},{"properties":{"city":"Monroe","latitude":32.525219,"zip":null,"job title":"Clinical Therapist","employer":"St Francis Medical Center","longitude":-92.078899,"id":"ah74x1df1rq0","state":"LA"},"type":"Feature","geometry":{"type":"Point","coordinates":[-92.078899,32.525219]}},{"properties":{"city":null,"latitude":30.63674,"zip":null,"job title":"Clinician Sr.\\/ Family First\\/ Gville\\/ #39340\\/ 08","employer":"Meridian Behavioral Healthcare, Inc.","longitude":-84.282509,"id":"ah74x1lsyit1","state":"FL"},"type":"Feature","geometry":{"type":"Point","coordinates":[-84.282509,30.63674]}},{"properties":{"city":"Fort Drum","latitude":36.209605,"zip":null,"job title":"Ft. Drum, New York - SPA Military Family Life Counselor","employer":"MHN Government Services - 7012","longitude":-107.458454,"id":"ah74x1njb4n9","state":"NY"},"type":"Feature","geometry":{"type":"Point","coordinates":[-107.458454,36.209605]}},{"properties":{"city":null,"latitude":30.63674,"zip":null,"job title":"Sr. Clinician\\/Family First\\/ LKCY\\/ #39342\\/ 08","employer":"Meridian Behavioral Healthcare, Inc.","longitude":-84.282509,"id":"ah74x1i8u1yh","state":"FL"},"type":"Feature","geometry":{"type":"Point","coordinates":[-84.282509,30.63674]}},{"properties":{"city":"Chaparral","latitude":32.03926,"zip":null,"job title":"Program Director \\/ Lead Therapist","employer":"Management &amp; Training Corporation","longitude":-106.409046,"id":"ah74x1n7wlig","state":"NM"},"type":"Feature","geometry":{"type":"Point","coordinates":[-106.409046,32.03926]}},{"properties":{"city":"Bismarck","latitude":46.802485,"zip":null,"job title":"Behavorial Group Therapist","employer":"St. Alexius Medical Center","longitude":-100.767014,"id":"ah74x1h8dhqg","state":"ND"},"type":"Feature","geometry":{"type":"Point","coordinates":[-100.767014,46.802485]}},{"properties":{"city":"Ventura","latitude":31.734392,"zip":null,"job title":"Case Manager - Therapist - Social Services","employer":"Aurora Vista del Mar Hospital - Behavioral Health","longitude":-89.216322,"id":"ah74x1p10swr","state":"CA"},"type":"Feature","geometry":{"type":"Point","coordinates":[-89.216322,31.734392]}},{"properties":{"city":"Atlanta","latitude":33.78339,"zip":null,"job title":"Functional Family Therapist","employer":"Southwest Key Programs","longitude":-84.416546,"id":"ah74x1fkoxcg","state":"GA"},"type":"Feature","geometry":{"type":"Point","coordinates":[-84.416546,33.78339]}},{"properties":{"city":"New Britain","latitude":41.678385,"zip":"6051","job title":"Clinician\\/Therapist - In home Services","employer":"Family &amp; Children\\'s Aid","longitude":-72.78508,"id":"ah74x1je4u4g","state":"CT"},"type":"Feature","geometry":{"type":"Point","coordinates":[-72.78508,41.678385]}},{"properties":{"city":"Monroe","latitude":32.525219,"zip":null,"job title":"Clinical Therapist","employer":"Our Lady of Lourdes Regional Medical Center","longitude":-92.078899,"id":"ah74x1o8yw9s","state":"LA"},"type":"Feature","geometry":{"type":"Point","coordinates":[-92.078899,32.525219]}},{"properties":{"city":"Lake Ozark","latitude":38.170105,"zip":null,"job title":"Therapist","employer":"CALO","longitude":-92.626171,"id":"ah74x1rwlimw","state":"MO"},"type":"Feature","geometry":{"type":"Point","coordinates":[-92.626171,38.170105]}},{"properties":{"city":"Villa Rica","latitude":33.72492,"zip":null,"job title":"Primary Therapist III","employer":"Willowbrooke at Tanner","longitude":-84.927685,"id":"ah74x1mvledw","state":"GA"},"type":"Feature","geometry":{"type":"Point","coordinates":[-84.927685,33.72492]}},{"properties":{"city":"Seattle","latitude":47.583715,"zip":null,"job title":"Bilingual Child &amp; Family Therapist","employer":"Catholic Charities of Yakima","longitude":-122.324173,"id":"ah74x1eqwd2j","state":"WA"},"type":"Feature","geometry":{"type":"Point","coordinates":[-122.324173,47.583715]}},{"properties":{"city":"Greeley","latitude":38.997921,"zip":null,"job title":"Crisis &amp; Intake Therapist","employer":"North Colorado Medical Center","longitude":-105.550964,"id":"ah74x1skl2ki","state":"CO"},"type":"Feature","geometry":{"type":"Point","coordinates":[-105.550964,38.997921]}},{"properties":{"city":"Blaine","latitude":36.488685,"zip":null,"job title":"Mental Heath Therapist - Avanti","employer":"Volunteers of America- Minnesota","longitude":-96.059569,"id":"ah74x1n900ir","state":"MN"},"type":"Feature","geometry":{"type":"Point","coordinates":[-96.059569,36.488685]}},{"properties":{"city":"Blaine","latitude":36.488685,"zip":null,"job title":"Mental Heath Therapist - Avanti","employer":"Volunteers of America","longitude":-96.059569,"id":"ah74x1othtu1","state":"MN"},"type":"Feature","geometry":{"type":"Point","coordinates":[-96.059569,36.488685]}},{"properties":{"city":"Minneapolis","latitude":45.005384,"zip":null,"job title":"Therapist \\u2013 Multisystemic","employer":"The Family Partnership","longitude":-93.31739,"id":"ah74x1nevrgc","state":"MN"},"type":"Feature","geometry":{"type":"Point","coordinates":[-93.31739,45.005384]}},{"properties":{"city":"Hershey","latitude":41.158095,"zip":null,"job title":"Therapist\\/Clinical Psychiatric Specialist - Outpatient Hershey","employer":"Pennsylvania Psychiatric Institute","longitude":-101.002429,"id":"ah74x1pgh03m","state":"PA"},"type":"Feature","geometry":{"type":"Point","coordinates":[-101.002429,41.158095]}},{"properties":{"city":"Jackson","latitude":32.311579,"zip":null,"job title":"Therapists - PACT Therapist &amp; Behavioral Health Therapist","employer":"Region 15 Community Mental Health Center","longitude":-90.193821,"id":"ah74x1hnmu7l","state":"MS"},"type":"Feature","geometry":{"type":"Point","coordinates":[-90.193821,32.311579]}},{"properties":{"city":"Boynton Beach","latitude":26.527929,"zip":"33426","job title":"Therapist","employer":"The Watershed Addiction Treatment Programs","longitude":-80.080879,"id":"ah74x1g0jx2q","state":"FL"},"type":"Feature","geometry":{"type":"Point","coordinates":[-80.080879,26.527929]}},{"properties":{"city":"Spokane","latitude":47.672976,"zip":null,"job title":"Therapist II - Child and Family","employer":"Spokane Mental Health","longitude":-117.385822,"id":"ah74x1gcuhi8","state":"WA"},"type":"Feature","geometry":{"type":"Point","coordinates":[-117.385822,47.672976]}},{"properties":{"city":"Louisville","latitude":38.201975,"zip":null,"job title":"Senior Therapist V02609","employer":"Laurus Strategies Recruitment Consulting","longitude":-85.665028,"id":"ah74x1l0g4lv","state":"KY"},"type":"Feature","geometry":{"type":"Point","coordinates":[-85.665028,38.201975]}},{"properties":{"city":"Greenwood","latitude":42.35734,"zip":null,"job title":"Mental Health Therapist","employer":"Youth Villages","longitude":-82.998905,"id":"ah74x1hf8ror","state":"MS"},"type":"Feature","geometry":{"type":"Point","coordinates":[-82.998905,42.35734]}},{"properties":{"city":"Plainfield","latitude":40.619341,"zip":null,"job title":"Licensed Per Diem Therapist","employer":"Devereux","longitude":-74.423027,"id":"ah74x1l07pvz","state":"NJ"},"type":"Feature","geometry":{"type":"Point","coordinates":[-74.423027,40.619341]}},{"properties":{"city":"San Bernardino","latitude":34.124065,"zip":"92411","job title":"REC THERAPIST","employer":"Community Hospital San Bernardino","longitude":-117.3279,"id":"ah74x1kw53m5","state":"CA"},"type":"Feature","geometry":{"type":"Point","coordinates":[-117.3279,34.124065]}},{"properties":{"city":"Pensacola","latitude":30.456015,"zip":null,"job title":"Lead BSFT Therapist","employer":"Eckerd Youth Alternatives","longitude":-87.216007,"id":"ah74x1gizb35","state":"FL"},"type":"Feature","geometry":{"type":"Point","coordinates":[-87.216007,30.456015]}},{"properties":{"city":"Long Beach","latitude":31.734392,"zip":null,"job title":"Bilingual Therapist-Intensive Services","employer":"The Guidance Center","longitude":-89.216322,"id":"ah74x1pbbzsf","state":"CA"},"type":"Feature","geometry":{"type":"Point","coordinates":[-89.216322,31.734392]}},{"properties":{"city":"Washington","latitude":38.8887,"zip":null,"job title":"Therapeutic Mentor","employer":"Vive Family Support Program","longitude":-84.247603,"id":"ah74x1lffvv9","state":"DC"},"type":"Feature","geometry":{"type":"Point","coordinates":[-84.247603,38.8887]}},{"properties":{"city":"Fort Richardson","latitude":36.209605,"zip":null,"job title":"Ft. Richardson, Alaska - SPA Military Family Life Counselor","employer":"MHN Government Services - 7012","longitude":-107.458454,"id":"ah74x1drqnc6","state":"AK"},"type":"Feature","geometry":{"type":"Point","coordinates":[-107.458454,36.209605]}},{"properties":{"city":"Phoenix","latitude":33.585449,"zip":null,"job title":"Licensed Clinical Therapist","employer":"Bayless Healthcare Group","longitude":-111.985249,"id":"ah74x1giqj8z","state":"AZ"},"type":"Feature","geometry":{"type":"Point","coordinates":[-111.985249,33.585449]}},{"properties":{"city":"Waco","latitude":31.55086,"zip":null,"job title":"Social Worker III","employer":"Texas Department of Family and Protective Services","longitude":-97.165245,"id":"ah74x1qhldyp","state":"TX"},"type":"Feature","geometry":{"type":"Point","coordinates":[-97.165245,31.55086]}},{"properties":{"city":"Lawrenceville","latitude":40.30154,"zip":null,"job title":"Per- Diem Group Therapist","employer":"GenPsych, PC","longitude":-74.734993,"id":"ah74x1rdunyv","state":"NJ"},"type":"Feature","geometry":{"type":"Point","coordinates":[-74.734993,40.30154]}},{"properties":{"city":"Riviera Beach","latitude":26.787525,"zip":null,"job title":"Integration Team Lead Therapist","employer":"Community Partnership Group","longitude":-80.075375,"id":"ah74x1gymx2d","state":"FL"},"type":"Feature","geometry":{"type":"Point","coordinates":[-80.075375,26.787525]}},{"properties":{"city":"Gardena","latitude":33.874491,"zip":null,"job title":"Therapist-PT (YO)","employer":"AADAP, Inc.","longitude":-118.300236,"id":"ah74x1pcr5ox","state":"CA"},"type":"Feature","geometry":{"type":"Point","coordinates":[-118.300236,33.874491]}},{"properties":{"city":"Des Moines","latitude":41.58478,"zip":"50309","job title":"Therapist","employer":"Orchard Place","longitude":-93.620857,"id":"ah74x1lib7fl","state":"IA"},"type":"Feature","geometry":{"type":"Point","coordinates":[-93.620857,41.58478]}},{"properties":{"city":"Gardena","latitude":30.675129,"zip":null,"job title":"Therapist-PT (YO) Bilingual Spanish","employer":"AADAP, Inc.","longitude":-87.873192,"id":"ah74x1n7l7bs","state":"CA"},"type":"Feature","geometry":{"type":"Point","coordinates":[-87.873192,30.675129]}},{"properties":{"city":"Palo Alto","latitude":37.383474,"zip":null,"job title":"PD-CLINICIAN II","employer":"Momentum for Mental Health","longitude":-122.146088,"id":"ah74x1iqix2b","state":"CA"},"type":"Feature","geometry":{"type":"Point","coordinates":[-122.146088,37.383474]}},{"properties":{"city":"Jefferson Parish","latitude":29.605805,"zip":null,"job title":"MENTAL HEALTH PROFESSIONAL II (6556)","employer":"Jefferson Parish","longitude":-90.092373,"id":"ah74x1dlyzw3","state":"LA"},"type":"Feature","geometry":{"type":"Point","coordinates":[-90.092373,29.605805]}},{"properties":{"city":"White Plains","latitude":41.026134,"zip":null,"job title":"ACT Wellness Specialist","employer":"Liberty Healthcare","longitude":-73.756992,"id":"ah74x1f3g2bv","state":"NY"},"type":"Feature","geometry":{"type":"Point","coordinates":[-73.756992,41.026134]}},{"properties":{"city":"Albuquerque","latitude":35.080469,"zip":null,"job title":"MGR CLINICAL THERAPY","employer":"UNM Hospitals","longitude":-106.627914,"id":"ah74x1kno3ju","state":"NM"},"type":"Feature","geometry":{"type":"Point","coordinates":[-106.627914,35.080469]}},{"properties":{"city":"San Francisco","latitude":40.095717,"zip":null,"job title":"SPMF - Allied Mental Health Provider","employer":"Sutter Health","longitude":-80.909897,"id":"ah74x1r0zxa5","state":"CA"},"type":"Feature","geometry":{"type":"Point","coordinates":[-80.909897,40.095717]}},{"properties":{"city":"Tampa","latitude":27.992331,"zip":null,"job title":"Utilization Review Behavioral Care Manager (LSCW or Psy RN)","employer":"WellCare","longitude":-82.451385,"id":"ah74x1ql2gzb","state":"FL"},"type":"Feature","geometry":{"type":"Point","coordinates":[-82.451385,27.992331]}},{"properties":{"city":"San Jose","latitude":37.336849,"zip":null,"job title":"DAY REHABILITATION SERVICES SPECIALIST","employer":"Momentum for Mental Health","longitude":-121.84771,"id":"ah74x1sg2tpi","state":"CA"},"type":"Feature","geometry":{"type":"Point","coordinates":[-121.84771,37.336849]}},{"properties":{"city":"Broward County","latitude":34.526191,"zip":null,"job title":"Treatment Counselor- Grant","employer":"Broward Sheriff\\'s Office","longitude":-86.252799,"id":"ah74x1qu1z7x","state":"FL"},"type":"Feature","geometry":{"type":"Point","coordinates":[-86.252799,34.526191]}},{"properties":{"city":"St. Louis","latitude":38.620529,"zip":null,"job title":"Behavioral Health Case Mgr (Part-Time) Job","employer":"Coventry Health Care","longitude":-90.291626,"id":"ah74x1lvsnqc","state":"MO"},"type":"Feature","geometry":{"type":"Point","coordinates":[-90.291626,38.620529]}},{"properties":{"city":"Chula Vista","latitude":32.631491,"zip":null,"job title":"Social Worker - KidSTART","employer":"Rady Children\\'s Hospital - Chadwick Center","longitude":-116.974014,"id":"ah74x1kksxpp","state":"CA"},"type":"Feature","geometry":{"type":"Point","coordinates":[-116.974014,32.631491]}},{"properties":{"city":"Downey","latitude":33.93858,"zip":null,"job title":"Psych Social Worker (Psych Emergency Team - Nights) (Job Number: 186704)","employer":"Kaiser Permanente","longitude":-118.129204,"id":"ah74x1h7j6s4","state":"CA"},"type":"Feature","geometry":{"type":"Point","coordinates":[-118.129204,33.93858]}},{"properties":{"city":"Fort Pierce","latitude":27.43193,"zip":null,"job title":"Licensed Mental Health Practitioner","employer":"New Horizons of the Treasure Coast, Inc.","longitude":-80.341061,"id":"ah74x1eiozwt","state":"FL"},"type":"Feature","geometry":{"type":"Point","coordinates":[-80.341061,27.43193]}},{"properties":{"city":"Manhattan","latitude":35.78692,"zip":null,"job title":"Quality Improvement Project Manager - Behavioral Health","employer":"WellCare","longitude":-93.943583,"id":"ah74x1huf808","state":"NY"},"type":"Feature","geometry":{"type":"Point","coordinates":[-93.943583,35.78692]}},{"properties":{"city":"San Antonio","latitude":29.47426,"zip":null,"job title":"Mobile Crisis Assesment Team Specialist - Psychiatric Assessment (PRN) - Methodist Healthcare System","employer":"Methodist Healthcare System","longitude":-98.493481,"id":"ah74x1d1p6az","state":"TX"},"type":"Feature","geometry":{"type":"Point","coordinates":[-98.493481,29.47426]}},{"properties":{"city":"San Jose","latitude":37.336849,"zip":null,"job title":"Counselor (Athletic\\/Puente)","employer":"San Jose\\/Evergreen Community College District","longitude":-121.84771,"id":"ah74x1fjuzcp","state":"CA"},"type":"Feature","geometry":{"type":"Point","coordinates":[-121.84771,37.336849]}},{"properties":{"city":"Mart","latitude":31.544105,"zip":null,"job title":"Program Supervisor V - Supervisor - Specialized Treatment Programs (Alcohol or Other Drugs)","employer":"Texas Juvenile Justice Department","longitude":-96.838444,"id":"ah74x1m5w4y8","state":"TX"},"type":"Feature","geometry":{"type":"Point","coordinates":[-96.838444,31.544105]}},{"properties":{"city":"Phoenix","latitude":33.585449,"zip":null,"job title":"Life Coach","employer":"TriWest Healthcare Alliance","longitude":-111.985249,"id":"ah74x1n9fyzn","state":"AZ"},"type":"Feature","geometry":{"type":"Point","coordinates":[-111.985249,33.585449]}},{"properties":{"city":"Greensboro","latitude":36.100454,"zip":null,"job title":"Counselor BH OP","employer":"Moses Cone Health System","longitude":-79.838306,"id":"ah74x1t0hdus","state":"NC"},"type":"Feature","geometry":{"type":"Point","coordinates":[-79.838306,36.100454]}},{"properties":{"city":"Los Angeles","latitude":32.346625,"zip":null,"job title":"Legacy Staff (Student Health Center\\/Counseling &amp; Psychological Services\\/Counselors SSP AR 1)","employer":"California State University","longitude":-98.707469,"id":"ah74x1ltqeun","state":"CA"},"type":"Feature","geometry":{"type":"Point","coordinates":[-98.707469,32.346625]}},{"properties":{"city":"Brownsville","latitude":25.900669,"zip":null,"job title":"Counselor","employer":"Texas Southmost College","longitude":-97.492271,"id":"ah74x1ktacj1","state":"TX"},"type":"Feature","geometry":{"type":"Point","coordinates":[-97.492271,25.900669]}},{"properties":{"city":"Los Angeles","latitude":34.01697,"zip":null,"job title":"Social\\/Behavioral Sciences (Student Health Center\\/Counseling &amp; Psychological Services\\/Counselors SSP AR 1)","employer":"California State University","longitude":-118.326508,"id":"ah74x1ssrr43","state":"CA"},"type":"Feature","geometry":{"type":"Point","coordinates":[-118.326508,34.01697]}},{"properties":{"city":"San Jose","latitude":37.336849,"zip":null,"job title":"Crisis Intervention Training Coordinator- Police (Temporary Employee Unclassified)","employer":"City of San Jose","longitude":-121.84771,"id":"ah74x1fk75jx","state":"CA"},"type":"Feature","geometry":{"type":"Point","coordinates":[-121.84771,37.336849]}},{"properties":{"city":"Denver","latitude":39.75482,"zip":null,"job title":"Licensed Clinical Social Worker-Social Determinants of Health (Job Number: 201190)","employer":"Kaiser Permanente","longitude":-104.899883,"id":"ah74x1lqblob","state":"CO"},"type":"Feature","geometry":{"type":"Point","coordinates":[-104.899883,39.75482]}},{"properties":{"city":"Auburn","latitude":47.28912,"zip":"98092","job title":"Adult Mental Health Specialist","employer":"Muckleshoot Behavioral Health","longitude":-122.109795,"id":"ah74x1kwhtcv","state":"WA"},"type":"Feature","geometry":{"type":"Point","coordinates":[-122.109795,47.28912]}},{"properties":{"city":"Salinas","latitude":36.7514,"zip":"93906","job title":"Psychiatric Social Worker II","employer":"County of Monterey, CA","longitude":-121.620136,"id":"ah74x1e0sd33","state":"CA"},"type":"Feature","geometry":{"type":"Point","coordinates":[-121.620136,36.7514]}},{"properties":{"city":"San Diego","latitude":32.81086,"zip":null,"job title":"Utilization Review Quality Improvement S...","employer":"County of San Diego","longitude":-117.060051,"id":"ah74x1dnj22c","state":"CA"},"type":"Feature","geometry":{"type":"Point","coordinates":[-117.060051,32.81086]}},{"properties":{"city":"Hamilton","latitude":39.396046,"zip":null,"job title":"Mental Health Therapist-LISW\\/LPCC","employer":"PsychPros","longitude":-84.560513,"id":"ah74x1sytwgv","state":"OH"},"type":"Feature","geometry":{"type":"Point","coordinates":[-84.560513,39.396046]}},{"properties":{"city":"Chula Vista","latitude":32.607044,"zip":"91911","job title":"Social Worker - KidSTART - Casual - Full Time - Benefits Eligible","employer":"Rady Children\\'s Hospital","longitude":-117.055283,"id":"ah74x1klwr0e","state":"CA"},"type":"Feature","geometry":{"type":"Point","coordinates":[-117.055283,32.607044]}},{"properties":{"city":"Bridgewater","latitude":31.734392,"zip":null,"job title":"Director of Substance Abuse Counseling Services","employer":"GenPsych, PC","longitude":-89.216322,"id":"ah74x1le5mv4","state":"NJ"},"type":"Feature","geometry":{"type":"Point","coordinates":[-89.216322,31.734392]}},{"properties":{"city":"Boulder","latitude":40.045179,"zip":"80304","job title":"213-090 Program Supervisor - Adult Outpatient Services team","employer":"Mental Health Partners","longitude":-105.292145,"id":"ah74x1sc6p3o","state":"CO"},"type":"Feature","geometry":{"type":"Point","coordinates":[-105.292145,40.045179]}},{"properties":{"city":"Dallas","latitude":32.778149,"zip":null,"job title":"PROFSSIONAL SUPPORT (PT. PSYCHOLOGIST ASSISTANT)","employer":"Dallas County, TX","longitude":-96.795403,"id":"ah74x1q2pex9","state":"TX"},"type":"Feature","geometry":{"type":"Point","coordinates":[-96.795403,32.778149]}},{"properties":{"city":"Merced","latitude":37.30127,"zip":null,"job title":"Mental Health Clinician I\\/II","employer":"Merced County, CA","longitude":-120.486198,"id":"ah74x1sb6sgr","state":"CA"},"type":"Feature","geometry":{"type":"Point","coordinates":[-120.486198,37.30127]}},{"properties":{"city":null,"latitude":38.997921,"zip":null,"job title":"CDOC HP II Mental Health or Sex Offender Counselor","employer":"Colorado Department of Personnel and Administration","longitude":-105.550964,"id":"ah74x1s3pmkw","state":"CO"},"type":"Feature","geometry":{"type":"Point","coordinates":[-105.550964,38.997921]}},{"properties":{"city":"Medford","latitude":36.209605,"zip":"2155","job title":"Mental Health Counselor","employer":"DCS Mental Health, Inc.","longitude":-107.458454,"id":"ah74x1k0ipg4","state":"MA"},"type":"Feature","geometry":{"type":"Point","coordinates":[-107.458454,36.209605]}},{"properties":{"city":"Lignum","latitude":38.417671,"zip":"22726","job title":"Licensed Clinician","employer":"Childhelp","longitude":-77.830097,"id":"ah74x1rhnml5","state":"VA"},"type":"Feature","geometry":{"type":"Point","coordinates":[-77.830097,38.417671]}},{"properties":{"city":"Fremont","latitude":37.536863,"zip":null,"job title":"Behavioral Medicine Specialist Psychology (5151) (Job Number: 194591)","employer":"Kaiser Permanente","longitude":-122.011234,"id":"ah74x1p2hgx2","state":"CA"},"type":"Feature","geometry":{"type":"Point","coordinates":[-122.011234,37.536863]}},{"properties":{"city":"Tacoma","latitude":47.206625,"zip":null,"job title":"Social Services Specialist - MSW, Care Management.9 nights FSS, SJ (22385)","employer":"Catholic Health Initiatives","longitude":-122.497833,"id":"ah74x1kz71mk","state":"WA"},"type":"Feature","geometry":{"type":"Point","coordinates":[-122.497833,47.206625]}},{"properties":{"city":"San Diego County","latitude":33.019815,"zip":null,"job title":"Contracted Therapist-Oceanside","employer":"Mental Health Systems, Inc.","longitude":-116.838573,"id":"ah74x1mfkats","state":"CA"},"type":"Feature","geometry":{"type":"Point","coordinates":[-116.838573,33.019815]}},{"properties":{"city":"San Francisco","latitude":37.779161,"zip":null,"job title":"Clinical Psychologist","employer":"City &amp; County of San Francisco","longitude":-122.42009,"id":"ah74x1foz592","state":"CA"},"type":"Feature","geometry":{"type":"Point","coordinates":[-122.42009,37.779161]}},{"properties":{"city":null,"latitude":38.997921,"zip":null,"job title":"CDOC SW III, Mental Health or Sex Offender Counselor","employer":"Colorado Department of Personnel and Administration","longitude":-105.550964,"id":"ah74x1f3met1","state":"CO"},"type":"Feature","geometry":{"type":"Point","coordinates":[-105.550964,38.997921]}},{"properties":{"city":"Santa Maria","latitude":34.926655,"zip":null,"job title":"Administrator - Crisis Residential (LCSW\\/LMFT\\/RN\\/PhD\\/OT)","employer":"Telecare Corporation","longitude":-120.42271,"id":"ah74x1n89iyx","state":"CA"},"type":"Feature","geometry":{"type":"Point","coordinates":[-120.42271,34.926655]}},{"properties":{"city":"Savannah","latitude":37.981248,"zip":"31405","job title":"Clinical Supervisor - Foster Care","employer":"Lutheran Services of Georgia","longitude":-76.957002,"id":"ah74x1ob5u8p","state":"GA"},"type":"Feature","geometry":{"type":"Point","coordinates":[-76.957002,37.981248]}},{"properties":{"city":"Wauwatosa","latitude":43.016655,"zip":null,"job title":"Psychotherapist Production - West Allis","employer":"Aurora HealthCare","longitude":-88.006644,"id":"ah74x1joy4gz","state":"WI"},"type":"Feature","geometry":{"type":"Point","coordinates":[-88.006644,43.016655]}},{"properties":{"city":"San Francisco","latitude":37.779161,"zip":null,"job title":"Health Program Coordinator III","employer":"San Francisco Department of Public Health","longitude":-122.42009,"id":"ah74x1f5paky","state":"CA"},"type":"Feature","geometry":{"type":"Point","coordinates":[-122.42009,37.779161]}},{"properties":{"city":"Grafton","latitude":38.969775,"zip":null,"job title":"Psychotherapist Lead Production - Aurora Medical Center Grafton","employer":"Aurora HealthCare","longitude":-90.434589,"id":"ah74x1jg20sk","state":"WI"},"type":"Feature","geometry":{"type":"Point","coordinates":[-90.434589,38.969775]}},{"properties":{"city":"Pennsauken","latitude":39.95689,"zip":null,"job title":"Director of Substance Abuse Treatment","employer":"Pinnacle Treatment Centers","longitude":-75.072559,"id":"ah74x1sx9q0k","state":"NJ"},"type":"Feature","geometry":{"type":"Point","coordinates":[-75.072559,39.95689]}},{"properties":{"city":"Columbia","latitude":39.177454,"zip":null,"job title":"Behavioral Health Care Manager LCSW","employer":"Kelly Services","longitude":-76.875599,"id":"ah74x1ek2nun","state":"MD"},"type":"Feature","geometry":{"type":"Point","coordinates":[-76.875599,39.177454]}},{"properties":{"city":"Salinas","latitude":36.7514,"zip":"93906","job title":"Senior Psychiatric Social Worker","employer":"County of Monterey, CA","longitude":-121.620136,"id":"ah74x1micvfi","state":"CA"},"type":"Feature","geometry":{"type":"Point","coordinates":[-121.620136,36.7514]}},{"properties":{"city":"Los Angeles","latitude":34.076586,"zip":"90026","job title":"Program Coordinator","employer":"Gateways Hospital &amp; Mental Health Center","longitude":-118.262569,"id":"ah74x1f935cq","state":"CA"},"type":"Feature","geometry":{"type":"Point","coordinates":[-118.262569,34.076586]}},{"properties":{"city":"Baldwin Park","latitude":34.082851,"zip":"91706","job title":"LMFT,IMFT,LCSW,ACSW","employer":"Children\\'s Bureau of Southern California","longitude":-117.972481,"id":"ah74x1pbh0uv","state":"CA"},"type":"Feature","geometry":{"type":"Point","coordinates":[-117.972481,34.082851]}},{"properties":{"city":"Napa","latitude":38.290325,"zip":null,"job title":"Forensic Mental Health Counselor","employer":"County of Napa, CA","longitude":-122.301258,"id":"ah74x1dwq5t3","state":"CA"},"type":"Feature","geometry":{"type":"Point","coordinates":[-122.301258,38.290325]}},{"properties":{"city":"Las Vegas","latitude":36.162651,"zip":null,"job title":"Psychiatry - General","employer":"Desert Springs Hospital Medical Center","longitude":-115.166149,"id":"ah74x1qm5n6f","state":"NV"},"type":"Feature","geometry":{"type":"Point","coordinates":[-115.166149,36.162651]}},{"properties":{"city":"Tacoma","latitude":47.206625,"zip":null,"job title":"Social Worker - MSW, Care Management.6 days FSS, SJ (30197)","employer":"Catholic Health Initiatives","longitude":-122.497833,"id":"ah74x1ooy7cm","state":"WA"},"type":"Feature","geometry":{"type":"Point","coordinates":[-122.497833,47.206625]}},{"properties":{"city":"San Bernardino","latitude":34.142784,"zip":null,"job title":"ASD Program Manager","employer":"EMQ FamiliesFirst","longitude":-117.286285,"id":"ah74x1nts3ja","state":"CA"},"type":"Feature","geometry":{"type":"Point","coordinates":[-117.286285,34.142784]}},{"properties":{"city":"Baton Rouge","latitude":30.463205,"zip":null,"job title":"Quality Management Administrator","employer":"Magellan Health Services","longitude":-91.133251,"id":"ah74x1egvod5","state":"LA"},"type":"Feature","geometry":{"type":"Point","coordinates":[-91.133251,30.463205]}},{"properties":{"city":"Flagstaff","latitude":35.468925,"zip":"86001","job title":"Licensed Behavioral Health Program Coordinator Needed, FLAGSTAFF AZ","employer":"CPES","longitude":-111.69907,"id":"ah74x1n05wst","state":"AZ"},"type":"Feature","geometry":{"type":"Point","coordinates":[-111.69907,35.468925]}},{"properties":{"city":"Druid","latitude":40.095717,"zip":"21217","job title":"Behavorial Health Consultant\\/Licensed Mental Health Provider","employer":"Total Health Care, Inc.","longitude":-80.909897,"id":"ah74x1r1q622","state":"MD"},"type":"Feature","geometry":{"type":"Point","coordinates":[-80.909897,40.095717]}},{"properties":{"city":"Milwaukee","latitude":43.115582,"zip":"53218","job title":"AODA Residential Program Coordinator","employer":"Genesis Behavioral Services, Inc.","longitude":-87.994007,"id":"ah74x1k5kncd","state":"WI"},"type":"Feature","geometry":{"type":"Point","coordinates":[-87.994007,43.115582]}},{"properties":{"city":"Atlanta","latitude":33.748315,"zip":null,"job title":"Team Lead - Atlanta, GA","employer":"Crawford Thomas Recruiting","longitude":-84.391109,"id":"ah74x1dhlrpm","state":"GA"},"type":"Feature","geometry":{"type":"Point","coordinates":[-84.391109,33.748315]}},{"properties":{"city":"Sioux Falls","latitude":43.539291,"zip":null,"job title":"Licensed Mental Health Professional","employer":"Central Wyoming Counseling Center","longitude":-96.725437,"id":"ah74x1ofad32","state":"SD"},"type":"Feature","geometry":{"type":"Point","coordinates":[-96.725437,43.539291]}},{"properties":{"city":"Beaver Falls","latitude":40.769285,"zip":"15010","job title":"Behavioral Specialist Consultants Licensed","employer":"Glade Run Lutheran Services","longitude":-80.319672,"id":"ah74x1mrwuyn","state":"PA"},"type":"Feature","geometry":{"type":"Point","coordinates":[-80.319672,40.769285]}},{"properties":{"city":"Los Angeles","latitude":34.01697,"zip":null,"job title":"Mental Health Utilization Management Supervisor II","employer":"Children\\'s Bureau","longitude":-118.326508,"id":"ah74x1jqa2fa","state":"CA"},"type":"Feature","geometry":{"type":"Point","coordinates":[-118.326508,34.01697]}},{"properties":{"city":"Addison","latitude":41.931999,"zip":"60101","job title":"Overnight Child Care Worker","employer":"Lutherbrook Child and Adolescent Center","longitude":-88.008896,"id":"ah74x1s2u5x1","state":"IL"},"type":"Feature","geometry":{"type":"Point","coordinates":[-88.008896,41.931999]}},{"properties":{"city":"Phoenix","latitude":36.209605,"zip":"85012","job title":"Central PHX - Counselor (Monday-Friday, 8a-5p)(Outpatient)","employer":"Lifewell","longitude":-107.458454,"id":"ah74x1hupu64","state":"AZ"},"type":"Feature","geometry":{"type":"Point","coordinates":[-107.458454,36.209605]}},{"properties":{"city":"Dayton","latitude":30.613735,"zip":null,"job title":"SENIOR MEDICAL SOCIAL WORKER - ON CALL","employer":"Dayton Children\\'s","longitude":-93.877269,"id":"ah74x1h5wea8","state":"OH"},"type":"Feature","geometry":{"type":"Point","coordinates":[-93.877269,30.613735]}},{"properties":{"city":"Clayton","latitude":35.611086,"zip":"27520","job title":"Clinical Director","employer":"Essential Supportive Services, LLC","longitude":-78.456425,"id":"ah74x1kidv04","state":"NC"},"type":"Feature","geometry":{"type":"Point","coordinates":[-78.456425,35.611086]}},{"properties":{"city":"Boise","latitude":43.611025,"zip":null,"job title":"Clinical Program Manager Meridian, Idaho","employer":"UnitedHealth Group","longitude":-116.392564,"id":"ah74x1q5mce2","state":"ID"},"type":"Feature","geometry":{"type":"Point","coordinates":[-116.392564,43.611025]}},{"properties":{"city":"Aptos","latitude":36.991119,"zip":null,"job title":"Counselor\\/Instructor","employer":"Cabrillo College","longitude":-121.927559,"id":"ah74x1etxpdt","state":"CA"},"type":"Feature","geometry":{"type":"Point","coordinates":[-121.927559,36.991119]}},{"properties":{"city":"Central","latitude":37.708021,"zip":null,"job title":"Psychiatrist for North Central, KS","employer":"Rural Health Education and Services","longitude":-97.310963,"id":"ah74x1pfeisq","state":"KS"},"type":"Feature","geometry":{"type":"Point","coordinates":[-97.310963,37.708021]}},{"properties":{"city":"San Antonio","latitude":29.47426,"zip":null,"job title":"Intake Coordinator Behavioral Health","employer":"Baptist Health System Regional Offices","longitude":-98.493481,"id":"ah74x1kwvr27","state":"TX"},"type":"Feature","geometry":{"type":"Point","coordinates":[-98.493481,29.47426]}},{"properties":{"city":"San Luis Obispo","latitude":35.272764,"zip":null,"job title":"BEHAVIORAL HEALTH ADMINISTRATOR","employer":"County of San Luis Obispo","longitude":-120.666233,"id":"ah74x1rg39pt","state":"CA"},"type":"Feature","geometry":{"type":"Point","coordinates":[-120.666233,35.272764]}},{"properties":{"city":"San Francisco","latitude":37.779161,"zip":null,"job title":"Recovery Counselor IV-Thunder Road","employer":"Sutter Health","longitude":-122.42009,"id":"ah74x1t6pps4","state":"CA"},"type":"Feature","geometry":{"type":"Point","coordinates":[-122.42009,37.779161]}},{"properties":{"city":"Phoenixville","latitude":40.13851,"zip":"19460","job title":"Behavior Specialist\\/MSW (LSW required)-FFS","employer":"NHS Human Services","longitude":-75.521309,"id":"ah74x1fmnngn","state":"PA"},"type":"Feature","geometry":{"type":"Point","coordinates":[-75.521309,40.13851]}},{"properties":{"city":"Maricopa County","latitude":33.276564,"zip":null,"job title":"Mental Health Professional","employer":"Maricopa County, AZ","longitude":-112.187065,"id":"ah74x1ewcnd7","state":"AZ"},"type":"Feature","geometry":{"type":"Point","coordinates":[-112.187065,33.276564]}},{"properties":{"city":"Madisonville","latitude":37.340118,"zip":null,"job title":"Behavioral Health Professional","employer":"The H Group","longitude":-87.502483,"id":"ah74x1sglbf4","state":"KY"},"type":"Feature","geometry":{"type":"Point","coordinates":[-87.502483,37.340118]}},{"properties":{"city":"East Point","latitude":44.351271,"zip":null,"job title":"Team Lead","employer":"Georgia Rehabilitation Outreach","longitude":-103.772039,"id":"ah74x1fwgrmw","state":"GA"},"type":"Feature","geometry":{"type":"Point","coordinates":[-103.772039,44.351271]}},{"properties":{"city":"Woodbury","latitude":44.919701,"zip":"55125","job title":"ARMHS Mental Health Supervisor","employer":"Nystrom &amp; Associates, Ltd","longitude":-92.930004,"id":"ah74x1p3gobh","state":"MN"},"type":"Feature","geometry":{"type":"Point","coordinates":[-92.930004,44.919701]}},{"properties":{"city":"Westminster","latitude":39.893511,"zip":null,"job title":"Autism Services Clinician (Job Number: 191800)","employer":"Kaiser Permanente","longitude":-105.075035,"id":"ah74x1rl8xkh","state":"CO"},"type":"Feature","geometry":{"type":"Point","coordinates":[-105.075035,39.893511]}},{"properties":{"city":"Roseburg","latitude":43.21088,"zip":null,"job title":"Mental Health Clinical Manager","employer":"Douglas County, OR","longitude":-123.343231,"id":"ah74x1mk5ay1","state":"OR"},"type":"Feature","geometry":{"type":"Point","coordinates":[-123.343231,43.21088]}},{"properties":{"city":"Casselberry","latitude":28.654329,"zip":null,"job title":"Complex Discharge Planner Job","employer":"Coventry Health Care","longitude":-81.326881,"id":"ah74x1i4966e","state":"FL"},"type":"Feature","geometry":{"type":"Point","coordinates":[-81.326881,28.654329]}},{"properties":{"city":"Boulder","latitude":40.026064,"zip":null,"job title":"213-097- Clinical Network Director","employer":"Mental Health Partners","longitude":-105.251728,"id":"ah74x1s8we5d","state":"CO"},"type":"Feature","geometry":{"type":"Point","coordinates":[-105.251728,40.026064]}},{"properties":{"city":"San Diego","latitude":64.856865,"zip":null,"job title":"COUNSELOR [Mesa College]","employer":"San Diego Community College District","longitude":-147.802914,"id":"ah74x1kec88e","state":"CA"},"type":"Feature","geometry":{"type":"Point","coordinates":[-147.802914,64.856865]}},{"properties":{"city":"San Jose","latitude":31.734392,"zip":null,"job title":"DIRECTOR OF COMMUNITY SERVICES","employer":"Momentum for Mental Health","longitude":-89.216322,"id":"ah74x1t6kp79","state":"CA"},"type":"Feature","geometry":{"type":"Point","coordinates":[-89.216322,31.734392]}},{"properties":{"city":"Napa","latitude":38.290325,"zip":null,"job title":"Mental Health Nurse Practitioner","employer":"County of Napa, CA","longitude":-122.301258,"id":"ah74x1prqlcy","state":"CA"},"type":"Feature","geometry":{"type":"Point","coordinates":[-122.301258,38.290325]}},{"properties":{"city":"Merrillville","latitude":41.485914,"zip":null,"job title":"Paraprofessional for ABA Program","employer":"Life Strategies, LLC","longitude":-87.311886,"id":"ah74x1kwaplf","state":"IN"},"type":"Feature","geometry":{"type":"Point","coordinates":[-87.311886,41.485914]}},{"properties":{"city":"Visalia","latitude":36.385975,"zip":"93291","job title":"Clinical Services Supervisor","employer":"Turning Point of Central California","longitude":-119.406002,"id":"ah74x1e0kahd","state":"CA"},"type":"Feature","geometry":{"type":"Point","coordinates":[-119.406002,36.385975]}},{"properties":{"city":null,"latitude":37.492596,"zip":null,"job title":"Associate Director Quality Assurance","employer":"EMQ FamiliesFirst","longitude":-80.667376,"id":"ah74x1q0pv4j","state":"CA"},"type":"Feature","geometry":{"type":"Point","coordinates":[-80.667376,37.492596]}},{"properties":{"city":"San Jose","latitude":37.336849,"zip":null,"job title":"ASSISTANT MANAGER RESIDENTIAL","employer":"Momentum for Mental Health","longitude":-121.84771,"id":"ah74x1nqczg4","state":"CA"},"type":"Feature","geometry":{"type":"Point","coordinates":[-121.84771,37.336849]}},{"properties":{"city":"Tacoma","latitude":47.206625,"zip":null,"job title":"SOCIAL SVC SPEC-MSTRS LVL Mental Health per diem (30136)","employer":"Catholic Health Initiatives","longitude":-122.497833,"id":"ah74x1hnpmp2","state":"WA"},"type":"Feature","geometry":{"type":"Point","coordinates":[-122.497833,47.206625]}},{"properties":{"city":"Akron","latitude":41.082966,"zip":null,"job title":"EAP- Clinician","employer":"The Centers for Families and Children","longitude":-81.511154,"id":"ah74x1enlut0","state":"OH"},"type":"Feature","geometry":{"type":"Point","coordinates":[-81.511154,41.082966]}},{"properties":{"city":"Phoenix","latitude":33.509251,"zip":"85012","job title":"Intake Specialist - Assessments and Screenings","employer":"Lifewell","longitude":-112.069378,"id":"ah74x1ecm1x2","state":"AZ"},"type":"Feature","geometry":{"type":"Point","coordinates":[-112.069378,33.509251]}},{"properties":{"city":"Atlantis","latitude":26.59541,"zip":null,"job title":"Social Worker - Behavioral Health Unit - Per Diem","employer":"JFK Medical Center - Palm Beach","longitude":-80.097473,"id":"ah74x1nuwh2b","state":"FL"},"type":"Feature","geometry":{"type":"Point","coordinates":[-80.097473,26.59541]}},{"properties":{"city":"Tempe","latitude":33.381914,"zip":null,"job title":"Behavioral Health Professional - PRN","employer":"Centene Corporation","longitude":-111.944691,"id":"ah74x1dc1wib","state":"AZ"},"type":"Feature","geometry":{"type":"Point","coordinates":[-111.944691,33.381914]}},{"properties":{"city":"Minneapolis-Saint Paul","latitude":42.60744,"zip":null,"job title":"Psychiatric Nurse Practitioner, St. Paul","employer":"The Emily Program","longitude":-113.783554,"id":"ah74x1d7blv5","state":"MN"},"type":"Feature","geometry":{"type":"Point","coordinates":[-113.783554,42.60744]}},{"properties":{"city":"San Ramon","latitude":38.286116,"zip":null,"job title":"Medical Social Worker (MSW, Per Diem), AccentCare, Solano County, CA","employer":"AccentCare, Inc","longitude":-122.000393,"id":"ah74x1t2zsjl","state":"CA"},"type":"Feature","geometry":{"type":"Point","coordinates":[-122.000393,38.286116]}},{"properties":{"city":"Reno","latitude":39.489525,"zip":"89502","job title":"Clinical Program Manager","employer":"Willow Springs RTC","longitude":-119.752472,"id":"ah74x1nmz0kr","state":"NV"},"type":"Feature","geometry":{"type":"Point","coordinates":[-119.752472,39.489525]}},{"properties":{"city":"Kansas City","latitude":39.126595,"zip":null,"job title":"Social Worker Per Diem","employer":"Providence Medical Center","longitude":-94.6978,"id":"ah74x1f78pcq","state":"KS"},"type":"Feature","geometry":{"type":"Point","coordinates":[-94.6978,39.126595]}},{"properties":{"city":"Phoenix","latitude":33.449654,"zip":"85003","job title":"Mental Health Professional","employer":"Maricopa County Arizona","longitude":-112.078205,"id":"ah74x1he48m3","state":"AZ"},"type":"Feature","geometry":{"type":"Point","coordinates":[-112.078205,33.449654]}},{"properties":{"city":"Tacoma","latitude":47.210461,"zip":"98404","job title":"Counselor III - Generalist","employer":"Puyallup Tribal Health Authority","longitude":-122.413677,"id":"ah74x1dk8xq5","state":"WA"},"type":"Feature","geometry":{"type":"Point","coordinates":[-122.413677,47.210461]}},{"properties":{"city":"Van Nuys","latitude":34.19615,"zip":"91406","job title":"Program Coordinator","employer":"SFV Community Mental Health","longitude":-118.492374,"id":"ah74x1rlrgu6","state":"CA"},"type":"Feature","geometry":{"type":"Point","coordinates":[-118.492374,34.19615]}},{"properties":{"city":"Norwood","latitude":42.195621,"zip":null,"job title":"Emergency Mental Health Clinic","employer":"Norwood Hospital","longitude":-71.199913,"id":"ah74x1eba2t6","state":"MA"},"type":"Feature","geometry":{"type":"Point","coordinates":[-71.199913,42.195621]}},{"properties":{"city":"Los Angeles","latitude":34.01697,"zip":null,"job title":"LMFT,IMFT,LCSW,ACSW","employer":"Children\\'s Bureau","longitude":-118.326508,"id":"ah74x1inmi4n","state":"CA"},"type":"Feature","geometry":{"type":"Point","coordinates":[-118.326508,34.01697]}},{"properties":{"city":"Foster City","latitude":37.554596,"zip":null,"job title":"Medical Social Worker (MSW, Per Diem), San Mateo, San Francisco Cnty, CA","employer":"AccentCare, Inc","longitude":-122.303432,"id":"ah74x1o9hs29","state":"CA"},"type":"Feature","geometry":{"type":"Point","coordinates":[-122.303432,37.554596]}},{"properties":{"city":"Tacoma","latitude":47.206625,"zip":null,"job title":"SOCIAL SVC SPEC-MSTRS LVL Mental Health per diem (21816)","employer":"Franciscan Health System","longitude":-122.497833,"id":"ah74x1pffe9r","state":"WA"},"type":"Feature","geometry":{"type":"Point","coordinates":[-122.497833,47.206625]}},{"properties":{"city":"Toppenish","latitude":46.382515,"zip":null,"job title":"Mental Health Social Worker","employer":"Yakima Valley Farm Workers Clinic","longitude":-120.314968,"id":"ah74x1jd929l","state":"WA"},"type":"Feature","geometry":{"type":"Point","coordinates":[-120.314968,46.382515]}},{"properties":{"city":"San Francisco","latitude":37.779161,"zip":null,"job title":"Case Manager","employer":"HealthRIGHT 360","longitude":-122.42009,"id":"ah74x1g03f2q","state":"CA"},"type":"Feature","geometry":{"type":"Point","coordinates":[-122.42009,37.779161]}},{"properties":{"city":"Longview","latitude":46.149715,"zip":null,"job title":"Behavioral Health Consultant","employer":"NWRPCA","longitude":-122.97049,"id":"ah74x1mlzm9i","state":"WA"},"type":"Feature","geometry":{"type":"Point","coordinates":[-122.97049,46.149715]}},{"properties":{"city":"Placerville","latitude":38.727815,"zip":null,"job title":"MENTAL HEALTH CLINICIAN IA\\/IB\\/II Placerville","employer":"The County of El Dorado","longitude":-120.803584,"id":"ah74x1max825","state":"CA"},"type":"Feature","geometry":{"type":"Point","coordinates":[-120.803584,38.727815]}},{"properties":{"city":"South Lake Tahoe","latitude":38.88793,"zip":null,"job title":"MENTAL HEALTH CLINICIAN IA\\/IB\\/II SLT","employer":"The County of El Dorado","longitude":-120.02684,"id":"ah74x1ekygni","state":"CA"},"type":"Feature","geometry":{"type":"Point","coordinates":[-120.02684,38.88793]}},{"properties":{"city":"Cleveland","latitude":41.486511,"zip":null,"job title":"Social Worker II - Peds ED (Part - Time)","employer":"University Hospitals","longitude":-81.678085,"id":"ah74x1qe96se","state":"OH"},"type":"Feature","geometry":{"type":"Point","coordinates":[-81.678085,41.486511]}},{"properties":{"city":"Cleveland","latitude":41.486511,"zip":null,"job title":"Social Worker II - Peds ED","employer":"University Hospitals","longitude":-81.678085,"id":"ah74x1p1oit2","state":"OH"},"type":"Feature","geometry":{"type":"Point","coordinates":[-81.678085,41.486511]}},{"properties":{"city":"Longview","latitude":36.209605,"zip":null,"job title":"Chemical Dependency Counselor (Job Number: 190856)","employer":"Kaiser Permanente","longitude":-107.458454,"id":"ah74x1ox7myl","state":"WA"},"type":"Feature","geometry":{"type":"Point","coordinates":[-107.458454,36.209605]}},{"properties":{"city":"Bellevue","latitude":47.595051,"zip":null,"job title":"Social Worker - Psychiatric Day Hospital","employer":"Overlake Hospital","longitude":-122.157402,"id":"ah74x1r2zstx","state":"WA"},"type":"Feature","geometry":{"type":"Point","coordinates":[-122.157402,47.595051]}},{"properties":{"city":"Pittsburgh","latitude":40.448977,"zip":null,"job title":"Clinical Social Worker, MSW - UPMC Mercy","employer":"UPMC","longitude":-79.982372,"id":"ah74x1sv7txw","state":"PA"},"type":"Feature","geometry":{"type":"Point","coordinates":[-79.982372,40.448977]}},{"properties":{"city":"Des Moines","latitude":41.582745,"zip":null,"job title":"Licensed Social Worker Mercy Franklin Help Center FT (varied)","employer":"Catholic Health Initiatives","longitude":-93.61834,"id":"ah74x1dl38vn","state":"IA"},"type":"Feature","geometry":{"type":"Point","coordinates":[-93.61834,41.582745]}},{"properties":{"city":"Hoonah","latitude":61.325384,"zip":null,"job title":"Behavioral Health Clinician","employer":"Southeast Alaska Regional Health Consortium","longitude":-154.565033,"id":"ah74x1oontss","state":"AK"},"type":"Feature","geometry":{"type":"Point","coordinates":[-154.565033,61.325384]}},{"properties":{"city":"Fullerton","latitude":33.882591,"zip":null,"job title":"Disability Support Services - Learning Disability\\/Mental Health Specialist (Tenure-Track)","employer":"California State University - Fullerton","longitude":-117.884911,"id":"ah74x1e1btai","state":"CA"},"type":"Feature","geometry":{"type":"Point","coordinates":[-117.884911,33.882591]}},{"properties":{"city":"Hollister","latitude":36.895895,"zip":"95023","job title":"Mental Health Clinician I","employer":"San Benito County","longitude":-121.184082,"id":"ah74x1py6f4t","state":"CA"},"type":"Feature","geometry":{"type":"Point","coordinates":[-121.184082,36.895895]}},{"properties":{"city":"Contra Costa County","latitude":37.911051,"zip":null,"job title":"MENTAL HEALTH CLINICAL SPECIALIST","employer":"County of Contra Costa","longitude":-121.981903,"id":"ah74x1r652ch","state":"CA"},"type":"Feature","geometry":{"type":"Point","coordinates":[-121.981903,37.911051]}},{"properties":{"city":"Chico","latitude":39.75684,"zip":null,"job title":"Social\\/Behavioral Sciences (13-CONS-Temp Faculty)","employer":"California State University","longitude":-121.82251,"id":"ah74x1dj8nl3","state":"CA"},"type":"Feature","geometry":{"type":"Point","coordinates":[-121.82251,39.75684]}},{"properties":{"city":"Solano","latitude":38.286116,"zip":null,"job title":"Clinical Services Associate","employer":"County of Solano","longitude":-122.000393,"id":"ah74x1jg906j","state":"CA"},"type":"Feature","geometry":{"type":"Point","coordinates":[-122.000393,38.286116]}},{"properties":{"city":"Fort Eustis","latitude":37.132351,"zip":null,"job title":"Nurse Practitioner - Psychiatric Adult","employer":"Medtrust Staffing","longitude":-76.60664,"id":"ah74x1owf2be","state":"VA"},"type":"Feature","geometry":{"type":"Point","coordinates":[-76.60664,37.132351]}},{"properties":{"city":"Tulsa","latitude":47.283163,"zip":null,"job title":"Counselor, Intake","employer":"Saint Francis Health System","longitude":-104.563358,"id":"ah74x1i701zg","state":"OK"},"type":"Feature","geometry":{"type":"Point","coordinates":[-104.563358,47.283163]}},{"properties":{"city":"Corvallis","latitude":44.559776,"zip":null,"job title":"Behavioral Health Care Manager","employer":"SHS Corporate","longitude":-123.276958,"id":"ah74x1ob86mg","state":"OR"},"type":"Feature","geometry":{"type":"Point","coordinates":[-123.276958,44.559776]}},{"properties":{"city":"San Francisco","latitude":37.779161,"zip":null,"job title":"Care Manager","employer":"PsychPros","longitude":-122.42009,"id":"ah74x1j6iy8n","state":"CA"},"type":"Feature","geometry":{"type":"Point","coordinates":[-122.42009,37.779161]}},{"properties":{"city":"Brownwood","latitude":31.73503,"zip":null,"job title":"Case Manager II\\/III\\/IV - Alcohol or Other Drugs","employer":"Texas Juvenile Justice Department","longitude":-98.976345,"id":"ah74x1r5t277","state":"TX"},"type":"Feature","geometry":{"type":"Point","coordinates":[-98.976345,31.73503]}},{"properties":{"city":"Gulfport","latitude":30.47382,"zip":"39503","job title":"Behavioral Health Specialist III","employer":"Specialized Treatment Facility","longitude":-89.157307,"id":"ah74x1lxwwar","state":"MS"},"type":"Feature","geometry":{"type":"Point","coordinates":[-89.157307,30.47382]}},{"properties":{"city":"Quantico","latitude":38.52206,"zip":null,"job title":"Prevention Program Specialist, FAP","employer":"Department of the Navy","longitude":-77.290863,"id":"ah74x1k23nvj","state":"VA"},"type":"Feature","geometry":{"type":"Point","coordinates":[-77.290863,38.52206]}},{"properties":{"city":"Champaign","latitude":40.116865,"zip":null,"job title":"Illinois Choices - Program Director","employer":"Choices, Inc.","longitude":-88.266357,"id":"ah74x1gjdqdg","state":"IL"},"type":"Feature","geometry":{"type":"Point","coordinates":[-88.266357,40.116865]}},{"properties":{"city":"Sacramento","latitude":38.556339,"zip":null,"job title":"OFFICE TECHNICIAN (TYPING)","employer":"California State Personnel Board","longitude":-121.427334,"id":"ah74x1ms4acr","state":"CA"},"type":"Feature","geometry":{"type":"Point","coordinates":[-121.427334,38.556339]}},{"properties":{"city":"Pearl Harbor","latitude":21.3503,"zip":null,"job title":"OCONUS Hawaii - Pearl Harbor (1) CYB SPA Child &amp; Youth Military Family Life Counselor","employer":"MHN Government Services - 7012","longitude":-157.944809,"id":"ah74x1p9x3hl","state":"HI"},"type":"Feature","geometry":{"type":"Point","coordinates":[-157.944809,21.3503]}},{"properties":{"city":"Ontario","latitude":49.270094,"zip":null,"job title":"Clinical Supervisor Behavioral Health (Repost)","employer":"Ontario-Montclair School District (K-8)","longitude":-84.756271,"id":"ah74x1hf5hes","state":"CA"},"type":"Feature","geometry":{"type":"Point","coordinates":[-84.756271,49.270094]}},{"properties":{"city":"Boulder","latitude":40.026064,"zip":null,"job title":"213-106 PSR Supervisor","employer":"Mental Health Partners","longitude":-105.251728,"id":"ah74x1edvsp7","state":"CO"},"type":"Feature","geometry":{"type":"Point","coordinates":[-105.251728,40.026064]}},{"properties":{"city":"Santa Ana","latitude":33.740196,"zip":null,"job title":"Psych Social Worker - PD (Job Number: 173365)","employer":"Kaiser Permanente","longitude":-117.886917,"id":"ah74x1pigogj","state":"CA"},"type":"Feature","geometry":{"type":"Point","coordinates":[-117.886917,33.740196]}},{"properties":{"city":"Louisville","latitude":38.8681,"zip":null,"job title":"Behavioral Health Case Manager Job","employer":"Coventry Health Care","longitude":-79.559204,"id":"ah74x1dedxto","state":"KY"},"type":"Feature","geometry":{"type":"Point","coordinates":[-79.559204,38.8681]}},{"properties":{"city":"Elwood","latitude":40.27507,"zip":null,"job title":"Manager, Outpatient Services_Elwood_01_0813","employer":"Aspire Indiana","longitude":-85.832443,"id":"ah74x1je0utp","state":"IN"},"type":"Feature","geometry":{"type":"Point","coordinates":[-85.832443,40.27507]}},{"properties":{"city":"DeKalb County","latitude":33.79282,"zip":null,"job title":"PS: Beh Hlth\\/Provider Lic (WL)","employer":"State of Georgia","longitude":-84.18705,"id":"ah74x1q50eny","state":"GA"},"type":"Feature","geometry":{"type":"Point","coordinates":[-84.18705,33.79282]}},{"properties":{"city":"Corpus Christi","latitude":27.762725,"zip":null,"job title":"Associate Psychologist III","employer":"Nueces County MHMR","longitude":-97.403866,"id":"ah74x1sq6vom","state":"TX"},"type":"Feature","geometry":{"type":"Point","coordinates":[-97.403866,27.762725]}},{"properties":{"city":"Perry Point","latitude":39.553829,"zip":null,"job title":"Licensed Professional Mental Health Counselor","employer":"Department of Veterans Affairs","longitude":-76.072742,"id":"ah74x1gijvzy","state":"MD"},"type":"Feature","geometry":{"type":"Point","coordinates":[-76.072742,39.553829]}},{"properties":{"city":"Minneapolis-Saint Paul","latitude":44.879269,"zip":null,"job title":"Psychiatrist","employer":"The Emily Program","longitude":-93.1987,"id":"ah74x1muraj1","state":"MN"},"type":"Feature","geometry":{"type":"Point","coordinates":[-93.1987,44.879269]}},{"properties":{"city":"Garden Grove","latitude":33.763611,"zip":null,"job title":"SOCIAL WORKER","employer":"GARDEN GROVE HOSPITAL MEDICAL CENTER","longitude":-117.951881,"id":"ah74x1f0oake","state":"CA"},"type":"Feature","geometry":{"type":"Point","coordinates":[-117.951881,33.763611]}},{"properties":{"city":"Jacksonville","latitude":39.91345,"zip":null,"job title":"ACTT Team Leader (LPA\\/LCSW\\/LPC\\/LMFT\\/PMHNP\\/Adv Psych Clinical RN)","employer":"Le\\'Chris, Inc.","longitude":-104.05585,"id":"ah74x1m7wyoq","state":"NC"},"type":"Feature","geometry":{"type":"Point","coordinates":[-104.05585,39.91345]}},{"properties":{"city":"Salem","latitude":44.931705,"zip":null,"job title":"Service Area Supervisor (Job Number: 179339)","employer":"Kaiser Permanente","longitude":-123.029449,"id":"ah74x1gpned4","state":"OR"},"type":"Feature","geometry":{"type":"Point","coordinates":[-123.029449,44.931705]}},{"properties":{"city":"Kansas City","latitude":39.08647,"zip":null,"job title":"Care Manager, Utilization Management","employer":"New Directions Behavioral Health","longitude":-94.652439,"id":"ah74x1jyn4a9","state":"MO"},"type":"Feature","geometry":{"type":"Point","coordinates":[-94.652439,39.08647]}},{"properties":{"city":"Visalia","latitude":36.32312,"zip":null,"job title":"Per Diem Behav Hlth Clin Lic","employer":"Kaweah Delta Health Care District","longitude":-119.326916,"id":"ah74x1rd84xp","state":"CA"},"type":"Feature","geometry":{"type":"Point","coordinates":[-119.326916,36.32312]}},{"properties":{"city":"Westminster","latitude":38.8681,"zip":null,"job title":"CRISIS ASSESSMENT SPECIALIST Job","employer":"Centura Health","longitude":-79.559204,"id":"ah74x1gre7lo","state":"CO"},"type":"Feature","geometry":{"type":"Point","coordinates":[-79.559204,38.8681]}},{"properties":{"city":"Bellevue","latitude":47.595051,"zip":null,"job title":"Mental Health Specialist","employer":"Overlake Hospital","longitude":-122.157402,"id":"ah74x1lyrxqg","state":"WA"},"type":"Feature","geometry":{"type":"Point","coordinates":[-122.157402,47.595051]}},{"properties":{"city":"Nashville","latitude":36.186773,"zip":null,"job title":"Tennessee Casework Supervisor","employer":"Lifeline Children\\'s Services","longitude":-86.785244,"id":"ah74x1p4f6ix","state":"TN"},"type":"Feature","geometry":{"type":"Point","coordinates":[-86.785244,36.186773]}},{"properties":{"city":"Boulder","latitude":30.613735,"zip":null,"job title":"213-096 Emergency Clinician I - On Call","employer":"Mental Health Partners","longitude":-93.877269,"id":"ah74x1plgld0","state":"CO"},"type":"Feature","geometry":{"type":"Point","coordinates":[-93.877269,30.613735]}},{"properties":{"city":"Battle Creek","latitude":42.303806,"zip":null,"job title":"Clinician","employer":"PsychPros","longitude":-85.20652,"id":"ah74x1jnpnia","state":"MI"},"type":"Feature","geometry":{"type":"Point","coordinates":[-85.20652,42.303806]}},{"properties":{"city":"South Jordan","latitude":40.54759,"zip":null,"job title":"Clinical Appeals Coordinator Job","employer":"Coventry Health Care","longitude":-111.982468,"id":"ah74x1f6bc46","state":"UT"},"type":"Feature","geometry":{"type":"Point","coordinates":[-111.982468,40.54759]}},{"properties":{"city":"Watertown","latitude":43.988924,"zip":null,"job title":"Program Manager","employer":"PsychPros","longitude":-75.877422,"id":"ah74x1t7199k","state":"NY"},"type":"Feature","geometry":{"type":"Point","coordinates":[-75.877422,43.988924]}},{"properties":{"city":"Phoenix","latitude":33.585449,"zip":null,"job title":"TRICARE Behavioral Health Care Manager (LCSW, LMFT, RN, Phd)","employer":"UnitedHealth Group","longitude":-111.985249,"id":"ah74x1o4ay0z","state":"AZ"},"type":"Feature","geometry":{"type":"Point","coordinates":[-111.985249,33.585449]}},{"properties":{"city":"San Dimas","latitude":34.114855,"zip":null,"job title":"Temporary Mental Health Counselor","employer":"Bonita Unified School District","longitude":-117.811813,"id":"ah74x1pp6stc","state":"CA"},"type":"Feature","geometry":{"type":"Point","coordinates":[-117.811813,34.114855]}},{"properties":{"city":null,"latitude":27.76102,"zip":null,"job title":"Senior Clinician","employer":"Meridian Behavioral Healthcare, Inc.","longitude":-83.832764,"id":"ah74x1ncrv1e","state":"FL"},"type":"Feature","geometry":{"type":"Point","coordinates":[-83.832764,27.76102]}},{"properties":{"city":"Moscow","latitude":34.14735,"zip":null,"job title":"Licensed Social Worker \\/ Moscow","employer":"Community Health Association of Spokane","longitude":-91.793304,"id":"ah74x1pwpvsl","state":"ID"},"type":"Feature","geometry":{"type":"Point","coordinates":[-91.793304,34.14735]}},{"properties":{"city":"Fort Lewis","latitude":47.096205,"zip":null,"job title":"Outreach Team Member","employer":"Apogee Solutions, Inc","longitude":-122.575062,"id":"ah74x1m03c31","state":"WA"},"type":"Feature","geometry":{"type":"Point","coordinates":[-122.575062,47.096205]}},{"properties":{"city":"Waterbury","latitude":41.564819,"zip":"6702","job title":"IICAPS BILINGUAL CLINICIAN","employer":"Wellmore","longitude":-73.027695,"id":"ah74x1ostqp1","state":"CT"},"type":"Feature","geometry":{"type":"Point","coordinates":[-73.027695,41.564819]}},{"properties":{"city":"Sacramento","latitude":36.209605,"zip":"95823","job title":"MENTAL HEALTH COUNSELOR","employer":"Dignity Health Medical Foundation","longitude":-107.458454,"id":"ah74x1e7gvan","state":"CA"},"type":"Feature","geometry":{"type":"Point","coordinates":[-107.458454,36.209605]}},{"properties":{"city":"Salinas","latitude":36.7514,"zip":"93906","job title":"Psychiatric Social Worker I -TRAINEE","employer":"County of Monterey, CA","longitude":-121.620136,"id":"ah74x1d2l52j","state":"CA"},"type":"Feature","geometry":{"type":"Point","coordinates":[-121.620136,36.7514]}},{"properties":{"city":"Solano","latitude":38.286116,"zip":null,"job title":"Mental Health Clinical Supervisor","employer":"County of Solano","longitude":-122.000393,"id":"ah74x1og1t4i","state":"CA"},"type":"Feature","geometry":{"type":"Point","coordinates":[-122.000393,38.286116]}},{"properties":{"city":"Pomona","latitude":34.065565,"zip":null,"job title":"CLINICAL SOCIAL WORKER\\/MFT - FSP Adult\\/Older Adult 2 positions","employer":"Tri-City Mental Health Center","longitude":-117.769238,"id":"ah74x1kgmliu","state":"CA"},"type":"Feature","geometry":{"type":"Point","coordinates":[-117.769238,34.065565]}},{"properties":{"city":"Merced","latitude":39.19002,"zip":null,"job title":"HEAD OF SERVICE ASP","employer":null,"longitude":-106.818184,"id":"ah74x1l922q6","state":"CA"},"type":"Feature","geometry":{"type":"Point","coordinates":[-106.818184,39.19002]}},{"properties":{"city":"Starke","latitude":29.943145,"zip":null,"job title":"Sr. Clinician (LCSW) Starke, Fl. #31614","employer":"Meridian Behavioral Healthcare, Inc.","longitude":-82.119572,"id":"ah74x1qel3mr","state":"FL"},"type":"Feature","geometry":{"type":"Point","coordinates":[-82.119572,29.943145]}},{"properties":{"city":"Irving","latitude":32.863323,"zip":null,"job title":"Clinical Advisor - UM","employer":"Humana","longitude":-96.968365,"id":"ah74x1ecah2o","state":"TX"},"type":"Feature","geometry":{"type":"Point","coordinates":[-96.968365,32.863323]}},{"properties":{"city":"Turlock","latitude":42.1887,"zip":"95380","job title":"HEAD OF SERVICE Position open in both our Turlock and","employer":null,"longitude":-74.786378,"id":"ah74x1fcw2vy","state":"CA"},"type":"Feature","geometry":{"type":"Point","coordinates":[-74.786378,42.1887]}},{"properties":{"city":"Compton","latitude":33.886364,"zip":null,"job title":"Clinical Psychologist","employer":"Compton Unified","longitude":-118.219948,"id":"ah74x1grsg0m","state":"CA"},"type":"Feature","geometry":{"type":"Point","coordinates":[-118.219948,33.886364]}},{"properties":{"city":"San Francisco","latitude":31.734392,"zip":null,"job title":"Clinical Supervisor - Child Services","employer":"Westside Community Services","longitude":-89.216322,"id":"ah74x1iwn5yz","state":"CA"},"type":"Feature","geometry":{"type":"Point","coordinates":[-89.216322,31.734392]}},{"properties":{"city":"Tempe","latitude":33.42551,"zip":null,"job title":"Crisis Call Center Supervisor - Tempe","employer":"Crisis Response Network, Inc.","longitude":-111.937419,"id":"ah74x1k4yunt","state":"AZ"},"type":"Feature","geometry":{"type":"Point","coordinates":[-111.937419,33.42551]}},{"properties":{"city":"San Diego","latitude":32.81086,"zip":null,"job title":"Licensed Mental Health Clinician","employer":"San Diego Unified School District","longitude":-117.060051,"id":"ah74x1m7wipn","state":"CA"},"type":"Feature","geometry":{"type":"Point","coordinates":[-117.060051,32.81086]}},{"properties":{"city":"Cincinnati","latitude":39.12709,"zip":"45206","job title":"Clinical Manager","employer":"Greater Cincinnati Behavioral","longitude":-84.482674,"id":"ah74x1nguofh","state":"OH"},"type":"Feature","geometry":{"type":"Point","coordinates":[-84.482674,39.12709]}},{"properties":{"city":"Las Vegas","latitude":36.17186,"zip":null,"job title":"Psychiatry (General)","employer":"Links Medical Associates","longitude":-115.160614,"id":"ah74x1ocifsp","state":"NV"},"type":"Feature","geometry":{"type":"Point","coordinates":[-115.160614,36.17186]}},{"properties":{"city":"Rancho Cordova","latitude":38.5676,"zip":null,"job title":"Supervisor Disease Management","employer":"Health Net Federal Services, LLC - 1500","longitude":-121.271976,"id":"ah74x1iln40n","state":"CA"},"type":"Feature","geometry":{"type":"Point","coordinates":[-121.271976,38.5676]}},{"properties":{"city":"Kentfield","latitude":38.157205,"zip":"94904","job title":"Counselor Part-time Temporary Pool","employer":"College of Marin","longitude":-80.869949,"id":"ah74x1qlqlc5","state":"CA"},"type":"Feature","geometry":{"type":"Point","coordinates":[-80.869949,38.157205]}},{"properties":{"city":"Alameda","latitude":37.753994,"zip":null,"job title":"Regional Operations Director","employer":"PsychPros","longitude":-122.272396,"id":"ah74x1fpftfn","state":"CA"},"type":"Feature","geometry":{"type":"Point","coordinates":[-122.272396,37.753994]}},{"properties":{"city":"Moraine","latitude":39.698343,"zip":null,"job title":"Mental Health Therapist (Counseling \\/ Social Work \\/ Human Services \\/ Counselor)","employer":"South Community, Inc.","longitude":-84.257805,"id":"ah74x1ipie4c","state":"OH"},"type":"Feature","geometry":{"type":"Point","coordinates":[-84.257805,39.698343]}},{"properties":{"city":null,"latitude":38.502045,"zip":null,"job title":"CLINICAL PROGRAM MANAGER 1, OPTION B: CHILD AND ADOLESCENT SERVICES","employer":"Nevada Employee Action and Timekeeping System","longitude":-117.022583,"id":"ah74x1giqn55","state":"NV"},"type":"Feature","geometry":{"type":"Point","coordinates":[-117.022583,38.502045]}},{"properties":{"city":"San Leandro","latitude":37.71192,"zip":null,"job title":"Social Worker (LCSW\\/LMFT) (On Call, Days, including Weekends)","employer":"Telecare Corporation","longitude":-122.151962,"id":"ah74x1d18fa7","state":"CA"},"type":"Feature","geometry":{"type":"Point","coordinates":[-122.151962,37.71192]}},{"properties":{"city":"Battle Creek","latitude":36.209605,"zip":null,"job title":"Intake Counselor","employer":"PsychPros","longitude":-107.458454,"id":"ah74x1kuvjta","state":"MI"},"type":"Feature","geometry":{"type":"Point","coordinates":[-107.458454,36.209605]}},{"properties":{"city":"Glenwood Springs","latitude":33.488281,"zip":null,"job title":"Behavioral Health Crisis Clinician\\/Evaluator PRN","employer":"Valley View Hospital","longitude":-97.164772,"id":"ah74x1fd6mym","state":"CO"},"type":"Feature","geometry":{"type":"Point","coordinates":[-97.164772,33.488281]}},{"properties":{"city":"Knoxville","latitude":36.209605,"zip":"37917","job title":"IOP Masters Clinical Counselor","employer":"Helen Ross McNabb Center","longitude":-107.458454,"id":"ah74x1jd28mp","state":"TN"},"type":"Feature","geometry":{"type":"Point","coordinates":[-107.458454,36.209605]}},{"properties":{"city":"Hartford","latitude":41.76561,"zip":null,"job title":"Licensed Clinical Social Worker (LCSW)","employer":"Delta T Group","longitude":-72.675613,"id":"ah74x1pdad3v","state":"CT"},"type":"Feature","geometry":{"type":"Point","coordinates":[-72.675613,41.76561]}},{"properties":{"city":"San Francisco","latitude":37.761581,"zip":null,"job title":"Clinical Social Worker I or II","employer":"University of California San Francisco","longitude":-122.458267,"id":"ah74x1pzf7ti","state":"CA"},"type":"Feature","geometry":{"type":"Point","coordinates":[-122.458267,37.761581]}},{"properties":{"city":"Noblesville","latitude":40.047424,"zip":null,"job title":"Home Based Therapist9 - Hamilton County, IN","employer":"Aspire Indiana","longitude":-86.027706,"id":"ah74x1ol224d","state":"IN"},"type":"Feature","geometry":{"type":"Point","coordinates":[-86.027706,40.047424]}},{"properties":{"city":"Greenville","latitude":30.46522,"zip":"32331","job title":"Licensed Clinical Director","employer":"Youth Services International","longitude":-83.632858,"id":"ah74x1s1mrt0","state":"FL"},"type":"Feature","geometry":{"type":"Point","coordinates":[-83.632858,30.46522]}},{"properties":{"city":"Fort Wayne","latitude":41.080515,"zip":null,"job title":"Staff Clinician II","employer":"Parkview Hospital - Randallia","longitude":-85.153679,"id":"ah74x1ih0tfj","state":"IN"},"type":"Feature","geometry":{"type":"Point","coordinates":[-85.153679,41.080515]}},{"properties":{"city":"Fort Lauderdale","latitude":26.121116,"zip":"33301","job title":"Clinical Program Supervisor","employer":"Children\\'s Home Society of Florida","longitude":-80.127132,"id":"ah74x1elgpjq","state":"FL"},"type":"Feature","geometry":{"type":"Point","coordinates":[-80.127132,26.121116]}},{"properties":{"city":"Gainesville","latitude":29.686794,"zip":null,"job title":"Clinical Program Supervisor","employer":"Children\\'s Home Society","longitude":-82.321297,"id":"ah74x1hyxinb","state":"FL"},"type":"Feature","geometry":{"type":"Point","coordinates":[-82.321297,29.686794]}},{"properties":{"city":"Knoxville","latitude":36.209605,"zip":null,"job title":"Supervisory, Licensed Professional Mental Health Counselor","employer":"Department Of Veterans Affairs","longitude":-107.458454,"id":"ah74x1i8gdkj","state":"TN"},"type":"Feature","geometry":{"type":"Point","coordinates":[-107.458454,36.209605]}},{"properties":{"city":"Bellevue","latitude":47.595051,"zip":null,"job title":"Social Worker","employer":"Overlake Hospital","longitude":-122.157402,"id":"ah74x1jgeljc","state":"WA"},"type":"Feature","geometry":{"type":"Point","coordinates":[-122.157402,47.595051]}},{"properties":{"city":null,"latitude":30.63674,"zip":null,"job title":"Program Manager","employer":"Meridian Behavioral Healthcare, Inc.","longitude":-84.282509,"id":"ah74x1lumkp4","state":"FL"},"type":"Feature","geometry":{"type":"Point","coordinates":[-84.282509,30.63674]}},{"properties":{"city":"Fort Worth","latitude":31.734392,"zip":null,"job title":"Coordinator of Disability Support Services","employer":"Tarrant County College","longitude":-89.216322,"id":"ah74x1l554v4","state":"TX"},"type":"Feature","geometry":{"type":"Point","coordinates":[-89.216322,31.734392]}},{"properties":{"city":"Los Angeles","latitude":33.925135,"zip":"90059","job title":"Mental Health Consultant","employer":"Kedren Head Start","longitude":-118.245251,"id":"ah74x1jek9c1","state":"CA"},"type":"Feature","geometry":{"type":"Point","coordinates":[-118.245251,33.925135]}},{"properties":{"city":"Dayton","latitude":39.73221,"zip":null,"job title":"SOCIAL WORK\\/COUNSELOR-LSW\\/PC","employer":"Premier Health Partners","longitude":-84.177956,"id":"ah74x1lmle04","state":"OH"},"type":"Feature","geometry":{"type":"Point","coordinates":[-84.177956,39.73221]}},{"properties":{"city":"Temple","latitude":31.109265,"zip":null,"job title":"Psychotherapist Temple Counseling Center","employer":"Scott and White Healthcare","longitude":-97.374161,"id":"ah74x1lk0peo","state":"TX"},"type":"Feature","geometry":{"type":"Point","coordinates":[-97.374161,31.109265]}},{"properties":{"city":"Flagstaff","latitude":35.468925,"zip":"86001","job title":"Counselor &amp; Program Coordinator","employer":"CPES","longitude":-111.69907,"id":"ah74x1l29ca6","state":"AZ"},"type":"Feature","geometry":{"type":"Point","coordinates":[-111.69907,35.468925]}},{"properties":{"city":"Boulder","latitude":40.026064,"zip":null,"job title":"213-090 Program Supervisor - BAOS","employer":"Mental Health Partners","longitude":-105.251728,"id":"ah74x1rnxzvi","state":"CO"},"type":"Feature","geometry":{"type":"Point","coordinates":[-105.251728,40.026064]}},{"properties":{"city":"Tempe","latitude":33.363779,"zip":"85283","job title":"Behavioral Health Case Manager (LTC)","employer":"Centene Corporation","longitude":-111.935459,"id":"ah74x1kkqg1g","state":"AZ"},"type":"Feature","geometry":{"type":"Point","coordinates":[-111.935459,33.363779]}},{"properties":{"city":"Los Angeles","latitude":34.076586,"zip":"90026","job title":"Social Worker","employer":"St Anne\\'s","longitude":-118.262569,"id":"ah74x1p8dkni","state":"CA"},"type":"Feature","geometry":{"type":"Point","coordinates":[-118.262569,34.076586]}},{"properties":{"city":"San Bernardino","latitude":34.078545,"zip":"92408","job title":"Mental Health Specialist II (IMF or ASW)","employer":"STARS Behavioral Health Group","longitude":-117.257885,"id":"ah74x1p0cm7t","state":"CA"},"type":"Feature","geometry":{"type":"Point","coordinates":[-117.257885,34.078545]}},{"properties":{"city":"Albuquerque","latitude":31.591335,"zip":null,"job title":"COUNSELOR SOCIAL WKR CLIN","employer":"UNM Hospitals","longitude":-106.224326,"id":"ah74x1euzuxw","state":"NM"},"type":"Feature","geometry":{"type":"Point","coordinates":[-106.224326,31.591335]}},{"properties":{"city":"San Rafael","latitude":37.974571,"zip":null,"job title":"Mental Health Practitioner\\/Licensed Mental Health Practitioner","employer":"Marin County","longitude":-122.532471,"id":"ah74x1d3xuk7","state":"CA"},"type":"Feature","geometry":{"type":"Point","coordinates":[-122.532471,37.974571]}},{"properties":{"city":"San Ramon","latitude":37.760487,"zip":null,"job title":"Medical Social Worker (MSW), AccentCare Home Health, San Ramon, CA","employer":"AccentCare, Inc","longitude":-121.955933,"id":"ah74x1ea50xn","state":"CA"},"type":"Feature","geometry":{"type":"Point","coordinates":[-121.955933,37.760487]}},{"properties":{"city":"Baxley","latitude":36.209605,"zip":null,"job title":"GA - Integrated Treatment Counselor (Appling)","employer":"Spectrum Health Systems, Inc.","longitude":-107.458454,"id":"ah74x1kaoysa","state":"GA"},"type":"Feature","geometry":{"type":"Point","coordinates":[-107.458454,36.209605]}},{"properties":{"city":"Bellevue","latitude":47.595051,"zip":null,"job title":"Social Worker - Psychiatric Day Hospital","employer":"Overlake Hospital Medical Center","longitude":-122.157402,"id":"ah74x1qjq5pk","state":"WA"},"type":"Feature","geometry":{"type":"Point","coordinates":[-122.157402,47.595051]}},{"properties":{"city":"Fort Greely","latitude":36.209605,"zip":null,"job title":"OCONUS - Ft. Greely, Alaska - SPA Child Youth Military Family Life Counselor","employer":"MHN Government Services - 7012","longitude":-107.458454,"id":"ah74x1d3k5s0","state":"AK"},"type":"Feature","geometry":{"type":"Point","coordinates":[-107.458454,36.209605]}},{"properties":{"city":"Denver","latitude":39.75482,"zip":null,"job title":"Social Worker (LCSW)","employer":"Liberty Healthcare","longitude":-104.899883,"id":"ah74x1rhm2eb","state":"CO"},"type":"Feature","geometry":{"type":"Point","coordinates":[-104.899883,39.75482]}},{"properties":{"city":"San Francisco","latitude":37.761581,"zip":null,"job title":"Clinical Social Worker I \\/ II","employer":"University of California San Francisco","longitude":-122.458267,"id":"ah74x1iab9ts","state":"CA"},"type":"Feature","geometry":{"type":"Point","coordinates":[-122.458267,37.761581]}},{"properties":{"city":null,"latitude":34.167874,"zip":null,"job title":"Clinical Director","employer":"Choices Network of Arizona","longitude":-111.930706,"id":"ah74x1ivb252","state":"AZ"},"type":"Feature","geometry":{"type":"Point","coordinates":[-111.930706,34.167874]}},{"properties":{"city":"San Diego","latitude":32.81086,"zip":null,"job title":"Mental Health Case Worker","employer":"San Diego Unified School District","longitude":-117.060051,"id":"ah74x1coswya","state":"CA"},"type":"Feature","geometry":{"type":"Point","coordinates":[-117.060051,32.81086]}},{"properties":{"city":"Atlanta","latitude":33.869335,"zip":"30342","job title":"Behavioral Health Supervisor, 8am-5pm (Social Worker, Psychology, RN)","employer":"Northside Hospital","longitude":-84.407074,"id":"ah74x1gq5tem","state":"GA"},"type":"Feature","geometry":{"type":"Point","coordinates":[-84.407074,33.869335]}},{"properties":{"city":"Pleasant Hill","latitude":37.956108,"zip":null,"job title":"Core Faculty Holistic Counseling Psychology","employer":"John F. Kennedy University","longitude":-122.055389,"id":"ah74x1dk2b27","state":"CA"},"type":"Feature","geometry":{"type":"Point","coordinates":[-122.055389,37.956108]}},{"properties":{"city":"Bradenton","latitude":27.467275,"zip":null,"job title":"Manager - Adult Substance Abuse Residential","employer":"Manatee Glens","longitude":-82.542473,"id":"ah74x1sjn2q2","state":"FL"},"type":"Feature","geometry":{"type":"Point","coordinates":[-82.542473,27.467275]}},{"properties":{"city":"Fort Worth","latitude":36.209605,"zip":null,"job title":"Counselor","employer":"Tarrant County College","longitude":-107.458454,"id":"ah74x1r1kwp6","state":"TX"},"type":"Feature","geometry":{"type":"Point","coordinates":[-107.458454,36.209605]}},{"properties":{"city":"Hickam AFB","latitude":36.209605,"zip":null,"job title":"OCONUS Hawaii - Hickam AFB - (1) CYB SPA Child &amp; Youth Military Family Life Counselor","employer":"MHN Government Services - 7012","longitude":-107.458454,"id":"ah74x1g5sn8e","state":"HI"},"type":"Feature","geometry":{"type":"Point","coordinates":[-107.458454,36.209605]}},{"properties":{"city":"Fremont","latitude":37.536863,"zip":null,"job title":"Behavioral Medicine Spec LCSW (5151) (Job Number: 194593)","employer":"Kaiser Permanente","longitude":-122.011234,"id":"ah74x1le3esv","state":"CA"},"type":"Feature","geometry":{"type":"Point","coordinates":[-122.011234,37.536863]}},{"properties":{"city":"Phoenixville","latitude":40.13851,"zip":"19460","job title":"Licensed Social Worker-PHOENIXVILLE BOROUGH -FFS","employer":"NHS Human Services","longitude":-75.521309,"id":"ah74x1jtzfsr","state":"PA"},"type":"Feature","geometry":{"type":"Point","coordinates":[-75.521309,40.13851]}},{"properties":{"city":"Dayton","latitude":39.73221,"zip":null,"job title":"Senior Medical Social Worker (Suicide Prevention)","employer":"Dayton Children\\'s","longitude":-84.177956,"id":"ah74x1k10uxh","state":"OH"},"type":"Feature","geometry":{"type":"Point","coordinates":[-84.177956,39.73221]}},{"properties":{"city":"Laughlin","latitude":35.16646,"zip":null,"job title":"MENTAL HEALTH COUNSELOR II - SNAMHS - Laughlin","employer":"Nevada Employee Action and Timekeeping System","longitude":-114.572941,"id":"ah74x1jzmb3d","state":"NV"},"type":"Feature","geometry":{"type":"Point","coordinates":[-114.572941,35.16646]}},{"properties":{"city":"Napa","latitude":43.23459,"zip":null,"job title":"Mental Health Counselor - Licensed - Bil...","employer":"County of Napa, CA","longitude":-105.260052,"id":"ah74x1m9hc00","state":"CA"},"type":"Feature","geometry":{"type":"Point","coordinates":[-105.260052,43.23459]}},{"properties":{"city":"Santa Clarita","latitude":34.408138,"zip":null,"job title":"Assistant Director, Student Health &amp; Wellness\\/Mental Health Programs","employer":"College of the Canyons","longitude":-118.568993,"id":"ah74x1lcw3xo","state":"CA"},"type":"Feature","geometry":{"type":"Point","coordinates":[-118.568993,34.408138]}},{"properties":{"city":"Dallas","latitude":32.778149,"zip":null,"job title":"PROFESSIONAL SUPPORT (PT. PSYCHOLOGIST ASST)","employer":"Dallas County, TX","longitude":-96.795403,"id":"ah74x1m4fnwr","state":"TX"},"type":"Feature","geometry":{"type":"Point","coordinates":[-96.795403,32.778149]}},{"properties":{"city":null,"latitude":32.58507,"zip":null,"job title":"Behavioral Health Specialist III","employer":"State of Mississippi","longitude":-89.873745,"id":"ah74x1kfjgij","state":"MS"},"type":"Feature","geometry":{"type":"Point","coordinates":[-89.873745,32.58507]}},{"properties":{"city":null,"latitude":42.062449,"zip":null,"job title":"In Home Therapy Clinician","employer":"Servicenet, Inc.","longitude":-71.718185,"id":"ah74x1r39t0t","state":"MA"},"type":"Feature","geometry":{"type":"Point","coordinates":[-71.718185,42.062449]}},{"properties":{"city":"Contra Costa County","latitude":37.911051,"zip":null,"job title":"MENTAL HEALTH CLINICAL SPECIALIST","employer":"County of Contra Costa, California","longitude":-121.981903,"id":"ah74x1op0xhw","state":"CA"},"type":"Feature","geometry":{"type":"Point","coordinates":[-121.981903,37.911051]}},{"properties":{"city":"Fresno","latitude":36.740685,"zip":null,"job title":"Marriage Family Therapist Assistant 097 Chemical Dependency Fresno (Job Number: 188835)","employer":"Kaiser Permanente","longitude":-119.785734,"id":"ah74x1d6ce5g","state":"CA"},"type":"Feature","geometry":{"type":"Point","coordinates":[-119.785734,36.740685]}},{"properties":{"city":"Tampa","latitude":38.157205,"zip":null,"job title":"BEHAVIORAL HEALTH THERAPIST II POOL","employer":"BayCare Health","longitude":-80.869949,"id":"ah74x1skvzty","state":"FL"},"type":"Feature","geometry":{"type":"Point","coordinates":[-80.869949,38.157205]}},{"properties":{"city":"Santa Fe Springs","latitude":33.927515,"zip":null,"job title":"Team Supervisor","employer":"Pacific Clinics","longitude":-118.063492,"id":"ah74x1onn7or","state":"CA"},"type":"Feature","geometry":{"type":"Point","coordinates":[-118.063492,33.927515]}},{"properties":{"city":"Everett","latitude":47.9592,"zip":null,"job title":"Fee-For-Service","employer":"Eliot Community Human Services","longitude":-122.034878,"id":"ah74x1hw07fd","state":"MA"},"type":"Feature","geometry":{"type":"Point","coordinates":[-122.034878,47.9592]}},{"properties":{"city":"La Crosse","latitude":43.822824,"zip":null,"job title":"Residential Treatment Therapist","employer":"Gundersen Health System","longitude":-91.240753,"id":"ah74x1poqig7","state":"WI"},"type":"Feature","geometry":{"type":"Point","coordinates":[-91.240753,43.822824]}},{"properties":{"city":"Fresno","latitude":31.734392,"zip":null,"job title":"Therapist - Fee for Service","employer":"Mental Health Systems, Inc.","longitude":-89.216322,"id":"ah74x1q14qor","state":"CA"},"type":"Feature","geometry":{"type":"Point","coordinates":[-89.216322,31.734392]}},{"properties":{"city":"Sandy","latitude":36.209605,"zip":"84090","job title":"Independently Licensed EAP Clinical Counselor","employer":"Aetna","longitude":-107.458454,"id":"ah74x1giye9p","state":"UT"},"type":"Feature","geometry":{"type":"Point","coordinates":[-107.458454,36.209605]}},{"properties":{"city":"Prescott Valley","latitude":34.593765,"zip":null,"job title":"Director of Clinical Field Placements","employer":"Northcentral University","longitude":-112.2953,"id":"ah74x1fhkscv","state":"AZ"},"type":"Feature","geometry":{"type":"Point","coordinates":[-112.2953,34.593765]}},{"properties":{"city":"Las Cruces","latitude":32.70038,"zip":"88012","job title":"A &amp; R Coordinator (PRN)","employer":"Mesilla Valley Hospital","longitude":-106.652359,"id":"ah74x1ii48n7","state":"NM"},"type":"Feature","geometry":{"type":"Point","coordinates":[-106.652359,32.70038]}},{"properties":{"city":"Auburn","latitude":47.298374,"zip":null,"job title":"Mental Health Therapist-Adult","employer":"Muckleshoot Indian Tribe","longitude":-122.186932,"id":"ah74x1dxv54e","state":"WA"},"type":"Feature","geometry":{"type":"Point","coordinates":[-122.186932,47.298374]}},{"properties":{"city":"Evansville","latitude":37.962898,"zip":null,"job title":"Staff Counselor or Staff Psychologist","employer":"University of Southern Indiana","longitude":-87.677742,"id":"ah74x1oujjdt","state":"IN"},"type":"Feature","geometry":{"type":"Point","coordinates":[-87.677742,37.962898]}},{"properties":{"city":"Oakland","latitude":37.801119,"zip":null,"job title":"Manager I Behavioral Health PSW MFT (Job Number: 200387)","employer":"Kaiser Permanente","longitude":-122.233086,"id":"ah74x1gbdbij","state":"CA"},"type":"Feature","geometry":{"type":"Point","coordinates":[-122.233086,37.801119]}},{"properties":{"city":"Evansville","latitude":37.978355,"zip":null,"job title":"Staff Counselor or Staff Psychologist, Counseling Center - A13033A1","employer":"University of Souther Indiana","longitude":-87.630264,"id":"ah74x1iacq62","state":"IN"},"type":"Feature","geometry":{"type":"Point","coordinates":[-87.630264,37.978355]}},{"properties":{"city":"Strafford County","latitude":43.32671,"zip":null,"job title":"Behavioral Health: Community Support Program","employer":"Community Partners NH","longitude":-71.028683,"id":"ah74x1ikbbzm","state":"NH"},"type":"Feature","geometry":{"type":"Point","coordinates":[-71.028683,43.32671]}},{"properties":{"city":"Pueblo","latitude":38.25919,"zip":null,"job title":"Behavioral Health Clinician","employer":"Parkview Medical Center","longitude":-104.617027,"id":"ah74x1dtnq5t","state":"CO"},"type":"Feature","geometry":{"type":"Point","coordinates":[-104.617027,38.25919]}},{"properties":{"city":"Independence","latitude":37.23674,"zip":null,"job title":"Intensive In-Home Specialist","employer":"KVC Health Systems, Inc","longitude":-95.71925,"id":"ah74x1qg9ajg","state":"KS"},"type":"Feature","geometry":{"type":"Point","coordinates":[-95.71925,37.23674]}},{"properties":{"city":"Milwaukee","latitude":43.060545,"zip":null,"job title":"Psychotherapist","employer":"Children\\'s Hospital &amp; Health System","longitude":-87.933353,"id":"ah74x1raf2h1","state":"WI"},"type":"Feature","geometry":{"type":"Point","coordinates":[-87.933353,43.060545]}},{"properties":{"city":"Scottsdale","latitude":33.663681,"zip":"85255","job title":"Academic Ops\\/Clinical Coordinator","employer":"Northcentral University","longitude":-111.804585,"id":"ah74x1i3qwp2","state":"AZ"},"type":"Feature","geometry":{"type":"Point","coordinates":[-111.804585,33.663681]}},{"properties":{"city":"Swansea","latitude":41.76244,"zip":null,"job title":"Early Childhood Psychologist","employer":"South Bay Mental Health","longitude":-71.234772,"id":"ah74x1dncojs","state":"MA"},"type":"Feature","geometry":{"type":"Point","coordinates":[-71.234772,41.76244]}},{"properties":{"city":"Santa Monica","latitude":34.024315,"zip":null,"job title":"CFDC Licensed Therapist (0-5 population) - Bilingual","employer":"Saint John\\'s Health Center","longitude":-118.478291,"id":"ah74x1mwkbw6","state":"CA"},"type":"Feature","geometry":{"type":"Point","coordinates":[-118.478291,34.024315]}},{"properties":{"city":"Oakland","latitude":36.437639,"zip":null,"job title":"Clinical Social Worker I\\/II\\/III","employer":"Children\\'s Hospital &amp; Research Center Oakland","longitude":-88.477299,"id":"ah74x1dwiylv","state":"CA"},"type":"Feature","geometry":{"type":"Point","coordinates":[-88.477299,36.437639]}},{"properties":{"city":"Des Moines","latitude":41.582745,"zip":null,"job title":"Therapist, Independently Licensed - Mercy Psych Services - FT (days)","employer":"Catholic Health Initiatives","longitude":-93.61834,"id":"ah74x1sjtpmb","state":"IA"},"type":"Feature","geometry":{"type":"Point","coordinates":[-93.61834,41.582745]}},{"properties":{"city":"Woodburn","latitude":45.14069,"zip":null,"job title":"Social Worker","employer":"Yakima Valley Farm Workers Clinic","longitude":-122.859039,"id":"ah74x1k1xlbi","state":"OR"},"type":"Feature","geometry":{"type":"Point","coordinates":[-122.859039,45.14069]}},{"properties":{"city":"Longmont","latitude":40.158363,"zip":null,"job title":"213-109 Parent-Infant Psychotherapist","employer":"Mental Health Partners","longitude":-105.115845,"id":"ah74x1r10jtd","state":"CO"},"type":"Feature","geometry":{"type":"Point","coordinates":[-105.115845,40.158363]}},{"properties":{"city":"Longview","latitude":46.149715,"zip":null,"job title":"Behavioral Health Consultant","employer":"Cowlitz Family Health Center","longitude":-122.97049,"id":"ah74x1k0una8","state":"WA"},"type":"Feature","geometry":{"type":"Point","coordinates":[-122.97049,46.149715]}},{"properties":{"city":"Valparaiso","latitude":41.453505,"zip":"46383","job title":"Licensed Social Worker-Available NOW!","employer":"Choices Counseling Services","longitude":-87.002445,"id":"ah74x1osserv","state":"IN"},"type":"Feature","geometry":{"type":"Point","coordinates":[-87.002445,41.453505]}},{"properties":{"city":"Santa Cruz","latitude":36.979345,"zip":null,"job title":"Social Worker (LCSW\\/LMFT) (F\\/T and S\\/H NOCS) - New Program!","employer":"Telecare Corporation","longitude":-122.030426,"id":"ah74x1fe8uiw","state":"CA"},"type":"Feature","geometry":{"type":"Point","coordinates":[-122.030426,36.979345]}},{"properties":{"city":"Santa Cruz","latitude":36.979345,"zip":null,"job title":"Social Worker (LCSW\\/MSW) - (F\\/T PM Shift and S\\/H PM Weekends)","employer":"Telecare Corporation","longitude":-122.030426,"id":"ah74x1nuhpzk","state":"CA"},"type":"Feature","geometry":{"type":"Point","coordinates":[-122.030426,36.979345]}},{"properties":{"city":"Lake County","latitude":39.124725,"zip":null,"job title":"MENTAL HEALTH TEAM LEADER I\\/II\\/SENIOR","employer":"County of Lake, CA","longitude":-122.71693,"id":"ah74x1juk61l","state":"CA"},"type":"Feature","geometry":{"type":"Point","coordinates":[-122.71693,39.124725]}},{"properties":{"city":"Franklin","latitude":43.448944,"zip":null,"job title":"Clinical Manager","employer":"Riverbend Community Mental Health, Inc.","longitude":-71.662987,"id":"ah74x1ebqqhq","state":"NH"},"type":"Feature","geometry":{"type":"Point","coordinates":[-71.662987,43.448944]}},{"properties":{"city":"San Antonio","latitude":29.47426,"zip":null,"job title":"Clinical Practitioner III - Mobile Crisis Outreach Team (MCOT)","employer":"The Center for Health Care Services","longitude":-98.493481,"id":"ah74x1qcyohb","state":"TX"},"type":"Feature","geometry":{"type":"Point","coordinates":[-98.493481,29.47426]}},{"properties":{"city":"Southgate","latitude":42.206129,"zip":null,"job title":"Case Manager, DD (aka Supports Coordinator)","employer":"The Guidance Center","longitude":-83.205956,"id":"ah74x1svalnv","state":"MI"},"type":"Feature","geometry":{"type":"Point","coordinates":[-83.205956,42.206129]}},{"properties":{"city":"Plaza","latitude":47.33173,"zip":null,"job title":"SUBSTANCE ABUSE THERAPIST II (Bilingual - English\\/Spanish)","employer":"Arlington County","longitude":-117.380531,"id":"ah74x1l8mqvn","state":"WA"},"type":"Feature","geometry":{"type":"Point","coordinates":[-117.380531,47.33173]}},{"properties":{"city":"Pontiac","latitude":42.63467,"zip":"48341","job title":"Therapists, Counselors, Social Workers, Psychologists &amp; Mental Health Clinicians","employer":"Oakland Family Services","longitude":-83.295135,"id":"ah74x1es6spb","state":"MI"},"type":"Feature","geometry":{"type":"Point","coordinates":[-83.295135,42.63467]}},{"properties":{"city":"Fresno County","latitude":36.746309,"zip":null,"job title":"LICENSED MENTAL HEALTH CLINICIAN","employer":"Fresno County","longitude":-119.640244,"id":"ah74x1t4ayb5","state":"CA"},"type":"Feature","geometry":{"type":"Point","coordinates":[-119.640244,36.746309]}},{"properties":{"city":"Stark County","latitude":40.811625,"zip":null,"job title":"Social Worker 3","employer":"State of Ohio","longitude":-81.367683,"id":"ah74x1s3ihgb","state":"OH"},"type":"Feature","geometry":{"type":"Point","coordinates":[-81.367683,40.811625]}},{"properties":{"city":"San Mateo County","latitude":37.554596,"zip":null,"job title":"Psychiatric Social Worker\\/Marriage &amp; Family Therapist I\\/II-Pre-to-Three-Spanish Spkg (Open &amp; Promo)","employer":"County of San Mateo","longitude":-122.303432,"id":"ah74x1n9f66c","state":"CA"},"type":"Feature","geometry":{"type":"Point","coordinates":[-122.303432,37.554596]}},{"properties":{"city":"Salinas","latitude":36.7514,"zip":"93906","job title":"Behavioral Health Unit Supervisor","employer":"County of Monterey, CA","longitude":-121.620136,"id":"ah74x1dvt9jd","state":"CA"},"type":"Feature","geometry":{"type":"Point","coordinates":[-121.620136,36.7514]}},{"properties":{"city":"Tempe","latitude":33.381914,"zip":null,"job title":"Behavioral Health Professional","employer":"Centene Corporation","longitude":-111.944691,"id":"ah74x1kltxf3","state":"AZ"},"type":"Feature","geometry":{"type":"Point","coordinates":[-111.944691,33.381914]}},{"properties":{"city":"Chattanooga","latitude":35.086296,"zip":null,"job title":"Prevention Specialist","employer":"CADAS","longitude":-85.272079,"id":"ah74x1k9evcc","state":"TN"},"type":"Feature","geometry":{"type":"Point","coordinates":[-85.272079,35.086296]}},{"properties":{"city":"Stockton","latitude":37.967936,"zip":null,"job title":"Manager I Behavioral Health (LCSW or MFT] (Job Number: 200054)","employer":"Kaiser Permanente","longitude":-121.300858,"id":"ah74x1r4ep81","state":"CA"},"type":"Feature","geometry":{"type":"Point","coordinates":[-121.300858,37.967936]}},{"properties":{"city":"South San Francisco","latitude":37.656361,"zip":null,"job title":"MFT Assistant - Adult Eating Disorders (Job Number: 202489)","employer":"Kaiser Permanente","longitude":-122.417934,"id":"ah74x1fs7c5b","state":"CA"},"type":"Feature","geometry":{"type":"Point","coordinates":[-122.417934,37.656361]}},{"properties":{"city":"San Bernardino","latitude":34.142784,"zip":null,"job title":"Psych Social Worker (Job Number: 196510)","employer":"Kaiser Permanente","longitude":-117.286285,"id":"ah74x1oqsjer","state":"CA"},"type":"Feature","geometry":{"type":"Point","coordinates":[-117.286285,34.142784]}},{"properties":{"city":"Garden City","latitude":41.138933,"zip":null,"job title":"GA - Clinical Supervisor - Coastal *Sign-On Bonus","employer":"Spectrum Health Systems, Inc.","longitude":-79.740003,"id":"ah74x1i6fz4s","state":"GA"},"type":"Feature","geometry":{"type":"Point","coordinates":[-79.740003,41.138933]}},{"properties":{"city":"Louisville","latitude":38.263979,"zip":"40202","job title":"Principal Social Worker\\/Therapist V02458","employer":"Laurus Strategies Recruitment Consulting","longitude":-85.737232,"id":"ah74x1hnpgx8","state":"KY"},"type":"Feature","geometry":{"type":"Point","coordinates":[-85.737232,38.263979]}},{"properties":{"city":"Oakland","latitude":36.437639,"zip":null,"job title":"Mental Health Clinician","employer":"Children\\'s Hospital &amp; Research Center Oakland","longitude":-88.477299,"id":"ah74x1sgogb7","state":"CA"},"type":"Feature","geometry":{"type":"Point","coordinates":[-88.477299,36.437639]}},{"properties":{"city":"Napa","latitude":38.290325,"zip":null,"job title":"Mental Health Clinician","employer":"Napa Valley Unified","longitude":-122.301258,"id":"ah74x1refgjn","state":"CA"},"type":"Feature","geometry":{"type":"Point","coordinates":[-122.301258,38.290325]}},{"properties":{"city":"Clifton","latitude":40.859785,"zip":null,"job title":"Psychotherapist","employer":"Children\\'s Specialized Hospital","longitude":-74.158287,"id":"ah74x1rkm46k","state":"NJ"},"type":"Feature","geometry":{"type":"Point","coordinates":[-74.158287,40.859785]}},{"properties":{"city":"La Mesa","latitude":32.772776,"zip":null,"job title":"Clinical Nurse - RN","employer":"Sharp Healthcare","longitude":-117.016926,"id":"ah74x1guu7xp","state":"CA"},"type":"Feature","geometry":{"type":"Point","coordinates":[-117.016926,32.772776]}},{"properties":{"city":"Prince George","latitude":37.220474,"zip":"23875","job title":"LMHP, LCSW,LPC - Part-time","employer":"Guiding Lights LLC - Prince George, VA","longitude":-77.28764,"id":"ah74x1rbwymn","state":"VA"},"type":"Feature","geometry":{"type":"Point","coordinates":[-77.28764,37.220474]}},{"properties":{"city":"Marin County","latitude":38.068226,"zip":null,"job title":"Mental Health Practitioner\\/Licensed MHP - CalWorks","employer":"County of Marin, CA","longitude":-122.721275,"id":"ah74x1s24z0l","state":"CA"},"type":"Feature","geometry":{"type":"Point","coordinates":[-122.721275,38.068226]}},{"properties":{"city":"Rutland","latitude":43.607269,"zip":null,"job title":"Licensed Clinical Specialist-VT","employer":"Eckerd Youth Alternatives","longitude":-72.975304,"id":"ah74x1hrttc4","state":"VT"},"type":"Feature","geometry":{"type":"Point","coordinates":[-72.975304,43.607269]}},{"properties":{"city":"Industry","latitude":34.023149,"zip":null,"job title":"Program Director","employer":"Pacific Clinics","longitude":-117.95578,"id":"ah74x1h27c86","state":"CA"},"type":"Feature","geometry":{"type":"Point","coordinates":[-117.95578,34.023149]}},{"properties":{"city":"San Diego","latitude":32.81086,"zip":null,"job title":"Clinical Director (Licensed)","employer":"Telecare Corporation","longitude":-117.060051,"id":"ah74x1qp0g96","state":"CA"},"type":"Feature","geometry":{"type":"Point","coordinates":[-117.060051,32.81086]}},{"properties":{"city":"Santa Barbara","latitude":34.423805,"zip":null,"job title":"ADMHS Team Supervisor-Practitioner","employer":"County of Santa Barbara","longitude":-119.74889,"id":"ah74x1gqzkvg","state":"CA"},"type":"Feature","geometry":{"type":"Point","coordinates":[-119.74889,34.423805]}},{"properties":{"city":"Hartford","latitude":41.76561,"zip":"6106","job title":"Clinical Social Worker \\/ Behavioral Clinician (EI)","employer":"Hartford Program Center","longitude":-72.675613,"id":"ah74x1ou40ye","state":"CT"},"type":"Feature","geometry":{"type":"Point","coordinates":[-72.675613,41.76561]}},{"properties":{"city":"Chula Vista","latitude":32.641979,"zip":"91910","job title":"Part-Time Counselor","employer":"Southwestern College","longitude":-116.994301,"id":"ah74x1dlg2sp","state":"CA"},"type":"Feature","geometry":{"type":"Point","coordinates":[-116.994301,32.641979]}},{"properties":{"city":"Louisville","latitude":38.263979,"zip":"40202","job title":"Senior Therapist\\/Social Worker PRN V02444 - 2446","employer":"Laurus Strategies Recruitment Consulting","longitude":-85.737232,"id":"ah74x1jp3csm","state":"KY"},"type":"Feature","geometry":{"type":"Point","coordinates":[-85.737232,38.263979]}},{"properties":{"city":"San Francisco","latitude":39.466626,"zip":null,"job title":"Day Treatment Therapist - Thunder Road","employer":"Sutter Health","longitude":-93.709069,"id":"ah74x1k4l0wi","state":"CA"},"type":"Feature","geometry":{"type":"Point","coordinates":[-93.709069,39.466626]}},{"properties":{"city":"Los Angeles","latitude":34.035488,"zip":null,"job title":"Clinical\\u00A0Nurse\\u00A0-\\u00A0RN","employer":"Sharp Grossmont Hospital","longitude":-118.013527,"id":"ah74x1kl5xmk","state":"CA"},"type":"Feature","geometry":{"type":"Point","coordinates":[-118.013527,34.035488]}},{"properties":{"city":"La Mesa","latitude":32.772776,"zip":null,"job title":"Per Diem RN-II","employer":"Sharp Healthcare","longitude":-117.016926,"id":"ah74x1is1649","state":"CA"},"type":"Feature","geometry":{"type":"Point","coordinates":[-117.016926,32.772776]}},{"properties":{"city":"Los Angeles","latitude":34.035488,"zip":null,"job title":"Per\\u00A0Diem\\u00A0RN-II","employer":"Sharp Grossmont Hospital","longitude":-118.013527,"id":"ah74x1gicvzm","state":"CA"},"type":"Feature","geometry":{"type":"Point","coordinates":[-118.013527,34.035488]}},{"properties":{"city":"San Jose","latitude":37.336849,"zip":null,"job title":"Clinician II-(Bilingual Spanish Highly Desirable)","employer":"EMQ FamiliesFirst","longitude":-121.84771,"id":"ah74x1r7v3rx","state":"CA"},"type":"Feature","geometry":{"type":"Point","coordinates":[-121.84771,37.336849]}},{"properties":{"city":"Los Angeles","latitude":34.035488,"zip":null,"job title":"Clinical\\u00A0Nurse\\u00A0-\\u00A0RN\\u00A0-\\u00A0Weekend","employer":"Sharp Grossmont Hospital","longitude":-118.013527,"id":"ah74x1ovesp9","state":"CA"},"type":"Feature","geometry":{"type":"Point","coordinates":[-118.013527,34.035488]}},{"properties":{"city":"Sandy","latitude":36.209605,"zip":"84070","job title":"Independently Licensed EAP Clinical Counselor","employer":"Aetna\\/RFL","longitude":-107.458454,"id":"ah74x1goon1e","state":"UT"},"type":"Feature","geometry":{"type":"Point","coordinates":[-107.458454,36.209605]}},{"properties":{"city":"Dallas","latitude":32.811945,"zip":null,"job title":"Mental Health Counselor Behavioral Health","employer":"Parkland Health &amp; Hospital System","longitude":-96.760769,"id":"ah74x1f4u7yd","state":"TX"},"type":"Feature","geometry":{"type":"Point","coordinates":[-96.760769,32.811945]}},{"properties":{"city":"Louisville","latitude":39.56082,"zip":"40202","job title":"Principal Therapist \\/ Social Worker - Part Time","employer":"Laurus Strategies Recruitment Consulting","longitude":-90.723704,"id":"ah74x1khflt0","state":"KY"},"type":"Feature","geometry":{"type":"Point","coordinates":[-90.723704,39.56082]}},{"properties":{"city":"Lompoc","latitude":34.423805,"zip":null,"job title":"ADMHS Lompoc Regional Program Manager (P...","employer":"County of Santa Barbara","longitude":-119.74889,"id":"ah74x1rebpjr","state":"CA"},"type":"Feature","geometry":{"type":"Point","coordinates":[-119.74889,34.423805]}},{"properties":{"city":"Jurupa","latitude":33.977501,"zip":null,"job title":"School Based Mental Health Intern near Jurupa, CA","employer":"Sunbelt Staffing","longitude":-117.534443,"id":"ah74x1sxaa5u","state":"CA"},"type":"Feature","geometry":{"type":"Point","coordinates":[-117.534443,33.977501]}},{"properties":{"city":"Louisville","latitude":38.263979,"zip":"40202","job title":"Therapist\\/Social Worker PRN V02447 - 2449","employer":"Laurus Strategies Recruitment Consulting","longitude":-85.737232,"id":"ah74x1q72kdt","state":"KY"},"type":"Feature","geometry":{"type":"Point","coordinates":[-85.737232,38.263979]}},{"properties":{"city":"Denver","latitude":39.75482,"zip":null,"job title":"Training Specialist\\/Senior (Behavioral Health) (Denver)","employer":"WellPoint, Inc","longitude":-104.899883,"id":"ah74x1plqeod","state":"CO"},"type":"Feature","geometry":{"type":"Point","coordinates":[-104.899883,39.75482]}},{"properties":{"city":"Pomona","latitude":34.065565,"zip":null,"job title":"Clinical Supervisor","employer":"Prototypes","longitude":-117.769238,"id":"ah74x1fvkbs4","state":"CA"},"type":"Feature","geometry":{"type":"Point","coordinates":[-117.769238,34.065565]}},{"properties":{"city":"Los Angeles","latitude":34.01697,"zip":null,"job title":"SOCIAL WORKER I","employer":"LA PALMA INTERCOMMUNITY HOSPITAL","longitude":-118.326508,"id":"ah74x1klv6fz","state":"CA"},"type":"Feature","geometry":{"type":"Point","coordinates":[-118.326508,34.01697]}},{"properties":{"city":"San Jose","latitude":37.336849,"zip":null,"job title":"Clinical Program Manager","employer":"EMQ FamiliesFirst","longitude":-121.84771,"id":"ah74x1plc953","state":"CA"},"type":"Feature","geometry":{"type":"Point","coordinates":[-121.84771,37.336849]}},{"properties":{"city":"Baton Rouge","latitude":30.463205,"zip":null,"job title":"Clinical Reviewer","employer":"Magellan Health Services","longitude":-91.133251,"id":"ah74x1n6zbh7","state":"LA"},"type":"Feature","geometry":{"type":"Point","coordinates":[-91.133251,30.463205]}},{"properties":{"city":"Oakland","latitude":36.437639,"zip":null,"job title":"Mental Health Clinician (Early Childhood Mental Health)","employer":"Children\\'s Hospital &amp; Research Center Oakland","longitude":-88.477299,"id":"ah74x1mcm5cx","state":"CA"},"type":"Feature","geometry":{"type":"Point","coordinates":[-88.477299,36.437639]}},{"properties":{"city":"Duluth","latitude":46.849615,"zip":null,"job title":"Psychotherapist, Child and Adolescent Inpatient Unit","employer":"Essentia Health","longitude":-92.076088,"id":"ah74x1gn1w75","state":"MN"},"type":"Feature","geometry":{"type":"Point","coordinates":[-92.076088,46.849615]}},{"properties":{"city":"Anaheim","latitude":33.850805,"zip":null,"job title":"Psych Social Worker - (Bilingual) (Job Number: 178643)","employer":"Kaiser Permanente","longitude":-117.8647,"id":"ah74x1r835qw","state":"CA"},"type":"Feature","geometry":{"type":"Point","coordinates":[-117.8647,33.850805]}},{"properties":{"city":"Columbus","latitude":31.734392,"zip":null,"job title":"Clinical Director for Children's Social Services","employer":"The Villages of Indiana, Inc.","longitude":-89.216322,"id":"ah74x1gclccc","state":"IN"},"type":"Feature","geometry":{"type":"Point","coordinates":[-89.216322,31.734392]}},{"properties":{"city":"Killeen","latitude":31.106925,"zip":null,"job title":"Psychotherapist Killeen Mental Health","employer":"Scott and White Healthcare","longitude":-97.728149,"id":"ah74x1kf6ywp","state":"TX"},"type":"Feature","geometry":{"type":"Point","coordinates":[-97.728149,31.106925]}},{"properties":{"city":"Elberton","latitude":34.109815,"zip":null,"job title":"GA - Part-Time SAAS Facilitator - Elberton, GA","employer":"Spectrum Health Systems, Inc.","longitude":-82.863854,"id":"ah74x1g5x4u8","state":"GA"},"type":"Feature","geometry":{"type":"Point","coordinates":[-82.863854,34.109815]}},{"properties":{"city":"Tulsa","latitude":34.30829,"zip":"74133","job title":"Clinical Director - Sheridan","employer":"Shadow Mountain Behavioral Health System","longitude":-92.399079,"id":"ah74x1ocq29a","state":"OK"},"type":"Feature","geometry":{"type":"Point","coordinates":[-92.399079,34.30829]}},{"properties":{"city":null,"latitude":38.003351,"zip":null,"job title":"VA STATE *LICENSED* MENTAL HEALTH CLINICAL DIRECTOR (LMHP, LPC, LCSW)","employer":"VABODE","longitude":-79.458504,"id":"ah74x1mf46bg","state":"VA"},"type":"Feature","geometry":{"type":"Point","coordinates":[-79.458504,38.003351]}},{"properties":{"city":"Waterbury","latitude":41.564819,"zip":"6710","job title":"Crisis Intervention Clinician","employer":"Wellmore Behavioral Health","longitude":-73.027695,"id":"ah74x1m3cv3l","state":"CT"},"type":"Feature","geometry":{"type":"Point","coordinates":[-73.027695,41.564819]}},{"properties":{"city":"Pleasant Hill","latitude":37.956108,"zip":null,"job title":"Interim Program Chair","employer":"John F. Kennedy University","longitude":-122.055389,"id":"ah74x1ia2a09","state":"CA"},"type":"Feature","geometry":{"type":"Point","coordinates":[-122.055389,37.956108]}},{"properties":{"city":"Los Angeles","latitude":36.209605,"zip":null,"job title":"School Counselor","employer":"Ednovate","longitude":-107.458454,"id":"ah74x1hvjpai","state":"CA"},"type":"Feature","geometry":{"type":"Point","coordinates":[-107.458454,36.209605]}},{"properties":{"city":"Saint Paul","latitude":42.60744,"zip":null,"job title":"Psychiatric Nurse Practitioner, St. Paul","employer":"Emily Program","longitude":-113.783554,"id":"ah74x1j2na3b","state":"MN"},"type":"Feature","geometry":{"type":"Point","coordinates":[-113.783554,42.60744]}},{"properties":{"city":"Costa Mesa","latitude":33.663589,"zip":null,"job title":"PT Faculty POOL - Counseling","employer":"Coast Community College District","longitude":-117.909161,"id":"ah74x1jdk6cv","state":"CA"},"type":"Feature","geometry":{"type":"Point","coordinates":[-117.909161,33.663589]}},{"properties":{"city":null,"latitude":38.502045,"zip":null,"job title":"MENTAL HEALTH COUNSELOR II","employer":"Nevada Employee Action and Timekeeping System","longitude":-117.022583,"id":"ah74x1p0i6u9","state":"NV"},"type":"Feature","geometry":{"type":"Point","coordinates":[-117.022583,38.502045]}},{"properties":{"city":"Waterbury","latitude":41.564819,"zip":"6702","job title":"Temporary Clinician for Child First Program","employer":"Wellmore Behavioral Health","longitude":-73.027695,"id":"ah74x1hh1s1v","state":"CT"},"type":"Feature","geometry":{"type":"Point","coordinates":[-73.027695,41.564819]}},{"properties":{"city":"Norfolk","latitude":36.926945,"zip":null,"job title":"Clinician - Intensive Outpatient","employer":"City of Norfolk, VA","longitude":-76.220314,"id":"ah74x1o0i8mb","state":"VA"},"type":"Feature","geometry":{"type":"Point","coordinates":[-76.220314,36.926945]}},{"properties":{"city":"Long Beach","latitude":33.79682,"zip":null,"job title":"Social Worker (MSW) (Full-Time, AM Shift)","employer":"Telecare Corporation","longitude":-118.163712,"id":"ah74x1m8aiff","state":"CA"},"type":"Feature","geometry":{"type":"Point","coordinates":[-118.163712,33.79682]}},{"properties":{"city":"Tempe","latitude":33.381914,"zip":null,"job title":"Provider Mentor I","employer":"Centene Corporation","longitude":-111.944691,"id":"ah74x1se8aeg","state":"AZ"},"type":"Feature","geometry":{"type":"Point","coordinates":[-111.944691,33.381914]}},{"properties":{"city":"Champaign","latitude":40.116865,"zip":null,"job title":"Illinois Choices - Clinical Director","employer":"Choices, Inc.","longitude":-88.266357,"id":"ah74x1gix9yd","state":"IL"},"type":"Feature","geometry":{"type":"Point","coordinates":[-88.266357,40.116865]}},{"properties":{"city":"San Diego","latitude":32.774879,"zip":"92108","job title":"Licensed EAP BH Clinical Counselor Supervisor","employer":"Aetna","longitude":-117.147446,"id":"ah74x1hzj6zp","state":"CA"},"type":"Feature","geometry":{"type":"Point","coordinates":[-117.147446,32.774879]}},{"properties":{"city":"Maryland","latitude":36.209605,"zip":null,"job title":"NAS Patuxent River, Maryland - SPA Child Youth Military Family Life Counselor (3)","employer":"MHN Government Services - 7012","longitude":-107.458454,"id":"ah74x1qw0kb5","state":"MD"},"type":"Feature","geometry":{"type":"Point","coordinates":[-107.458454,36.209605]}},{"properties":{"city":null,"latitude":34.128778,"zip":null,"job title":"California - Camp Pendleton Embedded (10) Senior SPA Military Family Life Counselors","employer":"MHN Government Services - 7012","longitude":-117.343143,"id":"ah74x1kcpnbl","state":"CA"},"type":"Feature","geometry":{"type":"Point","coordinates":[-117.343143,34.128778]}},{"properties":{"city":"New York","latitude":40.706652,"zip":null,"job title":"MST-CAN Therapist","employer":"The Children\\'s Aid Society","longitude":-73.972569,"id":"ah74x1rdw482","state":"NY"},"type":"Feature","geometry":{"type":"Point","coordinates":[-73.972569,40.706652]}},{"properties":{"city":"Philadelphia","latitude":31.734392,"zip":"19131","job title":"BSC\\/ MT\\/ Therapist - Fee For Service","employer":"Community Council for Mental Health and Mental Retardation, Inc.","longitude":-89.216322,"id":"ah74x1dy2n6z","state":"PA"},"type":"Feature","geometry":{"type":"Point","coordinates":[-89.216322,31.734392]}},{"properties":{"city":"La Crosse","latitude":43.822824,"zip":null,"job title":"Therapist","employer":"Gundersen Health System","longitude":-91.240753,"id":"ah74x1f9oxhb","state":"WI"},"type":"Feature","geometry":{"type":"Point","coordinates":[-91.240753,43.822824]}},{"properties":{"city":"Draper","latitude":40.524139,"zip":"84020","job title":"LICENSED CLINICAL THERAPIST","employer":"State of Utah","longitude":-111.866272,"id":"ah74x1ob3ezh","state":"UT"},"type":"Feature","geometry":{"type":"Point","coordinates":[-111.866272,40.524139]}},{"properties":{"city":"Louisville","latitude":38.23847,"zip":"40204","job title":"Principal Therapist","employer":"Laurus Strategies Recruitment Consulting","longitude":-85.718544,"id":"ah74x1s5va13","state":"KY"},"type":"Feature","geometry":{"type":"Point","coordinates":[-85.718544,38.23847]}},{"properties":{"city":"New York","latitude":40.706652,"zip":null,"job title":"MST FIT Therapist","employer":"The Children\\'s Village","longitude":-73.972569,"id":"ah74x1ihi1ki","state":"NY"},"type":"Feature","geometry":{"type":"Point","coordinates":[-73.972569,40.706652]}},{"properties":{"city":"Stuart","latitude":27.20074,"zip":"34994","job title":"Licensed Therapist","employer":"Helping People Succeed","longitude":-80.258373,"id":"ah74x1s1d8hu","state":"FL"},"type":"Feature","geometry":{"type":"Point","coordinates":[-80.258373,27.20074]}},{"properties":{"city":"San Diego","latitude":32.81086,"zip":null,"job title":"Therapist Substance Abuse Specialist","employer":"San Diego Center for Children","longitude":-117.060051,"id":"ah74x1h7zuae","state":"CA"},"type":"Feature","geometry":{"type":"Point","coordinates":[-117.060051,32.81086]}},{"properties":{"city":"Miami Lakes","latitude":25.913139,"zip":null,"job title":"Therapist","employer":"The MENTOR Network","longitude":-80.309269,"id":"ah74x1qxo7cf","state":"FL"},"type":"Feature","geometry":{"type":"Point","coordinates":[-80.309269,25.913139]}},{"properties":{"city":"Philadelphia","latitude":31.734392,"zip":"19131","job title":"Clinician\\/ Therapist- Part Time. Fee For Service","employer":"Community Council for Mental Health and Mental Retardation, Inc.","longitude":-89.216322,"id":"ah74x1kylnhc","state":"PA"},"type":"Feature","geometry":{"type":"Point","coordinates":[-89.216322,31.734392]}},{"properties":{"city":"Tampa","latitude":27.985985,"zip":"33603","job title":"Outpatient Therapist","employer":"Chrysalis Health","longitude":-82.463799,"id":"ah74x1go14ki","state":"FL"},"type":"Feature","geometry":{"type":"Point","coordinates":[-82.463799,27.985985]}},{"properties":{"city":"Shepherdsville","latitude":37.987825,"zip":"40165","job title":"Therapist\\/Social Worker - Shephardsville","employer":"Laurus Strategies Recruitment Consulting","longitude":-85.716654,"id":"ah74x1nzsbiq","state":"KY"},"type":"Feature","geometry":{"type":"Point","coordinates":[-85.716654,37.987825]}},{"properties":{"city":"San Jose","latitude":37.336849,"zip":null,"job title":"Middle School MFT (Marriage Family Therapist) Intern Position 2013-2014 School Year","employer":"Union Elementary","longitude":-121.84771,"id":"ah74x1odamw1","state":"CA"},"type":"Feature","geometry":{"type":"Point","coordinates":[-121.84771,37.336849]}},{"properties":{"city":"San Diego","latitude":32.81086,"zip":null,"job title":"Therapist Bilingual - WrapWorks","employer":"San Diego Center for Children","longitude":-117.060051,"id":"ah74x1j87ri1","state":"CA"},"type":"Feature","geometry":{"type":"Point","coordinates":[-117.060051,32.81086]}},{"properties":{"city":"Oakley","latitude":40.726536,"zip":"84055","job title":"Therapist","employer":"Oakley School","longitude":-111.283298,"id":"ah74x1ofp1tu","state":"UT"},"type":"Feature","geometry":{"type":"Point","coordinates":[-111.283298,40.726536]}},{"properties":{"city":"Fort Bragg","latitude":33.026842,"zip":null,"job title":"PT Family Services Specialist FT BRAGG","employer":"Serco","longitude":-83.536667,"id":"ah74x1roivj3","state":"NC"},"type":"Feature","geometry":{"type":"Point","coordinates":[-83.536667,33.026842]}},{"properties":{"city":"Louisville","latitude":38.263979,"zip":"40202","job title":"Therapist - V02539","employer":"Laurus Strategies Recruitment Consulting","longitude":-85.737232,"id":"ah74x1iwngd9","state":"KY"},"type":"Feature","geometry":{"type":"Point","coordinates":[-85.737232,38.263979]}},{"properties":{"city":"Las Vegas","latitude":36.17186,"zip":null,"job title":"Staff Therapist","employer":"Harmony Healthcare","longitude":-115.160614,"id":"ah74x1gz2lyo","state":"NV"},"type":"Feature","geometry":{"type":"Point","coordinates":[-115.160614,36.17186]}},{"properties":{"city":"Miami","latitude":25.92854,"zip":"33162","job title":"Outpatient Therapist - Dade \\/ Spanish Speaking","employer":"Chrysalis Health","longitude":-80.179508,"id":"ah74x1i56rvk","state":"FL"},"type":"Feature","geometry":{"type":"Point","coordinates":[-80.179508,25.92854]}},{"properties":{"city":"Valparaiso","latitude":32.346625,"zip":"46385","job title":"Manager of Therapist Staff","employer":"Family Focus, Inc.","longitude":-98.707469,"id":"ah74x1sbs4mt","state":"IN"},"type":"Feature","geometry":{"type":"Point","coordinates":[-98.707469,32.346625]}},{"properties":{"city":"Murrieta","latitude":33.565825,"zip":null,"job title":"Mental Health Therapist - Therapist","employer":"American Addiction Centers","longitude":-117.19928,"id":"ah74x1pzij43","state":"CA"},"type":"Feature","geometry":{"type":"Point","coordinates":[-117.19928,33.565825]}},{"properties":{"city":null,"latitude":33.949736,"zip":null,"job title":"CLINICAL THERAPIST I &amp; II","employer":"County of Riverside","longitude":-117.398918,"id":"ah74x1pt71v7","state":"CA"},"type":"Feature","geometry":{"type":"Point","coordinates":[-117.398918,33.949736]}},{"properties":{"city":"Harrisburg","latitude":35.564105,"zip":null,"job title":"P\\/T Master's Level Outpatient Therapist - Dauphin Family Clinic - Harrisburg","employer":"Youth Advocate Programs, Inc.","longitude":-90.716824,"id":"ah74x1gvn4wa","state":"PA"},"type":"Feature","geometry":{"type":"Point","coordinates":[-90.716824,35.564105]}},{"properties":{"city":"Wickenburg","latitude":33.96992,"zip":"85390","job title":"Primary Therapist\\/ Wickenburg Arizona","employer":"Rosewood Centers for Eating Disorders","longitude":-112.731484,"id":"ah74x1kpol02","state":"AZ"},"type":"Feature","geometry":{"type":"Point","coordinates":[-112.731484,33.96992]}},{"properties":{"city":"Louisville","latitude":38.263979,"zip":"40202","job title":"Senior Therapist PRN - V02545","employer":"Laurus Strategies Recruitment Consulting","longitude":-85.737232,"id":"ah74x1cw2ud0","state":"KY"},"type":"Feature","geometry":{"type":"Point","coordinates":[-85.737232,38.263979]}},{"properties":{"city":"San Diego","latitude":32.81086,"zip":null,"job title":"Therapist -WrapWorks","employer":"San Diego Center for Children","longitude":-117.060051,"id":"ah74x1r7kugi","state":"CA"},"type":"Feature","geometry":{"type":"Point","coordinates":[-117.060051,32.81086]}},{"properties":{"city":"Wickenburg","latitude":33.848751,"zip":"85390","job title":"Primary Therapist \\/Wickenburg Arizona","employer":"Rosewood Centers for Eating Disorders","longitude":-112.931499,"id":"ah74x1fwl975","state":"AZ"},"type":"Feature","geometry":{"type":"Point","coordinates":[-112.931499,33.848751]}},{"properties":{"city":"Orange County","latitude":42.1887,"zip":null,"job title":"Clinical Social Worker II \\/ Marriage and...","employer":"Orange County, CA","longitude":-74.786378,"id":"ah74x1mzzjvz","state":"CA"},"type":"Feature","geometry":{"type":"Point","coordinates":[-74.786378,42.1887]}},{"properties":{"city":"Irving","latitude":32.849846,"zip":"75062","job title":"Licensed Therapist","employer":"GLC Associates","longitude":-96.97633,"id":"ah74x1kezl0a","state":"TX"},"type":"Feature","geometry":{"type":"Point","coordinates":[-96.97633,32.849846]}},{"properties":{"city":"Palms","latitude":34.022606,"zip":null,"job title":"California - Twentynine Palms Embedded Senior SPA Military Family Life Counselor","employer":"MHN Government Services - 7012","longitude":-118.405006,"id":"ah74x1repz7f","state":"CA"},"type":"Feature","geometry":{"type":"Point","coordinates":[-118.405006,34.022606]}},{"properties":{"city":"Wickenburg","latitude":33.848751,"zip":"85390","job title":"Primary Therapist","employer":"Rosewood Ranch","longitude":-112.931499,"id":"ah74x1n4hrpo","state":"AZ"},"type":"Feature","geometry":{"type":"Point","coordinates":[-112.931499,33.848751]}},{"properties":{"city":"Fort Shafter","latitude":36.209605,"zip":null,"job title":"OCONUS Hawaii - Ft. Shafter (1) CYB SPA Child &amp; Youth Military Family Life Counselor","employer":"MHN Government Services - 7012","longitude":-107.458454,"id":"ah74x1ekvfk3","state":"HI"},"type":"Feature","geometry":{"type":"Point","coordinates":[-107.458454,36.209605]}},{"properties":{"city":"Muncie","latitude":40.192991,"zip":null,"job title":"Mental Health Clinician \\/ Therapist","employer":"Youth Service Bureau","longitude":-85.389698,"id":"ah74x1lvhdoh","state":"IN"},"type":"Feature","geometry":{"type":"Point","coordinates":[-85.389698,40.192991]}},{"properties":{"city":"Sacramento","latitude":38.556339,"zip":null,"job title":"Marriage Family Therapist Intern [SAC71813 -X6] - Temporary (Job Number: 195422)","employer":"Kaiser Permanente","longitude":-121.427334,"id":"ah74x1pwnm2r","state":"CA"},"type":"Feature","geometry":{"type":"Point","coordinates":[-121.427334,38.556339]}},{"properties":{"city":"Clinton","latitude":32.384119,"zip":"39060","job title":"LICENSED CLINICAL SOCIAL WORKER;LPC;THERAPIST;LMFT","employer":"Rehabilitation Services, Inc d\\/b\\/a Millcreek","longitude":-90.354904,"id":"ah74x1kymg2d","state":"MS"},"type":"Feature","geometry":{"type":"Point","coordinates":[-90.354904,32.384119]}},{"properties":{"city":"Upland","latitude":34.1115,"zip":null,"job title":"Executive Director","employer":"fFoothill Family Shelter","longitude":-117.657608,"id":"ah74x1dihf75","state":"CA"},"type":"Feature","geometry":{"type":"Point","coordinates":[-117.657608,34.1115]}},{"properties":{"city":"Augusta","latitude":33.483398,"zip":"30904","job title":"Licensed Counselor Therapist LPC LMFT LCSW","employer":"Georgia Psychology &amp; Counseling","longitude":-82.013893,"id":"ah74x1liik2a","state":"GA"},"type":"Feature","geometry":{"type":"Point","coordinates":[-82.013893,33.483398]}},{"properties":{"city":"Philadelphia","latitude":40.643785,"zip":null,"job title":"Mobile Therapist (non-union);Phila","employer":"Elwyn","longitude":-119.467199,"id":"ah74x1n7024q","state":"PA"},"type":"Feature","geometry":{"type":"Point","coordinates":[-119.467199,40.643785]}},{"properties":{"city":"Sioux Falls","latitude":43.539291,"zip":null,"job title":"Outpatient Therapist II","employer":"Avera Health","longitude":-96.725437,"id":"ah74x1lygega","state":"SD"},"type":"Feature","geometry":{"type":"Point","coordinates":[-96.725437,43.539291]}},{"properties":{"city":"Auburn","latitude":47.28912,"zip":"98092","job title":"Licensed Mental Health Therapist- Adult","employer":"Muckleshoot Health &amp; Wellness Center","longitude":-122.109795,"id":"ah74x1f2b7ta","state":"WA"},"type":"Feature","geometry":{"type":"Point","coordinates":[-122.109795,47.28912]}},{"properties":{"city":"Gainesville","latitude":29.686794,"zip":null,"job title":"Sub Abuse Therapist-Partial Hospitalization Progm","employer":"Shands Healthcare","longitude":-82.321297,"id":"ah74x1o5p6z3","state":"FL"},"type":"Feature","geometry":{"type":"Point","coordinates":[-82.321297,29.686794]}},{"properties":{"city":"Elwyn","latitude":39.874175,"zip":null,"job title":"Mobile Therapist - Del Co. (part time;non-union)","employer":"Elwyn","longitude":-106.855739,"id":"ah74x1dx1qqp","state":"PA"},"type":"Feature","geometry":{"type":"Point","coordinates":[-106.855739,39.874175]}},{"properties":{"city":"Kokomo","latitude":40.47333,"zip":null,"job title":"Adolescent Outpatient Therapist","employer":"PsychPros","longitude":-86.133102,"id":"ah74x1cwzqde","state":"IN"},"type":"Feature","geometry":{"type":"Point","coordinates":[-86.133102,40.47333]}},{"properties":{"city":"Casa Grande","latitude":32.89427,"zip":null,"job title":"New Visions for Families Therapist I - Full-Time (Casa Grande)","employer":"Easter Seals Blake Foundation","longitude":-111.765293,"id":"ah74x1gix5a1","state":"AZ"},"type":"Feature","geometry":{"type":"Point","coordinates":[-111.765293,32.89427]}},{"properties":{"city":"Fort Lauderdale","latitude":26.08382,"zip":"33314","job title":"Assistant\\/Associate Professor, Family Therapy (Rank TBD)","employer":"Nova Southeastern University","longitude":-80.237022,"id":"ah74x1t5vy9v","state":"FL"},"type":"Feature","geometry":{"type":"Point","coordinates":[-80.237022,26.08382]}},{"properties":{"city":"Los Angeles","latitude":34.107265,"zip":"90046","job title":"Vice President, DCFS and Probation Services","employer":"Aviva Family and Children\\'s Services","longitude":-118.368889,"id":"ah74x1m6ejk5","state":"CA"},"type":"Feature","geometry":{"type":"Point","coordinates":[-118.368889,34.107265]}},{"properties":{"city":"Phoenix","latitude":36.723777,"zip":"85008","job title":"BILINGUAL CHILD THERAPIST - GOOD FIT","employer":"Southwest Human Development","longitude":-96.072615,"id":"ah74x1py35gu","state":"AZ"},"type":"Feature","geometry":{"type":"Point","coordinates":[-96.072615,36.723777]}},{"properties":{"city":"Oxford","latitude":36.317381,"zip":null,"job title":"Child, Adolecent adn Family Therapist","employer":"Granville Medical Center","longitude":-78.585552,"id":"ah74x1lmvgyz","state":"NC"},"type":"Feature","geometry":{"type":"Point","coordinates":[-78.585552,36.317381]}},{"properties":{"city":"Long Island","latitude":40.852505,"zip":null,"job title":"MST Bilingual Therapist","employer":"The Children\\'s Village","longitude":-73.135849,"id":"ah74x1n5x7ay","state":"NY"},"type":"Feature","geometry":{"type":"Point","coordinates":[-73.135849,40.852505]}},{"properties":{"city":"Shelby","latitude":40.882214,"zip":null,"job title":"THERAPIST I","employer":"The Geo Group Inc","longitude":-82.660858,"id":"ah74x1lmvlmm","state":"OH"},"type":"Feature","geometry":{"type":"Point","coordinates":[-82.660858,40.882214]}},{"properties":{"city":null,"latitude":36.295761,"zip":null,"job title":"Contracted Therapist-NAS Lemoore","employer":"Mental Health Systems, Inc.","longitude":-119.802517,"id":"ah74x1daxle0","state":"CA"},"type":"Feature","geometry":{"type":"Point","coordinates":[-119.802517,36.295761]}},{"properties":{"city":"Hayward","latitude":0.0,"zip":null,"job title":"Marriage Family Therapist General Adult Psychiatry Hayward 5203 (Job Number: 193032)","employer":"Kaiser Permanente","longitude":0.0,"id":"ah74x1dpxffs","state":"CA"},"type":"Feature","geometry":{"type":"Point","coordinates":[0.0,0.0]}},{"properties":{"city":null,"latitude":38.271229,"zip":null,"job title":"Contracted Therapist-Travis AFB","employer":"Mental Health Systems, Inc.","longitude":-121.933029,"id":"ah74x1pphuoa","state":"CA"},"type":"Feature","geometry":{"type":"Point","coordinates":[-121.933029,38.271229]}},{"properties":{"city":"San Diego County","latitude":35.74414,"zip":null,"job title":"Contracted Therapist-South Bay","employer":"Mental Health Systems, Inc.","longitude":-90.564414,"id":"ah74x1s75ta5","state":"CA"},"type":"Feature","geometry":{"type":"Point","coordinates":[-90.564414,35.74414]}},{"properties":{"city":"Indianapolis","latitude":39.791159,"zip":null,"job title":"Community School Based Therapist","employer":"Community Health Network","longitude":-86.120811,"id":"ah74x1oo8hf5","state":"IN"},"type":"Feature","geometry":{"type":"Point","coordinates":[-86.120811,39.791159]}},{"properties":{"city":"Visalia","latitude":36.32312,"zip":null,"job title":"Behav Hlth Clinician-Licensed","employer":"Kaweah Delta Health Care District","longitude":-119.326916,"id":"ah74x1q4nd8z","state":"CA"},"type":"Feature","geometry":{"type":"Point","coordinates":[-119.326916,36.32312]}},{"properties":{"city":"West Jordan","latitude":40.631514,"zip":"84084","job title":"Therapist - PRN","employer":"Copper Hills Youth Center KBH","longitude":-111.998295,"id":"ah74x1dgfcc6","state":"UT"},"type":"Feature","geometry":{"type":"Point","coordinates":[-111.998295,40.631514]}},{"properties":{"city":"Fort Bragg","latitude":33.026842,"zip":null,"job title":"Family Services Specialist FT BRAGG","employer":"Serco","longitude":-83.536667,"id":"ah74x1ixijmd","state":"NC"},"type":"Feature","geometry":{"type":"Point","coordinates":[-83.536667,33.026842]}},{"properties":{"city":null,"latitude":27.76102,"zip":null,"job title":"Therapist","employer":"The Watershed","longitude":-83.832764,"id":"ah74x1pgbp55","state":"FL"},"type":"Feature","geometry":{"type":"Point","coordinates":[-83.832764,27.76102]}},{"properties":{"city":"New York","latitude":40.706652,"zip":null,"job title":"MST Therapist","employer":"The Children\\'s Aid Society","longitude":-73.972569,"id":"ah74x1p2jcch","state":"NY"},"type":"Feature","geometry":{"type":"Point","coordinates":[-73.972569,40.706652]}},{"properties":{"city":"Catoosa County","latitude":34.877594,"zip":null,"job title":"PS:Beh Hlth\\/Provider (WL)","employer":"State of Georgia","longitude":-85.122463,"id":"ah74x1ow3usj","state":"GA"},"type":"Feature","geometry":{"type":"Point","coordinates":[-85.122463,34.877594]}},{"properties":{"city":"Abington","latitude":40.109951,"zip":"19001","job title":"BEHAVIORAL SPECIALIST \\/ MOBILE THERAPIST","employer":"FMA Professional Resources","longitude":-75.11478,"id":"ah74x1o4s4pz","state":"PA"},"type":"Feature","geometry":{"type":"Point","coordinates":[-75.11478,40.109951]}},{"properties":{"city":"Ventura County","latitude":34.057785,"zip":null,"job title":"Contracted Therapist-Ventura","employer":"Mental Health Systems, Inc.","longitude":-119.105412,"id":"ah74x1eyzscm","state":"CA"},"type":"Feature","geometry":{"type":"Point","coordinates":[-119.105412,34.057785]}},{"properties":{"city":"Fort Sill","latitude":36.209605,"zip":null,"job title":"Ft Sill, Oklahoma - SPA Child Youth Military Family Life Counselor (5)","employer":"MHN Government Services - 7012","longitude":-107.458454,"id":"ah74x1kr60s6","state":"OK"},"type":"Feature","geometry":{"type":"Point","coordinates":[-107.458454,36.209605]}},{"properties":{"city":"Allentown","latitude":32.843965,"zip":null,"job title":"Mobile Therapist - Lehigh Valley (PRN;non-union)","employer":"Elwyn","longitude":-85.180929,"id":"ah74x1o0y98j","state":"PA"},"type":"Feature","geometry":{"type":"Point","coordinates":[-85.180929,32.843965]}},{"properties":{"city":"Schererville","latitude":41.486416,"zip":null,"job title":"Licensed Mental Health Counselor\\/Therapist","employer":"Life Strategies, LLC","longitude":-87.445656,"id":"ah74x1r4h2k5","state":"IN"},"type":"Feature","geometry":{"type":"Point","coordinates":[-87.445656,41.486416]}},{"properties":{"city":"Gainesville","latitude":37.752875,"zip":null,"job title":"Sub Abuse Therapist-NE-FRC Vero Center","employer":"Shands Healthcare","longitude":-106.112319,"id":"ah74x1dw7ptl","state":"FL"},"type":"Feature","geometry":{"type":"Point","coordinates":[-106.112319,37.752875]}},{"properties":{"city":"Wichita","latitude":37.68046,"zip":null,"job title":"Family Business Advisor","employer":"Career 1 Source","longitude":-97.343884,"id":"ah74x1h7uuww","state":"KS"},"type":"Feature","geometry":{"type":"Point","coordinates":[-97.343884,37.68046]}},{"properties":{"city":"Pine Hills","latitude":33.821351,"zip":"32808","job title":"Therapist (Outpatient) - Orlando \\/ Orange County","employer":"Chrysalis Health","longitude":-86.726048,"id":"ah74x1s87uxw","state":"FL"},"type":"Feature","geometry":{"type":"Point","coordinates":[-86.726048,33.821351]}},{"properties":{"city":"Tucson","latitude":32.213295,"zip":"85711","job title":"Bilingual Child and Family Case Coordinator","employer":"Emerge! Center Against Domestic Abuse","longitude":-110.88369,"id":"ah74x1rofy9y","state":"AZ"},"type":"Feature","geometry":{"type":"Point","coordinates":[-110.88369,32.213295]}},{"properties":{"city":"San Luis Obispo","latitude":35.272764,"zip":null,"job title":"M.H. THERAPIST III\\/IV - Veteran Outreach","employer":"County of San Luis Obispo","longitude":-120.666233,"id":"ah74x1t6tplj","state":"CA"},"type":"Feature","geometry":{"type":"Point","coordinates":[-120.666233,35.272764]}},{"properties":{"city":"Bay City","latitude":43.57766,"zip":null,"job title":"counselor\\/therapist","employer":"Fresh Aire Samaritan Counseling Center","longitude":-83.88464,"id":"ah74x1l7tpbs","state":"MI"},"type":"Feature","geometry":{"type":"Point","coordinates":[-83.88464,43.57766]}},{"properties":{"city":"Fresno","latitude":36.740685,"zip":null,"job title":"Marriage Family Therapist 096 Chemical Dependency Fresno (Job Number: 188821)","employer":"Kaiser Permanente","longitude":-119.785734,"id":"ah74x1t4lm3a","state":"CA"},"type":"Feature","geometry":{"type":"Point","coordinates":[-119.785734,36.740685]}},{"properties":{"city":"Burlingame","latitude":37.568239,"zip":null,"job title":"Blingual Parent Program Therapist","employer":"Community Gatepath","longitude":-122.364632,"id":"ah74x1mdq7ar","state":"CA"},"type":"Feature","geometry":{"type":"Point","coordinates":[-122.364632,37.568239]}},{"properties":{"city":null,"latitude":41.582579,"zip":null,"job title":"Psychotherapist Acute Care","employer":"Rhode Island Hospital and its Hasbro Children\\'s Hospital","longitude":-71.503601,"id":"ah74x1m66wjs","state":"RI"},"type":"Feature","geometry":{"type":"Point","coordinates":[-71.503601,41.582579]}},{"properties":{"city":"Philadelphia","latitude":40.009691,"zip":null,"job title":"Mobile Therapist","employer":"Northern Children\\'s Services","longitude":-75.111057,"id":"ah74x1lqlttp","state":"PA"},"type":"Feature","geometry":{"type":"Point","coordinates":[-75.111057,40.009691]}},{"properties":{"city":"Gainesville","latitude":29.686794,"zip":null,"job title":"Sub Abuse Therapist-NE-Florida Recovery Center-Tampa","employer":"Shands Healthcare","longitude":-82.321297,"id":"ah74x1dmx6dd","state":"FL"},"type":"Feature","geometry":{"type":"Point","coordinates":[-82.321297,29.686794]}},{"properties":{"city":"Phoenix","latitude":33.75844,"zip":"85085","job title":"Therapist \\/ Clinician - Part-time and Full-time","employer":"Ascend Behavioral Health","longitude":-112.107922,"id":"ah74x1fvg3rn","state":"AZ"},"type":"Feature","geometry":{"type":"Point","coordinates":[-112.107922,33.75844]}},{"properties":{"city":"Addison","latitude":41.931999,"zip":"60101","job title":"Child Care Worker-Must have Bachelor's Degree","employer":"Lutherbrook-Lutheran Child and Family Services of Illinois","longitude":-88.008896,"id":"ah74x1ph29rw","state":"IL"},"type":"Feature","geometry":{"type":"Point","coordinates":[-88.008896,41.931999]}},{"properties":{"city":"Pittsburgh","latitude":40.448977,"zip":null,"job title":"Clinical Social Worker, MSW","employer":"UPMC","longitude":-79.982372,"id":"ah74x1pl90il","state":"PA"},"type":"Feature","geometry":{"type":"Point","coordinates":[-79.982372,40.448977]}},{"properties":{"city":"Orlando","latitude":36.209605,"zip":null,"job title":"Employee Assistant Program (EAP) Licensed Counselor","employer":"Corporate","longitude":-107.458454,"id":"ah74x1iwqql6","state":"FL"},"type":"Feature","geometry":{"type":"Point","coordinates":[-107.458454,36.209605]}},{"properties":{"city":"San Antonio","latitude":29.47426,"zip":null,"job title":"Clinical Practitioner III","employer":"The Center for Health Care Services","longitude":-98.493481,"id":"ah74x1l5vm81","state":"TX"},"type":"Feature","geometry":{"type":"Point","coordinates":[-98.493481,29.47426]}},{"properties":{"city":"San Antonio","latitude":29.47426,"zip":null,"job title":"Clinical Practitioner III - Crisis Care Center - LPC, LCSW, LMFT","employer":"The Center for Health Care Services","longitude":-98.493481,"id":"ah74x1pdhphs","state":"TX"},"type":"Feature","geometry":{"type":"Point","coordinates":[-98.493481,29.47426]}},{"properties":{"city":"Falls Church","latitude":38.880154,"zip":null,"job title":"Mental Health Counselor (Violence Intervention and Prevention &amp; Multicultural Programs)","employer":"Northern Virginia Family Service","longitude":-77.185703,"id":"ah74x1rc1f86","state":"VA"},"type":"Feature","geometry":{"type":"Point","coordinates":[-77.185703,38.880154]}},{"properties":{"city":"San Diego","latitude":32.81086,"zip":null,"job title":"Care Coordinator","employer":"San Diego Center for Children","longitude":-117.060051,"id":"ah74x1t6rqx7","state":"CA"},"type":"Feature","geometry":{"type":"Point","coordinates":[-117.060051,32.81086]}},{"properties":{"city":"Mountain View","latitude":37.403296,"zip":null,"job title":"BHS Intern","employer":"El Camino Hospital-Mountain View Campus","longitude":-122.08131,"id":"ah74x1egvnix","state":"CA"},"type":"Feature","geometry":{"type":"Point","coordinates":[-122.08131,37.403296]}},{"properties":{"city":null,"latitude":44.351271,"zip":null,"job title":"Behavioral Health Care Lead","employer":"WellPoint, Inc","longitude":-103.772039,"id":"ah74x1lfaf4d","state":null},"type":"Feature","geometry":{"type":"Point","coordinates":[-103.772039,44.351271]}},{"properties":{"city":"Tacoma","latitude":47.206625,"zip":null,"job title":"Clinical Director, Behavioral Health","employer":"Metropolitan Development Council","longitude":-122.497833,"id":"ah74x1mbg8ef","state":"WA"},"type":"Feature","geometry":{"type":"Point","coordinates":[-122.497833,47.206625]}},{"properties":{"city":"Washington","latitude":36.831303,"zip":null,"job title":"MENTAL HEALTH THERAPIST II (Bilingual -...","employer":"Arlington County, VA","longitude":-76.243767,"id":"ah74x1gyvkp2","state":"VA"},"type":"Feature","geometry":{"type":"Point","coordinates":[-76.243767,36.831303]}},{"properties":{"city":"Durham","latitude":35.96903,"zip":null,"job title":"Licensed Therapist - Outpatient \\/ Day Treatment","employer":"Britton and Crump, Incorporated","longitude":-78.869068,"id":"ah74x1mp63e4","state":"NC"},"type":"Feature","geometry":{"type":"Point","coordinates":[-78.869068,35.96903]}},{"properties":{"city":"Pueblo","latitude":38.25919,"zip":null,"job title":"Behavioral Health Therapist","employer":"Parkview Medical Center","longitude":-104.617027,"id":"ah74x1q2nhe1","state":"CO"},"type":"Feature","geometry":{"type":"Point","coordinates":[-104.617027,38.25919]}},{"properties":{"city":"Jackson Heights","latitude":40.758455,"zip":null,"job title":"Bilingual Psychotherapist","employer":"Mental Health Providers of Western Queens, Inc.","longitude":-73.883884,"id":"ah74x1hde5u9","state":"NY"},"type":"Feature","geometry":{"type":"Point","coordinates":[-73.883884,40.758455]}},{"properties":{"city":"Cincinnati","latitude":39.119904,"zip":null,"job title":"Clinical Service Prov. P1","employer":"Talbert House","longitude":-84.579193,"id":"ah74x1cuaruo","state":"OH"},"type":"Feature","geometry":{"type":"Point","coordinates":[-84.579193,39.119904]}},{"properties":{"city":"Fremont","latitude":37.536863,"zip":null,"job title":"Marriage Family Therapist 5066 Adult Psychiatry and Chemical Dependency (Job Number: 188873)","employer":"Kaiser Permanente","longitude":-122.011234,"id":"ah74x1qf3hji","state":"CA"},"type":"Feature","geometry":{"type":"Point","coordinates":[-122.011234,37.536863]}},{"properties":{"city":"Merced","latitude":37.288605,"zip":null,"job title":"Head of Service","employer":"Aspiranet Behavioral Health Division","longitude":-120.474957,"id":"ah74x1sgajxq","state":"CA"},"type":"Feature","geometry":{"type":"Point","coordinates":[-120.474957,37.288605]}},{"properties":{"city":"Richmond","latitude":37.5407,"zip":null,"job title":"Behavioral Health Care Manager - Richmond, VA","employer":"WellPoint, Inc","longitude":-77.433654,"id":"ah74x1m466ki","state":"VA"},"type":"Feature","geometry":{"type":"Point","coordinates":[-77.433654,37.5407]}},{"properties":{"city":"Fort Shafter","latitude":21.34309,"zip":null,"job title":"OCONUS Hawaii - Ft Shafter (1) School Based SPA Child &amp; Youth Military Family Life Counselor","employer":"MHN Government Services - 7012","longitude":-157.888008,"id":"ah74x1li76nq","state":"HI"},"type":"Feature","geometry":{"type":"Point","coordinates":[-157.888008,21.34309]}},{"properties":{"city":"Los Angeles","latitude":34.01697,"zip":null,"job title":"Skills Trainer \\/ Therapist","employer":"Aacres LLC","longitude":-118.326508,"id":"ah74x1j2no4h","state":"CA"},"type":"Feature","geometry":{"type":"Point","coordinates":[-118.326508,34.01697]}},{"properties":{"city":"Chicago","latitude":41.849606,"zip":null,"job title":"Clinical Administrator\\/Program Supervisor","employer":"Human Resources Development Institute","longitude":-87.682827,"id":"ah74x1gglkkx","state":"IL"},"type":"Feature","geometry":{"type":"Point","coordinates":[-87.682827,41.849606]}},{"properties":{"city":"Bradenton","latitude":27.467275,"zip":null,"job title":"Director of Adult Substance Abuse","employer":"Manatee Glens","longitude":-82.542473,"id":"ah74x1hesuzj","state":"FL"},"type":"Feature","geometry":{"type":"Point","coordinates":[-82.542473,27.467275]}},{"properties":{"city":"Anchorage","latitude":30.759306,"zip":null,"job title":"Mental Health Therapist - Crisis Recovery","employer":"Providence Health &amp; Services","longitude":-84.725648,"id":"ah74x1robbfg","state":"AK"},"type":"Feature","geometry":{"type":"Point","coordinates":[-84.725648,30.759306]}},{"properties":{"city":"Riviera Beach","latitude":26.787525,"zip":null,"job title":"CARE Team Therapist","employer":"Community Partnership Group","longitude":-80.075375,"id":"ah74x1lxgcvp","state":"FL"},"type":"Feature","geometry":{"type":"Point","coordinates":[-80.075375,26.787525]}},{"properties":{"city":"Lebanon","latitude":40.335646,"zip":null,"job title":"Licensed Outpatient Therapist","employer":"Pennsylvania Counseling Services","longitude":-76.421448,"id":"ah74x1dv706t","state":"PA"},"type":"Feature","geometry":{"type":"Point","coordinates":[-76.421448,40.335646]}},{"properties":{"city":"Chicago","latitude":41.849606,"zip":null,"job title":"Therapist","employer":"PsychPros","longitude":-87.682827,"id":"ah74x1owt8cv","state":"IL"},"type":"Feature","geometry":{"type":"Point","coordinates":[-87.682827,41.849606]}},{"properties":{"city":"Augusta","latitude":44.324205,"zip":null,"job title":"Family Behavioral Health Clinician","employer":"Kennebec Behavioral Health","longitude":-69.74588,"id":"ah74x1pg4ris","state":"ME"},"type":"Feature","geometry":{"type":"Point","coordinates":[-69.74588,44.324205]}},{"properties":{"city":"Monterey","latitude":36.595064,"zip":null,"job title":"Mental Health Therapist Intern","employer":"Monterey Peninsula Unified","longitude":-121.867271,"id":"ah74x1s7ppkz","state":"CA"},"type":"Feature","geometry":{"type":"Point","coordinates":[-121.867271,36.595064]}},{"properties":{"city":"Philadelphia","latitude":40.009691,"zip":null,"job title":"Behavior Specialist\\\\Mobile Therapist","employer":"The MENTOR Network","longitude":-75.111057,"id":"ah74x1gsos0n","state":"PA"},"type":"Feature","geometry":{"type":"Point","coordinates":[-75.111057,40.009691]}},{"properties":{"city":"Cincinnati","latitude":40.095717,"zip":null,"job title":"Clinical Service Provider (Counselor\\/Therapist\\/Social Worker)","employer":"Talbert House","longitude":-80.909897,"id":"ah74x1jm6h8s","state":"OH"},"type":"Feature","geometry":{"type":"Point","coordinates":[-80.909897,40.095717]}},{"properties":{"city":"Long Island","latitude":40.852505,"zip":null,"job title":"MST THERAPIST","employer":"THE CHLDREN\\'S VILLAGE","longitude":-73.135849,"id":"ah74x1jkf102","state":"NY"},"type":"Feature","geometry":{"type":"Point","coordinates":[-73.135849,40.852505]}},{"properties":{"city":"San Luis Obispo","latitude":35.272764,"zip":null,"job title":"M.H. THERAPIST III\\/IV (Youth Services)","employer":"County of San Luis Obispo","longitude":-120.666233,"id":"ah74x1pbijya","state":"CA"},"type":"Feature","geometry":{"type":"Point","coordinates":[-120.666233,35.272764]}},{"properties":{"city":"Garnett","latitude":38.285355,"zip":null,"job title":"Outpatient Therapist, Crisis Therapist\\/Outpatient Therapist","employer":"Southeast Kansas Mental Health Center","longitude":-95.234791,"id":"ah74x1mjtg6l","state":"KS"},"type":"Feature","geometry":{"type":"Point","coordinates":[-95.234791,38.285355]}},{"properties":{"city":"Memphis","latitude":35.029129,"zip":"38125","job title":"Therapist","employer":"Compass Intervention Center","longitude":-89.786034,"id":"ah74x1j3uth1","state":"TN"},"type":"Feature","geometry":{"type":"Point","coordinates":[-89.786034,35.029129]}},{"properties":{"city":"Glendale","latitude":33.53858,"zip":"85302","job title":"Teen Substance Abuse Family Therapist (TSAT) - Glendale","employer":"Empact - SPC","longitude":-112.186279,"id":"ah74x1sp3sux","state":"AZ"},"type":"Feature","geometry":{"type":"Point","coordinates":[-112.186279,33.53858]}},{"properties":{"city":"Pensacola","latitude":30.42319,"zip":"32501","job title":"Therapist","employer":"Eckerd","longitude":-87.220509,"id":"ah74x1lu2vlk","state":"FL"},"type":"Feature","geometry":{"type":"Point","coordinates":[-87.220509,30.42319]}},{"properties":{"city":"Louisville","latitude":38.263979,"zip":"40202","job title":"Therapist - Trauma","employer":"Laurus Strategies Recruitment Consulting","longitude":-85.737232,"id":"ah74x1dqrb58","state":"KY"},"type":"Feature","geometry":{"type":"Point","coordinates":[-85.737232,38.263979]}},{"properties":{"city":"Oakland","latitude":37.776915,"zip":"94601","job title":"Mental Health Therapist","employer":"WestCoast Children\\'s Clinic","longitude":-122.215919,"id":"ah74x1qus1bv","state":"CA"},"type":"Feature","geometry":{"type":"Point","coordinates":[-122.215919,37.776915]}},{"properties":{"city":"Central Islip","latitude":40.775206,"zip":null,"job title":"Therapists","employer":null,"longitude":-73.185585,"id":"ah74x1l3ypyi","state":"NY"},"type":"Feature","geometry":{"type":"Point","coordinates":[-73.185585,40.775206]}},{"properties":{"city":"Dallas","latitude":32.811945,"zip":null,"job title":"Clinical Therapist - Suicide Prevention Program - 8:00am - 5:00pm","employer":"Children\\'s Medical Center","longitude":-96.760769,"id":"ah74x1qfjbnj","state":"TX"},"type":"Feature","geometry":{"type":"Point","coordinates":[-96.760769,32.811945]}},{"properties":{"city":"Phoenix","latitude":33.585449,"zip":null,"job title":"Bilingual Child Therapist","employer":"Southwest Human Development","longitude":-111.985249,"id":"ah74x1ftllzu","state":"AZ"},"type":"Feature","geometry":{"type":"Point","coordinates":[-111.985249,33.585449]}},{"properties":{"city":"Versailles","latitude":0.0,"zip":null,"job title":"Therapist","employer":"Lifeline Youth and Family Services","longitude":0.0,"id":"ah74x1mibndo","state":"IN"},"type":"Feature","geometry":{"type":"Point","coordinates":[0.0,0.0]}},{"properties":{"city":"Schofield Barracks","latitude":36.209605,"zip":null,"job title":"OCONUS Hawaii - Schofield Barracks (1) SPA Military Family Life Counselor","employer":"MHN Government Services - 7012","longitude":-107.458454,"id":"ah74x1r8ml3u","state":"HI"},"type":"Feature","geometry":{"type":"Point","coordinates":[-107.458454,36.209605]}},{"properties":{"city":"Tucson","latitude":32.089825,"zip":"85746","job title":"Therapist","employer":"COPE Community Services,Inc","longitude":-111.086071,"id":"ah74x1fuyq4s","state":"AZ"},"type":"Feature","geometry":{"type":"Point","coordinates":[-111.086071,32.089825]}},{"properties":{"city":"Towson","latitude":39.399929,"zip":null,"job title":"MST-Therapist (5689)","employer":"Community Solutions, Inc.","longitude":-76.596142,"id":"ah74x1ekp6cl","state":"MD"},"type":"Feature","geometry":{"type":"Point","coordinates":[-76.596142,39.399929]}},{"properties":{"city":"Scott County","latitude":38.301895,"zip":null,"job title":"Home Based Therapist","employer":"New Hope Services Inc","longitude":-84.57119,"id":"ah74x1qsrxh5","state":"IN"},"type":"Feature","geometry":{"type":"Point","coordinates":[-84.57119,38.301895]}},{"properties":{"city":"Utica","latitude":38.333305,"zip":null,"job title":"Primary Therapist - Utica","employer":"Human Technologies Corporation","longitude":-85.652459,"id":"ah74x1fect29","state":"NY"},"type":"Feature","geometry":{"type":"Point","coordinates":[-85.652459,38.333305]}},{"properties":{"city":"San Francisco","latitude":37.782341,"zip":null,"job title":"Marriage Family Therapist - CDRP (Job Number: 190442)","employer":"Kaiser Permanente","longitude":-122.443024,"id":"ah74x1gthzc0","state":"CA"},"type":"Feature","geometry":{"type":"Point","coordinates":[-122.443024,37.782341]}},{"properties":{"city":"Loma Linda","latitude":34.04722,"zip":null,"job title":"Clinical Therapist 1","employer":"Loma Linda University Behavioral Medicine Center","longitude":-117.248638,"id":"ah74x1e8rdod","state":"CA"},"type":"Feature","geometry":{"type":"Point","coordinates":[-117.248638,34.04722]}},{"properties":{"city":"Longmont","latitude":40.158363,"zip":null,"job title":"213-108 Bi-Lingual Therapist I or II - 24 HOURS\\/WK","employer":"Mental Health Partners","longitude":-105.115845,"id":"ah74x1jofow2","state":"CO"},"type":"Feature","geometry":{"type":"Point","coordinates":[-105.115845,40.158363]}},{"properties":{"city":"Hialeah","latitude":25.865985,"zip":"33012","job title":"Licensed &amp; Unlic. Therapists (Ongoing Posting)","employer":"Institute for Child and Family Health, Inc.","longitude":-80.302731,"id":"ah74x1igoh1c","state":"FL"},"type":"Feature","geometry":{"type":"Point","coordinates":[-80.302731,25.865985]}},{"properties":{"city":"Lafayette","latitude":30.160045,"zip":"70508","job title":"Licensed Therapist\\/Counselor","employer":"Access Mental Health Agency","longitude":-92.028282,"id":"ah74x1jk4nh3","state":"LA"},"type":"Feature","geometry":{"type":"Point","coordinates":[-92.028282,30.160045]}},{"properties":{"city":"Glendale","latitude":33.596825,"zip":null,"job title":"Crisis &amp; Intake Therapist","employer":"Banner Thunderbird Medical Center","longitude":-112.289734,"id":"ah74x1fkwkzn","state":"AZ"},"type":"Feature","geometry":{"type":"Point","coordinates":[-112.289734,33.596825]}},{"properties":{"city":"Truckee","latitude":39.333889,"zip":"96161","job title":"Bilingual (Spanish) Behavioral Health Therapist","employer":"Wellness Neighborhood Tahoe Forest Health System","longitude":-120.193218,"id":"ah74x1noagjj","state":"CA"},"type":"Feature","geometry":{"type":"Point","coordinates":[-120.193218,39.333889]}},{"properties":{"city":"Santa Ana","latitude":33.74678,"zip":"92701","job title":"Family Therapist Intern","employer":"Phoenix House Foundation Inc","longitude":-117.853985,"id":"ah74x1o6lw94","state":"CA"},"type":"Feature","geometry":{"type":"Point","coordinates":[-117.853985,33.74678]}},{"properties":{"city":"Arcadia","latitude":27.162485,"zip":null,"job title":"CLINICAL THERAPIST","employer":"Geo Care LLC","longitude":-81.851192,"id":"ah74x1j4jgtt","state":"FL"},"type":"Feature","geometry":{"type":"Point","coordinates":[-81.851192,27.162485]}},{"properties":{"city":"Philadelphia","latitude":39.989634,"zip":"19131","job title":"MST-PSB Therapist","employer":"Wordsworth Academy","longitude":-75.221123,"id":"ah74x1fre1e8","state":"PA"},"type":"Feature","geometry":{"type":"Point","coordinates":[-75.221123,39.989634]}},{"properties":{"city":"Fresno","latitude":36.78743,"zip":null,"job title":"Marriage Family Therapist FR08022013AX2 Chemical Dependency and Substance Abuse (Job Number: 197232)","employer":"Kaiser Permanente","longitude":-119.78812,"id":"ah74x1ixn2n5","state":"CA"},"type":"Feature","geometry":{"type":"Point","coordinates":[-119.78812,36.78743]}},{"properties":{"city":"Lihue","latitude":21.96287,"zip":"96766","job title":"Therapist (Part-Time: 25 to 32 hours per week)","employer":"YWCA of Kaua`i","longitude":-159.415459,"id":"ah74x1sddtpq","state":"HI"},"type":"Feature","geometry":{"type":"Point","coordinates":[-159.415459,21.96287]}},{"properties":{"city":"Philadelphia","latitude":40.009691,"zip":null,"job title":"THERAPIST - Adult Outpatient","employer":"WES Health System","longitude":-75.111057,"id":"ah74x1qdsat3","state":"PA"},"type":"Feature","geometry":{"type":"Point","coordinates":[-75.111057,40.009691]}},{"properties":{"city":"Titusville","latitude":28.60803,"zip":null,"job title":"Licensed Therapist (contract work) - Titusville, FL","employer":"G4S","longitude":-80.807984,"id":"ah74x1rka761","state":"FL"},"type":"Feature","geometry":{"type":"Point","coordinates":[-80.807984,28.60803]}},{"properties":{"city":"Lake Worth","latitude":46.9193,"zip":"33460","job title":"Therapist (Outpatient) \\/ Palm Beach","employer":"Chrysalis Health","longitude":-104.006124,"id":"ah74x1kp6zyk","state":"FL"},"type":"Feature","geometry":{"type":"Point","coordinates":[-104.006124,46.9193]}},{"properties":{"city":"Tampa","latitude":27.94653,"zip":"33603","job title":"Outpatient Therapist \\/ Tampa","employer":"The Chrysalis Center","longitude":-82.459269,"id":"ah74x1pm38s3","state":"FL"},"type":"Feature","geometry":{"type":"Point","coordinates":[-82.459269,27.94653]}},{"properties":{"city":"Mauston","latitude":43.79911,"zip":"53948","job title":"Behavior Health Therapist","employer":"Mile Bluff Medical Center","longitude":-90.078892,"id":"ah74x1i5mipe","state":"WI"},"type":"Feature","geometry":{"type":"Point","coordinates":[-90.078892,43.79911]}},{"properties":{"city":"Bangor","latitude":39.390387,"zip":null,"job title":"Clinician- Functional Family Therapy- Bangor","employer":"Catholic Charities Maine","longitude":-121.403865,"id":"ah74x1ede411","state":"ME"},"type":"Feature","geometry":{"type":"Point","coordinates":[-121.403865,39.390387]}},{"properties":{"city":"Wellsboro","latitude":41.744669,"zip":null,"job title":"Outpatient Therapist, Licensed Clinical Social Worker","employer":"Laurel Health System","longitude":-77.301815,"id":"ah74x1cpj4w0","state":"PA"},"type":"Feature","geometry":{"type":"Point","coordinates":[-77.301815,41.744669]}},{"properties":{"city":"Queens","latitude":40.671881,"zip":null,"job title":"MST Therapist","employer":"The Children\\'s Village","longitude":-73.83168,"id":"ah74x1fxyw57","state":"NY"},"type":"Feature","geometry":{"type":"Point","coordinates":[-73.83168,40.671881]}},{"properties":{"city":"Wickenburg","latitude":33.848751,"zip":"85390","job title":"Clinical Float Therapist","employer":"Rosewood Centers for Eating Disorders","longitude":-112.931499,"id":"ah74x1iyu2wg","state":"AZ"},"type":"Feature","geometry":{"type":"Point","coordinates":[-112.931499,33.848751]}},{"properties":{"city":"Jeffersonville","latitude":38.2974,"zip":null,"job title":"Family Preservation Clinical Supervisor","employer":"New Hope Services Inc","longitude":-85.717312,"id":"ah74x1g1t0t5","state":"IN"},"type":"Feature","geometry":{"type":"Point","coordinates":[-85.717312,38.2974]}},{"properties":{"city":"Hamilton","latitude":0.0,"zip":null,"job title":"Therapist\\/Counselor","employer":"Footprints-To-Recovery","longitude":0.0,"id":"ah74x1gusc8q","state":"NJ"},"type":"Feature","geometry":{"type":"Point","coordinates":[0.0,0.0]}},{"properties":{"city":"Fort Lauderdale","latitude":26.085495,"zip":"33312","job title":"Therapist (Outpatient) \\/ Broward \\/ Spanish Speaking","employer":"Chrysalis Health","longitude":-80.180359,"id":"ah74x1k6yjxo","state":"FL"},"type":"Feature","geometry":{"type":"Point","coordinates":[-80.180359,26.085495]}},{"properties":{"city":"Arlington","latitude":32.781326,"zip":null,"job title":"Clinician\\/Therapist","employer":"RiverValley Behavioral Health","longitude":-97.112289,"id":"ah74x1sx1eog","state":"TX"},"type":"Feature","geometry":{"type":"Point","coordinates":[-97.112289,32.781326]}},{"properties":{"city":"Chicago","latitude":41.849606,"zip":null,"job title":"Bilingual Therapist\\/Case Manager (Home Based)","employer":"Pillars","longitude":-87.682827,"id":"ah74x1lblj9f","state":"IL"},"type":"Feature","geometry":{"type":"Point","coordinates":[-87.682827,41.849606]}},{"properties":{"city":"Union City","latitude":37.59919,"zip":null,"job title":"Marriage Family Therapist HA08062013AX2 Chemical Dependency Recovery Program (Job Number: 197620)","employer":"Kaiser Permanente","longitude":-122.028805,"id":"ah74x1nvgosq","state":"CA"},"type":"Feature","geometry":{"type":"Point","coordinates":[-122.028805,37.59919]}},{"properties":{"city":"San Mateo County","latitude":37.554596,"zip":null,"job title":"Psychiatric Social Worker\\/Marriage &amp; Fam...","employer":"County of San Mateo","longitude":-122.303432,"id":"ah74x1pcm2i6","state":"CA"},"type":"Feature","geometry":{"type":"Point","coordinates":[-122.303432,37.554596]}},{"properties":{"city":"Athens","latitude":39.323109,"zip":"45701","job title":"Early Childhood Mental Health Consultants\\/Therapist","employer":"Hopewell Health Centers, Inc.","longitude":-82.083389,"id":"ah74x1o6z3le","state":"OH"},"type":"Feature","geometry":{"type":"Point","coordinates":[-82.083389,39.323109]}},{"properties":{"city":"Las Cruces","latitude":32.70038,"zip":"88012","job title":"Therapist (PRN)","employer":"Mesilla Valley Hospital","longitude":-106.652359,"id":"ah74x1nqkmad","state":"NM"},"type":"Feature","geometry":{"type":"Point","coordinates":[-106.652359,32.70038]}},{"properties":{"city":"Phoenix","latitude":33.632685,"zip":"85053","job title":"Brief Strategic Family Therapy - Therapist","employer":"Touchstone Behavioral Health","longitude":-112.132854,"id":"ah74x1s64a62","state":"AZ"},"type":"Feature","geometry":{"type":"Point","coordinates":[-112.132854,33.632685]}},{"properties":{"city":"Syracuse","latitude":43.040804,"zip":null,"job title":"School Based Therapist","employer":"Liberty Resources, Inc.","longitude":-76.132805,"id":"ah74x1r8dx3v","state":"NY"},"type":"Feature","geometry":{"type":"Point","coordinates":[-76.132805,43.040804]}},{"properties":{"city":"Columbus","latitude":35.30551,"zip":"43213","job title":"BH Outpatient Therapist- Reynoldsburg Branch","employer":"Nationwide Children\\'s Hospital","longitude":-93.958204,"id":"ah74x1dba03s","state":"OH"},"type":"Feature","geometry":{"type":"Point","coordinates":[-93.958204,35.30551]}},{"properties":{"city":"Santa Rosa","latitude":30.675129,"zip":null,"job title":"Marriage Family Therapist - Bilingual Spanish (SR07242013X4) (Job Number: 195669)","employer":"Kaiser Permanente","longitude":-87.873192,"id":"ah74x1d7i5zp","state":"CA"},"type":"Feature","geometry":{"type":"Point","coordinates":[-87.873192,30.675129]}},{"properties":{"city":"Panorama City","latitude":34.228834,"zip":"91402","job title":"Outpatient Program Therapist","employer":"Mission Community Hospital","longitude":-118.444443,"id":"ah74x1g9u8wr","state":"CA"},"type":"Feature","geometry":{"type":"Point","coordinates":[-118.444443,34.228834]}},{"properties":{"city":"Columbus","latitude":48.23193,"zip":"43215","job title":"BH Outpatient Therapist- Teams Ops (Cleveland)","employer":"Nationwide Children\\'s Hospital","longitude":-97.600809,"id":"ah74x1rlpnhv","state":"OH"},"type":"Feature","geometry":{"type":"Point","coordinates":[-97.600809,48.23193]}},{"properties":{"city":"Westerville","latitude":35.30551,"zip":"43081","job title":"BH Outpatient Therapist- Westerville Branch","employer":"Nationwide Children\\'s Hospital","longitude":-93.958204,"id":"ah74x1jsl2g1","state":"OH"},"type":"Feature","geometry":{"type":"Point","coordinates":[-93.958204,35.30551]}},{"properties":{"city":"Chicago","latitude":41.849606,"zip":null,"job title":"QMHP Therapist-Outpatient Program","employer":"South Central Community Services Inc","longitude":-87.682827,"id":"ah74x1hmkfpn","state":"IL"},"type":"Feature","geometry":{"type":"Point","coordinates":[-87.682827,41.849606]}},{"properties":{"city":"Manhattan","latitude":40.782469,"zip":null,"job title":"MST - SA Therapist","employer":"The Children\\'s Village","longitude":-73.977272,"id":"ah74x1j73o14","state":"NY"},"type":"Feature","geometry":{"type":"Point","coordinates":[-73.977272,40.782469]}},{"properties":{"city":"Hamilton County","latitude":39.16678,"zip":null,"job title":"School-Based Therapist (Full-time 10-month position)","employer":"St. Aloysius","longitude":-84.5383,"id":"ah74x1i1k8op","state":"OH"},"type":"Feature","geometry":{"type":"Point","coordinates":[-84.5383,39.16678]}},{"properties":{"city":"Central Islip","latitude":40.775206,"zip":null,"job title":"MST THERAPIST","employer":"The Childrens Village","longitude":-73.185585,"id":"ah74x1fb141u","state":"NY"},"type":"Feature","geometry":{"type":"Point","coordinates":[-73.185585,40.775206]}},{"properties":{"city":"Eielson AFB","latitude":64.690529,"zip":null,"job title":"Eielson AFB, Alaska SPA Military Family Life Counselor","employer":"MHN Government Services - 7012","longitude":-147.101761,"id":"ah74x1rlhlar","state":"AK"},"type":"Feature","geometry":{"type":"Point","coordinates":[-147.101761,64.690529]}},{"properties":{"city":"New York","latitude":40.706652,"zip":null,"job title":"MST FIT Therapist - Bilingual","employer":"The Children\\'s Village","longitude":-73.972569,"id":"ah74x1g7lo7u","state":"NY"},"type":"Feature","geometry":{"type":"Point","coordinates":[-73.972569,40.706652]}},{"properties":{"city":"Stone Mountain","latitude":33.815784,"zip":"30087","job title":"Bi-Lingual Therapist (LPC, LCSW, LMFT, LAPC, LMSW, LAFMT)","employer":"The Potter House Family and Children Treatment Center","longitude":-84.126068,"id":"ah74x1fcpzmd","state":"GA"},"type":"Feature","geometry":{"type":"Point","coordinates":[-84.126068,33.815784]}},{"properties":{"city":"Fort Wainwright","latitude":36.209605,"zip":null,"job title":"Ft. Wainwright, Alaska - SPA Military Family Life Counselor","employer":"MHN Government Services - 7012","longitude":-107.458454,"id":"ah74x1mj5x5d","state":"AK"},"type":"Feature","geometry":{"type":"Point","coordinates":[-107.458454,36.209605]}},{"properties":{"city":"Columbus","latitude":31.734392,"zip":"43205","job title":"BH Community Based Therapist II- Crisis Services","employer":"Nationwide Children\\'s Hospital","longitude":-89.216322,"id":"ah74x1plotb5","state":"OH"},"type":"Feature","geometry":{"type":"Point","coordinates":[-89.216322,31.734392]}},{"properties":{"city":"Columbus","latitude":39.968651,"zip":"43215","job title":"BH Community Based Therapist II- ECMH Program","employer":"Nationwide Children\\'s Hospital","longitude":-83.025024,"id":"ah74x1eewlyg","state":"OH"},"type":"Feature","geometry":{"type":"Point","coordinates":[-83.025024,39.968651]}},{"properties":{"city":"Tempe","latitude":33.43569,"zip":"85281","job title":"Trauma Therapist","employer":"Empact - SPC","longitude":-111.927979,"id":"ah74x1er9d9s","state":"AZ"},"type":"Feature","geometry":{"type":"Point","coordinates":[-111.927979,33.43569]}},{"properties":{"city":"Union City","latitude":37.671197,"zip":null,"job title":"Marriage Family Therapist 5249 Adult General Psychiatry Hayward (Job Number: 196999)","employer":"Kaiser Permanente","longitude":-122.086137,"id":"ah74x1m3racj","state":"CA"},"type":"Feature","geometry":{"type":"Point","coordinates":[-122.086137,37.671197]}},{"properties":{"city":"Columbus","latitude":39.968651,"zip":"43215","job title":"BH Community Based Therapist I - Multisystem FIO","employer":"Nationwide Children\\'s Hospital","longitude":-83.025024,"id":"ah74x1s27fvj","state":"OH"},"type":"Feature","geometry":{"type":"Point","coordinates":[-83.025024,39.968651]}},{"properties":{"city":"Lagrange","latitude":33.041415,"zip":"40031","job title":"Senior Therapist\\/Social Worker - LaGrange","employer":"Laurus Strategies Recruitment Consulting","longitude":-85.031084,"id":"ah74x1ej8iq8","state":"KY"},"type":"Feature","geometry":{"type":"Point","coordinates":[-85.031084,33.041415]}},{"properties":{"city":"Butler","latitude":32.089355,"zip":"16001","job title":"Mobile Therapists-- Pittsburgh or Butler","employer":"Glade Run Lutheran Services","longitude":-88.221279,"id":"ah74x1gorym4","state":"PA"},"type":"Feature","geometry":{"type":"Point","coordinates":[-88.221279,32.089355]}},{"properties":{"city":"Wausau","latitude":44.972471,"zip":null,"job title":"Mental Health\\/Substance Abuse Therapist","employer":"North Central Healthcare","longitude":-89.6647,"id":"ah74x1f1jfk6","state":"WI"},"type":"Feature","geometry":{"type":"Point","coordinates":[-89.6647,44.972471]}},{"properties":{"city":null,"latitude":46.442316,"zip":null,"job title":"Mental Health Therapist","employer":"Arubah Emotional Health Services","longitude":-93.365864,"id":"ah74x1iyohvw","state":"MN"},"type":"Feature","geometry":{"type":"Point","coordinates":[-93.365864,46.442316]}},{"properties":{"city":"Lafayette","latitude":40.414482,"zip":"47904","job title":"Masters Prepared Therapist\\/LCSW","employer":"Wabash Valley Alliance, Inc.","longitude":-86.89563,"id":"ah74x1ie0dn1","state":"IN"},"type":"Feature","geometry":{"type":"Point","coordinates":[-86.89563,40.414482]}},{"properties":{"city":"West Hartford","latitude":41.761133,"zip":"6107","job title":"Community Therapist","employer":"The Bridge Family Center","longitude":-72.748363,"id":"ah74x1ddg6kj","state":"CT"},"type":"Feature","geometry":{"type":"Point","coordinates":[-72.748363,41.761133]}},{"properties":{"city":"Golden Valley","latitude":44.989454,"zip":null,"job title":"Clinical Supervisor - In home \\/ School Based Therapist","employer":"Volunteers of America- Minnesota","longitude":-93.365437,"id":"ah74x1s3qjiq","state":"MN"},"type":"Feature","geometry":{"type":"Point","coordinates":[-93.365437,44.989454]}},{"properties":{"city":"Los Angeles County","latitude":33.812,"zip":null,"job title":"Family Court Services Specialist","employer":"Los Angeles Superior Court","longitude":-118.295502,"id":"ah74x1hddw0v","state":"CA"},"type":"Feature","geometry":{"type":"Point","coordinates":[-118.295502,33.812]}},{"properties":{"city":"Marietta","latitude":33.953195,"zip":null,"job title":"Family Services Specialist LCSW LMHC LPC LMFT Marietta GA","employer":"Serco","longitude":-84.545879,"id":"ah74x1d8hge5","state":"GA"},"type":"Feature","geometry":{"type":"Point","coordinates":[-84.545879,33.953195]}},{"properties":{"city":"Winter Park","latitude":28.60871,"zip":"32792","job title":"Counselor and\\/or Mental Health Therapist","employer":"Kinder Konsulting &amp; Parents Too","longitude":-81.296574,"id":"ah74x1reweg1","state":"FL"},"type":"Feature","geometry":{"type":"Point","coordinates":[-81.296574,28.60871]}},{"properties":{"city":"Riverside","latitude":33.949736,"zip":null,"job title":"CLINICAL THERAPIST II- PER DIEM","employer":"County of Riverside","longitude":-117.398918,"id":"ah74x1jcuikw","state":"CA"},"type":"Feature","geometry":{"type":"Point","coordinates":[-117.398918,33.949736]}},{"properties":{"city":"Philadelphia","latitude":40.009691,"zip":null,"job title":"Mobile Therapists (MT)","employer":"US Medical Staffing","longitude":-75.111057,"id":"ah74x1j58zcl","state":"PA"},"type":"Feature","geometry":{"type":"Point","coordinates":[-75.111057,40.009691]}},{"properties":{"city":"Downingtown","latitude":40.007105,"zip":"19335","job title":"Mobile Therapist &amp; Mental Health Specialist","employer":"CCRES","longitude":-75.70229,"id":"ah74x1n3ooba","state":"PA"},"type":"Feature","geometry":{"type":"Point","coordinates":[-75.70229,40.007105]}},{"properties":{"city":"Los Angeles","latitude":34.01697,"zip":null,"job title":"Bilingual Therapist- Los Angeles and Torrance","employer":"Children\\'s Institute, Inc.","longitude":-118.326508,"id":"ah74x1lya34p","state":"CA"},"type":"Feature","geometry":{"type":"Point","coordinates":[-118.326508,34.01697]}},{"properties":{"city":"Waconia","latitude":44.847721,"zip":null,"job title":"Crisis Therapist, Casual Intermittent","employer":"Carver County, MN","longitude":-93.789162,"id":"ah74x1p5czzc","state":"MN"},"type":"Feature","geometry":{"type":"Point","coordinates":[-93.789162,44.847721]}},{"properties":{"city":"Fort Lauderdale","latitude":26.14936,"zip":"33305","job title":"Child and Family Therapist","employer":"Kids In Distress","longitude":-80.122574,"id":"ah74x1rl3viv","state":"FL"},"type":"Feature","geometry":{"type":"Point","coordinates":[-80.122574,26.14936]}},{"properties":{"city":"Sulphur","latitude":30.9742,"zip":null,"job title":"Multi-Systemic Therapy (MST) Therapist","employer":"Louisiana United Methodist Children and Family Services","longitude":-91.429932,"id":"ah74x1fkieta","state":"LA"},"type":"Feature","geometry":{"type":"Point","coordinates":[-91.429932,30.9742]}},{"properties":{"city":"Des Moines","latitude":41.582745,"zip":null,"job title":"Therapist, Independently Licensed - Mercy Psych Services - PT.2 (days)","employer":"Catholic Health Initiatives","longitude":-93.61834,"id":"ah74x1t3roh7","state":"IA"},"type":"Feature","geometry":{"type":"Point","coordinates":[-93.61834,41.582745]}},{"properties":{"city":"Ruston","latitude":32.493965,"zip":"71270","job title":"Licensed Therapist (Outpatient Counseling)","employer":"Louisiana United Methodist Children and Family Services, Inc.","longitude":-92.644253,"id":"ah74x1iffo5f","state":"LA"},"type":"Feature","geometry":{"type":"Point","coordinates":[-92.644253,32.493965]}},{"properties":{"city":"Columbus","latitude":39.972229,"zip":"43213","job title":"BH Community Based Therapist I- Reynoldsburg Comm Based","employer":"Nationwide Children\\'s Hospital","longitude":-82.863747,"id":"ah74x1ft0s33","state":"OH"},"type":"Feature","geometry":{"type":"Point","coordinates":[-82.863747,39.972229]}},{"properties":{"city":"Palm Springs","latitude":33.588783,"zip":null,"job title":"Mental Health Therapist II","employer":"Palm Springs Unified School District","longitude":-116.457207,"id":"ah74x1ok8x7v","state":"CA"},"type":"Feature","geometry":{"type":"Point","coordinates":[-116.457207,33.588783]}},{"properties":{"city":"Lagrange","latitude":38.435566,"zip":"40031","job title":"Social Worker\\/Therapist - V02540","employer":"Laurus Strategies Recruitment Consulting","longitude":-85.392693,"id":"ah74x1sfv3di","state":"KY"},"type":"Feature","geometry":{"type":"Point","coordinates":[-85.392693,38.435566]}},{"properties":{"city":"Cleveland","latitude":41.485779,"zip":"44113","job title":"LICENSED CLINICAL THERAPIST","employer":"Guidestone Ohio","longitude":-81.69421,"id":"ah74x1j6zz3f","state":"OH"},"type":"Feature","geometry":{"type":"Point","coordinates":[-81.69421,41.485779]}},{"properties":{"city":"Rocky Mount","latitude":35.987101,"zip":"27804","job title":"Behavioral Health Therapist","employer":"Monarch","longitude":-77.850147,"id":"ah74x1e6b9tx","state":"NC"},"type":"Feature","geometry":{"type":"Point","coordinates":[-77.850147,35.987101]}},{"properties":{"city":"Columbus","latitude":40.680265,"zip":"43215","job title":"BH Community Based Therapist II- FCCS Call Project (West)","employer":"Nationwide Children\\'s Hospital","longitude":-122.352944,"id":"ah74x1qfcsmi","state":"OH"},"type":"Feature","geometry":{"type":"Point","coordinates":[-122.352944,40.680265]}}],"is_temporal":false,"author":{"url":"","metadata":"","contact_name":"","contact_address":"","source":"Indeed.com","contact_phone":""},"source":"","pagination":{"sort":null,"start":0,"total":622,"limit":1000000},"state":"complete","tags":"","published":"2014-08-16T17:57:00-04:00","id":394396}