{"type":"FeatureCollection","data_type":"Dataset","url_type":null,"permissions":[{"permissions":{"download":true,"view":true},"group_id":"everyone"}],"classification":null,"title":"CHI","count":332,"stream_id":394970,"contributor":{"url":"http://geocommons.com/users/82063","name":"ptrain12"},"data_attributes":null,"calculation_params":null,"icon_link":null,"link":"http://geocommons.com/overlays/394970.json","extent":[0.0,0.0,0.0,0.0],"geometry_types":[],"unique_name":null,"name":"CHI","feature_count":332,"description":"","next_feature":null,"is_raster":false,"short_classification":"Y","stats":{},"features":[{"properties":{"region":"CHI","county":"Bartholomew","geo_score":0.0,"distributor":"Glazer's Distributors of Indiana","dsm":"OPEN","id":"ahacy74jbcw6","geo_precision":"unmatched","state":"IN"},"type":"Feature","geometry":null},{"properties":{"region":"CHI","county":"Blackford","geo_score":0.0,"distributor":"Glazer's Distributors of Indiana","dsm":"OPEN","id":"ahacy734tyoc","geo_precision":"unmatched","state":"IN"},"type":"Feature","geometry":null},{"properties":{"region":"CHI","county":"Boone","geo_score":0.0,"distributor":"Glazer's Distributors of Indiana","dsm":"OPEN","id":"ahacy6vy9033","geo_precision":"unmatched","state":"IN"},"type":"Feature","geometry":null},{"properties":{"region":"CHI","county":"Brown","geo_score":0.0,"distributor":"Glazer's Distributors of Indiana","dsm":"OPEN","id":"ahacy72ygw9r","geo_precision":"unmatched","state":"IN"},"type":"Feature","geometry":null},{"properties":{"region":"CHI","county":"Crawford","geo_score":0.0,"distributor":"Glazer's Distributors of Indiana","dsm":"OPEN","id":"ahacy6uu6xfp","geo_precision":"unmatched","state":"IN"},"type":"Feature","geometry":null},{"properties":{"region":"CHI","county":"Dearborn","geo_score":0.0,"distributor":"Glazer's Distributors of Indiana","dsm":"OPEN","id":"ahacy6xgo4e0","geo_precision":"unmatched","state":"IN"},"type":"Feature","geometry":null},{"properties":{"region":"CHI","county":"Decatur","geo_score":0.0,"distributor":"Glazer's Distributors of Indiana","dsm":"OPEN","id":"ahacy6ujekl4","geo_precision":"unmatched","state":"IN"},"type":"Feature","geometry":null},{"properties":{"region":"CHI","county":"Delaware","geo_score":0.0,"distributor":"Glazer's Distributors of Indiana","dsm":"OPEN","id":"ahacy73uw6l2","geo_precision":"unmatched","state":"IN"},"type":"Feature","geometry":null},{"properties":{"region":"CHI","county":"Grant","geo_score":0.0,"distributor":"Glazer's Distributors of Indiana","dsm":"OPEN","id":"ahacy7883nay","geo_precision":"unmatched","state":"IN"},"type":"Feature","geometry":null},{"properties":{"region":"CHI","county":"Greene","geo_score":0.0,"distributor":"Glazer's Distributors of Indiana","dsm":"OPEN","id":"ahacy6w9d15j","geo_precision":"unmatched","state":"IN"},"type":"Feature","geometry":null},{"properties":{"region":"CHI","county":"Hamilton","geo_score":0.0,"distributor":"Glazer's Distributors of Indiana","dsm":"OPEN","id":"ahacy6vslbjf","geo_precision":"unmatched","state":"IN"},"type":"Feature","geometry":null},{"properties":{"region":"CHI","county":"Hancock","geo_score":0.0,"distributor":"Glazer's Distributors of Indiana","dsm":"OPEN","id":"ahacy6zg378j","geo_precision":"unmatched","state":"IN"},"type":"Feature","geometry":null},{"properties":{"region":"CHI","county":"Hendricks","geo_score":0.0,"distributor":"Glazer's Distributors of Indiana","dsm":"OPEN","id":"ahacy73z68x2","geo_precision":"unmatched","state":"IN"},"type":"Feature","geometry":null},{"properties":{"region":"CHI","county":"Howard","geo_score":0.0,"distributor":"Glazer's Distributors of Indiana","dsm":"OPEN","id":"ahacy6xfqwqm","geo_precision":"unmatched","state":"IN"},"type":"Feature","geometry":null},{"properties":{"region":"CHI","county":"Jennings","geo_score":0.0,"distributor":"Glazer's Distributors of Indiana","dsm":"OPEN","id":"ahacy7182n01","geo_precision":"unmatched","state":"IN"},"type":"Feature","geometry":null},{"properties":{"region":"CHI","county":"Monroe","geo_score":0.0,"distributor":"Glazer's Distributors of Indiana","dsm":"OPEN","id":"ahacy6vrzuaq","geo_precision":"unmatched","state":"IN"},"type":"Feature","geometry":null},{"properties":{"region":"CHI","county":"Ohio","geo_score":0.0,"distributor":"Glazer's Distributors of Indiana","dsm":"OPEN","id":"ahacy70bjvnn","geo_precision":"unmatched","state":"IN"},"type":"Feature","geometry":null},{"properties":{"region":"CHI","county":"Orange","geo_score":0.0,"distributor":"Glazer's Distributors of Indiana","dsm":"OPEN","id":"ahacy781g34r","geo_precision":"unmatched","state":"IN"},"type":"Feature","geometry":null},{"properties":{"region":"CHI","county":"Owen","geo_score":0.0,"distributor":"Glazer's Distributors of Indiana","dsm":"OPEN","id":"ahacy71mg64f","geo_precision":"unmatched","state":"IN"},"type":"Feature","geometry":null},{"properties":{"region":"CHI","county":"Putnam","geo_score":0.0,"distributor":"Glazer's Distributors of Indiana","dsm":"OPEN","id":"ahacy6tdq4bz","geo_precision":"unmatched","state":"IN"},"type":"Feature","geometry":null},{"properties":{"region":"CHI","county":"Randolph","geo_score":0.0,"distributor":"Glazer's Distributors of Indiana","dsm":"OPEN","id":"ahacy6vj040l","geo_precision":"unmatched","state":"IN"},"type":"Feature","geometry":null},{"properties":{"region":"CHI","county":"Ripley","geo_score":0.0,"distributor":"Glazer's Distributors of Indiana","dsm":"OPEN","id":"ahacy79gdvlm","geo_precision":"unmatched","state":"IN"},"type":"Feature","geometry":null},{"properties":{"region":"CHI","county":"Rush","geo_score":0.0,"distributor":"Glazer's Distributors of Indiana","dsm":"OPEN","id":"ahacy72zna1n","geo_precision":"unmatched","state":"IN"},"type":"Feature","geometry":null},{"properties":{"region":"CHI","county":"Switzerland","geo_score":0.0,"distributor":"Glazer's Distributors of Indiana","dsm":"OPEN","id":"ahacy782fnox","geo_precision":"unmatched","state":"IN"},"type":"Feature","geometry":null},{"properties":{"region":"CHI","county":"Tippecanoe","geo_score":0.0,"distributor":"Glazer's Distributors of Indiana","dsm":"OPEN","id":"ahacy6w4fhqs","geo_precision":"unmatched","state":"IN"},"type":"Feature","geometry":null},{"properties":{"region":"CHI","county":"Tipton","geo_score":0.0,"distributor":"Glazer's Distributors of Indiana","dsm":"OPEN","id":"ahacy70h79s3","geo_precision":"unmatched","state":"IN"},"type":"Feature","geometry":null},{"properties":{"region":"CHI","county":"Union","geo_score":0.0,"distributor":"Glazer's Distributors of Indiana","dsm":"OPEN","id":"ahacy70nk6vq","geo_precision":"unmatched","state":"IN"},"type":"Feature","geometry":null},{"properties":{"region":"CHI","county":"Adair","geo_score":0.0,"distributor":"Glazer's Distributors of Indiana","dsm":"OPEN","id":"ahacy6tidlsd","geo_precision":"unmatched","state":"KY"},"type":"Feature","geometry":null},{"properties":{"region":"CHI","county":"Anderson","geo_score":0.0,"distributor":"Glazer's Distributors of Indiana","dsm":"OPEN","id":"ahacy71o1u2v","geo_precision":"unmatched","state":"KY"},"type":"Feature","geometry":null},{"properties":{"region":"CHI","county":"Bath","geo_score":0.0,"distributor":"Glazer's Distributors of Indiana","dsm":"OPEN","id":"ahacy70b9n1t","geo_precision":"unmatched","state":"KY"},"type":"Feature","geometry":null},{"properties":{"region":"CHI","county":"Bell","geo_score":0.0,"distributor":"Glazer's Distributors of Indiana","dsm":"OPEN","id":"ahacy76qs1yl","geo_precision":"unmatched","state":"KY"},"type":"Feature","geometry":null},{"properties":{"region":"CHI","county":"Bourbon","geo_score":0.0,"distributor":"Glazer's Distributors of Indiana","dsm":"OPEN","id":"ahacy78pobtk","geo_precision":"unmatched","state":"KY"},"type":"Feature","geometry":null},{"properties":{"region":"CHI","county":"Boyd","geo_score":0.0,"distributor":"Glazer's Distributors of Indiana","dsm":"OPEN","id":"ahacy798h5j3","geo_precision":"unmatched","state":"KY"},"type":"Feature","geometry":null},{"properties":{"region":"CHI","county":"Boyle","geo_score":0.0,"distributor":"Glazer's Distributors of Indiana","dsm":"OPEN","id":"ahacy6wuob2y","geo_precision":"unmatched","state":"KY"},"type":"Feature","geometry":null},{"properties":{"region":"CHI","county":"Breathitt","geo_score":0.0,"distributor":"Glazer's Distributors of Indiana","dsm":"OPEN","id":"ahacy732gtv7","geo_precision":"unmatched","state":"KY"},"type":"Feature","geometry":null},{"properties":{"region":"CHI","county":"Bullitt","geo_score":0.0,"distributor":"Glazer's Distributors of Indiana","dsm":"OPEN","id":"ahacy72abba4","geo_precision":"unmatched","state":"KY"},"type":"Feature","geometry":null},{"properties":{"region":"CHI","county":"Carlisle","geo_score":0.0,"distributor":"Glazer's Distributors of Indiana","dsm":"OPEN","id":"ahacy6zy669x","geo_precision":"unmatched","state":"KY"},"type":"Feature","geometry":null},{"properties":{"region":"CHI","county":"Carroll","geo_score":0.0,"distributor":"Glazer's Distributors of Indiana","dsm":"OPEN","id":"ahacy78mh9rx","geo_precision":"unmatched","state":"KY"},"type":"Feature","geometry":null},{"properties":{"region":"CHI","county":"Carter","geo_score":0.0,"distributor":"Glazer's Distributors of Indiana","dsm":"OPEN","id":"ahacy7051tch","geo_precision":"unmatched","state":"KY"},"type":"Feature","geometry":null},{"properties":{"region":"CHI","county":"Casey","geo_score":0.0,"distributor":"Glazer's Distributors of Indiana","dsm":"OPEN","id":"ahacy73zl71g","geo_precision":"unmatched","state":"KY"},"type":"Feature","geometry":null},{"properties":{"region":"CHI","county":"Clark","geo_score":0.0,"distributor":"Glazer's Distributors of Indiana","dsm":"OPEN","id":"ahacy6xh75jp","geo_precision":"unmatched","state":"KY"},"type":"Feature","geometry":null},{"properties":{"region":"CHI","county":"Clay","geo_score":0.0,"distributor":"Glazer's Distributors of Indiana","dsm":"OPEN","id":"ahacy6w3qpvs","geo_precision":"unmatched","state":"KY"},"type":"Feature","geometry":null},{"properties":{"region":"CHI","county":"Clinton","geo_score":0.0,"distributor":"Glazer's Distributors of Indiana","dsm":"OPEN","id":"ahacy75bq5ru","geo_precision":"unmatched","state":"KY"},"type":"Feature","geometry":null},{"properties":{"region":"CHI","county":"Cumberland","geo_score":0.0,"distributor":"Glazer's Distributors of Indiana","dsm":"OPEN","id":"ahacy7005cn3","geo_precision":"unmatched","state":"KY"},"type":"Feature","geometry":null},{"properties":{"region":"CHI","county":"Elliott","geo_score":0.0,"distributor":"Glazer's Distributors of Indiana","dsm":"OPEN","id":"ahacy6z5etyr","geo_precision":"unmatched","state":"KY"},"type":"Feature","geometry":null},{"properties":{"region":"CHI","county":"Estill","geo_score":0.0,"distributor":"Glazer's Distributors of Indiana","dsm":"OPEN","id":"ahacy746zdi9","geo_precision":"unmatched","state":"KY"},"type":"Feature","geometry":null},{"properties":{"region":"CHI","county":"Fayette","geo_score":0.0,"distributor":"Glazer's Distributors of Indiana","dsm":"OPEN","id":"ahacy74hw9yl","geo_precision":"unmatched","state":"KY"},"type":"Feature","geometry":null},{"properties":{"region":"CHI","county":"Fleming","geo_score":0.0,"distributor":"Glazer's Distributors of Indiana","dsm":"OPEN","id":"ahacy7525cxq","geo_precision":"unmatched","state":"KY"},"type":"Feature","geometry":null},{"properties":{"region":"CHI","county":"Floyd","geo_score":0.0,"distributor":"Glazer's Distributors of Indiana","dsm":"OPEN","id":"ahacy726xo22","geo_precision":"unmatched","state":"KY"},"type":"Feature","geometry":null},{"properties":{"region":"CHI","county":"Franklin","geo_score":0.0,"distributor":"Glazer's Distributors of Indiana","dsm":"OPEN","id":"ahacy6u3rhfe","geo_precision":"unmatched","state":"KY"},"type":"Feature","geometry":null},{"properties":{"region":"CHI","county":"Gallatin","geo_score":0.0,"distributor":"Glazer's Distributors of Indiana","dsm":"OPEN","id":"ahacy708n23w","geo_precision":"unmatched","state":"KY"},"type":"Feature","geometry":null},{"properties":{"region":"CHI","county":"Garrard","geo_score":0.0,"distributor":"Glazer's Distributors of Indiana","dsm":"OPEN","id":"ahacy70lgydm","geo_precision":"unmatched","state":"KY"},"type":"Feature","geometry":null},{"properties":{"region":"CHI","county":"Green","geo_score":0.0,"distributor":"Glazer's Distributors of Indiana","dsm":"OPEN","id":"ahacy6vfbsn7","geo_precision":"unmatched","state":"KY"},"type":"Feature","geometry":null},{"properties":{"region":"CHI","county":"Greenup","geo_score":0.0,"distributor":"Glazer's Distributors of Indiana","dsm":"OPEN","id":"ahacy741seox","geo_precision":"unmatched","state":"KY"},"type":"Feature","geometry":null},{"properties":{"region":"CHI","county":"Hardin","geo_score":0.0,"distributor":"Glazer's Distributors of Indiana","dsm":"OPEN","id":"ahacy6wmszzc","geo_precision":"unmatched","state":"KY"},"type":"Feature","geometry":null},{"properties":{"region":"CHI","county":"Harlan","geo_score":0.0,"distributor":"Glazer's Distributors of Indiana","dsm":"OPEN","id":"ahacy78s24t0","geo_precision":"unmatched","state":"KY"},"type":"Feature","geometry":null},{"properties":{"region":"CHI","county":"Harrison","geo_score":0.0,"distributor":"Glazer's Distributors of Indiana","dsm":"OPEN","id":"ahacy6y0px2a","geo_precision":"unmatched","state":"KY"},"type":"Feature","geometry":null},{"properties":{"region":"CHI","county":"Henry","geo_score":0.0,"distributor":"Glazer's Distributors of Indiana","dsm":"OPEN","id":"ahacy6uj3j4c","geo_precision":"unmatched","state":"KY"},"type":"Feature","geometry":null},{"properties":{"region":"CHI","county":"Jackson","geo_score":0.0,"distributor":"Glazer's Distributors of Indiana","dsm":"OPEN","id":"ahacy76qxsb5","geo_precision":"unmatched","state":"KY"},"type":"Feature","geometry":null},{"properties":{"region":"CHI","county":"Jefferson","geo_score":0.0,"distributor":"Glazer's Distributors of Indiana","dsm":"OPEN","id":"ahacy72qjrqd","geo_precision":"unmatched","state":"KY"},"type":"Feature","geometry":null},{"properties":{"region":"CHI","county":"Jessamine","geo_score":0.0,"distributor":"Glazer's Distributors of Indiana","dsm":"OPEN","id":"ahacy7882qux","geo_precision":"unmatched","state":"KY"},"type":"Feature","geometry":null},{"properties":{"region":"CHI","county":"Johnson","geo_score":0.0,"distributor":"Glazer's Distributors of Indiana","dsm":"OPEN","id":"ahacy784q7db","geo_precision":"unmatched","state":"KY"},"type":"Feature","geometry":null},{"properties":{"region":"CHI","county":"Knott","geo_score":0.0,"distributor":"Glazer's Distributors of Indiana","dsm":"OPEN","id":"ahacy741biec","geo_precision":"unmatched","state":"KY"},"type":"Feature","geometry":null},{"properties":{"region":"CHI","county":"Knox","geo_score":0.0,"distributor":"Glazer's Distributors of Indiana","dsm":"OPEN","id":"ahacy6z38e9j","geo_precision":"unmatched","state":"KY"},"type":"Feature","geometry":null},{"properties":{"region":"CHI","county":"Larue","geo_score":0.0,"distributor":"Glazer's Distributors of Indiana","dsm":"OPEN","id":"ahacy6yq03se","geo_precision":"unmatched","state":"KY"},"type":"Feature","geometry":null},{"properties":{"region":"CHI","county":"Laurel","geo_score":0.0,"distributor":"Glazer's Distributors of Indiana","dsm":"OPEN","id":"ahacy772sicb","geo_precision":"unmatched","state":"KY"},"type":"Feature","geometry":null},{"properties":{"region":"CHI","county":"Lawrence","geo_score":0.0,"distributor":"Glazer's Distributors of Indiana","dsm":"OPEN","id":"ahacy70dgpps","geo_precision":"unmatched","state":"KY"},"type":"Feature","geometry":null},{"properties":{"region":"CHI","county":"Lee","geo_score":0.0,"distributor":"Glazer's Distributors of Indiana","dsm":"OPEN","id":"ahacy6w3900y","geo_precision":"unmatched","state":"KY"},"type":"Feature","geometry":null},{"properties":{"region":"CHI","county":"Leslie","geo_score":0.0,"distributor":"Glazer's Distributors of Indiana","dsm":"OPEN","id":"ahacy78i24ck","geo_precision":"unmatched","state":"KY"},"type":"Feature","geometry":null},{"properties":{"region":"CHI","county":"Letcher","geo_score":0.0,"distributor":"Glazer's Distributors of Indiana","dsm":"OPEN","id":"ahacy6w0yis5","geo_precision":"unmatched","state":"KY"},"type":"Feature","geometry":null},{"properties":{"region":"CHI","county":"Lewis","geo_score":0.0,"distributor":"Glazer's Distributors of Indiana","dsm":"OPEN","id":"ahacy76d0fox","geo_precision":"unmatched","state":"KY"},"type":"Feature","geometry":null},{"properties":{"region":"CHI","county":"Lincoln","geo_score":0.0,"distributor":"Glazer's Distributors of Indiana","dsm":"OPEN","id":"ahacy752t0ma","geo_precision":"unmatched","state":"KY"},"type":"Feature","geometry":null},{"properties":{"region":"CHI","county":"Madison","geo_score":0.0,"distributor":"Glazer's Distributors of Indiana","dsm":"OPEN","id":"ahacy75p1kxz","geo_precision":"unmatched","state":"KY"},"type":"Feature","geometry":null},{"properties":{"region":"CHI","county":"Magoffin","geo_score":0.0,"distributor":"Glazer's Distributors of Indiana","dsm":"OPEN","id":"ahacy77wtv0d","geo_precision":"unmatched","state":"KY"},"type":"Feature","geometry":null},{"properties":{"region":"CHI","county":"Marion","geo_score":0.0,"distributor":"Glazer's Distributors of Indiana","dsm":"OPEN","id":"ahacy74tpis3","geo_precision":"unmatched","state":"KY"},"type":"Feature","geometry":null},{"properties":{"region":"CHI","county":"Martin","geo_score":0.0,"distributor":"Glazer's Distributors of Indiana","dsm":"OPEN","id":"ahacy71xwnh6","geo_precision":"unmatched","state":"KY"},"type":"Feature","geometry":null},{"properties":{"region":"CHI","county":"McCreary","geo_score":0.0,"distributor":"Glazer's Distributors of Indiana","dsm":"OPEN","id":"ahacy79fb7al","geo_precision":"unmatched","state":"KY"},"type":"Feature","geometry":null},{"properties":{"region":"CHI","county":"Meade","geo_score":0.0,"distributor":"Glazer's Distributors of Indiana","dsm":"OPEN","id":"ahacy6z6bo75","geo_precision":"unmatched","state":"KY"},"type":"Feature","geometry":null},{"properties":{"region":"CHI","county":"Menifee","geo_score":0.0,"distributor":"Glazer's Distributors of Indiana","dsm":"OPEN","id":"ahacy70gziz1","geo_precision":"unmatched","state":"KY"},"type":"Feature","geometry":null},{"properties":{"region":"CHI","county":"Mercer","geo_score":0.0,"distributor":"Glazer's Distributors of Indiana","dsm":"OPEN","id":"ahacy70s2xr8","geo_precision":"unmatched","state":"KY"},"type":"Feature","geometry":null},{"properties":{"region":"CHI","county":"Montgomery","geo_score":0.0,"distributor":"Glazer's Distributors of Indiana","dsm":"OPEN","id":"ahacy78szoll","geo_precision":"unmatched","state":"KY"},"type":"Feature","geometry":null},{"properties":{"region":"CHI","county":"Morgan","geo_score":0.0,"distributor":"Glazer's Distributors of Indiana","dsm":"OPEN","id":"ahacy7094vmg","geo_precision":"unmatched","state":"KY"},"type":"Feature","geometry":null},{"properties":{"region":"CHI","county":"Nelson","geo_score":0.0,"distributor":"Glazer's Distributors of Indiana","dsm":"OPEN","id":"ahacy73ivazf","geo_precision":"unmatched","state":"KY"},"type":"Feature","geometry":null},{"properties":{"region":"CHI","county":"Nicholas","geo_score":0.0,"distributor":"Glazer's Distributors of Indiana","dsm":"OPEN","id":"ahacy72v3agg","geo_precision":"unmatched","state":"KY"},"type":"Feature","geometry":null},{"properties":{"region":"CHI","county":"Oldham","geo_score":0.0,"distributor":"Glazer's Distributors of Indiana","dsm":"OPEN","id":"ahacy75ek5rd","geo_precision":"unmatched","state":"KY"},"type":"Feature","geometry":null},{"properties":{"region":"CHI","county":"Owsley","geo_score":0.0,"distributor":"Glazer's Distributors of Indiana","dsm":"OPEN","id":"ahacy6udzstw","geo_precision":"unmatched","state":"KY"},"type":"Feature","geometry":null},{"properties":{"region":"CHI","county":"Perry","geo_score":0.0,"distributor":"Glazer's Distributors of Indiana","dsm":"OPEN","id":"ahacy72srjix","geo_precision":"unmatched","state":"KY"},"type":"Feature","geometry":null},{"properties":{"region":"CHI","county":"Pike","geo_score":0.0,"distributor":"Glazer's Distributors of Indiana","dsm":"OPEN","id":"ahacy71pft8y","geo_precision":"unmatched","state":"KY"},"type":"Feature","geometry":null},{"properties":{"region":"CHI","county":"Powell","geo_score":0.0,"distributor":"Glazer's Distributors of Indiana","dsm":"OPEN","id":"ahacy79kzijx","geo_precision":"unmatched","state":"KY"},"type":"Feature","geometry":null},{"properties":{"region":"CHI","county":"Pulaski","geo_score":0.0,"distributor":"Glazer's Distributors of Indiana","dsm":"OPEN","id":"ahacy6u1j56t","geo_precision":"unmatched","state":"KY"},"type":"Feature","geometry":null},{"properties":{"region":"CHI","county":"Robertson","geo_score":0.0,"distributor":"Glazer's Distributors of Indiana","dsm":"OPEN","id":"ahacy6yu9ptq","geo_precision":"unmatched","state":"KY"},"type":"Feature","geometry":null},{"properties":{"region":"CHI","county":"Rockcastle","geo_score":0.0,"distributor":"Glazer's Distributors of Indiana","dsm":"OPEN","id":"ahacy6tk1l71","geo_precision":"unmatched","state":"KY"},"type":"Feature","geometry":null},{"properties":{"region":"CHI","county":"Rowan","geo_score":0.0,"distributor":"Glazer's Distributors of Indiana","dsm":"OPEN","id":"ahacy706txf0","geo_precision":"unmatched","state":"KY"},"type":"Feature","geometry":null},{"properties":{"region":"CHI","county":"Russell","geo_score":0.0,"distributor":"Glazer's Distributors of Indiana","dsm":"OPEN","id":"ahacy78001it","geo_precision":"unmatched","state":"KY"},"type":"Feature","geometry":null},{"properties":{"region":"CHI","county":"Scott","geo_score":0.0,"distributor":"Glazer's Distributors of Indiana","dsm":"OPEN","id":"ahacy6vjqt3i","geo_precision":"unmatched","state":"KY"},"type":"Feature","geometry":null},{"properties":{"region":"CHI","county":"Shelby","geo_score":0.0,"distributor":"Glazer's Distributors of Indiana","dsm":"OPEN","id":"ahacy6uzlls4","geo_precision":"unmatched","state":"KY"},"type":"Feature","geometry":null},{"properties":{"region":"CHI","county":"Spencer","geo_score":0.0,"distributor":"Glazer's Distributors of Indiana","dsm":"OPEN","id":"ahacy728no5k","geo_precision":"unmatched","state":"KY"},"type":"Feature","geometry":null},{"properties":{"region":"CHI","county":"Taylor","geo_score":0.0,"distributor":"Glazer's Distributors of Indiana","dsm":"OPEN","id":"ahacy7913ahu","geo_precision":"unmatched","state":"KY"},"type":"Feature","geometry":null},{"properties":{"region":"CHI","county":"Trimble","geo_score":0.0,"distributor":"Glazer's Distributors of Indiana","dsm":"OPEN","id":"ahacy733m4g3","geo_precision":"unmatched","state":"KY"},"type":"Feature","geometry":null},{"properties":{"region":"CHI","county":"Washington","geo_score":0.0,"distributor":"Glazer's Distributors of Indiana","dsm":"OPEN","id":"ahacy707i34a","geo_precision":"unmatched","state":"KY"},"type":"Feature","geometry":null},{"properties":{"region":"CHI","county":"Wayne","geo_score":0.0,"distributor":"Glazer's Distributors of Indiana","dsm":"OPEN","id":"ahacy738fcmw","geo_precision":"unmatched","state":"KY"},"type":"Feature","geometry":null},{"properties":{"region":"CHI","county":"Whitley","geo_score":0.0,"distributor":"Glazer's Distributors of Indiana","dsm":"OPEN","id":"ahacy772judn","geo_precision":"unmatched","state":"KY"},"type":"Feature","geometry":null},{"properties":{"region":"CHI","county":"Wolfe","geo_score":0.0,"distributor":"Glazer's Distributors of Indiana","dsm":"OPEN","id":"ahacy6th1bjo","geo_precision":"unmatched","state":"KY"},"type":"Feature","geometry":null},{"properties":{"region":"CHI","county":"Woodford","geo_score":0.0,"distributor":"Glazer's Distributors of Indiana","dsm":"OPEN","id":"ahacy6zx0ogs","geo_precision":"unmatched","state":"KY"},"type":"Feature","geometry":null},{"properties":{"region":"CHI","county":"Brown","geo_score":0.0,"distributor":"Power Distributing","dsm":"OPEN","id":"ahacy6zs6aat","geo_precision":"unmatched","state":"IL"},"type":"Feature","geometry":null},{"properties":{"region":"CHI","county":"Cumberland","geo_score":0.0,"distributor":"Power Distributing","dsm":"OPEN","id":"ahacy6tjgo7o","geo_precision":"unmatched","state":"IL"},"type":"Feature","geometry":null},{"properties":{"region":"CHI","county":"Douglas","geo_score":0.0,"distributor":"Power Distributing","dsm":"OPEN","id":"ahacy6x3ccde","geo_precision":"unmatched","state":"IL"},"type":"Feature","geometry":null},{"properties":{"region":"CHI","county":"Ford","geo_score":0.0,"distributor":"Power Distributing","dsm":"OPEN","id":"ahacy6wdbxyb","geo_precision":"unmatched","state":"IL"},"type":"Feature","geometry":null},{"properties":{"region":"CHI","county":"Hancock","geo_score":0.0,"distributor":"Power Distributing","dsm":"OPEN","id":"ahacy74n3gnw","geo_precision":"unmatched","state":"IL"},"type":"Feature","geometry":null},{"properties":{"region":"CHI","county":"Henderson","geo_score":0.0,"distributor":"Power Distributing","dsm":"OPEN","id":"ahacy7131kb2","geo_precision":"unmatched","state":"IL"},"type":"Feature","geometry":null},{"properties":{"region":"CHI","county":"Marshall","geo_score":0.0,"distributor":"Power Distributing","dsm":"OPEN","id":"ahacy77naxa0","geo_precision":"unmatched","state":"IL"},"type":"Feature","geometry":null},{"properties":{"region":"CHI","county":"Mason","geo_score":0.0,"distributor":"Power Distributing","dsm":"OPEN","id":"ahacy74dso93","geo_precision":"unmatched","state":"IL"},"type":"Feature","geometry":null},{"properties":{"region":"CHI","county":"Menard","geo_score":0.0,"distributor":"Power Distributing","dsm":"OPEN","id":"ahacy77cc5by","geo_precision":"unmatched","state":"IL"},"type":"Feature","geometry":null},{"properties":{"region":"CHI","county":"Moultrie","geo_score":0.0,"distributor":"Power Distributing","dsm":"OPEN","id":"ahacy72fl017","geo_precision":"unmatched","state":"IL"},"type":"Feature","geometry":null},{"properties":{"region":"CHI","county":"Piatt","geo_score":0.0,"distributor":"Power Distributing","dsm":"OPEN","id":"ahacy76zl8gz","geo_precision":"unmatched","state":"IL"},"type":"Feature","geometry":null},{"properties":{"region":"CHI","county":"Putnam","geo_score":0.0,"distributor":"Power Distributing","dsm":"OPEN","id":"ahacy709wmcz","geo_precision":"unmatched","state":"IL"},"type":"Feature","geometry":null},{"properties":{"region":"CHI","county":"Schuyler","geo_score":0.0,"distributor":"Power Distributing","dsm":"OPEN","id":"ahacy703w2jv","geo_precision":"unmatched","state":"IL"},"type":"Feature","geometry":null},{"properties":{"region":"CHI","county":"Scott","geo_score":0.0,"distributor":"Power Distributing","dsm":"OPEN","id":"ahacy78ft4h4","geo_precision":"unmatched","state":"IL"},"type":"Feature","geometry":null},{"properties":{"region":"CHI","county":"Stark","geo_score":0.0,"distributor":"Power Distributing","dsm":"OPEN","id":"ahacy77lo1tp","geo_precision":"unmatched","state":"IL"},"type":"Feature","geometry":null},{"properties":{"region":"CHI","county":"Warren","geo_score":0.0,"distributor":"Power Distributing","dsm":"OPEN","id":"ahacy75yv9pr","geo_precision":"unmatched","state":"IL"},"type":"Feature","geometry":null},{"properties":{"region":"CHI","county":"Woodford","geo_score":0.0,"distributor":"Power Distributing","dsm":"OPEN","id":"ahacy6zdol7e","geo_precision":"unmatched","state":"IL"},"type":"Feature","geometry":null},{"properties":{"region":"CHI","county":"Adams","geo_score":0.0,"distributor":"Power Distributing - Central","dsm":"OPEN","id":"ahacy70clpf7","geo_precision":"unmatched","state":"IL"},"type":"Feature","geometry":null},{"properties":{"region":"CHI","county":"Bureau","geo_score":0.0,"distributor":"Power Distributing - Central","dsm":"OPEN","id":"ahacy77qftiz","geo_precision":"unmatched","state":"IL"},"type":"Feature","geometry":null},{"properties":{"region":"CHI","county":"Cass","geo_score":0.0,"distributor":"Power Distributing - Central","dsm":"OPEN","id":"ahacy78rcnfa","geo_precision":"unmatched","state":"IL"},"type":"Feature","geometry":null},{"properties":{"region":"CHI","county":"Champaign","geo_score":0.0,"distributor":"Power Distributing - Central","dsm":"OPEN","id":"ahacy78rz0qt","geo_precision":"unmatched","state":"IL"},"type":"Feature","geometry":null},{"properties":{"region":"CHI","county":"Christian","geo_score":0.0,"distributor":"Power Distributing - Central","dsm":"OPEN","id":"ahacy79gl4b7","geo_precision":"unmatched","state":"IL"},"type":"Feature","geometry":null},{"properties":{"region":"CHI","county":"De Witt","geo_score":0.0,"distributor":"Power Distributing - Central","dsm":"OPEN","id":"ahacy73ru69r","geo_precision":"unmatched","state":"IL"},"type":"Feature","geometry":null},{"properties":{"region":"CHI","county":"Fulton","geo_score":0.0,"distributor":"Power Distributing - Central","dsm":"OPEN","id":"ahacy765f1hs","geo_precision":"unmatched","state":"IL"},"type":"Feature","geometry":null},{"properties":{"region":"CHI","county":"Henry","geo_score":0.0,"distributor":"Power Distributing - Central","dsm":"OPEN","id":"ahacy74v6jkw","geo_precision":"unmatched","state":"IL"},"type":"Feature","geometry":null},{"properties":{"region":"CHI","county":"Knox","geo_score":0.0,"distributor":"Power Distributing - Central","dsm":"OPEN","id":"ahacy7108in1","geo_precision":"unmatched","state":"IL"},"type":"Feature","geometry":null},{"properties":{"region":"CHI","county":"La Salle","geo_score":0.0,"distributor":"Power Distributing - Central","dsm":"OPEN","id":"ahacy78ehrrn","geo_precision":"unmatched","state":"IL"},"type":"Feature","geometry":null},{"properties":{"region":"CHI","county":"Livingston","geo_score":0.0,"distributor":"Power Distributing - Central","dsm":"OPEN","id":"ahacy6wt6jq1","geo_precision":"unmatched","state":"IL"},"type":"Feature","geometry":null},{"properties":{"region":"CHI","county":"Logan","geo_score":0.0,"distributor":"Power Distributing - Central","dsm":"OPEN","id":"ahacy7321fki","geo_precision":"unmatched","state":"IL"},"type":"Feature","geometry":null},{"properties":{"region":"CHI","county":"Macon","geo_score":0.0,"distributor":"Power Distributing - Central","dsm":"OPEN","id":"ahacy75hgixw","geo_precision":"unmatched","state":"IL"},"type":"Feature","geometry":null},{"properties":{"region":"CHI","county":"McDonough","geo_score":0.0,"distributor":"Power Distributing - Central","dsm":"OPEN","id":"ahacy764k64w","geo_precision":"unmatched","state":"IL"},"type":"Feature","geometry":null},{"properties":{"region":"CHI","county":"McLean","geo_score":0.0,"distributor":"Power Distributing - Central","dsm":"OPEN","id":"ahacy6xd0ltw","geo_precision":"unmatched","state":"IL"},"type":"Feature","geometry":null},{"properties":{"region":"CHI","county":"Mercer","geo_score":0.0,"distributor":"Power Distributing - Central","dsm":"OPEN","id":"ahacy71x23vq","geo_precision":"unmatched","state":"IL"},"type":"Feature","geometry":null},{"properties":{"region":"CHI","county":"Morgan","geo_score":0.0,"distributor":"Power Distributing - Central","dsm":"OPEN","id":"ahacy712464y","geo_precision":"unmatched","state":"IL"},"type":"Feature","geometry":null},{"properties":{"region":"CHI","county":"Ogle","geo_score":0.0,"distributor":"Power Distributing - Central","dsm":"OPEN","id":"ahacy6v377tm","geo_precision":"unmatched","state":"IL"},"type":"Feature","geometry":null},{"properties":{"region":"CHI","county":"Peoria","geo_score":0.0,"distributor":"Power Distributing - Central","dsm":"OPEN","id":"ahacy6u8c7c5","geo_precision":"unmatched","state":"IL"},"type":"Feature","geometry":null},{"properties":{"region":"CHI","county":"Pike","geo_score":0.0,"distributor":"Power Distributing - Central","dsm":"OPEN","id":"ahacy765jlr9","geo_precision":"unmatched","state":"IL"},"type":"Feature","geometry":null},{"properties":{"region":"CHI","county":"Sangamon","geo_score":0.0,"distributor":"Power Distributing - Central","dsm":"OPEN","id":"ahacy6y6h8l4","geo_precision":"unmatched","state":"IL"},"type":"Feature","geometry":null},{"properties":{"region":"CHI","county":"Shelby","geo_score":0.0,"distributor":"Power Distributing - Central","dsm":"OPEN","id":"ahacy727plqy","geo_precision":"unmatched","state":"IL"},"type":"Feature","geometry":null},{"properties":{"region":"CHI","county":"Tazewell","geo_score":0.0,"distributor":"Power Distributing - Central","dsm":"OPEN","id":"ahacy6uh2k8l","geo_precision":"unmatched","state":"IL"},"type":"Feature","geometry":null},{"properties":{"region":"CHI","county":"Vermilion","geo_score":0.0,"distributor":"Power Distributing - Central","dsm":"OPEN","id":"ahacy77dt4bh","geo_precision":"unmatched","state":"IL"},"type":"Feature","geometry":null},{"properties":{"region":"CHI","county":"Whiteside","geo_score":0.0,"distributor":"Power Distributing - Central","dsm":"OPEN","id":"ahacy71efbj0","geo_precision":"unmatched","state":"IL"},"type":"Feature","geometry":null},{"properties":{"region":"CHI","county":"Boone","geo_score":0.0,"distributor":"Power Distributing - Chicago","dsm":"OPEN","id":"ahacy701dcrf","geo_precision":"unmatched","state":"IL"},"type":"Feature","geometry":null},{"properties":{"region":"CHI","county":"Cook","geo_score":0.0,"distributor":"Power Distributing - Chicago","dsm":"OPEN","id":"ahacy73mqj4v","geo_precision":"unmatched","state":"IL"},"type":"Feature","geometry":null},{"properties":{"region":"CHI","county":"DeKalb","geo_score":0.0,"distributor":"Power Distributing - Chicago","dsm":"OPEN","id":"ahacy6xhawsg","geo_precision":"unmatched","state":"IL"},"type":"Feature","geometry":null},{"properties":{"region":"CHI","county":"DuPage","geo_score":0.0,"distributor":"Power Distributing - Chicago","dsm":"OPEN","id":"ahacy75sh0vq","geo_precision":"unmatched","state":"IL"},"type":"Feature","geometry":null},{"properties":{"region":"CHI","county":"Grundy","geo_score":0.0,"distributor":"Power Distributing - Chicago","dsm":"OPEN","id":"ahacy70ouwj1","geo_precision":"unmatched","state":"IL"},"type":"Feature","geometry":null},{"properties":{"region":"CHI","county":"Iroquois","geo_score":0.0,"distributor":"Power Distributing - Chicago","dsm":"OPEN","id":"ahacy796u60h","geo_precision":"unmatched","state":"IL"},"type":"Feature","geometry":null},{"properties":{"region":"CHI","county":"Kane","geo_score":0.0,"distributor":"Power Distributing - Chicago","dsm":"OPEN","id":"ahacy75zrexw","geo_precision":"unmatched","state":"IL"},"type":"Feature","geometry":null},{"properties":{"region":"CHI","county":"Kankakee","geo_score":0.0,"distributor":"Power Distributing - Chicago","dsm":"OPEN","id":"ahacy6yf095t","geo_precision":"unmatched","state":"IL"},"type":"Feature","geometry":null},{"properties":{"region":"CHI","county":"Kendall","geo_score":0.0,"distributor":"Power Distributing - Chicago","dsm":"OPEN","id":"ahacy7547y7s","geo_precision":"unmatched","state":"IL"},"type":"Feature","geometry":null},{"properties":{"region":"CHI","county":"Lake","geo_score":0.0,"distributor":"Power Distributing - Chicago","dsm":"OPEN","id":"ahacy74czckc","geo_precision":"unmatched","state":"IL"},"type":"Feature","geometry":null},{"properties":{"region":"CHI","county":"Lee","geo_score":0.0,"distributor":"Power Distributing - Chicago","dsm":"OPEN","id":"ahacy78561dt","geo_precision":"unmatched","state":"IL"},"type":"Feature","geometry":null},{"properties":{"region":"CHI","county":"McHenry","geo_score":0.0,"distributor":"Power Distributing - Chicago","dsm":"OPEN","id":"ahacy744x3dr","geo_precision":"unmatched","state":"IL"},"type":"Feature","geometry":null},{"properties":{"region":"CHI","county":"Stephenson","geo_score":0.0,"distributor":"Power Distributing - Chicago","dsm":"OPEN","id":"ahacy710waqt","geo_precision":"unmatched","state":"IL"},"type":"Feature","geometry":null},{"properties":{"region":"CHI","county":"Will","geo_score":0.0,"distributor":"Power Distributing - Chicago","dsm":"OPEN","id":"ahacy79a2lvo","geo_precision":"unmatched","state":"IL"},"type":"Feature","geometry":null},{"properties":{"region":"CHI","county":"Winnebago","geo_score":0.0,"distributor":"Power Distributing - Chicago","dsm":"OPEN","id":"ahacy6xhxwyv","geo_precision":"unmatched","state":"IL"},"type":"Feature","geometry":null},{"properties":{"region":"CHI","county":"Adams","geo_score":0.0,"distributor":"Power Distributing - Indiana","dsm":"OPEN","id":"ahacy6y13ubz","geo_precision":"unmatched","state":"IN"},"type":"Feature","geometry":null},{"properties":{"region":"CHI","county":"Allen","geo_score":0.0,"distributor":"Power Distributing - Indiana","dsm":"OPEN","id":"ahacy6y4aq76","geo_precision":"unmatched","state":"IN"},"type":"Feature","geometry":null},{"properties":{"region":"CHI","county":"Benton","geo_score":0.0,"distributor":"Power Distributing - Indiana","dsm":"OPEN","id":"ahacy6zlngl4","geo_precision":"unmatched","state":"IN"},"type":"Feature","geometry":null},{"properties":{"region":"CHI","county":"Carroll","geo_score":0.0,"distributor":"Power Distributing - Indiana","dsm":"OPEN","id":"ahacy72xak5s","geo_precision":"unmatched","state":"IN"},"type":"Feature","geometry":null},{"properties":{"region":"CHI","county":"Cass","geo_score":0.0,"distributor":"Power Distributing - Indiana","dsm":"OPEN","id":"ahacy77tqe0j","geo_precision":"unmatched","state":"IN"},"type":"Feature","geometry":null},{"properties":{"region":"CHI","county":"DeKalb","geo_score":0.0,"distributor":"Power Distributing - Indiana","dsm":"OPEN","id":"ahacy78001za","geo_precision":"unmatched","state":"IN"},"type":"Feature","geometry":null},{"properties":{"region":"CHI","county":"Elkhart","geo_score":0.0,"distributor":"Power Distributing - Indiana","dsm":"OPEN","id":"ahacy77y7vjo","geo_precision":"unmatched","state":"IN"},"type":"Feature","geometry":null},{"properties":{"region":"CHI","county":"Fulton","geo_score":0.0,"distributor":"Power Distributing - Indiana","dsm":"OPEN","id":"ahacy6tsq3mc","geo_precision":"unmatched","state":"IN"},"type":"Feature","geometry":null},{"properties":{"region":"CHI","county":"Huntington","geo_score":0.0,"distributor":"Power Distributing - Indiana","dsm":"OPEN","id":"ahacy75xxh5t","geo_precision":"unmatched","state":"IN"},"type":"Feature","geometry":null},{"properties":{"region":"CHI","county":"Jasper","geo_score":0.0,"distributor":"Power Distributing - Indiana","dsm":"OPEN","id":"ahacy74woo94","geo_precision":"unmatched","state":"IN"},"type":"Feature","geometry":null},{"properties":{"region":"CHI","county":"Jay","geo_score":0.0,"distributor":"Power Distributing - Indiana","dsm":"OPEN","id":"ahacy73496l6","geo_precision":"unmatched","state":"IN"},"type":"Feature","geometry":null},{"properties":{"region":"CHI","county":"Kosciusko","geo_score":0.0,"distributor":"Power Distributing - Indiana","dsm":"OPEN","id":"ahacy78pmtuc","geo_precision":"unmatched","state":"IN"},"type":"Feature","geometry":null},{"properties":{"region":"CHI","county":"LaGrange","geo_score":0.0,"distributor":"Power Distributing - Indiana","dsm":"OPEN","id":"ahacy71nuqlo","geo_precision":"unmatched","state":"IN"},"type":"Feature","geometry":null},{"properties":{"region":"CHI","county":"Lake","geo_score":0.0,"distributor":"Power Distributing - Indiana","dsm":"OPEN","id":"ahacy71skerq","geo_precision":"unmatched","state":"IN"},"type":"Feature","geometry":null},{"properties":{"region":"CHI","county":"LaPorte","geo_score":0.0,"distributor":"Power Distributing - Indiana","dsm":"OPEN","id":"ahacy75kd5k5","geo_precision":"unmatched","state":"IN"},"type":"Feature","geometry":null},{"properties":{"region":"CHI","county":"Marshall","geo_score":0.0,"distributor":"Power Distributing - Indiana","dsm":"OPEN","id":"ahacy77ra5tx","geo_precision":"unmatched","state":"IN"},"type":"Feature","geometry":null},{"properties":{"region":"CHI","county":"Miami","geo_score":0.0,"distributor":"Power Distributing - Indiana","dsm":"OPEN","id":"ahacy6y52laf","geo_precision":"unmatched","state":"IN"},"type":"Feature","geometry":null},{"properties":{"region":"CHI","county":"Newton","geo_score":0.0,"distributor":"Power Distributing - Indiana","dsm":"OPEN","id":"ahacy762tgp9","geo_precision":"unmatched","state":"IN"},"type":"Feature","geometry":null},{"properties":{"region":"CHI","county":"Noble","geo_score":0.0,"distributor":"Power Distributing - Indiana","dsm":"OPEN","id":"ahacy6wg485y","geo_precision":"unmatched","state":"IN"},"type":"Feature","geometry":null},{"properties":{"region":"CHI","county":"Porter","geo_score":0.0,"distributor":"Power Distributing - Indiana","dsm":"OPEN","id":"ahacy74qszaf","geo_precision":"unmatched","state":"IN"},"type":"Feature","geometry":null},{"properties":{"region":"CHI","county":"Pulaski","geo_score":0.0,"distributor":"Power Distributing - Indiana","dsm":"OPEN","id":"ahacy6udbiti","geo_precision":"unmatched","state":"IN"},"type":"Feature","geometry":null},{"properties":{"region":"CHI","county":"St. Joseph","geo_score":0.0,"distributor":"Power Distributing - Indiana","dsm":"OPEN","id":"ahacy77s9ldv","geo_precision":"unmatched","state":"IN"},"type":"Feature","geometry":null},{"properties":{"region":"CHI","county":"Starke","geo_score":0.0,"distributor":"Power Distributing - Indiana","dsm":"OPEN","id":"ahacy6zf032p","geo_precision":"unmatched","state":"IN"},"type":"Feature","geometry":null},{"properties":{"region":"CHI","county":"Steuben","geo_score":0.0,"distributor":"Power Distributing - Indiana","dsm":"OPEN","id":"ahacy6xexjv8","geo_precision":"unmatched","state":"IN"},"type":"Feature","geometry":null},{"properties":{"region":"CHI","county":"Wabash","geo_score":0.0,"distributor":"Power Distributing - Indiana","dsm":"OPEN","id":"ahacy78po6g0","geo_precision":"unmatched","state":"IN"},"type":"Feature","geometry":null},{"properties":{"region":"CHI","county":"Wells","geo_score":0.0,"distributor":"Power Distributing - Indiana","dsm":"OPEN","id":"ahacy71rf05k","geo_precision":"unmatched","state":"IN"},"type":"Feature","geometry":null},{"properties":{"region":"CHI","county":"White","geo_score":0.0,"distributor":"Power Distributing - Indiana","dsm":"OPEN","id":"ahacy748gszk","geo_precision":"unmatched","state":"IN"},"type":"Feature","geometry":null},{"properties":{"region":"CHI","county":"Whitley","geo_score":0.0,"distributor":"Power Distributing - Indiana","dsm":"OPEN","id":"ahacy78xpscx","geo_precision":"unmatched","state":"IN"},"type":"Feature","geometry":null},{"properties":{"region":"CHI","county":"Clay","geo_score":0.0,"distributor":"Royal Crown Bottling Corp.","dsm":"OPEN","id":"ahacy74un7h4","geo_precision":"unmatched","state":"IN"},"type":"Feature","geometry":null},{"properties":{"region":"CHI","county":"Dubois","geo_score":0.0,"distributor":"Royal Crown Bottling Corp.","dsm":"OPEN","id":"ahacy78alncq","geo_precision":"unmatched","state":"IN"},"type":"Feature","geometry":null},{"properties":{"region":"CHI","county":"Fountain","geo_score":0.0,"distributor":"Royal Crown Bottling Corp.","dsm":"OPEN","id":"ahacy7497mdx","geo_precision":"unmatched","state":"IN"},"type":"Feature","geometry":null},{"properties":{"region":"CHI","county":"Gibson","geo_score":0.0,"distributor":"Royal Crown Bottling Corp.","dsm":"OPEN","id":"ahacy70ytnr1","geo_precision":"unmatched","state":"IN"},"type":"Feature","geometry":null},{"properties":{"region":"CHI","county":"Greene","geo_score":0.0,"distributor":"Royal Crown Bottling Corp.","dsm":"OPEN","id":"ahacy6zg7q1a","geo_precision":"unmatched","state":"IN"},"type":"Feature","geometry":null},{"properties":{"region":"CHI","county":"Knox","geo_score":0.0,"distributor":"Royal Crown Bottling Corp.","dsm":"OPEN","id":"ahacy72be65n","geo_precision":"unmatched","state":"IN"},"type":"Feature","geometry":null},{"properties":{"region":"CHI","county":"Martin","geo_score":0.0,"distributor":"Royal Crown Bottling Corp.","dsm":"OPEN","id":"ahacy792l72c","geo_precision":"unmatched","state":"IN"},"type":"Feature","geometry":null},{"properties":{"region":"CHI","county":"Owen","geo_score":0.0,"distributor":"Royal Crown Bottling Corp.","dsm":"OPEN","id":"ahacy74o1dv0","geo_precision":"unmatched","state":"IN"},"type":"Feature","geometry":null},{"properties":{"region":"CHI","county":"Parke","geo_score":0.0,"distributor":"Royal Crown Bottling Corp.","dsm":"OPEN","id":"ahacy73li5ot","geo_precision":"unmatched","state":"IN"},"type":"Feature","geometry":null},{"properties":{"region":"CHI","county":"Perry","geo_score":0.0,"distributor":"Royal Crown Bottling Corp.","dsm":"OPEN","id":"ahacy74fjwhu","geo_precision":"unmatched","state":"IN"},"type":"Feature","geometry":null},{"properties":{"region":"CHI","county":"Pike","geo_score":0.0,"distributor":"Royal Crown Bottling Corp.","dsm":"OPEN","id":"ahacy6t9b926","geo_precision":"unmatched","state":"IN"},"type":"Feature","geometry":null},{"properties":{"region":"CHI","county":"Posey","geo_score":0.0,"distributor":"Royal Crown Bottling Corp.","dsm":"OPEN","id":"ahacy76kffio","geo_precision":"unmatched","state":"IN"},"type":"Feature","geometry":null},{"properties":{"region":"CHI","county":"Spencer","geo_score":0.0,"distributor":"Royal Crown Bottling Corp.","dsm":"OPEN","id":"ahacy77ch3gr","geo_precision":"unmatched","state":"IN"},"type":"Feature","geometry":null},{"properties":{"region":"CHI","county":"Sullivan","geo_score":0.0,"distributor":"Royal Crown Bottling Corp.","dsm":"OPEN","id":"ahacy70q4a6j","geo_precision":"unmatched","state":"IN"},"type":"Feature","geometry":null},{"properties":{"region":"CHI","county":"Vanderburgh","geo_score":0.0,"distributor":"Royal Crown Bottling Corp.","dsm":"OPEN","id":"ahacy70ilyg5","geo_precision":"unmatched","state":"IN"},"type":"Feature","geometry":null},{"properties":{"region":"CHI","county":"Vermillion","geo_score":0.0,"distributor":"Royal Crown Bottling Corp.","dsm":"OPEN","id":"ahacy75ltmnl","geo_precision":"unmatched","state":"IN"},"type":"Feature","geometry":null},{"properties":{"region":"CHI","county":"Vigo","geo_score":0.0,"distributor":"Royal Crown Bottling Corp.","dsm":"OPEN","id":"ahacy70pkcbb","geo_precision":"unmatched","state":"IN"},"type":"Feature","geometry":null},{"properties":{"region":"CHI","county":"Warrick","geo_score":0.0,"distributor":"Royal Crown Bottling Corp.","dsm":"OPEN","id":"ahacy77haf6h","geo_precision":"unmatched","state":"IN"},"type":"Feature","geometry":null},{"properties":{"region":"CHI","county":"Allen","geo_score":0.0,"distributor":"Royal Crown Bottling Corp.","dsm":"OPEN","id":"ahacy6y3ahh2","geo_precision":"unmatched","state":"KY"},"type":"Feature","geometry":null},{"properties":{"region":"CHI","county":"Ballard","geo_score":0.0,"distributor":"Royal Crown Bottling Corp.","dsm":"OPEN","id":"ahacy71iku2s","geo_precision":"unmatched","state":"KY"},"type":"Feature","geometry":null},{"properties":{"region":"CHI","county":"Barren","geo_score":0.0,"distributor":"Royal Crown Bottling Corp.","dsm":"OPEN","id":"ahacy6twcyve","geo_precision":"unmatched","state":"KY"},"type":"Feature","geometry":null},{"properties":{"region":"CHI","county":"Breckinridge","geo_score":0.0,"distributor":"Royal Crown Bottling Corp.","dsm":"OPEN","id":"ahacy6tbzmvs","geo_precision":"unmatched","state":"KY"},"type":"Feature","geometry":null},{"properties":{"region":"CHI","county":"Butler","geo_score":0.0,"distributor":"Royal Crown Bottling Corp.","dsm":"OPEN","id":"ahacy74vjgjl","geo_precision":"unmatched","state":"KY"},"type":"Feature","geometry":null},{"properties":{"region":"CHI","county":"Caldwell","geo_score":0.0,"distributor":"Royal Crown Bottling Corp.","dsm":"OPEN","id":"ahacy6txkc6p","geo_precision":"unmatched","state":"KY"},"type":"Feature","geometry":null},{"properties":{"region":"CHI","county":"Calloway","geo_score":0.0,"distributor":"Royal Crown Bottling Corp.","dsm":"OPEN","id":"ahacy6yk2v8o","geo_precision":"unmatched","state":"KY"},"type":"Feature","geometry":null},{"properties":{"region":"CHI","county":"Christian","geo_score":0.0,"distributor":"Royal Crown Bottling Corp.","dsm":"OPEN","id":"ahacy6v49zwy","geo_precision":"unmatched","state":"KY"},"type":"Feature","geometry":null},{"properties":{"region":"CHI","county":"Crittenden","geo_score":0.0,"distributor":"Royal Crown Bottling Corp.","dsm":"OPEN","id":"ahacy77n6dbz","geo_precision":"unmatched","state":"KY"},"type":"Feature","geometry":null},{"properties":{"region":"CHI","county":"Daviess","geo_score":0.0,"distributor":"Royal Crown Bottling Corp.","dsm":"OPEN","id":"ahacy77tksqt","geo_precision":"unmatched","state":"KY"},"type":"Feature","geometry":null},{"properties":{"region":"CHI","county":"Edmonson","geo_score":0.0,"distributor":"Royal Crown Bottling Corp.","dsm":"OPEN","id":"ahacy6ucy2yi","geo_precision":"unmatched","state":"KY"},"type":"Feature","geometry":null},{"properties":{"region":"CHI","county":"Fulton","geo_score":0.0,"distributor":"Royal Crown Bottling Corp.","dsm":"OPEN","id":"ahacy78plv2j","geo_precision":"unmatched","state":"KY"},"type":"Feature","geometry":null},{"properties":{"region":"CHI","county":"Graves","geo_score":0.0,"distributor":"Royal Crown Bottling Corp.","dsm":"OPEN","id":"ahacy6zawhl0","geo_precision":"unmatched","state":"KY"},"type":"Feature","geometry":null},{"properties":{"region":"CHI","county":"Grayson","geo_score":0.0,"distributor":"Royal Crown Bottling Corp.","dsm":"OPEN","id":"ahacy6v98iud","geo_precision":"unmatched","state":"KY"},"type":"Feature","geometry":null},{"properties":{"region":"CHI","county":"Hancock","geo_score":0.0,"distributor":"Royal Crown Bottling Corp.","dsm":"OPEN","id":"ahacy71ja5ch","geo_precision":"unmatched","state":"KY"},"type":"Feature","geometry":null},{"properties":{"region":"CHI","county":"Hart","geo_score":0.0,"distributor":"Royal Crown Bottling Corp.","dsm":"OPEN","id":"ahacy6vhmh3p","geo_precision":"unmatched","state":"KY"},"type":"Feature","geometry":null},{"properties":{"region":"CHI","county":"Henderson","geo_score":0.0,"distributor":"Royal Crown Bottling Corp.","dsm":"OPEN","id":"ahacy6wg5aju","geo_precision":"unmatched","state":"KY"},"type":"Feature","geometry":null},{"properties":{"region":"CHI","county":"Hickman","geo_score":0.0,"distributor":"Royal Crown Bottling Corp.","dsm":"OPEN","id":"ahacy76dnuxz","geo_precision":"unmatched","state":"KY"},"type":"Feature","geometry":null},{"properties":{"region":"CHI","county":"Hopkins","geo_score":0.0,"distributor":"Royal Crown Bottling Corp.","dsm":"OPEN","id":"ahacy71bqg8y","geo_precision":"unmatched","state":"KY"},"type":"Feature","geometry":null},{"properties":{"region":"CHI","county":"Livingston","geo_score":0.0,"distributor":"Royal Crown Bottling Corp.","dsm":"OPEN","id":"ahacy70n8bjf","geo_precision":"unmatched","state":"KY"},"type":"Feature","geometry":null},{"properties":{"region":"CHI","county":"Logan","geo_score":0.0,"distributor":"Royal Crown Bottling Corp.","dsm":"OPEN","id":"ahacy6xqseit","geo_precision":"unmatched","state":"KY"},"type":"Feature","geometry":null},{"properties":{"region":"CHI","county":"Lyon","geo_score":0.0,"distributor":"Royal Crown Bottling Corp.","dsm":"OPEN","id":"ahacy6v05b3l","geo_precision":"unmatched","state":"KY"},"type":"Feature","geometry":null},{"properties":{"region":"CHI","county":"Marshall","geo_score":0.0,"distributor":"Royal Crown Bottling Corp.","dsm":"OPEN","id":"ahacy73x1lln","geo_precision":"unmatched","state":"KY"},"type":"Feature","geometry":null},{"properties":{"region":"CHI","county":"McCracken","geo_score":0.0,"distributor":"Royal Crown Bottling Corp.","dsm":"OPEN","id":"ahacy6x4j1ui","geo_precision":"unmatched","state":"KY"},"type":"Feature","geometry":null},{"properties":{"region":"CHI","county":"McLean","geo_score":0.0,"distributor":"Royal Crown Bottling Corp.","dsm":"OPEN","id":"ahacy762gddm","geo_precision":"unmatched","state":"KY"},"type":"Feature","geometry":null},{"properties":{"region":"CHI","county":"Metcalfe","geo_score":0.0,"distributor":"Royal Crown Bottling Corp.","dsm":"OPEN","id":"ahacy71sqcz2","geo_precision":"unmatched","state":"KY"},"type":"Feature","geometry":null},{"properties":{"region":"CHI","county":"Monroe","geo_score":0.0,"distributor":"Royal Crown Bottling Corp.","dsm":"OPEN","id":"ahacy748d0pf","geo_precision":"unmatched","state":"KY"},"type":"Feature","geometry":null},{"properties":{"region":"CHI","county":"Muhlenberg","geo_score":0.0,"distributor":"Royal Crown Bottling Corp.","dsm":"OPEN","id":"ahacy716tvl1","geo_precision":"unmatched","state":"KY"},"type":"Feature","geometry":null},{"properties":{"region":"CHI","county":"Ohio","geo_score":0.0,"distributor":"Royal Crown Bottling Corp.","dsm":"OPEN","id":"ahacy745b7rn","geo_precision":"unmatched","state":"KY"},"type":"Feature","geometry":null},{"properties":{"region":"CHI","county":"Simpson","geo_score":0.0,"distributor":"Royal Crown Bottling Corp.","dsm":"OPEN","id":"ahacy72c3mdj","geo_precision":"unmatched","state":"KY"},"type":"Feature","geometry":null},{"properties":{"region":"CHI","county":"Todd","geo_score":0.0,"distributor":"Royal Crown Bottling Corp.","dsm":"OPEN","id":"ahacy72s0d93","geo_precision":"unmatched","state":"KY"},"type":"Feature","geometry":null},{"properties":{"region":"CHI","county":"Trigg","geo_score":0.0,"distributor":"Royal Crown Bottling Corp.","dsm":"OPEN","id":"ahacy77dk99v","geo_precision":"unmatched","state":"KY"},"type":"Feature","geometry":null},{"properties":{"region":"CHI","county":"Union","geo_score":0.0,"distributor":"Royal Crown Bottling Corp.","dsm":"OPEN","id":"ahacy78a41ju","geo_precision":"unmatched","state":"KY"},"type":"Feature","geometry":null},{"properties":{"region":"CHI","county":"Warren","geo_score":0.0,"distributor":"Royal Crown Bottling Corp.","dsm":"OPEN","id":"ahacy78xkkyp","geo_precision":"unmatched","state":"KY"},"type":"Feature","geometry":null},{"properties":{"region":"CHI","county":"Webster","geo_score":0.0,"distributor":"Royal Crown Bottling Corp.","dsm":"OPEN","id":"ahacy6xs7vq6","geo_precision":"unmatched","state":"KY"},"type":"Feature","geometry":null},{"properties":{"region":"CHI","county":"Bollinger","geo_score":0.0,"distributor":"Royal Crown Bottling Corp.","dsm":"OPEN","id":"ahacy74st6w9","geo_precision":"unmatched","state":"MO"},"type":"Feature","geometry":null},{"properties":{"region":"CHI","county":"Cape Girardeau","geo_score":0.0,"distributor":"Royal Crown Bottling Corp.","dsm":"OPEN","id":"ahacy6v9x1b5","geo_precision":"unmatched","state":"MO"},"type":"Feature","geometry":null},{"properties":{"region":"CHI","county":"Carter","geo_score":0.0,"distributor":"Royal Crown Bottling Corp.","dsm":"OPEN","id":"ahacy6ybta7a","geo_precision":"unmatched","state":"MO"},"type":"Feature","geometry":null},{"properties":{"region":"CHI","county":"Dunklin","geo_score":0.0,"distributor":"Royal Crown Bottling Corp.","dsm":"OPEN","id":"ahacy6ye776s","geo_precision":"unmatched","state":"MO"},"type":"Feature","geometry":null},{"properties":{"region":"CHI","county":"Iron","geo_score":0.0,"distributor":"Royal Crown Bottling Corp.","dsm":"OPEN","id":"ahacy76ry1my","geo_precision":"unmatched","state":"MO"},"type":"Feature","geometry":null},{"properties":{"region":"CHI","county":"Madison","geo_score":0.0,"distributor":"Royal Crown Bottling Corp.","dsm":"OPEN","id":"ahacy7821h42","geo_precision":"unmatched","state":"MO"},"type":"Feature","geometry":null},{"properties":{"region":"CHI","county":"Mississippi","geo_score":0.0,"distributor":"Royal Crown Bottling Corp.","dsm":"OPEN","id":"ahacy71fbhid","geo_precision":"unmatched","state":"MO"},"type":"Feature","geometry":null},{"properties":{"region":"CHI","county":"New Madrid","geo_score":0.0,"distributor":"Royal Crown Bottling Corp.","dsm":"OPEN","id":"ahacy77975cx","geo_precision":"unmatched","state":"MO"},"type":"Feature","geometry":null},{"properties":{"region":"CHI","county":"Pemiscot","geo_score":0.0,"distributor":"Royal Crown Bottling Corp.","dsm":"OPEN","id":"ahacy74a5nnm","geo_precision":"unmatched","state":"MO"},"type":"Feature","geometry":null},{"properties":{"region":"CHI","county":"Reynolds","geo_score":0.0,"distributor":"Royal Crown Bottling Corp.","dsm":"OPEN","id":"ahacy6txqi8m","geo_precision":"unmatched","state":"MO"},"type":"Feature","geometry":null},{"properties":{"region":"CHI","county":"Ripley","geo_score":0.0,"distributor":"Royal Crown Bottling Corp.","dsm":"OPEN","id":"ahacy6tzgxcz","geo_precision":"unmatched","state":"MO"},"type":"Feature","geometry":null},{"properties":{"region":"CHI","county":"Scott","geo_score":0.0,"distributor":"Royal Crown Bottling Corp.","dsm":"OPEN","id":"ahacy72fv1i2","geo_precision":"unmatched","state":"MO"},"type":"Feature","geometry":null},{"properties":{"region":"CHI","county":"St. Francois","geo_score":0.0,"distributor":"Royal Crown Bottling Corp.","dsm":"OPEN","id":"ahacy72w5wsn","geo_precision":"unmatched","state":"MO"},"type":"Feature","geometry":null},{"properties":{"region":"CHI","county":"Ste. Genevieve","geo_score":0.0,"distributor":"Royal Crown Bottling Corp.","dsm":"OPEN","id":"ahacy79ki300","geo_precision":"unmatched","state":"MO"},"type":"Feature","geometry":null},{"properties":{"region":"CHI","county":"Stoddard","geo_score":0.0,"distributor":"Royal Crown Bottling Corp.","dsm":"OPEN","id":"ahacy72z170q","geo_precision":"unmatched","state":"MO"},"type":"Feature","geometry":null},{"properties":{"region":"CHI","county":"Washington","geo_score":0.0,"distributor":"Royal Crown Bottling Corp.","dsm":"OPEN","id":"ahacy75egszp","geo_precision":"unmatched","state":"MO"},"type":"Feature","geometry":null},{"properties":{"region":"CHI","county":"Wayne","geo_score":0.0,"distributor":"Royal Crown Bottling Corp.","dsm":"OPEN","id":"ahacy6zltnbb","geo_precision":"unmatched","state":"MO"},"type":"Feature","geometry":null},{"properties":{"region":"CHI","county":"Buffalo","geo_score":0.0,"distributor":"General Beer Madison","dsm":"Wohlers","id":"ahacy6zwzysj","geo_precision":"unmatched","state":"WI"},"type":"Feature","geometry":null},{"properties":{"region":"CHI","county":"Columbia","geo_score":0.0,"distributor":"General Beer Madison","dsm":"Wohlers","id":"ahacy6vyuyev","geo_precision":"unmatched","state":"WI"},"type":"Feature","geometry":null},{"properties":{"region":"CHI","county":"Crawford","geo_score":0.0,"distributor":"General Beer Madison","dsm":"Wohlers","id":"ahacy6zs2jak","geo_precision":"unmatched","state":"WI"},"type":"Feature","geometry":null},{"properties":{"region":"CHI","county":"Dane","geo_score":0.0,"distributor":"General Beer Madison","dsm":"Wohlers","id":"ahacy6yddvqp","geo_precision":"unmatched","state":"WI"},"type":"Feature","geometry":null},{"properties":{"region":"CHI","county":"Dodge","geo_score":0.0,"distributor":"General Beer Madison","dsm":"Wohlers","id":"ahacy6wxg4f6","geo_precision":"unmatched","state":"WI"},"type":"Feature","geometry":null},{"properties":{"region":"CHI","county":"Grant","geo_score":0.0,"distributor":"General Beer Madison","dsm":"Wohlers","id":"ahacy73csd03","geo_precision":"unmatched","state":"WI"},"type":"Feature","geometry":null},{"properties":{"region":"CHI","county":"Green","geo_score":0.0,"distributor":"General Beer Madison","dsm":"Wohlers","id":"ahacy72joun6","geo_precision":"unmatched","state":"WI"},"type":"Feature","geometry":null},{"properties":{"region":"CHI","county":"Iowa","geo_score":0.0,"distributor":"General Beer Madison","dsm":"Wohlers","id":"ahacy6wyj8vi","geo_precision":"unmatched","state":"WI"},"type":"Feature","geometry":null},{"properties":{"region":"CHI","county":"Jackson","geo_score":0.0,"distributor":"General Beer Madison","dsm":"Wohlers","id":"ahacy70ti0rq","geo_precision":"unmatched","state":"WI"},"type":"Feature","geometry":null},{"properties":{"region":"CHI","county":"Jefferson","geo_score":0.0,"distributor":"General Beer Madison","dsm":"Wohlers","id":"ahacy73y8pse","geo_precision":"unmatched","state":"WI"},"type":"Feature","geometry":null},{"properties":{"region":"CHI","county":"Juneau","geo_score":0.0,"distributor":"General Beer Madison","dsm":"Wohlers","id":"ahacy6twp87k","geo_precision":"unmatched","state":"WI"},"type":"Feature","geometry":null},{"properties":{"region":"CHI","county":"La Crosse","geo_score":0.0,"distributor":"General Beer Madison","dsm":"Wohlers","id":"ahacy73zhmid","geo_precision":"unmatched","state":"WI"},"type":"Feature","geometry":null},{"properties":{"region":"CHI","county":"Lafayette","geo_score":0.0,"distributor":"General Beer Madison","dsm":"Wohlers","id":"ahacy784e0mx","geo_precision":"unmatched","state":"WI"},"type":"Feature","geometry":null},{"properties":{"region":"CHI","county":"Monroe","geo_score":0.0,"distributor":"General Beer Madison","dsm":"Wohlers","id":"ahacy75azq8m","geo_precision":"unmatched","state":"WI"},"type":"Feature","geometry":null},{"properties":{"region":"CHI","county":"Richland","geo_score":0.0,"distributor":"General Beer Madison","dsm":"Wohlers","id":"ahacy70ekvhe","geo_precision":"unmatched","state":"WI"},"type":"Feature","geometry":null},{"properties":{"region":"CHI","county":"Rock","geo_score":0.0,"distributor":"General Beer Madison","dsm":"Wohlers","id":"ahacy7585fmk","geo_precision":"unmatched","state":"WI"},"type":"Feature","geometry":null},{"properties":{"region":"CHI","county":"Sauk","geo_score":0.0,"distributor":"General Beer Madison","dsm":"Wohlers","id":"ahacy6vpiqzo","geo_precision":"unmatched","state":"WI"},"type":"Feature","geometry":null},{"properties":{"region":"CHI","county":"Trempealeau","geo_score":0.0,"distributor":"General Beer Madison","dsm":"Wohlers","id":"ahacy6z9miie","geo_precision":"unmatched","state":"WI"},"type":"Feature","geometry":null},{"properties":{"region":"CHI","county":"Vernon","geo_score":0.0,"distributor":"General Beer Madison","dsm":"Wohlers","id":"ahacy75y8xmt","geo_precision":"unmatched","state":"WI"},"type":"Feature","geometry":null},{"properties":{"region":"CHI","county":"Walworth","geo_score":0.0,"distributor":"General Beer Madison","dsm":"Wohlers","id":"ahacy6z1s2bu","geo_precision":"unmatched","state":"WI"},"type":"Feature","geometry":null},{"properties":{"region":"CHI","county":"Kenosha","geo_score":0.0,"distributor":"General Beverage Milwaukee","dsm":"Wohlers","id":"ahacy6zl9zgk","geo_precision":"unmatched","state":"WI"},"type":"Feature","geometry":null},{"properties":{"region":"CHI","county":"Milwaukee","geo_score":0.0,"distributor":"General Beverage Milwaukee","dsm":"Wohlers","id":"ahacy6vptk8x","geo_precision":"unmatched","state":"WI"},"type":"Feature","geometry":null},{"properties":{"region":"CHI","county":"Ozaukee","geo_score":0.0,"distributor":"General Beverage Milwaukee","dsm":"Wohlers","id":"ahacy78ot1tq","geo_precision":"unmatched","state":"WI"},"type":"Feature","geometry":null},{"properties":{"region":"CHI","county":"Racine","geo_score":0.0,"distributor":"General Beverage Milwaukee","dsm":"Wohlers","id":"ahacy6vgnu18","geo_precision":"unmatched","state":"WI"},"type":"Feature","geometry":null},{"properties":{"region":"CHI","county":"Walworth","geo_score":0.0,"distributor":"General Beverage Milwaukee","dsm":"Wohlers","id":"ahacy6uew06i","geo_precision":"unmatched","state":"WI"},"type":"Feature","geometry":null},{"properties":{"region":"CHI","county":"Washington","geo_score":0.0,"distributor":"General Beverage Milwaukee","dsm":"Wohlers","id":"ahacy70szjvs","geo_precision":"unmatched","state":"WI"},"type":"Feature","geometry":null},{"properties":{"region":"CHI","county":"Waukesha","geo_score":0.0,"distributor":"General Beverage Milwaukee","dsm":"Wohlers","id":"ahacy6ynuc9t","geo_precision":"unmatched","state":"WI"},"type":"Feature","geometry":null},{"properties":{"region":"CHI","county":"Barron","geo_score":0.0,"distributor":"General Beverage Northwest","dsm":"Wohlers","id":"ahacy71hwpif","geo_precision":"unmatched","state":"WI"},"type":"Feature","geometry":null},{"properties":{"region":"CHI","county":"Chippewa","geo_score":0.0,"distributor":"General Beverage Northwest","dsm":"Wohlers","id":"ahacy76iwoi7","geo_precision":"unmatched","state":"WI"},"type":"Feature","geometry":null},{"properties":{"region":"CHI","county":"Clark","geo_score":0.0,"distributor":"General Beverage Northwest","dsm":"Wohlers","id":"ahacy74x59sv","geo_precision":"unmatched","state":"WI"},"type":"Feature","geometry":null},{"properties":{"region":"CHI","county":"Dunn","geo_score":0.0,"distributor":"General Beverage Northwest","dsm":"Wohlers","id":"ahacy74m5ko3","geo_precision":"unmatched","state":"WI"},"type":"Feature","geometry":null},{"properties":{"region":"CHI","county":"Eau Claire","geo_score":0.0,"distributor":"General Beverage Northwest","dsm":"Wohlers","id":"ahacy6yaxpkp","geo_precision":"unmatched","state":"WI"},"type":"Feature","geometry":null},{"properties":{"region":"CHI","county":"Pepin","geo_score":0.0,"distributor":"General Beverage Northwest","dsm":"Wohlers","id":"ahacy6ybc2rl","geo_precision":"unmatched","state":"WI"},"type":"Feature","geometry":null},{"properties":{"region":"CHI","county":"Pierce","geo_score":0.0,"distributor":"General Beverage Northwest","dsm":"Wohlers","id":"ahacy77bjao7","geo_precision":"unmatched","state":"WI"},"type":"Feature","geometry":null},{"properties":{"region":"CHI","county":"Polk","geo_score":0.0,"distributor":"General Beverage Northwest","dsm":"Wohlers","id":"ahacy75vzg9k","geo_precision":"unmatched","state":"WI"},"type":"Feature","geometry":null},{"properties":{"region":"CHI","county":"Rusk","geo_score":0.0,"distributor":"General Beverage Northwest","dsm":"Wohlers","id":"ahacy7223b78","geo_precision":"unmatched","state":"WI"},"type":"Feature","geometry":null},{"properties":{"region":"CHI","county":"St. Croix","geo_score":0.0,"distributor":"General Beverage Northwest","dsm":"Wohlers","id":"ahacy6vlgits","geo_precision":"unmatched","state":"WI"},"type":"Feature","geometry":null},{"properties":{"region":"CHI","county":"Taylor","geo_score":0.0,"distributor":"General Beverage Northwest","dsm":"Wohlers","id":"ahacy75mbrrw","geo_precision":"unmatched","state":"WI"},"type":"Feature","geometry":null},{"properties":{"region":"CHI","county":"Adams","geo_score":0.0,"distributor":"General Beverage Oshkosh","dsm":"Wohlers","id":"ahacy6uw9tpt","geo_precision":"unmatched","state":"WI"},"type":"Feature","geometry":null},{"properties":{"region":"CHI","county":"Brown","geo_score":0.0,"distributor":"General Beverage Oshkosh","dsm":"Wohlers","id":"ahacy6xpbkwo","geo_precision":"unmatched","state":"WI"},"type":"Feature","geometry":null},{"properties":{"region":"CHI","county":"Calumet","geo_score":0.0,"distributor":"General Beverage Oshkosh","dsm":"Wohlers","id":"ahacy6v6jg1m","geo_precision":"unmatched","state":"WI"},"type":"Feature","geometry":null},{"properties":{"region":"CHI","county":"Door","geo_score":0.0,"distributor":"General Beverage Oshkosh","dsm":"Wohlers","id":"ahacy719qzcl","geo_precision":"unmatched","state":"WI"},"type":"Feature","geometry":null},{"properties":{"region":"CHI","county":"Florence","geo_score":0.0,"distributor":"General Beverage Oshkosh","dsm":"Wohlers","id":"ahacy73t6g2d","geo_precision":"unmatched","state":"WI"},"type":"Feature","geometry":null},{"properties":{"region":"CHI","county":"Fond du Lac","geo_score":0.0,"distributor":"General Beverage Oshkosh","dsm":"Wohlers","id":"ahacy79mhcib","geo_precision":"unmatched","state":"WI"},"type":"Feature","geometry":null},{"properties":{"region":"CHI","county":"Forest","geo_score":0.0,"distributor":"General Beverage Oshkosh","dsm":"Wohlers","id":"ahacy6yt1qbi","geo_precision":"unmatched","state":"WI"},"type":"Feature","geometry":null},{"properties":{"region":"CHI","county":"Green Lake","geo_score":0.0,"distributor":"General Beverage Oshkosh","dsm":"Wohlers","id":"ahacy74yedts","geo_precision":"unmatched","state":"WI"},"type":"Feature","geometry":null},{"properties":{"region":"CHI","county":"Iron","geo_score":0.0,"distributor":"General Beverage Oshkosh","dsm":"Wohlers","id":"ahacy6xpd2bx","geo_precision":"unmatched","state":"WI"},"type":"Feature","geometry":null},{"properties":{"region":"CHI","county":"Kewaunee","geo_score":0.0,"distributor":"General Beverage Oshkosh","dsm":"Wohlers","id":"ahacy6z6mscp","geo_precision":"unmatched","state":"WI"},"type":"Feature","geometry":null},{"properties":{"region":"CHI","county":"Langlade","geo_score":0.0,"distributor":"General Beverage Oshkosh","dsm":"Wohlers","id":"ahacy73s5wip","geo_precision":"unmatched","state":"WI"},"type":"Feature","geometry":null},{"properties":{"region":"CHI","county":"Lincoln","geo_score":0.0,"distributor":"General Beverage Oshkosh","dsm":"Wohlers","id":"ahacy6wyxd48","geo_precision":"unmatched","state":"WI"},"type":"Feature","geometry":null},{"properties":{"region":"CHI","county":"Manitowoc","geo_score":0.0,"distributor":"General Beverage Oshkosh","dsm":"Wohlers","id":"ahacy6vyyb3p","geo_precision":"unmatched","state":"WI"},"type":"Feature","geometry":null},{"properties":{"region":"CHI","county":"Marathon","geo_score":0.0,"distributor":"General Beverage Oshkosh","dsm":"Wohlers","id":"ahacy6xna2ev","geo_precision":"unmatched","state":"WI"},"type":"Feature","geometry":null},{"properties":{"region":"CHI","county":"Marinette","geo_score":0.0,"distributor":"General Beverage Oshkosh","dsm":"Wohlers","id":"ahacy6x9uw7h","geo_precision":"unmatched","state":"WI"},"type":"Feature","geometry":null},{"properties":{"region":"CHI","county":"Marquette","geo_score":0.0,"distributor":"General Beverage Oshkosh","dsm":"Wohlers","id":"ahacy70e6psu","geo_precision":"unmatched","state":"WI"},"type":"Feature","geometry":null},{"properties":{"region":"CHI","county":"Menominee","geo_score":0.0,"distributor":"General Beverage Oshkosh","dsm":"Wohlers","id":"ahacy79b954l","geo_precision":"unmatched","state":"WI"},"type":"Feature","geometry":null},{"properties":{"region":"CHI","county":"Oconto","geo_score":0.0,"distributor":"General Beverage Oshkosh","dsm":"Wohlers","id":"ahacy712ru1q","geo_precision":"unmatched","state":"WI"},"type":"Feature","geometry":null},{"properties":{"region":"CHI","county":"Oneida","geo_score":0.0,"distributor":"General Beverage Oshkosh","dsm":"Wohlers","id":"ahacy6zyraa3","geo_precision":"unmatched","state":"WI"},"type":"Feature","geometry":null},{"properties":{"region":"CHI","county":"Outagamie","geo_score":0.0,"distributor":"General Beverage Oshkosh","dsm":"Wohlers","id":"ahacy6xazmvs","geo_precision":"unmatched","state":"WI"},"type":"Feature","geometry":null},{"properties":{"region":"CHI","county":"Portage","geo_score":0.0,"distributor":"General Beverage Oshkosh","dsm":"Wohlers","id":"ahacy75b5eh6","geo_precision":"unmatched","state":"WI"},"type":"Feature","geometry":null},{"properties":{"region":"CHI","county":"Shawano","geo_score":0.0,"distributor":"General Beverage Oshkosh","dsm":"Wohlers","id":"ahacy6vhoet0","geo_precision":"unmatched","state":"WI"},"type":"Feature","geometry":null},{"properties":{"region":"CHI","county":"Sheboygan","geo_score":0.0,"distributor":"General Beverage Oshkosh","dsm":"Wohlers","id":"ahacy71cnd8k","geo_precision":"unmatched","state":"WI"},"type":"Feature","geometry":null},{"properties":{"region":"CHI","county":"Vilas","geo_score":0.0,"distributor":"General Beverage Oshkosh","dsm":"Wohlers","id":"ahacy78i4z3k","geo_precision":"unmatched","state":"WI"},"type":"Feature","geometry":null},{"properties":{"region":"CHI","county":"Waupaca","geo_score":0.0,"distributor":"General Beverage Oshkosh","dsm":"Wohlers","id":"ahacy71us5mx","geo_precision":"unmatched","state":"WI"},"type":"Feature","geometry":null},{"properties":{"region":"CHI","county":"Waushara","geo_score":0.0,"distributor":"General Beverage Oshkosh","dsm":"Wohlers","id":"ahacy72kfqh2","geo_precision":"unmatched","state":"WI"},"type":"Feature","geometry":null},{"properties":{"region":"CHI","county":"Winnebago","geo_score":0.0,"distributor":"General Beverage Oshkosh","dsm":"Wohlers","id":"ahacy6xmpay3","geo_precision":"unmatched","state":"WI"},"type":"Feature","geometry":null},{"properties":{"region":"CHI","county":"Wood","geo_score":0.0,"distributor":"General Beverage Oshkosh","dsm":"Wohlers","id":"ahacy6zzo27b","geo_precision":"unmatched","state":"WI"},"type":"Feature","geometry":null},{"properties":{"region":"CHI","county":"Ashland","geo_score":0.0,"distributor":"Saratoga Liquor Company, Inc.","dsm":"Wohlers","id":"ahacy6ysyw03","geo_precision":"unmatched","state":"WI"},"type":"Feature","geometry":null},{"properties":{"region":"CHI","county":"Bayfield","geo_score":0.0,"distributor":"Saratoga Liquor Company, Inc.","dsm":"Wohlers","id":"ahacy772fl5c","geo_precision":"unmatched","state":"WI"},"type":"Feature","geometry":null},{"properties":{"region":"CHI","county":"Burnett","geo_score":0.0,"distributor":"Saratoga Liquor Company, Inc.","dsm":"Wohlers","id":"ahacy7034ar3","geo_precision":"unmatched","state":"WI"},"type":"Feature","geometry":null},{"properties":{"region":"CHI","county":"Douglas","geo_score":0.0,"distributor":"Saratoga Liquor Company, Inc.","dsm":"Wohlers","id":"ahacy70ptecs","geo_precision":"unmatched","state":"WI"},"type":"Feature","geometry":null},{"properties":{"region":"CHI","county":"Price","geo_score":0.0,"distributor":"Saratoga Liquor Company, Inc.","dsm":"Wohlers","id":"ahacy76m1yh9","geo_precision":"unmatched","state":"WI"},"type":"Feature","geometry":null},{"properties":{"region":"CHI","county":"Sawyer","geo_score":0.0,"distributor":"Saratoga Liquor Company, Inc.","dsm":"Wohlers","id":"ahacy6xkapn9","geo_precision":"unmatched","state":"WI"},"type":"Feature","geometry":null},{"properties":{"region":"CHI","county":"Washburn","geo_score":0.0,"distributor":"Saratoga Liquor Company, Inc.","dsm":"Wohlers","id":"ahacy72punn9","geo_precision":"unmatched","state":"WI"},"type":"Feature","geometry":null}],"is_temporal":false,"author":{"url":"","metadata":null,"contact_name":null,"contact_address":null,"source":null,"contact_phone":null},"source":"","pagination":{"sort":null,"start":0,"total":332,"limit":1000000},"state":"complete","tags":"","published":"2014-08-16T18:46:02-04:00","id":394970}