{"type":"FeatureCollection","data_type":"Dataset","url_type":null,"permissions":[{"permissions":{"download":true,"view":true},"group_id":"everyone"}],"classification":null,"title":"Banban_Brgy_G7","count":25,"stream_id":395759,"contributor":{"url":"http://geocommons.com/users/81761","name":"Nonnie123"},"data_attributes":null,"calculation_params":null,"icon_link":null,"link":"http://geocommons.com/overlays/395759.json","extent":[0.0,0.0,0.0,0.0],"geometry_types":null,"unique_name":null,"name":"Banban_Brgy_G7","feature_count":25,"description":"","next_feature":null,"is_raster":false,"short_classification":"Y","features":[{"properties":{"brgy name":"Basac","brgy id":"36436","municipality":"Larena","count":"9","id":"ahbyciirc0dc"},"type":"Feature","geometry":null},{"properties":{"brgy name":"Bintangan","brgy id":"36437","municipality":"Larena","count":"2","id":"ahbycihm3yxb"},"type":"Feature","geometry":null},{"properties":{"brgy name":"Calunasan","brgy id":"36440","municipality":"Larena","count":"1","id":"ahbyciaz9597"},"type":"Feature","geometry":null},{"properties":{"brgy name":"Candigum","brgy id":"36441","municipality":"Larena","count":"6","id":"ahbycicrm7f8"},"type":"Feature","geometry":null},{"properties":{"brgy name":"Cang-Allas","brgy id":"36442","municipality":"Larena","count":"3","id":"ahbyciddu71l"},"type":"Feature","geometry":null},{"properties":{"brgy name":"Cang-Apa","brgy id":"36443","municipality":"Larena","count":"6","id":"ahbycijh5arh"},"type":"Feature","geometry":null},{"properties":{"brgy name":"Cangbagsa","brgy id":"36444","municipality":"Larena","count":"4","id":"ahbyci8hfjd2"},"type":"Feature","geometry":null},{"properties":{"brgy name":"Canlasog","brgy id":"36447","municipality":"Larena","count":"1","id":"ahbycicz13es"},"type":"Feature","geometry":null},{"properties":{"brgy name":"Catamboan","brgy id":"36448","municipality":"Larena","count":"2","id":"ahbyci6f2uxg"},"type":"Feature","geometry":null},{"properties":{"brgy name":"Nonoc","brgy id":"36450","municipality":"Larena","count":"4","id":"ahbyci657xm3"},"type":"Feature","geometry":null},{"properties":{"brgy name":"Sabang","brgy id":"36453","municipality":"Larena","count":"14","id":"ahbycibsap3h"},"type":"Feature","geometry":null},{"properties":{"brgy name":"South Poblacion","brgy id":"36455","municipality":"Larena","count":"1","id":"ahbyci5po9y0"},"type":"Feature","geometry":null},{"properties":{"brgy name":"Bonga","brgy id":"36476","municipality":"Maria","count":"2","id":"ahbycic4yvst"},"type":"Feature","geometry":null},{"properties":{"brgy name":"Calunasan","brgy id":"36478","municipality":"Maria","count":"3","id":"ahbyciiqunbs"},"type":"Feature","geometry":null},{"properties":{"brgy name":"Pisong B","brgy id":"36492","municipality":"Maria","count":"1","id":"ahbycibzga59"},"type":"Feature","geometry":null},{"properties":{"brgy name":"Banban","brgy id":"36512","municipality":"Siquijor","count":"14","id":"ahbycil2ctrh"},"type":"Feature","geometry":null},{"properties":{"brgy name":"Candanay Norte","brgy id":"36518","municipality":"Siquijor","count":"5","id":"ahbycie0qfbq"},"type":"Feature","geometry":null},{"properties":{"brgy name":"Candanay Sur","brgy id":"36519","municipality":"Siquijor","count":"3","id":"ahbyci7dspq0"},"type":"Feature","geometry":null},{"properties":{"brgy name":"Cang-Agong","brgy id":"36521","municipality":"Siquijor","count":"11","id":"ahbycik18738"},"type":"Feature","geometry":null},{"properties":{"brgy name":"Cang-Inte","brgy id":"36525","municipality":"Siquijor","count":"3","id":"ahbyciju8ac5"},"type":"Feature","geometry":null},{"properties":{"brgy name":"Cang-Isad","brgy id":"36526","municipality":"Siquijor","count":"4","id":"ahbycifa4yn2"},"type":"Feature","geometry":null},{"properties":{"brgy name":"Canghunoghunog","brgy id":"36527","municipality":"Siquijor","count":"10","id":"ahbycic8o62l"},"type":"Feature","geometry":null},{"properties":{"brgy name":"Luyang","brgy id":"36535","municipality":"Siquijor","count":"7","id":"ahbycikrqqd8"},"type":"Feature","geometry":null},{"properties":{"brgy name":"Olo","brgy id":"36537","municipality":"Siquijor","count":"9","id":"ahbycig02879"},"type":"Feature","geometry":null},{"properties":{"brgy name":"Pili","brgy id":"36541","municipality":"Siquijor","count":"8","id":"ahbycig88d6a"},"type":"Feature","geometry":null}],"is_temporal":false,"author":{"url":"","metadata":null,"contact_name":null,"contact_address":null,"source":null,"contact_phone":null},"source":"","pagination":{"sort":null,"start":0,"total":25,"limit":1000000},"state":"parsed","tags":"","published":"2014-08-16T19:42:44-04:00","id":395759}