{"type":"FeatureCollection","data_type":"Dataset","url_type":null,"permissions":[{"permissions":{"download":true,"view":true},"group_id":"everyone"}],"classification":null,"title":"Siquijor_Provincial_Science_High_School_Brgy_G8","count":43,"stream_id":395789,"contributor":{"url":"http://geocommons.com/users/81761","name":"Nonnie123"},"data_attributes":null,"calculation_params":null,"icon_link":null,"link":"http://geocommons.com/overlays/395789.json","extent":[0.0,0.0,0.0,0.0],"geometry_types":null,"unique_name":null,"name":"Siquijor_Provincial_Science_High_School_Brgy_G8","feature_count":43,"description":"","next_feature":null,"is_raster":false,"short_classification":"Y","features":[{"properties":{"brgy name":"Bontod","brgy id":"36438","municipality":"Larena","count":"1","id":"ahbz0t5xa8dp"},"type":"Feature","geometry":null},{"properties":{"brgy name":"Cangbagsa","brgy id":"36444","municipality":"Larena","count":"1","id":"ahbz0t0o53av"},"type":"Feature","geometry":null},{"properties":{"brgy name":"Canlasog","brgy id":"36447","municipality":"Larena","count":"1","id":"ahbz0sxxo2v9"},"type":"Feature","geometry":null},{"properties":{"brgy name":"Nonoc","brgy id":"36450","municipality":"Larena","count":"1","id":"ahbz0t0n4stc"},"type":"Feature","geometry":null},{"properties":{"brgy name":"North Poblacion","brgy id":"36451","municipality":"Larena","count":"1","id":"ahbz0t75cbxh"},"type":"Feature","geometry":null},{"properties":{"brgy name":"Ponong","brgy id":"36452","municipality":"Larena","count":"1","id":"ahbz0suef5m2"},"type":"Feature","geometry":null},{"properties":{"brgy name":"Sandugan","brgy id":"36454","municipality":"Larena","count":"1","id":"ahbz0sz1baw8"},"type":"Feature","geometry":null},{"properties":{"brgy name":"Campalanas","brgy id":"36457","municipality":"Lazi","count":"1","id":"ahbz0t79taue"},"type":"Feature","geometry":null},{"properties":{"brgy name":"Capalasanan","brgy id":"36460","municipality":"Lazi","count":"2","id":"ahbz0t61jtx2"},"type":"Feature","geometry":null},{"properties":{"brgy name":"Catamboan","brgy id":"36461","municipality":"Lazi","count":"2","id":"ahbz0su2syhu"},"type":"Feature","geometry":null},{"properties":{"brgy name":"Kinamandagan","brgy id":"36464","municipality":"Lazi","count":"1","id":"ahbz0t8499sv"},"type":"Feature","geometry":null},{"properties":{"brgy name":"Lower Cabangcalan","brgy id":"36465","municipality":"Lazi","count":"1","id":"ahbz0sx5sdhu"},"type":"Feature","geometry":null},{"properties":{"brgy name":"Po-O","brgy id":"36467","municipality":"Lazi","count":"1","id":"ahbz0sxgp7j9"},"type":"Feature","geometry":null},{"properties":{"brgy name":"Simacolong","brgy id":"36468","municipality":"Lazi","count":"1","id":"ahbz0t6418jr"},"type":"Feature","geometry":null},{"properties":{"brgy name":"Tigbawan","brgy id":"36471","municipality":"Lazi","count":"7","id":"ahbz0su9x4ef"},"type":"Feature","geometry":null},{"properties":{"brgy name":"Tignao","brgy id":"36472","municipality":"Lazi","count":"1","id":"ahbz0t3z6zfq"},"type":"Feature","geometry":null},{"properties":{"brgy name":"Ytaya","brgy id":"36474","municipality":"Lazi","count":"1","id":"ahbz0sxfv13e"},"type":"Feature","geometry":null},{"properties":{"brgy name":"Candaping A","brgy id":"36479","municipality":"Maria","count":"1","id":"ahbz0t6xt1u6"},"type":"Feature","geometry":null},{"properties":{"brgy name":"Poblacion Norte","brgy id":"36493","municipality":"Maria","count":"2","id":"ahbz0t5y110e"},"type":"Feature","geometry":null},{"properties":{"brgy name":"Canasagan","brgy id":"36497","municipality":"San Juan","count":"1","id":"ahbz0sz906az"},"type":"Feature","geometry":null},{"properties":{"brgy name":"Catulayan","brgy id":"36501","municipality":"San Juan","count":"3","id":"ahbz0t46caf1"},"type":"Feature","geometry":null},{"properties":{"brgy name":"Lala-O","brgy id":"36502","municipality":"San Juan","count":"2","id":"ahbz0sylpmpb"},"type":"Feature","geometry":null},{"properties":{"brgy name":"Maite","brgy id":"36503","municipality":"San Juan","count":"3","id":"ahbz0struoji"},"type":"Feature","geometry":null},{"properties":{"brgy name":"Napo","brgy id":"36504","municipality":"San Juan","count":"1","id":"ahbz0t5v2nkh"},"type":"Feature","geometry":null},{"properties":{"brgy name":"Paliton","brgy id":"36505","municipality":"San Juan","count":"2","id":"ahbz0t700azj"},"type":"Feature","geometry":null},{"properties":{"brgy name":"Solangon","brgy id":"36507","municipality":"San Juan","count":"3","id":"ahbz0t129aal"},"type":"Feature","geometry":null},{"properties":{"brgy name":"Tambisan","brgy id":"36509","municipality":"San Juan","count":"2","id":"ahbz0t8wv63j"},"type":"Feature","geometry":null},{"properties":{"brgy name":"Timbaon","brgy id":"36510","municipality":"San Juan","count":"1","id":"ahbz0swes6zu"},"type":"Feature","geometry":null},{"properties":{"brgy name":"Tubod","brgy id":"36511","municipality":"San Juan","count":"1","id":"ahbz0swl4ghh"},"type":"Feature","geometry":null},{"properties":{"brgy name":"Bolos","brgy id":"36513","municipality":"Siquijor","count":"1","id":"ahbz0t89f1qv"},"type":"Feature","geometry":null},{"properties":{"brgy name":"Caipilan","brgy id":"36514","municipality":"Siquijor","count":"1","id":"ahbz0t0nqwh7"},"type":"Feature","geometry":null},{"properties":{"brgy name":"Calalinan","brgy id":"36516","municipality":"Siquijor","count":"1","id":"ahbz0sy0oxw9"},"type":"Feature","geometry":null},{"properties":{"brgy name":"Candanay Norte","brgy id":"36518","municipality":"Siquijor","count":"1","id":"ahbz0t1ip9u4"},"type":"Feature","geometry":null},{"properties":{"brgy name":"Candanay Sur","brgy id":"36519","municipality":"Siquijor","count":"2","id":"ahbz0sx1laxg"},"type":"Feature","geometry":null},{"properties":{"brgy name":"Cang-Asa","brgy id":"36523","municipality":"Siquijor","count":"1","id":"ahbz0sw1d1do"},"type":"Feature","geometry":null},{"properties":{"brgy name":"Cangmohao","brgy id":"36529","municipality":"Siquijor","count":"1","id":"ahbz0stsru36"},"type":"Feature","geometry":null},{"properties":{"brgy name":"Caticugan","brgy id":"36531","municipality":"Siquijor","count":"1","id":"ahbz0sw3dwlp"},"type":"Feature","geometry":null},{"properties":{"brgy name":"Pangi","brgy id":"36538","municipality":"Siquijor","count":"2","id":"ahbz0t792hn8"},"type":"Feature","geometry":null},{"properties":{"brgy name":"Poblacion","brgy id":"36542","municipality":"Siquijor","count":"1","id":"ahbz0t1apx8h"},"type":"Feature","geometry":null},{"properties":{"brgy name":"Polangyuta","brgy id":"36543","municipality":"Siquijor","count":"2","id":"ahbz0t2cclnu"},"type":"Feature","geometry":null},{"properties":{"brgy name":"Tacdog","brgy id":"36548","municipality":"Siquijor","count":"1","id":"ahbz0t5r7ukg"},"type":"Feature","geometry":null},{"properties":{"brgy name":"Tacloban","brgy id":"36549","municipality":"Siquijor","count":"1","id":"ahbz0t71erc2"},"type":"Feature","geometry":null},{"properties":{"brgy name":"Tinago","brgy id":"36552","municipality":"Siquijor","count":"2","id":"ahbz0suyc3rh"},"type":"Feature","geometry":null}],"is_temporal":false,"author":{"url":"","metadata":null,"contact_name":null,"contact_address":null,"source":null,"contact_phone":null},"source":"","pagination":{"sort":null,"start":0,"total":43,"limit":1000000},"state":"parsed","tags":"","published":"2014-08-16T19:43:47-04:00","id":395789}