{"type":"FeatureCollection","data_type":"Dataset","url_type":null,"permissions":[{"permissions":{"download":true,"view":true},"group_id":"everyone"}],"classification":null,"title":"AllStores","count":466,"stream_id":395995,"contributor":{"url":"http://geocommons.com/users/53766","name":"akeller"},"data_attributes":null,"calculation_params":null,"icon_link":null,"link":"http://geocommons.com/overlays/395995.json","extent":[-82.4864,35.3302,-75.2787,42.1511],"geometry_types":["point"],"unique_name":null,"name":"AllStores","feature_count":466,"description":"","next_feature":null,"is_raster":false,"short_classification":"Y","stats":{},"features":[{"properties":{"city, state":"HOLLIDAYSBURG, PA","zip":"16648","geo_score":0.805,"street":"1100 BLAIR ST","id":"ahc9bzlp2m8g","geo_precision":"range"},"type":"Feature","geometry":{"type":"Point","coordinates":[-78.383077,40.430233]}},{"properties":{"city, state":"ALTOONA, PA","zip":"16602","geo_score":0.721,"street":"5706 6TH AVE","id":"ahc9bznddr0d","geo_precision":"range"},"type":"Feature","geometry":{"type":"Point","coordinates":[-78.425028,40.472375]}},{"properties":{"city, state":"HUNTINGDON, PA","zip":"16652","geo_score":0.805,"street":"1330 MOORE ST","id":"ahc9bzk9qewi","geo_precision":"range"},"type":"Feature","geometry":{"type":"Point","coordinates":[-78.016191,40.494686]}},{"properties":{"city, state":"ALTOONA, PA","zip":"16601","geo_score":0.732,"street":"1230 14TH AVE","id":"ahc9bz7opkeu","geo_precision":"range"},"type":"Feature","geometry":{"type":"Point","coordinates":[-78.403708,40.517306]}},{"properties":{"city, state":"ALTOONA, PA","zip":"16601","geo_score":0.805,"street":"3315 BEALE AVE","id":"ahc9bza8s5m9","geo_precision":"range"},"type":"Feature","geometry":{"type":"Point","coordinates":[-78.417302,40.494462]}},{"properties":{"city, state":"TYRONE, PA","zip":"16686","geo_score":0.805,"street":"1400 LOGAN AVE","id":"ahc9bzlp2q7g","geo_precision":"range"},"type":"Feature","geometry":{"type":"Point","coordinates":[-78.237321,40.676601]}},{"properties":{"city, state":"INDIANA, PA","zip":"15701","geo_score":0.805,"street":"768 WAYNE AVE","id":"ahc9bzirspk7","geo_precision":"range"},"type":"Feature","geometry":{"type":"Point","coordinates":[-79.1527,40.618416]}},{"properties":{"city, state":"JOHNSTOWN, PA","zip":"15902","geo_score":0.805,"street":"490 CENTRAL AVE","id":"ahc9bzkmncbb","geo_precision":"range"},"type":"Feature","geometry":{"type":"Point","coordinates":[-78.911163,40.300308]}},{"properties":{"city, state":"JOHNSTOWN, PA","zip":"15901","geo_score":0.805,"street":"208 HAYNES ST","id":"ahc9bzb876mv","geo_precision":"range"},"type":"Feature","geometry":{"type":"Point","coordinates":[-78.918889,40.321162]}},{"properties":{"city, state":"EVERETT, PA","zip":"15537","geo_score":0.805,"street":"11 W MAIN ST","id":"ahc9bzk5vtnc","geo_precision":"range"},"type":"Feature","geometry":{"type":"Point","coordinates":[-78.373293,40.011289]}},{"properties":{"city, state":"WINDBER, PA","zip":"15963","geo_score":0.805,"street":"1500 GRAHAM AVE","id":"ahc9bzi07cjx","geo_precision":"range"},"type":"Feature","geometry":{"type":"Point","coordinates":[-78.829532,40.234244]}},{"properties":{"city, state":"BEDFORD, PA","zip":"15522","geo_score":0.805,"street":"9402 LINCOLN HWY","id":"ahc9bzdgacd5","geo_precision":"range"},"type":"Feature","geometry":{"type":"Point","coordinates":[-78.467485,40.016006]}},{"properties":{"city, state":"BLAIRSVILLE, PA","zip":"15717","geo_score":0.805,"street":"5 E MARKET ST","id":"ahc9bzg2aei9","geo_precision":"range"},"type":"Feature","geometry":{"type":"Point","coordinates":[-79.26312,40.431002]}},{"properties":{"city, state":"INDIANA, PA","zip":"15701","geo_score":0.805,"street":"380 PHILADELPHIA ST","id":"ahc9bziii5tj","geo_precision":"range"},"type":"Feature","geometry":{"type":"Point","coordinates":[-79.14522,40.622769]}},{"properties":{"city, state":"MCCONNELLSBURG, PA","zip":"17233","geo_score":0.805,"street":"720 LINCOLN WAY E","id":"ahc9bzad267e","geo_precision":"range"},"type":"Feature","geometry":{"type":"Point","coordinates":[-77.99054,39.929726]}},{"properties":{"city, state":"ALTOONA, PA","zip":"16601","geo_score":0.537,"street":"718 BELLWOOD RD","id":"ahc9bzie7eu8","geo_precision":"street"},"type":"Feature","geometry":{"type":"Point","coordinates":[-78.390262,40.521575]}},{"properties":{"city, state":"ALTOONA, PA","zip":"16602","geo_score":0.721,"street":"1701 7TH AVE","id":"ahc9bzni3m2r","geo_precision":"range"},"type":"Feature","geometry":{"type":"Point","coordinates":[-78.401694,40.50844]}},{"properties":{"city, state":"DUNCANSVILLE, PA","zip":"16635","geo_score":0.61,"street":"1371 PLANK RD","id":"ahc9bze59fo6","geo_precision":"street"},"type":"Feature","geometry":{"type":"Point","coordinates":[-78.310313,40.118432]}},{"properties":{"city, state":"ALTOONA, PA","zip":"16601","geo_score":0.746,"street":"405 EAST 25TH AVE","id":"ahc9bzegoacs","geo_precision":"range"},"type":"Feature","geometry":{"type":"Point","coordinates":[-78.400721,40.536046]}},{"properties":{"city, state":"MOUNT UNION, PA","zip":"17066","geo_score":0.805,"street":"201 N JEFFERSON ST","id":"ahc9bzf1dhm8","geo_precision":"range"},"type":"Feature","geometry":{"type":"Point","coordinates":[-77.882446,40.387536]}},{"properties":{"city, state":"CUMBERLAND, MD","zip":"21502","geo_score":0.805,"street":"2045  BEDFORD ST","id":"ahc9bzazgl2l","geo_precision":"range"},"type":"Feature","geometry":{"type":"Point","coordinates":[-78.737313,39.677864]}},{"properties":{"city, state":"HANCOCK, MD","zip":"21750","geo_score":0.805,"street":"192 W MAIN ST","id":"ahc9bzgr7b8o","geo_precision":"range"},"type":"Feature","geometry":{"type":"Point","coordinates":[-78.191526,39.6983]}},{"properties":{"city, state":"EBENSBURG, PA","zip":"15931","geo_score":0.424,"street":"948 W HIGH ST","id":"ahc9bzd7kf5s","geo_precision":"street"},"type":"Feature","geometry":{"type":"Point","coordinates":[-78.691851,40.510678]}},{"properties":{"city, state":"CRESAPTOWN, MD","zip":"21502","geo_score":0.805,"street":"14606 MCMULLEN HWY SW","id":"ahc9bzc0jkge","geo_precision":"range"},"type":"Feature","geometry":{"type":"Point","coordinates":[-78.829804,39.595171]}},{"properties":{"city, state":"NANTY GLO, PA","zip":"15943","geo_score":0.805,"street":"115 PACE ST","id":"ahc9bzi6x28f","geo_precision":"range"},"type":"Feature","geometry":{"type":"Point","coordinates":[-78.838877,40.450696]}},{"properties":{"city, state":"PORTAGE, PA","zip":"15946","geo_score":0.805,"street":"411 MAIN ST","id":"ahc9bzkzlqtm","geo_precision":"range"},"type":"Feature","geometry":{"type":"Point","coordinates":[-78.672238,40.389673]}},{"properties":{"city, state":"CUMBERLAND, MD","zip":"21502","geo_score":0.805,"street":"210 GREENE ST","id":"ahc9bzjwfr3f","geo_precision":"range"},"type":"Feature","geometry":{"type":"Point","coordinates":[-78.769725,39.650125]}},{"properties":{"city, state":"PATTON, PA","zip":"16668","geo_score":0.805,"street":"304 MAGEE AVE","id":"ahc9bzhsor3w","geo_precision":"range"},"type":"Feature","geometry":{"type":"Point","coordinates":[-78.646389,40.633949]}},{"properties":{"city, state":"NORTHERN CAMBRIA, PA","zip":"15714","geo_score":0.805,"street":"4025 CRAWFORD AVE","id":"ahc9bzknpqjn","geo_precision":"range"},"type":"Feature","geometry":{"type":"Point","coordinates":[-78.781926,40.660798]}},{"properties":{"city, state":"SOMERSET, PA","zip":"15501","geo_score":0.805,"street":"457 E MAIN ST","id":"ahc9bzhvuf75","geo_precision":"range"},"type":"Feature","geometry":{"type":"Point","coordinates":[-79.070501,40.007271]}},{"properties":{"city, state":"CLARION, PA","zip":"16214","geo_score":0.805,"street":"1281 E MAIN ST","id":"ahc9bzd7b5rh","geo_precision":"range"},"type":"Feature","geometry":{"type":"Point","coordinates":[-79.368315,41.208791]}},{"properties":{"city, state":"LATROBE, PA","zip":"15650","geo_score":0.805,"street":"2853 LIGONIER ST","id":"ahc9bz7dmiwx","geo_precision":"range"},"type":"Feature","geometry":{"type":"Point","coordinates":[-79.371762,40.30079]}},{"properties":{"city, state":"SOMERSET, PA","zip":"15501","geo_score":0.805,"street":"118 S ROSINA AVE","id":"ahc9bzdhos5a","geo_precision":"range"},"type":"Feature","geometry":{"type":"Point","coordinates":[-79.082994,40.008297]}},{"properties":{"city, state":"CLYMER, PA","zip":"15728","geo_score":0.805,"street":"825 FRANKLIN ST","id":"ahc9bzb61h60","geo_precision":"range"},"type":"Feature","geometry":{"type":"Point","coordinates":[-79.014476,40.665626]}},{"properties":{"city, state":"FROSTBURG, MD","zip":"21532","geo_score":0.683,"street":"10601 NEW GEORGES CREEK RD SW","id":"ahc9bz7xugvq","geo_precision":"range"},"type":"Feature","geometry":{"type":"Point","coordinates":[-78.915597,39.619698]}},{"properties":{"city, state":"DUBOIS, PA","zip":"15801","geo_score":0.805,"street":"701 E DUBOIS AVE","id":"ahc9bzdpp9zw","geo_precision":"range"},"type":"Feature","geometry":{"type":"Point","coordinates":[-78.743817,41.124877]}},{"properties":{"city, state":"PHILIPSBURG, PA","zip":"16866","geo_score":0.805,"street":"808 N FRONT ST","id":"ahc9bzg89heh","geo_precision":"range"},"type":"Feature","geometry":{"type":"Point","coordinates":[-78.228466,40.902458]}},{"properties":{"city, state":"JOHNSTOWN, PA","zip":"15906","geo_score":0.805,"street":"1000 BROAD ST","id":"ahc9bzhfkirf","geo_precision":"range"},"type":"Feature","geometry":{"type":"Point","coordinates":[-78.935358,40.343244]}},{"properties":{"city, state":"BROOKVILLE, PA","zip":"15825","geo_score":0.707,"street":"300 W MAIN ST","id":"ahc9bzga23ku","geo_precision":"street"},"type":"Feature","geometry":{"type":"Point","coordinates":[-79.096134,41.162744]}},{"properties":{"city, state":"WILLIAMSPORT, MD","zip":"21795","geo_score":0.805,"street":"100 E POTOMAC ST","id":"ahc9bzdqykaw","geo_precision":"range"},"type":"Feature","geometry":{"type":"Point","coordinates":[-77.818731,39.600422]}},{"properties":{"city, state":"CHAMBERSBURG, PA","zip":"17201","geo_score":0.737,"street":"1 MONTICELLO CT","id":"ahc9bz9okw83","geo_precision":"range"},"type":"Feature","geometry":{"type":"Point","coordinates":[-77.671983,39.937802]}},{"properties":{"city, state":"SHIPPENSBURG, PA","zip":"17257","geo_score":0.805,"street":"359 E KING ST","id":"ahc9bzho9v7i","geo_precision":"range"},"type":"Feature","geometry":{"type":"Point","coordinates":[-77.51489,40.053279]}},{"properties":{"city, state":"YOUNGWOOD, PA","zip":"15697","geo_score":0.732,"street":"301 N 3RD ST","id":"ahc9bzng754d","geo_precision":"range"},"type":"Feature","geometry":{"type":"Point","coordinates":[-79.573859,40.247226]}},{"properties":{"city, state":"CLEARFIELD, PA","zip":"16830","geo_score":0.805,"street":"101 NICHOLS ST","id":"ahc9bzajo1x7","geo_precision":"range"},"type":"Feature","geometry":{"type":"Point","coordinates":[-78.44047,41.027355]}},{"properties":{"city, state":"HAGERSTOWN, MD","zip":"21740","geo_score":0.805,"street":"700 POTOMAC AVE","id":"ahc9bzi0npe5","geo_precision":"range"},"type":"Feature","geometry":{"type":"Point","coordinates":[-77.711599,39.65099]}},{"properties":{"city, state":"SLIPPERY ROCK, PA","zip":"16057","geo_score":0.805,"street":"304 S MAIN ST","id":"ahc9bzd1rbe8","geo_precision":"range"},"type":"Feature","geometry":{"type":"Point","coordinates":[-80.054408,41.062173]}},{"properties":{"city, state":"CHAMBERSBURG, PA","zip":"17201","geo_score":0.611,"street":"1315 LINCOLN WAY E","id":"ahc9bzbxa6ig","geo_precision":"street"},"type":"Feature","geometry":{"type":"Point","coordinates":[-77.632379,39.928233]}},{"properties":{"city, state":"PUNXSUTAWNEY, PA","zip":"15767","geo_score":0.805,"street":"100 ELK RUN AVE","id":"ahc9bzjakle8","geo_precision":"range"},"type":"Feature","geometry":{"type":"Point","coordinates":[-78.964568,40.95097]}},{"properties":{"city, state":"HAGERSTOWN, MD","zip":"21740","geo_score":0.805,"street":"301 E WASHINGTON ST","id":"ahc9bza7rz2a","geo_precision":"range"},"type":"Feature","geometry":{"type":"Point","coordinates":[-77.714199,39.63932]}},{"properties":{"city, state":"FRANKLIN, PA","zip":"16323","geo_score":0.805,"street":"1107 LIBERTY ST","id":"ahc9bzbbvq4n","geo_precision":"range"},"type":"Feature","geometry":{"type":"Point","coordinates":[-79.826621,41.395158]}},{"properties":{"city, state":"JOHNSTOWN, PA","zip":"15905","geo_score":0.805,"street":"1791 GOUCHER ST","id":"ahc9bz8vt9ey","geo_precision":"range"},"type":"Feature","geometry":{"type":"Point","coordinates":[-78.952033,40.325367]}},{"properties":{"city, state":"SCOTTDALE, PA","zip":"15683","geo_score":0.805,"street":"5 S BROADWAY ST","id":"ahc9bzihc0qv","geo_precision":"range"},"type":"Feature","geometry":{"type":"Point","coordinates":[-79.587082,40.100208]}},{"properties":{"city, state":"MEYERSDALE, PA","zip":"15552","geo_score":0.805,"street":"24 CENTER ST","id":"ahc9bzjpl028","geo_precision":"range"},"type":"Feature","geometry":{"type":"Point","coordinates":[-79.025757,39.812907]}},{"properties":{"city, state":"MONONGAHELA, PA","zip":"15063","geo_score":0.805,"street":"111 E MAIN ST","id":"ahc9bz7svn4m","geo_precision":"range"},"type":"Feature","geometry":{"type":"Point","coordinates":[-79.921499,40.199708]}},{"properties":{"city, state":"RIDGWAY, PA","zip":"15853","geo_score":0.805,"street":"138 N BROAD ST","id":"ahc9bzhwujk4","geo_precision":"range"},"type":"Feature","geometry":{"type":"Point","coordinates":[-78.731389,41.424845]}},{"properties":{"city, state":"NEW KENSINGTON, PA","zip":"15068","geo_score":0.805,"street":"325 FREEPORT ST","id":"ahc9bzc81oo1","geo_precision":"range"},"type":"Feature","geometry":{"type":"Point","coordinates":[-79.760451,40.556425]}},{"properties":{"city, state":"ALTOONA, PA","zip":"16602","geo_score":0.805,"street":"1661 E PLEASANT VALLEY BLVD","id":"ahc9bzjal4so","geo_precision":"range"},"type":"Feature","geometry":{"type":"Point","coordinates":[-78.354407,40.540852]}},{"properties":{"city, state":"FORD CITY, PA","zip":"16226","geo_score":0.805,"street":"503 MAIN ST","id":"ahc9bzf13bhm","geo_precision":"range"},"type":"Feature","geometry":{"type":"Point","coordinates":[-79.527224,40.765699]}},{"properties":{"city, state":"SIDMAN, PA","zip":"15955","geo_score":0.515,"street":"101 FOREST HILLS DR BOX 188","id":"ahc9bza0owki","geo_precision":"street"},"type":"Feature","geometry":{"type":"Point","coordinates":[-78.747228,40.328627]}},{"properties":{"city, state":"KITTANNING, PA","zip":"16201","geo_score":0.805,"street":"100 WALNUT ST","id":"ahc9bzd2n3x2","geo_precision":"range"},"type":"Feature","geometry":{"type":"Point","coordinates":[-79.516435,40.809774]}},{"properties":{"city, state":"PITTSBURGH, PA","zip":"15237","geo_score":0.805,"street":"8607 PERRY HWY","id":"ahc9bz9atj0n","geo_precision":"range"},"type":"Feature","geometry":{"type":"Point","coordinates":[-80.039474,40.56114]}},{"properties":{"city, state":"GREENCASTLE, PA","zip":"17225","geo_score":0.805,"street":"215 W BALTIMORE ST","id":"ahc9bzd6x3b9","geo_precision":"range"},"type":"Feature","geometry":{"type":"Point","coordinates":[-77.730021,39.790974]}},{"properties":{"city, state":"HARRISVILLE, PA","zip":"16038","geo_score":0.805,"street":"103 N MAIN ST","id":"ahc9bzapotdl","geo_precision":"range"},"type":"Feature","geometry":{"type":"Point","coordinates":[-80.00924,41.137206]}},{"properties":{"city, state":"STATE COLLEGE, PA","zip":"16803","geo_score":0.805,"street":"1781 N ATHERTON ST","id":"ahc9bzjhwp50","geo_precision":"range"},"type":"Feature","geometry":{"type":"Point","coordinates":[-77.904584,40.809104]}},{"properties":{"city, state":"GIBSONIA, PA","zip":"15044","geo_score":0.48,"street":"5300 ROUTE 8","id":"ahc9bz9z065v","geo_precision":"street"},"type":"Feature","geometry":{"type":"Point","coordinates":[-79.933816,40.661401]}},{"properties":{"city, state":"CONNELLSVILLE, PA","zip":"15425","geo_score":0.805,"street":"1002 W CRAWFORD AVE","id":"ahc9bz78hxv1","geo_precision":"range"},"type":"Feature","geometry":{"type":"Point","coordinates":[-79.600034,40.016335]}},{"properties":{"city, state":"BERKELEY SPRINGS, WV","zip":"25411","geo_score":0.805,"street":"245 S WASHINGTON ST","id":"ahc9bzg7wvyh","geo_precision":"range"},"type":"Feature","geometry":{"type":"Point","coordinates":[-78.229089,39.625081]}},{"properties":{"city, state":"CARROLLTOWN, PA","zip":"15722","geo_score":0.805,"street":"128 SOUTH MAIN STREET","id":"ahc9bznfgjy0","geo_precision":"range"},"type":"Feature","geometry":{"type":"Point","coordinates":[-78.709235,40.601438]}},{"properties":{"city, state":"ROCHESTER, PA","zip":"15074","geo_score":0.805,"street":"499 ADAMS ST","id":"ahc9bzngav4y","geo_precision":"range"},"type":"Feature","geometry":{"type":"Point","coordinates":[-80.279195,40.704125]}},{"properties":{"city, state":"CUMBERLAND, MD","zip":"21502","geo_score":0.805,"street":"429 VIRGINIA AVE","id":"ahc9bza96n3y","geo_precision":"range"},"type":"Feature","geometry":{"type":"Point","coordinates":[-78.764083,39.634275]}},{"properties":{"city, state":"CREIGHTON, PA","zip":"15030","geo_score":0.805,"street":"899 FREEPORT RD","id":"ahc9bzk9yvgm","geo_precision":"range"},"type":"Feature","geometry":{"type":"Point","coordinates":[-79.778434,40.57709]}},{"properties":{"city, state":"TANEYTOWN, MD","zip":"21787","geo_score":0.805,"street":"226 E BALTIMORE ST","id":"ahc9bz8kmloe","geo_precision":"range"},"type":"Feature","geometry":{"type":"Point","coordinates":[-77.171658,39.655999]}},{"properties":{"city, state":"CRANBERRY TOWNSHIP, PA","zip":"16066","geo_score":0.805,"street":"1329 FREEDOM ROAD","id":"ahc9bznd6rrg","geo_precision":"range"},"type":"Feature","geometry":{"type":"Point","coordinates":[-80.106148,40.685047]}},{"properties":{"city, state":"MERCER, PA","zip":"16137","geo_score":0.805,"street":"105 N ERIE ST","id":"ahc9bzec51vg","geo_precision":"range"},"type":"Feature","geometry":{"type":"Point","coordinates":[-80.239861,41.227667]}},{"properties":{"city, state":"KEARNEYSVILLE, WV","zip":"25430","geo_score":0.61,"street":"3728 CHARLES TOWN RD","id":"ahc9bzea3j5b","geo_precision":"street"},"type":"Feature","geometry":{"type":"Point","coordinates":[-77.926491,39.423103]}},{"properties":{"city, state":"GREENVILLE, PA","zip":"16125","geo_score":0.805,"street":"294 MAIN ST","id":"ahc9bzh317bz","geo_precision":"range"},"type":"Feature","geometry":{"type":"Point","coordinates":[-80.38244,41.407261]}},{"properties":{"city, state":"LITTLESTOWN, PA","zip":"17340","geo_score":0.805,"street":"35 E KING ST","id":"ahc9bzglnd8q","geo_precision":"range"},"type":"Feature","geometry":{"type":"Point","coordinates":[-77.08664,39.745328]}},{"properties":{"city, state":"INWOOD, WV","zip":"25428","geo_score":0.61,"street":"7899 WINCHESTER AVE","id":"ahc9bzaoqlxv","geo_precision":"street"},"type":"Feature","geometry":{"type":"Point","coordinates":[-77.987719,39.425647]}},{"properties":{"city, state":"MOOREFIELD, WV","zip":"26836","geo_score":0.488,"street":"268 GENNY LOOP","id":"ahc9bzfgl8gu","geo_precision":"zip"},"type":"Feature","geometry":{"type":"Point","coordinates":[-79.045587,39.038998]}},{"properties":{"city, state":"HAGERSTOWN, MD","zip":"21742","geo_score":0.805,"street":"18717 LONGMEADOW RD","id":"ahc9bze1dweo","geo_precision":"range"},"type":"Feature","geometry":{"type":"Point","coordinates":[-77.720518,39.686072]}},{"properties":{"city, state":"BROCKWAY, PA","zip":"15824","geo_score":0.805,"street":"1408 MAIN ST","id":"ahc9bzjxsbn4","geo_precision":"range"},"type":"Feature","geometry":{"type":"Point","coordinates":[-78.786918,41.246818]}},{"properties":{"city, state":"OAKLAND, MD","zip":"21550","geo_score":0.732,"street":"5 N 3RD ST","id":"ahc9bzkbfgdl","geo_precision":"range"},"type":"Feature","geometry":{"type":"Point","coordinates":[-79.405089,39.411251]}},{"properties":{"city, state":"DUBOIS, PA","zip":"15801","geo_score":0.488,"street":"2120 BLINKER PKWY","id":"ahc9bzjavxnd","geo_precision":"zip"},"type":"Feature","geometry":{"type":"Point","coordinates":[-78.791142,41.057006]}},{"properties":{"city, state":"DUBOIS, PA","zip":"15801","geo_score":0.805,"street":"124 N BRADY ST","id":"ahc9bzewvd1d","geo_precision":"range"},"type":"Feature","geometry":{"type":"Point","coordinates":[-78.760136,41.119364]}},{"properties":{"city, state":"STATE COLLEGE, PA","zip":"16801","geo_score":0.805,"street":"2000 E COLLEGE AVE","id":"ahc9bz8t4fm7","geo_precision":"range"},"type":"Feature","geometry":{"type":"Point","coordinates":[-77.817944,40.818647]}},{"properties":{"city, state":"EMPORIUM, PA","zip":"15834","geo_score":0.732,"street":"1 W 4TH ST","id":"ahc9bzlxyihs","geo_precision":"range"},"type":"Feature","geometry":{"type":"Point","coordinates":[-78.237746,41.511531]}},{"properties":{"city, state":"BEAVER FALLS, PA","zip":"15010","geo_score":0.721,"street":"3611 4TH AVE","id":"ahc9bzgd07ut","geo_precision":"range"},"type":"Feature","geometry":{"type":"Point","coordinates":[-80.324501,40.778007]}},{"properties":{"city, state":"MEADVILLE, PA","zip":"16335","geo_score":0.415,"street":"18425 SMOCK HWY","id":"ahc9bzhxgt28","geo_precision":"street"},"type":"Feature","geometry":{"type":"Point","coordinates":[-79.364746,41.423541]}},{"properties":{"city, state":"GREENSBURG, PA","zip":"15601","geo_score":0.805,"street":"211 HARVEY AVE","id":"ahc9bzjjy5xd","geo_precision":"range"},"type":"Feature","geometry":{"type":"Point","coordinates":[-79.539276,40.306945]}},{"properties":{"city, state":"MARTINSBURG, WV","zip":"25401","geo_score":0.805,"street":"1617 W KING ST","id":"ahc9bz8d2cru","geo_precision":"range"},"type":"Feature","geometry":{"type":"Point","coordinates":[-77.986289,39.462662]}},{"properties":{"city, state":"LEWISTOWN, PA","zip":"17044","geo_score":0.756,"street":"113 JUNIATA STREET","id":"ahc9bzgjoapk","geo_precision":"range"},"type":"Feature","geometry":{"type":"Point","coordinates":[-77.582567,40.595738]}},{"properties":{"city, state":"CONNEAUT LAKE, PA","zip":"16316","geo_score":0.65,"street":"315 WATER ST BOX 5096","id":"ahc9bzerlq7s","geo_precision":"range"},"type":"Feature","geometry":{"type":"Point","coordinates":[-80.305681,41.603235]}},{"properties":{"city, state":"SHEPHERDSTOWN, WV","zip":"25443","geo_score":0.48,"street":"8332 MARTINSBURG PIKE","id":"ahc9bzcmhndo","geo_precision":"street"},"type":"Feature","geometry":{"type":"Point","coordinates":[-77.834263,39.43576]}},{"properties":{"city, state":"FREDERICK, MD","zip":"21701","geo_score":0.488,"street":"5601 BUCKEYSTOWN PIKE","id":"ahc9bzk5i8cg","geo_precision":"zip"},"type":"Feature","geometry":{"type":"Point","coordinates":[-77.48582,39.420657]}},{"properties":{"city, state":"HAGERSTOWN, MD","zip":"21740","geo_score":0.805,"street":"17550 VIRGINIA AVE","id":"ahc9bzdfl3li","geo_precision":"range"},"type":"Feature","geometry":{"type":"Point","coordinates":[-77.762367,39.619349]}},{"properties":{"city, state":"WESTMINSTER, MD","zip":"21157","geo_score":0.805,"street":"304 E MAIN ST","id":"ahc9bzhuhfxq","geo_precision":"range"},"type":"Feature","geometry":{"type":"Point","coordinates":[-76.984983,39.564571]}},{"properties":{"city, state":"COUDERSPORT, PA","zip":"16915","geo_score":0.683,"street":"208 S MAIN ST","id":"ahc9bz7vbrws","geo_precision":"range"},"type":"Feature","geometry":{"type":"Point","coordinates":[-78.021269,41.77047]}},{"properties":{"city, state":"PORT ALLEGANY, PA","zip":"16743","geo_score":0.805,"street":"101 N MAIN ST","id":"ahc9bza1ejjx","geo_precision":"range"},"type":"Feature","geometry":{"type":"Point","coordinates":[-78.282671,41.814057]}},{"properties":{"city, state":"CORRIGANVILLE, MD","zip":"21524","geo_score":0.667,"street":"100 E MAIN ST BOX 298","id":"ahc9bznjaf4d","geo_precision":"range"},"type":"Feature","geometry":{"type":"Point","coordinates":[-78.926229,39.656391]}},{"properties":{"city, state":"KEYSER, WV","zip":"26726","geo_score":0.362,"street":"1280 NEW CREEK HIGHWAY","id":"ahc9bzbr55au","geo_precision":"street"},"type":"Feature","geometry":{"type":"Point","coordinates":[-78.975472,39.458576]}},{"properties":{"city, state":"EAST FREEDOM, PA","zip":"16637","geo_score":0.61,"street":"8711 WOODBURY PIKE","id":"ahc9bzn5crqh","geo_precision":"street"},"type":"Feature","geometry":{"type":"Point","coordinates":[-78.366576,40.264364]}},{"properties":{"city, state":"INDIANA, PA","zip":"15701","geo_score":0.805,"street":"525 BEN FRANKLIN RD S","id":"ahc9bzfaxjaj","geo_precision":"range"},"type":"Feature","geometry":{"type":"Point","coordinates":[-79.189445,40.611437]}},{"properties":{"city, state":"PHILIPPI, WV","zip":"26416","geo_score":0.626,"street":"125 N MAIN ST","id":"ahc9bz8pvt6k","geo_precision":"street"},"type":"Feature","geometry":{"type":"Point","coordinates":[-80.039931,39.15245]}},{"properties":{"city, state":"LIGONIER, PA","zip":"15658","geo_score":0.61,"street":"3832 STATE ROUTE 711","id":"ahc9bzl6jhbi","geo_precision":"street"},"type":"Feature","geometry":{"type":"Point","coordinates":[-79.231614,40.246494]}},{"properties":{"city, state":"BELINGTON, WV","zip":"26250","geo_score":0.582,"street":"221 N CRIM AVE","id":"ahc9bz8nf144","geo_precision":"street"},"type":"Feature","geometry":{"type":"Point","coordinates":[-79.939056,39.01609]}},{"properties":{"city, state":"PARSONS, WV","zip":"26287","geo_score":0.61,"street":"200 1ST ST","id":"ahc9bzbei9vx","geo_precision":"street"},"type":"Feature","geometry":{"type":"Point","coordinates":[-79.675586,39.098161]}},{"properties":{"city, state":"KNOXVILLE, MD","zip":"21758","geo_score":0.683,"street":"3842 BURKITTSVILLE RD","id":"ahc9bzcv0r7x","geo_precision":"range"},"type":"Feature","geometry":{"type":"Point","coordinates":[-77.639096,39.336973]}},{"properties":{"city, state":"MANCHESTER, MD","zip":"21102","geo_score":0.805,"street":"3281 MAIN ST","id":"ahc9bznjr3yl","geo_precision":"range"},"type":"Feature","geometry":{"type":"Point","coordinates":[-76.886267,39.664106]}},{"properties":{"city, state":"CHAMBERSBURG, PA","zip":"17201","geo_score":0.805,"street":"5234 PHILADELPHIA AVE","id":"ahc9bzl87p5b","geo_precision":"range"},"type":"Feature","geometry":{"type":"Point","coordinates":[-77.606836,39.992834]}},{"properties":{"city, state":"SOMERSET, PA","zip":"15501","geo_score":0.805,"street":"1189 N CENTER AVE","id":"ahc9bzio0ptn","geo_precision":"range"},"type":"Feature","geometry":{"type":"Point","coordinates":[-79.077227,40.022439]}},{"properties":{"city, state":"ROMNEY, WV","zip":"26757","geo_score":0.772,"street":"136 E MAIN ST","id":"ahc9bzcplc5v","geo_precision":"range"},"type":"Feature","geometry":{"type":"Point","coordinates":[-78.758421,39.342457]}},{"properties":{"city, state":"BELLEFONTE, PA","zip":"16823","geo_score":0.805,"street":"820 S EAGLE VALLEY RD","id":"ahc9bzgil2nz","geo_precision":"range"},"type":"Feature","geometry":{"type":"Point","coordinates":[-77.815294,40.934433]}},{"properties":{"city, state":"BRIDGEPORT, WV","zip":"26330","geo_score":0.805,"street":"1220 JOHNSON AVE","id":"ahc9bzipcxsz","geo_precision":"range"},"type":"Feature","geometry":{"type":"Point","coordinates":[-80.27747,39.299949]}},{"properties":{"city, state":"CONNELLSVILLE, PA","zip":"15425","geo_score":0.805,"street":"2601 MEMORIAL BLVD","id":"ahc9bzala9qh","geo_precision":"range"},"type":"Feature","geometry":{"type":"Point","coordinates":[-79.56165,40.05535]}},{"properties":{"city, state":"HAGERSTOWN, MD","zip":"21740","geo_score":0.488,"street":"12404 LAUGER AVE","id":"ahc9bzfrtd4k","geo_precision":"zip"},"type":"Feature","geometry":{"type":"Point","coordinates":[-77.712215,39.686206]}},{"properties":{"city, state":"CHAMBERSBURG, PA","zip":"17201","geo_score":0.805,"street":"900 WAYNE AVE","id":"ahc9bznpg0nq","geo_precision":"range"},"type":"Feature","geometry":{"type":"Point","coordinates":[-77.653533,39.914558]}},{"properties":{"city, state":"WINCHESTER, VA","zip":"22601","geo_score":0.519,"street":"1503 N FREDERICK PIKE","id":"ahc9bzbmp3zz","geo_precision":"street"},"type":"Feature","geometry":{"type":"Point","coordinates":[-78.145659,39.185249]}},{"properties":{"city, state":"ALTOONA, PA","zip":"16602","geo_score":0.805,"street":"400 E PLANK RD","id":"ahc9bzb822t2","geo_precision":"range"},"type":"Feature","geometry":{"type":"Point","coordinates":[-78.402836,40.479675]}},{"properties":{"city, state":"TRANSFER, PA","zip":"16154","geo_score":0.785,"street":"270 EDGEWOOD DRIVE EXT","id":"ahc9bzfm7w7y","geo_precision":"range"},"type":"Feature","geometry":{"type":"Point","coordinates":[-80.414305,41.330048]}},{"properties":{"city, state":"CHESWICK, PA","zip":"15024","geo_score":0.805,"street":"1505 PITTSBURGH STREET","id":"ahc9bzanzpsh","geo_precision":"range"},"type":"Feature","geometry":{"type":"Point","coordinates":[-79.799142,40.541582]}},{"properties":{"city, state":"PITTSBURGH, PA","zip":"15239","geo_score":0.805,"street":"2003 GOLDEN MILE HWY","id":"ahc9bzi1h8fx","geo_precision":"range"},"type":"Feature","geometry":{"type":"Point","coordinates":[-79.707669,40.459026]}},{"properties":{"city, state":"CARLISLE, PA","zip":"17013","geo_score":0.707,"street":"1098 HARRISBURG PIKE","id":"ahc9bzbaow7z","geo_precision":"street"},"type":"Feature","geometry":{"type":"Point","coordinates":[-77.161705,40.221695]}},{"properties":{"city, state":"BOYCE, VA","zip":"22620","geo_score":0.621,"street":"12582 LORD FAIRFAX HWY","id":"ahc9bzkppktu","geo_precision":"street"},"type":"Feature","geometry":{"type":"Point","coordinates":[-78.085092,39.081233]}},{"properties":{"city, state":"MIFFLINTOWN, PA","zip":"17059","geo_score":0.415,"street":"24578 ROUTE 35 N","id":"ahc9bzeiynl7","geo_precision":"street"},"type":"Feature","geometry":{"type":"Point","coordinates":[-77.390401,40.572708]}},{"properties":{"city, state":"FALLS CREEK, PA","zip":"15840","geo_score":0.488,"street":"1867 RICH HWY","id":"ahc9bz8za9op","geo_precision":"zip"},"type":"Feature","geometry":{"type":"Point","coordinates":[-78.820695,41.149752]}},{"properties":{"city, state":"MECHANICSBURG, PA","zip":"17050","geo_score":0.805,"street":"6558 CARLISLE PIKE","id":"ahc9bzg87ij1","geo_precision":"range"},"type":"Feature","geometry":{"type":"Point","coordinates":[-77.031076,40.246063]}},{"properties":{"city, state":"CRESSON, PA","zip":"16630","geo_score":0.805,"street":"7551 ADMIRAL PEARY HWY","id":"ahc9bzegs2ox","geo_precision":"range"},"type":"Feature","geometry":{"type":"Point","coordinates":[-78.593673,40.459514]}},{"properties":{"city, state":"STEPHENS CITY, VA","zip":"22655","geo_score":0.488,"street":"747 FAIRFAX ST","id":"ahc9bz90anfc","geo_precision":"zip"},"type":"Feature","geometry":{"type":"Point","coordinates":[-78.246946,39.058163]}},{"properties":{"city, state":"WOODSTOCK, VA","zip":"22664","geo_score":0.805,"street":"111 W RESERVOIR RD","id":"ahc9bznbbpks","geo_precision":"range"},"type":"Feature","geometry":{"type":"Point","coordinates":[-78.519223,38.86753]}},{"properties":{"city, state":"HANOVER, PA","zip":"17331","geo_score":0.805,"street":"1191 CARLISLE ST","id":"ahc9bznjh5c3","geo_precision":"range"},"type":"Feature","geometry":{"type":"Point","coordinates":[-76.995875,39.820404]}},{"properties":{"city, state":"THURMONT, MD","zip":"21788","geo_score":0.805,"street":"428 N CHURCH ST","id":"ahc9bzcfildf","geo_precision":"range"},"type":"Feature","geometry":{"type":"Point","coordinates":[-77.410595,39.63311]}},{"properties":{"city, state":"MECHANICSBURG, PA","zip":"17055","geo_score":0.805,"street":"1415 S MARKET ST","id":"ahc9bz9x50cm","geo_precision":"range"},"type":"Feature","geometry":{"type":"Point","coordinates":[-76.992158,40.193096]}},{"properties":{"city, state":"HERMITAGE, PA","zip":"16148","geo_score":0.805,"street":"2381 S HERMITAGE RD","id":"ahc9bzjeactp","geo_precision":"range"},"type":"Feature","geometry":{"type":"Point","coordinates":[-80.45641,41.201559]}},{"properties":{"city, state":"WINCHESTER, VA","zip":"22601","geo_score":0.805,"street":"2311 VALLEY AVE","id":"ahc9bzmm0rv2","geo_precision":"range"},"type":"Feature","geometry":{"type":"Point","coordinates":[-78.185324,39.16061]}},{"properties":{"city, state":"MURRYSVILLE, PA","zip":"15668","geo_score":0.805,"street":"4701 WILLIAM PENN HWY","id":"ahc9bz7jhya3","geo_precision":"range"},"type":"Feature","geometry":{"type":"Point","coordinates":[-79.665123,40.423756]}},{"properties":{"city, state":"HAYMARKET, VA","zip":"20169","geo_score":0.805,"street":"15315 WASHINGTON ST","id":"ahc9bzj8sijc","geo_precision":"range"},"type":"Feature","geometry":{"type":"Point","coordinates":[-77.642604,38.815252]}},{"properties":{"city, state":"WESTON, WV","zip":"26452","geo_score":0.488,"street":"39 BERLIN RD","id":"ahc9bzialb4l","geo_precision":"zip"},"type":"Feature","geometry":{"type":"Point","coordinates":[-80.509259,39.047871]}},{"properties":{"city, state":"WINCHESTER, VA","zip":"22602","geo_score":0.552,"street":"1683 BERRYVILLE PIKE","id":"ahc9bz89bzap","geo_precision":"street"},"type":"Feature","geometry":{"type":"Point","coordinates":[-78.138999,39.184782]}},{"properties":{"city, state":"WINCHESTER, VA","zip":"22601","geo_score":0.707,"street":"601 MILLWOOD AVE","id":"ahc9bz93zekc","geo_precision":"street"},"type":"Feature","geometry":{"type":"Point","coordinates":[-78.161814,39.165819]}},{"properties":{"city, state":"BOONSBORO, MD","zip":"21713","geo_score":0.805,"street":"20723 NATIONAL PIKE","id":"ahc9bzljyxe0","geo_precision":"range"},"type":"Feature","geometry":{"type":"Point","coordinates":[-77.650519,39.573968]}},{"properties":{"city, state":"WALKERSVILLE, MD","zip":"21793","geo_score":0.805,"street":"8408 WOODSBORO PIKE","id":"ahc9bzjl98a4","geo_precision":"range"},"type":"Feature","geometry":{"type":"Point","coordinates":[-77.364071,39.465527]}},{"properties":{"city, state":"PALMYRA, PA","zip":"17078","geo_score":0.805,"street":"811 E MAIN ST","id":"ahc9bzabchjl","geo_precision":"range"},"type":"Feature","geometry":{"type":"Point","coordinates":[-76.584319,40.313113]}},{"properties":{"city, state":"PETERSBURG, WV","zip":"26847","geo_score":0.612,"street":"299 BRYAN ST","id":"ahc9bzlxivnq","geo_precision":"street"},"type":"Feature","geometry":{"type":"Point","coordinates":[-79.128577,38.99578]}},{"properties":{"city, state":"BLOOMSBURG, PA","zip":"17815","geo_score":0.61,"street":"2511 NEW BERWICK HWY","id":"ahc9bzlyxwyu","geo_precision":"street"},"type":"Feature","geometry":{"type":"Point","coordinates":[-76.378738,41.021029]}},{"properties":{"city, state":"BUCKHANNON, WV","zip":"26201","geo_score":0.488,"street":"4 CLARKSBURG RD","id":"ahc9bzbkbd2g","geo_precision":"zip"},"type":"Feature","geometry":{"type":"Point","coordinates":[-80.127579,38.895936]}},{"properties":{"city, state":"HUNTINGDON, PA","zip":"16652","geo_score":0.409,"street":"9681 WILLIAM PENN HWY","id":"ahc9bz96atmx","geo_precision":"street"},"type":"Feature","geometry":{"type":"Point","coordinates":[-78.022379,40.502815]}},{"properties":{"city, state":"ELYSBURG, PA","zip":"17824","geo_score":0.805,"street":"38 S MARKET ST","id":"ahc9bzl3o1g2","geo_precision":"range"},"type":"Feature","geometry":{"type":"Point","coordinates":[-76.549208,40.861605]}},{"properties":{"city, state":"BUTLER, PA","zip":"16001","geo_score":0.805,"street":"100 FREEPORT RD","id":"ahc9bzezhzz7","geo_precision":"range"},"type":"Feature","geometry":{"type":"Point","coordinates":[-79.881242,40.844615]}},{"properties":{"city, state":"HARRISONBURG, VA","zip":"22801","geo_score":0.805,"street":"533 UNIVERSITY BLVD","id":"ahc9bzd47zq3","geo_precision":"range"},"type":"Feature","geometry":{"type":"Point","coordinates":[-78.856867,38.429]}},{"properties":{"city, state":"HARRISBURG, PA","zip":"17112","geo_score":0.805,"street":"2300 COLONIAL RD","id":"ahc9bzbhcu69","geo_precision":"range"},"type":"Feature","geometry":{"type":"Point","coordinates":[-76.825884,40.339384]}},{"properties":{"city, state":"MARTINSBURG, WV","zip":"25404","geo_score":0.0,"street":"1465 EDWIN MILLER BLVD","id":"ahc9bzj6sden","geo_precision":"unmatched"},"type":"Feature","geometry":null},{"properties":{"city, state":"BEALETON, VA","zip":"22712","geo_score":0.805,"street":"10101 JAMES MADISON HWY","id":"ahc9bz9xizvn","geo_precision":"range"},"type":"Feature","geometry":{"type":"Point","coordinates":[-77.80041,38.618833]}},{"properties":{"city, state":"HARRISONBURG, VA","zip":"22801","geo_score":0.805,"street":"1825 S MAIN ST","id":"ahc9bz9l6hju","geo_precision":"range"},"type":"Feature","geometry":{"type":"Point","coordinates":[-78.888908,38.42528]}},{"properties":{"city, state":"BADEN, PA","zip":"15005","geo_score":0.766,"street":"100 OHIO RIVER BLVD","id":"ahc9bzlz05yd","geo_precision":"range"},"type":"Feature","geometry":{"type":"Point","coordinates":[-80.229722,40.629747]}},{"properties":{"city, state":"YORK, PA","zip":"17402","geo_score":0.805,"street":"405 MEMORY LN","id":"ahc9bzmcsjrd","geo_precision":"range"},"type":"Feature","geometry":{"type":"Point","coordinates":[-76.681669,39.978646]}},{"properties":{"city, state":"BREEZEWOOD, PA","zip":"15533","geo_score":0.614,"street":"16417 LINCOLN HWY","id":"ahc9bzcatznf","geo_precision":"street"},"type":"Feature","geometry":{"type":"Point","coordinates":[-78.238742,39.999449]}},{"properties":{"city, state":"READING, PA","zip":"19605","geo_score":0.805,"street":"501 E BELLEVUE AVE","id":"ahc9bz7yd6pa","geo_precision":"range"},"type":"Feature","geometry":{"type":"Point","coordinates":[-75.925455,40.387238]}},{"properties":{"city, state":"JOHNSTOWN, PA","zip":"15904","geo_score":0.805,"street":"405 GALLERIA DR","id":"ahc9bzf89eem","geo_precision":"range"},"type":"Feature","geometry":{"type":"Point","coordinates":[-78.838125,40.2932]}},{"properties":{"city, state":"HALIFAX, PA","zip":"17032","geo_score":0.805,"street":"3625 PETERS MOUNTAIN RD","id":"ahc9bze9p4ij","geo_precision":"range"},"type":"Feature","geometry":{"type":"Point","coordinates":[-76.927829,40.450554]}},{"properties":{"city, state":"IRWIN, PA","zip":"15642","geo_score":0.566,"street":"7821 ROUTE 30","id":"ahc9bzjt87x7","geo_precision":"range"},"type":"Feature","geometry":{"type":"Point","coordinates":[-79.671087,40.316715]}},{"properties":{"city, state":"CARMICHAELS, PA","zip":"15320","geo_score":0.399,"street":"973 S 88 RD","id":"ahc9bzagtoa6","geo_precision":"street"},"type":"Feature","geometry":{"type":"Point","coordinates":[-79.966692,39.881935]}},{"properties":{"city, state":"NEW HOLLAND, PA","zip":"17557","geo_score":0.805,"street":"698 W MAIN ST","id":"ahc9bzg0c6mn","geo_precision":"range"},"type":"Feature","geometry":{"type":"Point","coordinates":[-76.112854,40.094316]}},{"properties":{"city, state":"MT HOLLY SPRINGS, PA","zip":"17065","geo_score":0.805,"street":"420 N BALTIMORE AVE","id":"ahc9bzikcdcf","geo_precision":"range"},"type":"Feature","geometry":{"type":"Point","coordinates":[-77.190182,40.120714]}},{"properties":{"city, state":"MANCHESTER, PA","zip":"17345","geo_score":0.785,"street":"4309 N GEORGE STREET EXT","id":"ahc9bzghva4q","geo_precision":"range"},"type":"Feature","geometry":{"type":"Point","coordinates":[-76.723006,40.050023]}},{"properties":{"city, state":"WEIRTON, WV","zip":"26062","geo_score":0.713,"street":"239 THREE SPRINGS DRIVE","id":"ahc9bzb4a2hv","geo_precision":"range"},"type":"Feature","geometry":{"type":"Point","coordinates":[-80.550005,40.405848]}},{"properties":{"city, state":"SELINSGROVE, PA","zip":"17870","geo_score":0.576,"street":"766 NORTH SUSQUEHANNA TRAIL","id":"ahc9bzh3ec86","geo_precision":"street"},"type":"Feature","geometry":{"type":"Point","coordinates":[-76.826675,40.842517]}},{"properties":{"city, state":"MARIETTA, PA","zip":"17547","geo_score":0.732,"street":"1158 RIVER RD","id":"ahc9bzca8veg","geo_precision":"range"},"type":"Feature","geometry":{"type":"Point","coordinates":[-76.542187,40.062744]}},{"properties":{"city, state":"LITITZ, PA","zip":"17543","geo_score":0.805,"street":"701 FURNACE HILLS PIKE","id":"ahc9bzeakl49","geo_precision":"range"},"type":"Feature","geometry":{"type":"Point","coordinates":[-76.308801,40.175765]}},{"properties":{"city, state":"RUCKERSVILLE, VA","zip":"22968","geo_score":0.805,"street":"7020 SEMINOLE TRL","id":"ahc9bz7ezxym","geo_precision":"range"},"type":"Feature","geometry":{"type":"Point","coordinates":[-78.385794,38.207832]}},{"properties":{"city, state":"NEW STANTON, PA","zip":"15672","geo_score":0.805,"street":"205 N CENTER AVE","id":"ahc9bz7sl9fy","geo_precision":"range"},"type":"Feature","geometry":{"type":"Point","coordinates":[-79.609398,40.218606]}},{"properties":{"city, state":"CHARLES TOWN, WV","zip":"25414","geo_score":0.615,"street":"51 FLOWING SPRINGS RD","id":"ahc9bzc4f5ua","geo_precision":"street"},"type":"Feature","geometry":{"type":"Point","coordinates":[-77.841955,39.303588]}},{"properties":{"city, state":"MARTINSBURG, WV","zip":"25401","geo_score":0.61,"street":"14686 APPLE HARVEST DRIVE","id":"ahc9bzkn1ll0","geo_precision":"street"},"type":"Feature","geometry":{"type":"Point","coordinates":[-77.982225,39.441911]}},{"properties":{"city, state":"FREDERICK, MD","zip":"21702","geo_score":0.805,"street":"1600 ROSEMONT AVE","id":"ahc9bzezb4x7","geo_precision":"range"},"type":"Feature","geometry":{"type":"Point","coordinates":[-77.431354,39.42745]}},{"properties":{"city, state":"WARRENTON, VA","zip":"20186","geo_score":0.488,"street":"600 BLACKWELL RD","id":"ahc9bza6ggqq","geo_precision":"zip"},"type":"Feature","geometry":{"type":"Point","coordinates":[-77.836115,38.689832]}},{"properties":{"city, state":"WOODBRIDGE, VA","zip":"22193","geo_score":0.805,"street":"4021 PRINCE WILLIAM PKWY","id":"ahc9bz7d2xxt","geo_precision":"range"},"type":"Feature","geometry":{"type":"Point","coordinates":[-77.336184,38.671755]}},{"properties":{"city, state":"ERIE, PA","zip":"16506","geo_score":0.805,"street":"4662 W RIDGE RD","id":"ahc9bzkfvwln","geo_precision":"range"},"type":"Feature","geometry":{"type":"Point","coordinates":[-80.176781,42.074787]}},{"properties":{"city, state":"NEW CASTLE, PA","zip":"16101","geo_score":0.493,"street":"3208 US 422","id":"ahc9bzgtn2n4","geo_precision":"street"},"type":"Feature","geometry":{"type":"Point","coordinates":[-80.234048,40.971163]}},{"properties":{"city, state":"FLEETWOOD, PA","zip":"19522","geo_score":0.805,"street":"14350 KUTZTOWN RD","id":"ahc9bzjs10ed","geo_precision":"range"},"type":"Feature","geometry":{"type":"Point","coordinates":[-75.832927,40.487857]}},{"properties":{"city, state":"GIRARD, OH","zip":"44420","geo_score":0.805,"street":"2721 SALT SPRINGS RD","id":"ahc9bz7k2dgz","geo_precision":"range"},"type":"Feature","geometry":{"type":"Point","coordinates":[-80.722881,41.143959]}},{"properties":{"city, state":"FREDERICK, MD","zip":"21701","geo_score":0.488,"street":"1300 E PATRICK ST","id":"ahc9bzjhwj6d","geo_precision":"zip"},"type":"Feature","geometry":{"type":"Point","coordinates":[-77.48582,39.420657]}},{"properties":{"city, state":"BUTLER, PA","zip":"16001","geo_score":0.805,"street":"356 NEW CASTLE RD","id":"ahc9bzkx0qjr","geo_precision":"range"},"type":"Feature","geometry":{"type":"Point","coordinates":[-79.948692,40.876978]}},{"properties":{"city, state":"EAST LIVERPOOL, OH","zip":"43920","geo_score":0.61,"street":"15744 SAINT CLAIR AVE","id":"ahc9bzhcrvbt","geo_precision":"street"},"type":"Feature","geometry":{"type":"Point","coordinates":[-80.574129,40.652194]}},{"properties":{"city, state":"CLEARFIELD, PA","zip":"16830","geo_score":0.805,"street":"14259 CLEARFIELD SHAWVILLE HWY","id":"ahc9bzfjz000","geo_precision":"range"},"type":"Feature","geometry":{"type":"Point","coordinates":[-78.403631,41.033969]}},{"properties":{"city, state":"PITTSBURGH, PA","zip":"15236","geo_score":0.805,"street":"251 CURRY HOLLOW RD","id":"ahc9bzfrpq7v","geo_precision":"range"},"type":"Feature","geometry":{"type":"Point","coordinates":[-79.968156,40.339067]}},{"properties":{"city, state":"MORGANTOWN, WV","zip":"26505","geo_score":0.805,"street":"900 CHESTNUT RIDGE RD","id":"ahc9bz7iy1ou","geo_precision":"range"},"type":"Feature","geometry":{"type":"Point","coordinates":[-79.954535,39.658013]}},{"properties":{"city, state":"YORK, PA","zip":"17408","geo_score":0.0,"street":"1484 CARLISLE RD","id":"ahc9bzahio8k","geo_precision":"unmatched"},"type":"Feature","geometry":null},{"properties":{"city, state":"SHOEMAKERSVILLE, PA","zip":"19555","geo_score":0.805,"street":"554 SHOEMAKER AVE","id":"ahc9bzn09u9t","geo_precision":"range"},"type":"Feature","geometry":{"type":"Point","coordinates":[-75.963316,40.500479]}},{"properties":{"city, state":"LANCASTER, PA","zip":"17601","geo_score":0.805,"street":"1699 OREGON PIKE","id":"ahc9bzj34nbv","geo_precision":"range"},"type":"Feature","geometry":{"type":"Point","coordinates":[-76.303485,40.06794]}},{"properties":{"city, state":"POTTSVILLE, PA","zip":"17901","geo_score":0.805,"street":"900 GORDON NAGLE TRL","id":"ahc9bzngoy56","geo_precision":"range"},"type":"Feature","geometry":{"type":"Point","coordinates":[-76.235339,40.671527]}},{"properties":{"city, state":"KING GEORGE, VA","zip":"22485","geo_score":0.805,"street":"17188 OWENS DR","id":"ahc9bzkgk48c","geo_precision":"range"},"type":"Feature","geometry":{"type":"Point","coordinates":[-77.048503,38.353251]}},{"properties":{"city, state":"CRANBERRY, PA","zip":"16319","geo_score":0.434,"street":"7119 US 322  BOX 228","id":"ahc9bzdkydxg","geo_precision":"street"},"type":"Feature","geometry":{"type":"Point","coordinates":[-79.569208,41.283443]}},{"properties":{"city, state":"FOREST, VA","zip":"24551","geo_score":0.805,"street":"12259 E LYNCHBURG SALEM TPKE","id":"ahc9bzdd7c63","geo_precision":"range"},"type":"Feature","geometry":{"type":"Point","coordinates":[-79.307088,37.305772]}},{"properties":{"city, state":"HAGERSTOWN, MD","zip":"21740","geo_score":0.805,"street":"1396 S POTOMAC ST","id":"ahc9bzbpnqu9","geo_precision":"range"},"type":"Feature","geometry":{"type":"Point","coordinates":[-77.73089,39.613209]}},{"properties":{"city, state":"CARLISLE, PA","zip":"17013","geo_score":0.805,"street":"1900 RITNER HWY","id":"ahc9bzf0j9sc","geo_precision":"range"},"type":"Feature","geometry":{"type":"Point","coordinates":[-77.243231,40.190359]}},{"properties":{"city, state":"FREDERICKSBURG, VA","zip":"22405","geo_score":0.749,"street":"10 WASHINGTON SQUARE PLZ","id":"ahc9bzlrqrzn","geo_precision":"range"},"type":"Feature","geometry":{"type":"Point","coordinates":[-77.435954,38.28605]}},{"properties":{"city, state":"LYNCHBURG, VA","zip":"24501","geo_score":0.61,"street":"14480 WARDS RD","id":"ahc9bzlx5nw7","geo_precision":"street"},"type":"Feature","geometry":{"type":"Point","coordinates":[-79.188902,37.318757]}},{"properties":{"city, state":"STREETSBORO, OH","zip":"44241","geo_score":0.805,"street":"9745 STATE ROUTE 14","id":"ahc9bz956cjo","geo_precision":"range"},"type":"Feature","geometry":{"type":"Point","coordinates":[-81.36513,41.251103]}},{"properties":{"city, state":"LEESBURG, VA","zip":"20176","geo_score":0.805,"street":"915 EDWARDS FERRY RD NE","id":"ahc9bzlekn6t","geo_precision":"range"},"type":"Feature","geometry":{"type":"Point","coordinates":[-77.537891,39.113611]}},{"properties":{"city, state":"RED LION, PA","zip":"17356","geo_score":0.805,"street":"3200 CAPE HORN RD","id":"ahc9bzbzy2e3","geo_precision":"range"},"type":"Feature","geometry":{"type":"Point","coordinates":[-76.645313,39.942172]}},{"properties":{"city, state":"EPHRATA, PA","zip":"17522","geo_score":0.805,"street":"4179 OREGON PIKE","id":"ahc9bzbbrppz","geo_precision":"range"},"type":"Feature","geometry":{"type":"Point","coordinates":[-76.218085,40.130233]}},{"properties":{"city, state":"MANASSAS PARK, VA","zip":"20111","geo_score":0.805,"street":"8504 CENTREVILLE RD","id":"ahc9bzhogdnk","geo_precision":"range"},"type":"Feature","geometry":{"type":"Point","coordinates":[-77.452656,38.772179]}},{"properties":{"city, state":"LYNCHBURG, VA","zip":"24501","geo_score":0.805,"street":"2630 LAKESIDE DR","id":"ahc9bzloxc72","geo_precision":"range"},"type":"Feature","geometry":{"type":"Point","coordinates":[-79.229552,37.395846]}},{"properties":{"city, state":"MADISON HEIGHTS, VA","zip":"24572","geo_score":0.805,"street":"4089 S AMHERST HWY","id":"ahc9bzc8th61","geo_precision":"range"},"type":"Feature","geometry":{"type":"Point","coordinates":[-79.119087,37.466558]}},{"properties":{"city, state":"BIRDSBORO, PA","zip":"19508","geo_score":0.805,"street":"6600 PERKIOMEN AVE","id":"ahc9bzjr3aam","geo_precision":"range"},"type":"Feature","geometry":{"type":"Point","coordinates":[-75.819397,40.288318]}},{"properties":{"city, state":"ASHTABULA, OH","zip":"44004","geo_score":0.805,"street":"2411 N RIDGE RD E","id":"ahc9bzn5thtg","geo_precision":"range"},"type":"Feature","geometry":{"type":"Point","coordinates":[-80.763452,41.876075]}},{"properties":{"city, state":"MORGANTOWN, WV","zip":"26501","geo_score":0.553,"street":"1 CHAPLIN RD","id":"ahc9bz9uoqvh","geo_precision":"street"},"type":"Feature","geometry":{"type":"Point","coordinates":[-80.001137,39.65929]}},{"properties":{"city, state":"MIFFLINBURG, PA","zip":"17844","geo_score":0.805,"street":"240 E CHESTNUT ST","id":"ahc9bzdlnmmo","geo_precision":"range"},"type":"Feature","geometry":{"type":"Point","coordinates":[-77.031406,40.923302]}},{"properties":{"city, state":"WEXFORD, PA","zip":"15090","geo_score":0.618,"street":"12000 PERRY HWY","id":"ahc9bzkqli91","geo_precision":"street"},"type":"Feature","geometry":{"type":"Point","coordinates":[-80.060603,40.634599]}},{"properties":{"city, state":"UNIONTOWN, PA","zip":"15401","geo_score":0.707,"street":"10 NEW SALEM RD","id":"ahc9bzg3vz0y","geo_precision":"range"},"type":"Feature","geometry":{"type":"Point","coordinates":[-79.837027,39.925037]}},{"properties":{"city, state":"CANONSBURG, PA","zip":"15317","geo_score":0.805,"street":"2401 WASHINGTON RD","id":"ahc9bz76o70y","geo_precision":"range"},"type":"Feature","geometry":{"type":"Point","coordinates":[-80.170498,40.252494]}},{"properties":{"city, state":"MILL HALL, PA","zip":"17751","geo_score":0.805,"street":"288 HOGAN BLVD","id":"ahc9bz85tnj2","geo_precision":"range"},"type":"Feature","geometry":{"type":"Point","coordinates":[-77.478617,41.115286]}},{"properties":{"city, state":"AUSTINTOWN, OH","zip":"44515","geo_score":0.805,"street":"5499 MAHONING AVE","id":"ahc9bzn4e4ef","geo_precision":"range"},"type":"Feature","geometry":{"type":"Point","coordinates":[-80.760696,41.09961]}},{"properties":{"city, state":"WARREN, OH","zip":"44484","geo_score":0.805,"street":"1162 NILES CORTLAND RD SE","id":"ahc9bzecvmwt","geo_precision":"range"},"type":"Feature","geometry":{"type":"Point","coordinates":[-80.740549,41.225478]}},{"properties":{"city, state":"WILLIAMSPORT, PA","zip":"17701","geo_score":0.805,"street":"330 WESTMINSTER DR","id":"ahc9bzgui0ny","geo_precision":"range"},"type":"Feature","geometry":{"type":"Point","coordinates":[-76.959282,41.24852]}},{"properties":{"city, state":"WAYNESBURG, PA","zip":"15370","geo_score":0.805,"street":"111 E ROY FURMAN HIGHWAY","id":"ahc9bzdtohj3","geo_precision":"range"},"type":"Feature","geometry":{"type":"Point","coordinates":[-80.159448,39.897365]}},{"properties":{"city, state":"ORANGE, VA","zip":"22960","geo_score":0.756,"street":"332 MADISON RD","id":"ahc9bzlaxw8u","geo_precision":"range"},"type":"Feature","geometry":{"type":"Point","coordinates":[-78.113999,38.251191]}},{"properties":{"city, state":"ASHLAND, VA","zip":"23005","geo_score":0.805,"street":"10036 SLIDING HILL RD","id":"ahc9bzl4bai2","geo_precision":"range"},"type":"Feature","geometry":{"type":"Point","coordinates":[-77.440302,37.691252]}},{"properties":{"city, state":"STATE COLLEGE, PA","zip":"16803","geo_score":0.644,"street":"101 VALLEY VISTA DR","id":"ahc9bzm51yf2","geo_precision":"range"},"type":"Feature","geometry":{"type":"Point","coordinates":[-77.925733,40.808914]}},{"properties":{"city, state":"DUNCANNON, PA","zip":"17020","geo_score":0.805,"street":"1550 STATE RD","id":"ahc9bzm4gjj6","geo_precision":"range"},"type":"Feature","geometry":{"type":"Point","coordinates":[-76.98683,40.355423]}},{"properties":{"city, state":"SINKING SPRING, PA","zip":"19608","geo_score":0.746,"street":"4661 PENN AVE","id":"ahc9bzg4xg8d","geo_precision":"range"},"type":"Feature","geometry":{"type":"Point","coordinates":[-76.037286,40.326578]}},{"properties":{"city, state":"TAPPAHANNOCK, VA","zip":"22560","geo_score":0.612,"street":"1804 TAPPAHANNOCK BLVD","id":"ahc9bzf96m7j","geo_precision":"street"},"type":"Feature","geometry":{"type":"Point","coordinates":[-76.867184,37.902733]}},{"properties":{"city, state":"HAZLE TOWNSHIP, PA","zip":"18202","geo_score":0.683,"street":"101 AIRPORT RD","id":"ahc9bzdgl4st","geo_precision":"range"},"type":"Feature","geometry":{"type":"Point","coordinates":[-76.008355,40.989398]}},{"properties":{"city, state":"CALIFORNIA, MD","zip":"20619","geo_score":0.7,"street":"22711 THREE NOTCH RD","id":"ahc9bziaycrm","geo_precision":"range"},"type":"Feature","geometry":{"type":"Point","coordinates":[-76.493692,38.291358]}},{"properties":{"city, state":"LEESPORT, PA","zip":"19533","geo_score":0.622,"street":"5515 POTTSVILLE PIKE","id":"ahc9bz9175eb","geo_precision":"street"},"type":"Feature","geometry":{"type":"Point","coordinates":[-75.958034,40.445746]}},{"properties":{"city, state":"WARREN, OH","zip":"44484","geo_score":0.805,"street":"3379 ELM RD NE","id":"ahc9bzdqwqvb","geo_precision":"range"},"type":"Feature","geometry":{"type":"Point","coordinates":[-80.78302,41.265465]}},{"properties":{"city, state":"ROANOKE, VA","zip":"24019","geo_score":0.805,"street":"2703 PETERS CREEK RD NW","id":"ahc9bzeu55ba","geo_precision":"range"},"type":"Feature","geometry":{"type":"Point","coordinates":[-80.003762,37.316712]}},{"properties":{"city, state":"STOW, OH","zip":"44224","geo_score":0.759,"street":"950 E STEELS CORNERS RD","id":"ahc9bzh5w1t0","geo_precision":"range"},"type":"Feature","geometry":{"type":"Point","coordinates":[-81.475122,41.181187]}},{"properties":{"city, state":"WILKES BARRE, PA","zip":"18702","geo_score":0.805,"street":"464 WILKES BARRE TOWNSHIP BLVD","id":"ahc9bzaf3hy4","geo_precision":"range"},"type":"Feature","geometry":{"type":"Point","coordinates":[-75.864435,41.23538]}},{"properties":{"city, state":"GROVE CITY, PA","zip":"16127","geo_score":0.782,"street":"1526 W MAIN STREET EXT","id":"ahc9bz7k2sq3","geo_precision":"range"},"type":"Feature","geometry":{"type":"Point","coordinates":[-80.109221,41.167674]}},{"properties":{"city, state":"GROVE CITY, PA","zip":"16127","geo_score":0.805,"street":"1931 BUTLER PIKE","id":"ahc9bz7c30qq","geo_precision":"range"},"type":"Feature","geometry":{"type":"Point","coordinates":[-80.156887,41.149413]}},{"properties":{"city, state":"ROANOKE, VA","zip":"24012","geo_score":0.805,"street":"1212 WILLIAMSON RD NE","id":"ahc9bzdhnosl","geo_precision":"range"},"type":"Feature","geometry":{"type":"Point","coordinates":[-79.93326,37.283107]}},{"properties":{"city, state":"RAVENNA, OH","zip":"44266","geo_score":0.805,"street":"6941 STATE ROUTE 44","id":"ahc9bzgx2rxa","geo_precision":"range"},"type":"Feature","geometry":{"type":"Point","coordinates":[-81.246445,41.179767]}},{"properties":{"city, state":"STAUNTON, VA","zip":"24402","geo_score":0.805,"street":"1250 RICHMOND AVE","id":"ahc9bz7g4nwi","geo_precision":"range"},"type":"Feature","geometry":{"type":"Point","coordinates":[-79.043147,38.134238]}},{"properties":{"city, state":"MADISON, VA","zip":"22727","geo_score":0.594,"street":"2902 S SEMINOLE TRL","id":"ahc9bzaczkmo","geo_precision":"street"},"type":"Feature","geometry":{"type":"Point","coordinates":[-78.21416,38.406228]}},{"properties":{"city, state":"CHANTILLY, VA","zip":"20151","geo_score":0.805,"street":"25224 POLAND RD","id":"ahc9bz9jxi5s","geo_precision":"range"},"type":"Feature","geometry":{"type":"Point","coordinates":[-77.497003,38.920374]}},{"properties":{"city, state":"YORK, PA","zip":"17403","geo_score":0.805,"street":"2721 S QUEEN ST","id":"ahc9bz7vruqw","geo_precision":"range"},"type":"Feature","geometry":{"type":"Point","coordinates":[-76.680305,39.90792]}},{"properties":{"city, state":"DANVILLE, VA","zip":"24541","geo_score":0.805,"street":"3425 RIVERSIDE DR","id":"ahc9bzjjznc7","geo_precision":"range"},"type":"Feature","geometry":{"type":"Point","coordinates":[-79.427711,36.583312]}},{"properties":{"city, state":"KING GEORGE, VA","zip":"22485","geo_score":0.805,"street":"11449 KINGS HWY","id":"ahc9bz8uc5ye","geo_precision":"range"},"type":"Feature","geometry":{"type":"Point","coordinates":[-77.149033,38.23883]}},{"properties":{"city, state":"RIDGEWAY, VA","zip":"24148","geo_score":0.805,"street":"6758 GREENSBORO RD","id":"ahc9bzckbb6o","geo_precision":"range"},"type":"Feature","geometry":{"type":"Point","coordinates":[-79.8623,36.600091]}},{"properties":{"city, state":"WINCHESTER, VA","zip":"22602","geo_score":0.805,"street":"1574 MARTINSBURG PIKE","id":"ahc9bzgf7vim","geo_precision":"range"},"type":"Feature","geometry":{"type":"Point","coordinates":[-78.140027,39.216319]}},{"properties":{"city, state":"NORTH LIMA, OH","zip":"44452","geo_score":0.805,"street":"9010 MARKET ST","id":"ahc9bz7kzjht","geo_precision":"range"},"type":"Feature","geometry":{"type":"Point","coordinates":[-80.662834,40.987695]}},{"properties":{"city, state":"AKRON, OH","zip":"44319","geo_score":0.805,"street":"20 W WATERLOO RD","id":"ahc9bzmy31s5","geo_precision":"range"},"type":"Feature","geometry":{"type":"Point","coordinates":[-81.528722,41.02867]}},{"properties":{"city, state":"MT JOY, PA","zip":"17552","geo_score":0.611,"street":"1555 E MAIN ST","id":"ahc9bzbz7mpk","geo_precision":"street"},"type":"Feature","geometry":{"type":"Point","coordinates":[-76.456096,40.111305]}},{"properties":{"city, state":"NORTH HUNTINGDON, PA","zip":"15642","geo_score":0.463,"street":"13700 RT 30","id":"ahc9bze7637z","geo_precision":"street"},"type":"Feature","geometry":{"type":"Point","coordinates":[-79.68236,40.31849]}},{"properties":{"city, state":"NEW ALEXANDRIA, PA","zip":"15670","geo_score":0.464,"street":"8299 ROUTE 22","id":"ahc9bzchzk0m","geo_precision":"street"},"type":"Feature","geometry":{"type":"Point","coordinates":[-79.612347,40.408107]}},{"properties":{"city, state":"ASHLAND, VA","zip":"23005","geo_score":0.805,"street":"12341 WASHINGTON HWY","id":"ahc9bzjgctt0","geo_precision":"range"},"type":"Feature","geometry":{"type":"Point","coordinates":[-77.471322,37.744131]}},{"properties":{"city, state":"JOPPA, MD","zip":"21085","geo_score":0.805,"street":"601 PULASKI HWY","id":"ahc9bzngeqz6","geo_precision":"range"},"type":"Feature","geometry":{"type":"Point","coordinates":[-76.352141,39.429542]}},{"properties":{"city, state":"CUYAHOGA FALLS, OH","zip":"44221","geo_score":0.805,"street":"1210 MAIN ST","id":"ahc9bzi9kogz","geo_precision":"range"},"type":"Feature","geometry":{"type":"Point","coordinates":[-81.485025,41.117384]}},{"properties":{"city, state":"GREAT MILLS, MD","zip":"20634","geo_score":0.805,"street":"20760 OLD GREAT MILLS RD","id":"ahc9bzkmo5hv","geo_precision":"range"},"type":"Feature","geometry":{"type":"Point","coordinates":[-76.497096,38.236973]}},{"properties":{"city, state":"TRUCKSVILLE, PA","zip":"18708","geo_score":0.805,"street":"163 S MEMORIAL HWY","id":"ahc9bz8qnqjm","geo_precision":"range"},"type":"Feature","geometry":{"type":"Point","coordinates":[-75.927066,41.300537]}},{"properties":{"city, state":"CHRISTIANSBURG, VA","zip":"24073","geo_score":0.805,"street":"2000 N FRANKLIN ST","id":"ahc9bzmavqhl","geo_precision":"range"},"type":"Feature","geometry":{"type":"Point","coordinates":[-80.418572,37.157876]}},{"properties":{"city, state":"COLONIAL HEIGHTS, VA","zip":"23834","geo_score":0.805,"street":"2711 CONDUIT RD","id":"ahc9bzmgy52f","geo_precision":"range"},"type":"Feature","geometry":{"type":"Point","coordinates":[-77.395749,37.258551]}},{"properties":{"city, state":"RICHMOND, VA","zip":"23235","geo_score":0.707,"street":"2053 HUGUENOT RD","id":"ahc9bzegeu8p","geo_precision":"range"},"type":"Feature","geometry":{"type":"Point","coordinates":[-77.611885,37.522074]}},{"properties":{"city, state":"LOCUST GROVE, VA","zip":"22508","geo_score":0.683,"street":"5504 GERMANNA HWY","id":"ahc9bz7ntbd0","geo_precision":"range"},"type":"Feature","geometry":{"type":"Point","coordinates":[-77.729156,38.326887]}},{"properties":{"city, state":"WADSWORTH, OH","zip":"44281","geo_score":0.805,"street":"5100 RIDGE RD","id":"ahc9bzniasg4","geo_precision":"range"},"type":"Feature","geometry":{"type":"Point","coordinates":[-81.735115,41.129539]}},{"properties":{"city, state":"SALEM, VA","zip":"24153","geo_score":0.805,"street":"1435 APPERSON DR","id":"ahc9bzmhkh5r","geo_precision":"range"},"type":"Feature","geometry":{"type":"Point","coordinates":[-80.037456,37.271695]}},{"properties":{"city, state":"GETTYSBURG, PA","zip":"17325","geo_score":0.633,"street":"30 CAMP LETTERMAN DR","id":"ahc9bzjuwri5","geo_precision":"range"},"type":"Feature","geometry":{"type":"Point","coordinates":[-77.319808,39.911591]}},{"properties":{"city, state":"MONROEVILLE, PA","zip":"15146","geo_score":0.805,"street":"2100 MOSSIDE BLVD","id":"ahc9bzbodwnk","geo_precision":"range"},"type":"Feature","geometry":{"type":"Point","coordinates":[-79.771543,40.396383]}},{"properties":{"city, state":"CANFIELD, OH","zip":"44406","geo_score":0.805,"street":"4585 BOARDMAN CANFIELD RD","id":"ahc9bzfu0mqr","geo_precision":"range"},"type":"Feature","geometry":{"type":"Point","coordinates":[-80.735723,41.024776]}},{"properties":{"city, state":"ROCKY MOUNT, VA","zip":"24151","geo_score":0.805,"street":"265 OLD FRANKLIN TPKE","id":"ahc9bzjghkjx","geo_precision":"range"},"type":"Feature","geometry":{"type":"Point","coordinates":[-79.872139,37.009931]}},{"properties":{"city, state":"WHITEHALL, PA","zip":"18052","geo_score":0.805,"street":"5001 MACARTHUR RD","id":"ahc9bzidsn22","geo_precision":"range"},"type":"Feature","geometry":{"type":"Point","coordinates":[-75.523144,40.693715]}},{"properties":{"city, state":"POWHATAN, VA","zip":"23139","geo_score":0.805,"street":"2600 ANDERSON HWY","id":"ahc9bzgdi94i","geo_precision":"range"},"type":"Feature","geometry":{"type":"Point","coordinates":[-77.825403,37.523201]}},{"properties":{"city, state":"HARRISONBURG, VA","zip":"22801","geo_score":0.805,"street":"798 E MARKET ST","id":"ahc9bzdoxkf9","geo_precision":"range"},"type":"Feature","geometry":{"type":"Point","coordinates":[-78.853471,38.44641]}},{"properties":{"city, state":"SALEM, VA","zip":"24153","geo_score":0.805,"street":"1340 W MAIN ST","id":"ahc9bzb5lctr","geo_precision":"range"},"type":"Feature","geometry":{"type":"Point","coordinates":[-80.0796,37.289601]}},{"properties":{"city, state":"EDINBORO, PA","zip":"16412","geo_score":0.61,"street":"5930 ROUTE 6N","id":"ahc9bzk76i7i","geo_precision":"range"},"type":"Feature","geometry":{"type":"Point","coordinates":[-80.171206,41.879862]}},{"properties":{"city, state":"BUTLER, PA","zip":"16001","geo_score":0.805,"street":"499 EVANS CITY RD","id":"ahc9bzk2i1kp","geo_precision":"range"},"type":"Feature","geometry":{"type":"Point","coordinates":[-79.96771,40.862225]}},{"properties":{"city, state":"WILLIAMSPORT, PA","zip":"17701","geo_score":0.805,"street":"105 MAYNARD ST","id":"ahc9bze182tw","geo_precision":"range"},"type":"Feature","geometry":{"type":"Point","coordinates":[-77.019508,41.234184]}},{"properties":{"city, state":"MEADVILLE, PA","zip":"16335","geo_score":0.683,"street":"16590 CONNEAUT LAKE RD","id":"ahc9bzkeqpx1","geo_precision":"range"},"type":"Feature","geometry":{"type":"Point","coordinates":[-80.205007,41.622298]}},{"properties":{"city, state":"RICHMOND, VA","zip":"23236","geo_score":0.805,"street":"20 S PROVIDENCE RD","id":"ahc9bzat20be","geo_precision":"range"},"type":"Feature","geometry":{"type":"Point","coordinates":[-77.547117,37.496339]}},{"properties":{"city, state":"STATE COLLEGE, PA","zip":"16801","geo_score":0.805,"street":"765 BENNER PIKE","id":"ahc9bzb7fwnl","geo_precision":"range"},"type":"Feature","geometry":{"type":"Point","coordinates":[-77.805205,40.829822]}},{"properties":{"city, state":"SOUTH BOSTON, VA","zip":"24592","geo_score":0.683,"street":"1007 PHILPOTT RD","id":"ahc9bzkjge9b","geo_precision":"range"},"type":"Feature","geometry":{"type":"Point","coordinates":[-78.900505,36.687441]}},{"properties":{"city, state":"RICHMOND, VA","zip":"23236","geo_score":0.488,"street":"9401 AMBERDALE DR","id":"ahc9bza68gib","geo_precision":"zip"},"type":"Feature","geometry":{"type":"Point","coordinates":[-77.585993,37.474505]}},{"properties":{"city, state":"CANTON, OH","zip":"44708","geo_score":0.805,"street":"5057 TUSCARAWAS ST W","id":"ahc9bzabrzkx","geo_precision":"range"},"type":"Feature","geometry":{"type":"Point","coordinates":[-81.446001,40.792595]}},{"properties":{"city, state":"DUNMORE, PA","zip":"18512","geo_score":0.613,"street":"1101 ONEILL HWY","id":"ahc9bzdgq4gq","geo_precision":"street"},"type":"Feature","geometry":{"type":"Point","coordinates":[-75.618686,41.437637]}},{"properties":{"city, state":"PLAINS TOWNSHIP, PA","zip":"18702","geo_score":0.683,"street":"1233 HIGHWAY 315 BLVD","id":"ahc9bzcikedk","geo_precision":"range"},"type":"Feature","geometry":{"type":"Point","coordinates":[-75.815561,41.264631]}},{"properties":{"city, state":"MORGANTOWN, PA","zip":"19543","geo_score":0.512,"street":"3830 MAIN ST","id":"ahc9bz9emqqs","geo_precision":"street"},"type":"Feature","geometry":{"type":"Point","coordinates":[-75.899144,40.152795]}},{"properties":{"city, state":"FREDERICKSBURG, VA","zip":"22401","geo_score":0.61,"street":"2001 CARL D SILVER PKWY","id":"ahc9bzborrih","geo_precision":"street"},"type":"Feature","geometry":{"type":"Point","coordinates":[-77.509306,38.305282]}},{"properties":{"city, state":"NORTH RIDGEVILLE, OH","zip":"44039","geo_score":0.805,"street":"32390 LORAIN RD","id":"ahc9bzb6ed00","geo_precision":"range"},"type":"Feature","geometry":{"type":"Point","coordinates":[-81.975769,41.386483]}},{"properties":{"city, state":"YORK, PA","zip":"17408","geo_score":0.0,"street":"4025 W MARKET ST","id":"ahc9bzmzaux1","geo_precision":"unmatched"},"type":"Feature","geometry":null},{"properties":{"city, state":"MORGANTOWN, WV","zip":"26505","geo_score":0.683,"street":"1901 EARL L CORE RD","id":"ahc9bzj7tzha","geo_precision":"range"},"type":"Feature","geometry":{"type":"Point","coordinates":[-79.921741,39.610571]}},{"properties":{"city, state":"RICHMOND, VA","zip":"23294","geo_score":0.805,"street":"7035 W BROAD ST","id":"ahc9bzbhib1b","geo_precision":"range"},"type":"Feature","geometry":{"type":"Point","coordinates":[-77.519506,37.610234]}},{"properties":{"city, state":"HUMMELSTOWN, PA","zip":"17036","geo_score":0.805,"street":"658 EAST MAIN STREET","id":"ahc9bzaf4cx3","geo_precision":"range"},"type":"Feature","geometry":{"type":"Point","coordinates":[-76.689257,40.267479]}},{"properties":{"city, state":"BEDFORD, PA","zip":"15522","geo_score":0.659,"street":"4354 BUSINESS 220","id":"ahc9bzcmpggi","geo_precision":"range"},"type":"Feature","geometry":{"type":"Point","coordinates":[-78.644179,39.831978]}},{"properties":{"city, state":"PITTSBURGH, PA","zip":"15205","geo_score":0.805,"street":"5410 CAMPBELLS RUN RD","id":"ahc9bz8e8g6m","geo_precision":"range"},"type":"Feature","geometry":{"type":"Point","coordinates":[-80.158264,40.447195]}},{"properties":{"city, state":"ALTOONA, PA","zip":"16602","geo_score":0.805,"street":"1915 PLEASANT VALLEY BLVD","id":"ahc9bzeosdfk","geo_precision":"range"},"type":"Feature","geometry":{"type":"Point","coordinates":[-78.392635,40.49865]}},{"properties":{"city, state":"WALKERTOWN, NC","zip":"27051","geo_score":0.805,"street":"5198 REIDSVILLE RD","id":"ahc9bzayt7y3","geo_precision":"range"},"type":"Feature","geometry":{"type":"Point","coordinates":[-80.140475,36.161823]}},{"properties":{"city, state":"GREENSBORO, NC","zip":"27407","geo_score":0.805,"street":"4319 W WENDOVER AVE","id":"ahc9bzgw73vx","geo_precision":"range"},"type":"Feature","geometry":{"type":"Point","coordinates":[-79.891154,36.056519]}},{"properties":{"city, state":"NEW PHILADELPHIA, OH","zip":"44663","geo_score":0.43,"street":"1281 W HIGH AVE","id":"ahc9bzd44e30","geo_precision":"street"},"type":"Feature","geometry":{"type":"Point","coordinates":[-81.733409,40.799185]}},{"properties":{"city, state":"FAIRLAWN, VA","zip":"24141","geo_score":0.683,"street":"7335 LEE HWY","id":"ahc9bzctbp7g","geo_precision":"range"},"type":"Feature","geometry":{"type":"Point","coordinates":[-80.583299,37.144713]}},{"properties":{"city, state":"SCRANTON, PA","zip":"18508","geo_score":0.683,"street":"610 SCRANTON CARBONDALE HWY","id":"ahc9bzm2ex93","geo_precision":"range"},"type":"Feature","geometry":{"type":"Point","coordinates":[-75.651083,41.464249]}},{"properties":{"city, state":"MONROEVILLE, PA","zip":"15146","geo_score":0.805,"street":"3954 WILLIAM PENN HWY","id":"ahc9bzn41uic","geo_precision":"range"},"type":"Feature","geometry":{"type":"Point","coordinates":[-79.775273,40.437882]}},{"properties":{"city, state":"RALEIGH, NC","zip":"27616","geo_score":0.683,"street":"4801 THORNTON RD","id":"ahc9bz963gm5","geo_precision":"range"},"type":"Feature","geometry":{"type":"Point","coordinates":[-78.556666,35.898295]}},{"properties":{"city, state":"WHEELING, WV","zip":"26003","geo_score":0.805,"street":"887 NATIONAL RD","id":"ahc9bz94rqpe","geo_precision":"range"},"type":"Feature","geometry":{"type":"Point","coordinates":[-80.694046,40.077158]}},{"properties":{"city, state":"CLARKS SUMMIT, PA","zip":"18411","geo_score":0.805,"street":"1109 NORTHERN BLVD","id":"ahc9bz84hpwq","geo_precision":"range"},"type":"Feature","geometry":{"type":"Point","coordinates":[-75.694493,41.486235]}},{"properties":{"city, state":"FISHERVILLE, VA","zip":"22939","geo_score":0.61,"street":"726 TINKLING SPRING ROAD","id":"ahc9bza0yg4y","geo_precision":"street"},"type":"Feature","geometry":{"type":"Point","coordinates":[-78.972797,38.096448]}},{"properties":{"city, state":"FUQUAY-VARINA, NC","zip":"27526","geo_score":0.805,"street":"1655 N MAIN ST","id":"ahc9bz7ap5hh","geo_precision":"range"},"type":"Feature","geometry":{"type":"Point","coordinates":[-78.760434,35.596388]}},{"properties":{"city, state":"GREENSBORO, NC","zip":"27407","geo_score":0.805,"street":"5421 HORNADAY RD","id":"ahc9bzd50oqy","geo_precision":"range"},"type":"Feature","geometry":{"type":"Point","coordinates":[-79.904645,36.059369]}},{"properties":{"city, state":"ERIE, PA","zip":"16510","geo_score":0.805,"street":"4816 BUFFALO RD","id":"ahc9bzbn2nvj","geo_precision":"range"},"type":"Feature","geometry":{"type":"Point","coordinates":[-79.993248,42.151135]}},{"properties":{"city, state":"AKRON, OH","zip":"44312","geo_score":0.805,"street":"1651 E TURKEYFOOT LAKE RD","id":"ahc9bznj7rtc","geo_precision":"range"},"type":"Feature","geometry":{"type":"Point","coordinates":[-81.461313,40.973743]}},{"properties":{"city, state":"HOMER CITY, PA","zip":"15748","geo_score":0.587,"street":"2260 ROUTE 119 HWY S","id":"ahc9bz9a1pg7","geo_precision":"street"},"type":"Feature","geometry":{"type":"Point","coordinates":[-79.160856,40.534154]}},{"properties":{"city, state":"LEBANON, PA","zip":"17042","geo_score":0.805,"street":"195 ROCHERTY RD","id":"ahc9bz8ad5fm","geo_precision":"range"},"type":"Feature","geometry":{"type":"Point","coordinates":[-76.423502,40.304721]}},{"properties":{"city, state":"RALEIGH, NC","zip":"27610","geo_score":0.707,"street":"5200 NEW BERN AVE","id":"ahc9bzmoeyid","geo_precision":"street"},"type":"Feature","geometry":{"type":"Point","coordinates":[-78.55066,35.794837]}},{"properties":{"city, state":"DANVILLE, PA","zip":"17821","geo_score":0.805,"street":"116 WOODBINE LN","id":"ahc9bzhfrky4","geo_precision":"range"},"type":"Feature","geometry":{"type":"Point","coordinates":[-76.578899,40.965991]}},{"properties":{"city, state":"YORK, PA","zip":"17403","geo_score":0.805,"street":"2068 S QUEEN ST","id":"ahc9bz7koxxn","geo_precision":"range"},"type":"Feature","geometry":{"type":"Point","coordinates":[-76.692272,39.936097]}},{"properties":{"city, state":"HARRISBURG, PA","zip":"17113","geo_score":0.45,"street":"3695 PAXTON ST","id":"ahc9bzh2p2ls","geo_precision":"street"},"type":"Feature","geometry":{"type":"Point","coordinates":[-76.751561,40.389407]}},{"properties":{"city, state":"ALLIANCE, OH","zip":"44601","geo_score":0.805,"street":"236 W STATE ST","id":"ahc9bzaxkq3j","geo_precision":"range"},"type":"Feature","geometry":{"type":"Point","coordinates":[-81.108998,40.901647]}},{"properties":{"city, state":"PITTSBURGH, PA","zip":"15236","geo_score":0.61,"street":"1000 CLAIRTON BLVD.","id":"ahc9bz8pd8hq","geo_precision":"street"},"type":"Feature","geometry":{"type":"Point","coordinates":[-79.984661,40.364902]}},{"properties":{"city, state":"BELLE VERNON, PA","zip":"15012","geo_score":0.464,"street":"4692 SR 51 S","id":"ahc9bzl7rt5u","geo_precision":"street"},"type":"Feature","geometry":{"type":"Point","coordinates":[-79.775399,40.134029]}},{"properties":{"city, state":"LEWISBURG, PA","zip":"17837","geo_score":0.488,"street":"260 INTERNATIONAL DR","id":"ahc9bzbne9ki","geo_precision":"zip"},"type":"Feature","geometry":{"type":"Point","coordinates":[-76.988301,40.983695]}},{"properties":{"city, state":"MOON TOWNSHIP, PA","zip":"15108","geo_score":0.532,"street":"9002 UNIVERSITY BLVD","id":"ahc9bzk4ixre","geo_precision":"street"},"type":"Feature","geometry":{"type":"Point","coordinates":[-79.826461,40.344055]}},{"properties":{"city, state":"MEBANE, NC","zip":"27302","geo_score":0.805,"street":"1237 MEBANE OAKS RD","id":"ahc9bzkwwitb","geo_precision":"range"},"type":"Feature","geometry":{"type":"Point","coordinates":[-79.270702,36.069556]}},{"properties":{"city, state":"NEW CASTLE, PA","zip":"16105","geo_score":0.805,"street":"3450 WILMINGTON RD","id":"ahc9bzg3ms7d","geo_precision":"range"},"type":"Feature","geometry":{"type":"Point","coordinates":[-80.356923,41.046365]}},{"properties":{"city, state":"HERMITAGE, PA","zip":"16148","geo_score":0.805,"street":"1650 N HERMITAGE RD","id":"ahc9bzb4g4zz","geo_precision":"range"},"type":"Feature","geometry":{"type":"Point","coordinates":[-80.451917,41.256451]}},{"properties":{"city, state":"YOUNGSVILLE, NC","zip":"27596","geo_score":0.659,"street":"564 US 1 HWY","id":"ahc9bzel3lqi","geo_precision":"range"},"type":"Feature","geometry":{"type":"Point","coordinates":[-78.507219,36.027846]}},{"properties":{"city, state":"BETHLEHEM, PA","zip":"18017","geo_score":0.488,"street":"3201 SCHOENERSVILLE RD","id":"ahc9bzi6uen9","geo_precision":"zip"},"type":"Feature","geometry":{"type":"Point","coordinates":[-75.341013,40.680653]}},{"properties":{"city, state":"WINSTON-SALEM, NC","zip":"27103","geo_score":0.496,"street":"2505 SOMERSET CENTER DR","id":"ahc9bzkukqb4","geo_precision":"street"},"type":"Feature","geometry":{"type":"Point","coordinates":[-80.342838,36.053199]}},{"properties":{"city, state":"CHESTER, VA","zip":"23836","geo_score":0.805,"street":"231 E HUNDRED RD","id":"ahc9bzkzuquq","geo_precision":"range"},"type":"Feature","geometry":{"type":"Point","coordinates":[-77.358274,37.348769]}},{"properties":{"city, state":"CAMBRIDGE, OH","zip":"43725","geo_score":0.707,"street":"2101 SOUTHGATE PKWY","id":"ahc9bzfwtn5k","geo_precision":"street"},"type":"Feature","geometry":{"type":"Point","coordinates":[-81.576799,40.006959]}},{"properties":{"city, state":"LANCASTER, PA","zip":"17603","geo_score":0.805,"street":"3101 COLUMBIA AVE","id":"ahc9bzdzdktz","geo_precision":"range"},"type":"Feature","geometry":{"type":"Point","coordinates":[-76.393356,40.040614]}},{"properties":{"city, state":"CANTON, OH","zip":"44708","geo_score":0.805,"street":"2939 WHIPPLE AVE NW","id":"ahc9bzkbk95p","geo_precision":"range"},"type":"Feature","geometry":{"type":"Point","coordinates":[-81.424557,40.828986]}},{"properties":{"city, state":"KENT, OH","zip":"44240","geo_score":0.805,"street":"1762 E MAIN ST","id":"ahc9bzcfdiip","geo_precision":"range"},"type":"Feature","geometry":{"type":"Point","coordinates":[-81.329624,41.15465]}},{"properties":{"city, state":"GREENVILLE, NC","zip":"27858","geo_score":0.612,"street":"2100 COUNTY HOME RD","id":"ahc9bzmdtro9","geo_precision":"street"},"type":"Feature","geometry":{"type":"Point","coordinates":[-77.355051,35.560918]}},{"properties":{"city, state":"CHAMBERSBURG, PA","zip":"17201","geo_score":0.612,"street":"875 NORLAND AVE","id":"ahc9bzh5fzea","geo_precision":"street"},"type":"Feature","geometry":{"type":"Point","coordinates":[-77.640087,39.944621]}},{"properties":{"city, state":"TWINSBURG, OH","zip":"44087","geo_score":0.612,"street":"2495 E AURORA RD","id":"ahc9bz901sp3","geo_precision":"street"},"type":"Feature","geometry":{"type":"Point","coordinates":[-81.452322,41.311332]}},{"properties":{"city, state":"MENTOR, OH","zip":"44060","geo_score":0.805,"street":"7777 REYNOLDS RD","id":"ahc9bzgojspy","geo_precision":"range"},"type":"Feature","geometry":{"type":"Point","coordinates":[-81.377536,41.658522]}},{"properties":{"city, state":"FARMVILLE, VA","zip":"23901","geo_score":0.805,"street":"2016 S MAIN ST","id":"ahc9bzmk4271","geo_precision":"range"},"type":"Feature","geometry":{"type":"Point","coordinates":[-78.401256,37.273998]}},{"properties":{"city, state":"WILSON, NC","zip":"27893","geo_score":0.683,"street":"2835 FOREST HILLS RD SW","id":"ahc9bzjk9xjc","geo_precision":"range"},"type":"Feature","geometry":{"type":"Point","coordinates":[-77.952239,35.709184]}},{"properties":{"city, state":"GREENVILLE, NC","zip":"27858","geo_score":0.805,"street":"1000 CHARLES BLVD","id":"ahc9bzhihsj1","geo_precision":"range"},"type":"Feature","geometry":{"type":"Point","coordinates":[-77.372239,35.605655]}},{"properties":{"city, state":"DURHAM, NC","zip":"27703","geo_score":0.683,"street":"3021 S MIAMI BLVD","id":"ahc9bzlt9i5z","geo_precision":"range"},"type":"Feature","geometry":{"type":"Point","coordinates":[-78.846577,35.924512]}},{"properties":{"city, state":"MORRISVILLE, NC","zip":"27560","geo_score":0.61,"street":"1600 AVIATION PARKWAY","id":"ahc9bzmt43cj","geo_precision":"street"},"type":"Feature","geometry":{"type":"Point","coordinates":[-78.812638,35.836065]}},{"properties":{"city, state":"ST. MARY'S, PA","zip":"15857","geo_score":0.805,"street":"117 S MICHAEL ST","id":"ahc9bzglyx0z","geo_precision":"range"},"type":"Feature","geometry":{"type":"Point","coordinates":[-78.560261,41.427979]}},{"properties":{"city, state":"WAYNESBORO, PA","zip":"17268","geo_score":0.476,"street":"13030 WASHINGTON TOWNSHIP BLVD","id":"ahc9bz7xb0b4","geo_precision":"street"},"type":"Feature","geometry":{"type":"Point","coordinates":[-77.626431,39.769871]}},{"properties":{"city, state":"SARVER, PA","zip":"16055","geo_score":0.805,"street":"717 S PIKE RD","id":"ahc9bzgie54l","geo_precision":"range"},"type":"Feature","geometry":{"type":"Point","coordinates":[-79.720007,40.699378]}},{"properties":{"city, state":"LYNCHBURG, VA","zip":"24502","geo_score":0.805,"street":"3927 WARDS RD","id":"ahc9bzay8oah","geo_precision":"range"},"type":"Feature","geometry":{"type":"Point","coordinates":[-79.185114,37.350116]}},{"properties":{"city, state":"PERRY, OH","zip":"44081","geo_score":0.805,"street":"2800 N RIDGE RD","id":"ahc9bza8ij24","geo_precision":"range"},"type":"Feature","geometry":{"type":"Point","coordinates":[-81.167015,41.773257]}},{"properties":{"city, state":"STATESVILLE, NC","zip":"28625","geo_score":0.611,"street":"1244 WILKESBORO HWY","id":"ahc9bzm17f3u","geo_precision":"street"},"type":"Feature","geometry":{"type":"Point","coordinates":[-80.907623,35.803709]}},{"properties":{"city, state":"ZANESVILLE, OH","zip":"43701","geo_score":0.805,"street":"225 N MAYSVILLE AVE","id":"ahc9bzncxhjg","geo_precision":"range"},"type":"Feature","geometry":{"type":"Point","coordinates":[-82.017375,39.908536]}},{"properties":{"city, state":"WYTHEVILLE, VA","zip":"24382","geo_score":0.732,"street":"1340 N 4TH ST","id":"ahc9bzaui2br","geo_precision":"range"},"type":"Feature","geometry":{"type":"Point","coordinates":[-81.096518,36.959269]}},{"properties":{"city, state":"WAYNESBORO, VA","zip":"22980","geo_score":0.805,"street":"2156 W MAIN ST","id":"ahc9bzixt6vy","geo_precision":"range"},"type":"Feature","geometry":{"type":"Point","coordinates":[-78.914163,38.076614]}},{"properties":{"city, state":"WINTERVILLE, NC","zip":"28590","geo_score":0.61,"street":"650 WHITLEY DR","id":"ahc9bzdgkius","geo_precision":"street"},"type":"Feature","geometry":{"type":"Point","coordinates":[-77.557268,35.330183]}},{"properties":{"city, state":"SCHUYLKILL HAVEN, PA","zip":"17972","geo_score":0.805,"street":"270 ROUTE 61 S","id":"ahc9bzbazldq","geo_precision":"range"},"type":"Feature","geometry":{"type":"Point","coordinates":[-76.174339,40.637527]}},{"properties":{"city, state":"WINSTON-SALEM, NC","zip":"27127","geo_score":0.692,"street":"12290 N NC HIGHWAY 150","id":"ahc9bzbln73i","geo_precision":"range"},"type":"Feature","geometry":{"type":"Point","coordinates":[-80.268066,35.994723]}},{"properties":{"city, state":"HARRISBURG, PA","zip":"17112","geo_score":0.805,"street":"6290 ALLENTOWN BLVD","id":"ahc9bz8f1n0d","geo_precision":"range"},"type":"Feature","geometry":{"type":"Point","coordinates":[-76.785336,40.323766]}},{"properties":{"city, state":"DILLSBURG, PA","zip":"17019","geo_score":0.725,"street":"493 N US Route 15","id":"ahc9bzengfpq","geo_precision":"range"},"type":"Feature","geometry":{"type":"Point","coordinates":[-77.036634,40.118277]}},{"properties":{"city, state":"HIGH POINT, NC","zip":"27265","geo_score":0.561,"street":"2980 NC 68 SOUTH","id":"ahc9bzmm3lpr","geo_precision":"range"},"type":"Feature","geometry":{"type":"Point","coordinates":[-79.961592,36.059363]}},{"properties":{"city, state":"GREENVILLE, NC","zip":"27858","geo_score":0.612,"street":"1201 PORTERTOWN RD","id":"ahc9bzcmn50o","geo_precision":"street"},"type":"Feature","geometry":{"type":"Point","coordinates":[-77.313763,35.58066]}},{"properties":{"city, state":"ZEBULON, NC","zip":"27597","geo_score":0.805,"street":"1406 N ARENDELL AVE","id":"ahc9bzkpnjno","geo_precision":"range"},"type":"Feature","geometry":{"type":"Point","coordinates":[-78.325718,35.839786]}},{"properties":{"city, state":"BURLINGTON, NC","zip":"27215","geo_score":0.805,"street":"2628 ALAMANCE RD","id":"ahc9bzg9epak","geo_precision":"range"},"type":"Feature","geometry":{"type":"Point","coordinates":[-79.468008,36.067132]}},{"properties":{"city, state":"TRINITY, NC","zip":"27370","geo_score":0.805,"street":"5905 FINCH FARM RD","id":"ahc9bzbot8l7","geo_precision":"range"},"type":"Feature","geometry":{"type":"Point","coordinates":[-80.036626,35.868551]}},{"properties":{"city, state":"BARBOURSVILLE, WV","zip":"25504","geo_score":0.805,"street":"4 MALL RD","id":"ahc9bzlts35q","geo_precision":"range"},"type":"Feature","geometry":{"type":"Point","coordinates":[-82.262254,38.422686]}},{"properties":{"city, state":"ALTOONA, PA","zip":"16602","geo_score":0.61,"street":"1015 OLD 6TH AVE RD","id":"ahc9bzit9mao","geo_precision":"range"},"type":"Feature","geometry":{"type":"Point","coordinates":[-78.395151,40.513495]}},{"properties":{"city, state":"LANCASTER, PA","zip":"17603","geo_score":0.539,"street":"1180 MANHEIM PIKE","id":"ahc9bzb71gmr","geo_precision":"street"},"type":"Feature","geometry":{"type":"Point","coordinates":[-76.314202,40.055901]}},{"properties":{"city, state":"STRONGSVILLE, OH","zip":"44149","geo_score":0.805,"street":"21034 ROYALTON RD","id":"ahc9bzkwafe5","geo_precision":"range"},"type":"Feature","geometry":{"type":"Point","coordinates":[-81.859637,41.31249]}},{"properties":{"city, state":"YORK, PA","zip":"17402","geo_score":0.805,"street":"3998 E MARKET ST","id":"ahc9bzaoadt6","geo_precision":"range"},"type":"Feature","geometry":{"type":"Point","coordinates":[-76.640875,39.989321]}},{"properties":{"city, state":"MILTON, WV","zip":"25541","geo_score":0.611,"street":"1304 JOHNS CREEK RD","id":"ahc9bzctfnia","geo_precision":"street"},"type":"Feature","geometry":{"type":"Point","coordinates":[-82.122525,38.441486]}},{"properties":{"city, state":"MARTINSBURG, WV","zip":"25404","geo_score":0.0,"street":"5715 HAMMONDS MILL RD","id":"ahc9bzavoosv","geo_precision":"unmatched"},"type":"Feature","geometry":null},{"properties":{"city, state":"CARLISLE, PA","zip":"17013","geo_score":0.61,"street":"1796 WEST TRINDLE ROAD","id":"ahc9bzeg6r2r","geo_precision":"street"},"type":"Feature","geometry":{"type":"Point","coordinates":[-77.104492,40.194866]}},{"properties":{"city, state":"HUNTINGTON, WV","zip":"25704","geo_score":0.74,"street":"432 18TH ST W","id":"ahc9bzmkj73k","geo_precision":"range"},"type":"Feature","geometry":{"type":"Point","coordinates":[-82.486352,38.411074]}},{"properties":{"city, state":"EDEN, NC","zip":"27288","geo_score":0.805,"street":"102 N VAN BUREN RD","id":"ahc9bziqt1ik","geo_precision":"range"},"type":"Feature","geometry":{"type":"Point","coordinates":[-79.743692,36.503547]}},{"properties":{"city, state":"TRIADELPHIA, WV","zip":"26059","geo_score":0.642,"street":"6 CABELA DR","id":"ahc9bza5jx1o","geo_precision":"range"},"type":"Feature","geometry":{"type":"Point","coordinates":[-80.556188,39.826813]}},{"properties":{"city, state":"EBENSBURG, PA","zip":"15931","geo_score":0.805,"street":"4375 ADMIRAL PEARY HIGHWAY","id":"ahc9bzl4yg05","geo_precision":"range"},"type":"Feature","geometry":{"type":"Point","coordinates":[-78.753648,40.469908]}},{"properties":{"city, state":"NORTH CANTON, OH","zip":"44720","geo_score":0.339,"street":"1415 PITTSBURG AVENUE, NW","id":"ahc9bzeir2uy","geo_precision":"street"},"type":"Feature","geometry":{"type":"Point","coordinates":[-81.416891,40.881996]}},{"properties":{"city, state":"JAMESTOWN, NC","zip":"27282","geo_score":0.493,"street":"1001 GARDNER HILL DR","id":"ahc9bzj9mpa5","geo_precision":"street"},"type":"Feature","geometry":{"type":"Point","coordinates":[-79.928834,36.028819]}},{"properties":{"city, state":"HURRICANE, WV","zip":"25526","geo_score":0.319,"street":"104 St. Rt. 19","id":"ahc9bzg2iwzf","geo_precision":"street"},"type":"Feature","geometry":{"type":"Point","coordinates":[-81.988273,38.44716]}},{"properties":{"city, state":"BERWICK, PA","zip":"18603","geo_score":0.805,"street":"2100 WEST FRONT STREET","id":"ahc9bzagt3lr","geo_precision":"range"},"type":"Feature","geometry":{"type":"Point","coordinates":[-76.270709,41.04736]}},{"properties":{"city, state":"CHARDON, OH","zip":"44024","geo_score":0.805,"street":"435 WATER STREET","id":"ahc9bzik5tqt","geo_precision":"range"},"type":"Feature","geometry":{"type":"Point","coordinates":[-81.210429,41.580825]}},{"properties":{"city, state":"KERNERSVILLE, NC","zip":"27284","geo_score":0.805,"street":"790 NORTH MAIN STREET","id":"ahc9bzc22kmr","geo_precision":"range"},"type":"Feature","geometry":{"type":"Point","coordinates":[-80.060876,36.128725]}},{"properties":{"city, state":"ROCKY MOUNT, NC","zip":"27804","geo_score":0.805,"street":"1690 BENVENUE ROAD","id":"ahc9bzfjug79","geo_precision":"range"},"type":"Feature","geometry":{"type":"Point","coordinates":[-77.808894,35.98081]}},{"properties":{"city, state":"CHARLES TOWN, WV","zip":"25414","geo_score":0.512,"street":"1130 MARLOW ROAD","id":"ahc9bz7lqhc6","geo_precision":"street"},"type":"Feature","geometry":{"type":"Point","coordinates":[-77.867415,39.29275]}},{"properties":{"city, state":"FRANKLIN, PA","zip":"16323","geo_score":0.488,"street":"590 ALLEGHENY BLVD","id":"ahc9bze559zg","geo_precision":"zip"},"type":"Feature","geometry":{"type":"Point","coordinates":[-79.896723,41.450334]}},{"properties":{"city, state":"FOREST, VA","zip":"24551","geo_score":0.805,"street":"14449 FOREST RD","id":"ahc9bzfnkxb4","geo_precision":"range"},"type":"Feature","geometry":{"type":"Point","coordinates":[-79.30171,37.370096]}},{"properties":{"city, state":"SHEFFIELD VILLAGE, OH","zip":"44054","geo_score":0.612,"street":"5295 DETROIT RD","id":"ahc9bzgeobac","geo_precision":"street"},"type":"Feature","geometry":{"type":"Point","coordinates":[-82.067869,41.430026]}},{"properties":{"city, state":"LINDEN, PA","zip":"17744","geo_score":0.602,"street":"7775 NORTH ROUTE 220 HWY","id":"ahc9bz8a7uf2","geo_precision":"range"},"type":"Feature","geometry":{"type":"Point","coordinates":[-77.179751,41.215954]}},{"properties":{"city, state":"SUMMERVILLE, WV","zip":"26651","geo_score":0.488,"street":"1300 WAL STREET","id":"ahc9bzhe2q3p","geo_precision":"zip"},"type":"Feature","geometry":{"type":"Point","coordinates":[-80.949823,38.285941]}},{"properties":{"city, state":"FAYETTEVILLE, WV","zip":"25840","geo_score":0.488,"street":"27 WHITEWATER AVE","id":"ahc9bzmx15a1","geo_precision":"zip"},"type":"Feature","geometry":{"type":"Point","coordinates":[-81.162604,38.053999]}},{"properties":{"city, state":"KITTANNING, PA","zip":"16201","geo_score":0.542,"street":"13510 ST RTE 422","id":"ahc9bzlwcukj","geo_precision":"street"},"type":"Feature","geometry":{"type":"Point","coordinates":[-79.560384,40.829482]}},{"properties":{"city, state":"FOLLANSBEE, WV","zip":"26037","geo_score":0.805,"street":"1525 MAIN ST","id":"ahc9bzb80blt","geo_precision":"range"},"type":"Feature","geometry":{"type":"Point","coordinates":[-80.59612,40.336671]}},{"properties":{"city, state":"ROCKY MOUNT, NC","zip":"27804","geo_score":0.622,"street":"3715 NORTH WESLEYAN BLVD","id":"ahc9bzkmhgc9","geo_precision":"street"},"type":"Feature","geometry":{"type":"Point","coordinates":[-77.77065,36.017914]}},{"properties":{"city, state":"HANOVER, PA","zip":"17331","geo_score":0.805,"street":"1841 BALTIMORE PIKE","id":"ahc9bzhyl1ak","geo_precision":"range"},"type":"Feature","geometry":{"type":"Point","coordinates":[-76.959726,39.762291]}},{"properties":{"city, state":"HARRISBURG, PA","zip":"17111","geo_score":0.805,"street":"6010 DERRY STREET","id":"ahc9bzjhbf29","geo_precision":"range"},"type":"Feature","geometry":{"type":"Point","coordinates":[-76.785834,40.263432]}},{"properties":{"city, state":"BELLEFONTE, PA","zip":"16823","geo_score":0.488,"street":"2850 BENNER PIKE","id":"ahc9bzlotscd","geo_precision":"street"},"type":"Feature","geometry":{"type":"Point","coordinates":[-77.778585,40.872853]}},{"properties":{"city, state":"GREENCASTLE, PA","zip":"17225","geo_score":0.612,"street":"11104 GRINDSTONE HILL ROAD","id":"ahc9bze5y29i","geo_precision":"street"},"type":"Feature","geometry":{"type":"Point","coordinates":[-77.706834,39.785396]}},{"properties":{"city, state":"KENT, OH","zip":"44240","geo_score":0.805,"street":"600 NORTH MANTUA ST","id":"ahc9bzbe4aqr","geo_precision":"range"},"type":"Feature","geometry":{"type":"Point","coordinates":[-81.359369,41.159625]}},{"properties":{"city, state":"WINSTON SALEM, NC","zip":"27107","geo_score":0.805,"street":"5519 GUMTREE ROAD","id":"ahc9bzejfjjj","geo_precision":"range"},"type":"Feature","geometry":{"type":"Point","coordinates":[-80.159797,36.026592]}},{"properties":{"city, state":"ASHEBORO, NC","zip":"27203","geo_score":0.488,"street":"1065 EAST DIXIE DRIVE","id":"ahc9bz8vokwr","geo_precision":"zip"},"type":"Feature","geometry":{"type":"Point","coordinates":[-79.976987,35.65347]}},{"properties":{"city, state":"MOCKSVILLE, NC","zip":"27028","geo_score":0.49,"street":"1449 YADKINVILLE ROAD","id":"ahc9bz7y79ue","geo_precision":"street"},"type":"Feature","geometry":{"type":"Point","coordinates":[-80.591265,35.923738]}},{"properties":{"city, state":"PRINCETON, WV","zip":"24740","geo_score":0.805,"street":"751 OAKVALE ROAD","id":"ahc9bzez1n88","geo_precision":"range"},"type":"Feature","geometry":{"type":"Point","coordinates":[-81.058207,37.36262]}},{"properties":{"city, state":"MT HOPE, WV","zip":"25880","geo_score":0.612,"street":"5481 ROBERT C BYRD DRIVE","id":"ahc9bzf4b0yl","geo_precision":"street"},"type":"Feature","geometry":{"type":"Point","coordinates":[-81.194023,37.838188]}},{"properties":{"city, state":"PRINCETON, WV","zip":"24740","geo_score":0.611,"street":"151 COURTHOUSE RD","id":"ahc9bzia71m7","geo_precision":"street"},"type":"Feature","geometry":{"type":"Point","coordinates":[-81.117364,37.353314]}},{"properties":{"city, state":"VERONA, PA","zip":"15147","geo_score":0.805,"street":"2175 HULTON ROAD","id":"ahc9bze7a74i","geo_precision":"range"},"type":"Feature","geometry":{"type":"Point","coordinates":[-79.81572,40.526149]}},{"properties":{"city, state":"GREENSBORO, NC","zip":"27409","geo_score":0.805,"street":"6930 WEST MARKET ST","id":"ahc9bzk3wzrh","geo_precision":"range"},"type":"Feature","geometry":{"type":"Point","coordinates":[-79.92716,36.07934]}},{"properties":{"city, state":"DUNCANNON, PA","zip":"17020","geo_score":0.805,"street":"54 BENVENUE ROAD","id":"ahc9bzkmhu45","geo_precision":"range"},"type":"Feature","geometry":{"type":"Point","coordinates":[-77.009933,40.405823]}},{"properties":{"city, state":"YORK, PA","zip":"17402","geo_score":0.683,"street":"215 ARSENAL ROAD","id":"ahc9bzlm1y9c","geo_precision":"range"},"type":"Feature","geometry":{"type":"Point","coordinates":[-76.726631,39.983939]}},{"properties":{"city, state":"SUGARLOAF, PA","zip":"18249","geo_score":0.415,"street":"551 ST ROUTE 93","id":"ahc9bzg9c8ss","geo_precision":"street"},"type":"Feature","geometry":{"type":"Point","coordinates":[-76.065353,40.988763]}},{"properties":{"city, state":"HAGERSTOWN, MD","zip":"21740","geo_score":0.321,"street":"191 EASTERN BLVD, NORTH","id":"ahc9bzj79ok1","geo_precision":"street"},"type":"Feature","geometry":{"type":"Point","coordinates":[-77.69827,39.63408]}},{"properties":{"city, state":"PARMA, OH","zip":"44129","geo_score":0.805,"street":"6767 RIDGE ROAD","id":"ahc9bzmkt9fw","geo_precision":"range"},"type":"Feature","geometry":{"type":"Point","coordinates":[-81.734619,41.381996]}},{"properties":{"city, state":"CHAMBERSBURG, PA","zip":"17201","geo_score":0.61,"street":"1819 WAYNE AVE","id":"ahc9bz9ay07f","geo_precision":"street"},"type":"Feature","geometry":{"type":"Point","coordinates":[-77.646751,39.906624]}},{"properties":{"city, state":"HURRICANE, WV","zip":"25526","geo_score":0.707,"street":"3805 TEAYS VALLEY ROAD","id":"ahc9bzn17dkd","geo_precision":"street"},"type":"Feature","geometry":{"type":"Point","coordinates":[-81.941414,38.448361]}},{"properties":{"city, state":"PITTSBURGH, PA","zip":"15235","geo_score":0.707,"street":"3457 WILLIAM PENN HIGHWAY","id":"ahc9bzjnlufg","geo_precision":"range"},"type":"Feature","geometry":{"type":"Point","coordinates":[-79.810462,40.429965]}},{"properties":{"city, state":"NEWVILLE, PA","zip":"17241","geo_score":0.805,"street":"3299 RITNER HIGHWAY","id":"ahc9bzgajnht","geo_precision":"range"},"type":"Feature","geometry":{"type":"Point","coordinates":[-77.364632,40.14035]}},{"properties":{"city, state":"SALISBURY, NC","zip":"28146","geo_score":0.373,"street":"1520 JAKE ALEXANDER BOULEVARD SOUTH","id":"ahc9bzlgw7y7","geo_precision":"street"},"type":"Feature","geometry":{"type":"Point","coordinates":[-81.473103,35.592754]}},{"properties":{"city, state":"HENDERSON, NC","zip":"27536","geo_score":0.488,"street":"619 RUIN CREEK ROAD","id":"ahc9bz8oxmmq","geo_precision":"street"},"type":"Feature","geometry":{"type":"Point","coordinates":[-78.452921,36.320959]}},{"properties":{"city, state":"ARCHDALE, NC","zip":"27263","geo_score":0.805,"street":"10206 SOUTH MAIN STREET","id":"ahc9bznerzbs","geo_precision":"range"},"type":"Feature","geometry":{"type":"Point","coordinates":[-79.944509,35.898229]}},{"properties":{"city, state":"BEAVER, WV","zip":"25813","geo_score":0.534,"street":"810 RITTER HIGHWAY","id":"ahc9bzceleqp","geo_precision":"street"},"type":"Feature","geometry":{"type":"Point","coordinates":[-81.136121,37.749129]}},{"properties":{"city, state":"MANSFIELD, PA","zip":"16933","geo_score":0.805,"street":"85 WEST WELLSBORO STREET","id":"ahc9bzjhzj3k","geo_precision":"range"},"type":"Feature","geometry":{"type":"Point","coordinates":[-77.080202,41.806507]}},{"properties":{"city, state":"STATE COLLEGE, PA","zip":"16801","geo_score":0.725,"street":"120 SOUTH RIDGE PLAZA","id":"ahc9bz9pu2uz","geo_precision":"range"},"type":"Feature","geometry":{"type":"Point","coordinates":[-77.775045,40.91242]}},{"properties":{"city, state":"PITTSBURGH, PA","zip":"15237","geo_score":0.488,"street":"3025 BABCOCK BLVD","id":"ahc9bzgbgg7b","geo_precision":"zip"},"type":"Feature","geometry":{"type":"Point","coordinates":[-80.003666,40.531735]}},{"properties":{"city, state":"LOWER BURRELL, PA","zip":"15068","geo_score":0.782,"street":"203 CRAIG DELL ROAD","id":"ahc9bzfku9co","geo_precision":"range"},"type":"Feature","geometry":{"type":"Point","coordinates":[-79.745942,40.586743]}},{"properties":{"city, state":"EPHRATA, PA","zip":"17522","geo_score":0.805,"street":"891 EAST MAIN ST","id":"ahc9bzl9tiol","geo_precision":"range"},"type":"Feature","geometry":{"type":"Point","coordinates":[-76.153563,40.163928]}},{"properties":{"city, state":"BENSON, NC","zip":"27504","geo_score":0.692,"street":"13433 NC HIGHWAY 210","id":"ahc9bzj64sh2","geo_precision":"range"},"type":"Feature","geometry":{"type":"Point","coordinates":[-78.567002,35.515305]}},{"properties":{"city, state":"RALEIGH, NC","zip":"27607","geo_score":0.612,"street":"600 CORPORATE CENTER DR","id":"ahc9bzf5mu4z","geo_precision":"street"},"type":"Feature","geometry":{"type":"Point","coordinates":[-78.740038,35.790407]}},{"properties":{"city, state":"WENDELL, NC","zip":"27591","geo_score":0.61,"street":"505 WENDELL BLVD","id":"ahc9bzd9mn9q","geo_precision":"street"},"type":"Feature","geometry":{"type":"Point","coordinates":[-78.398423,35.802246]}},{"properties":{"city, state":"BECKLEY, WV","zip":"25801","geo_score":0.805,"street":"1408 NORTH EISENHOWER DRIVE","id":"ahc9bz9jpa9h","geo_precision":"range"},"type":"Feature","geometry":{"type":"Point","coordinates":[-81.183152,37.804521]}},{"properties":{"city, state":"KING, NC","zip":"27021","geo_score":0.805,"street":"703 EAST KING ST","id":"ahc9bzczlh2p","geo_precision":"range"},"type":"Feature","geometry":{"type":"Point","coordinates":[-80.339526,36.276922]}},{"properties":{"city, state":"GREENSBORO, NC","zip":"27407","geo_score":0.805,"street":"3941 WEST MARKET ST","id":"ahc9bz77eoh1","geo_precision":"range"},"type":"Feature","geometry":{"type":"Point","coordinates":[-79.852323,36.069185]}},{"properties":{"city, state":"LOUISBURG, NC","zip":"27549","geo_score":0.488,"street":"108 SOUTH BICKETT BLVD","id":"ahc9bzg0r5y6","geo_precision":"zip"},"type":"Feature","geometry":{"type":"Point","coordinates":[-78.227215,36.07654]}},{"properties":{"city, state":"STAR CITY, WV","zip":"26505","geo_score":0.805,"street":"3522 MONONGAHELA BOULEVARD","id":"ahc9bziacrv7","geo_precision":"range"},"type":"Feature","geometry":{"type":"Point","coordinates":[-79.989224,39.657044]}},{"properties":{"city, state":"UNIONTOWN, PA","zip":"15401","geo_score":0.805,"street":"570 PITTSBURGH ROAD","id":"ahc9bzdvt7ek","geo_precision":"range"},"type":"Feature","geometry":{"type":"Point","coordinates":[-79.726239,39.92059]}},{"properties":{"city, state":"GREENVILLE, NC","zip":"27834","geo_score":0.805,"street":"2521 NORTH MEMORIAL DR","id":"ahc9bzgn16u6","geo_precision":"range"},"type":"Feature","geometry":{"type":"Point","coordinates":[-77.364006,35.656911]}},{"properties":{"city, state":"GREENSBORO, NC","zip":"27410","geo_score":0.805,"street":"1620 NEW GARDEN ROAD","id":"ahc9bznosiin","geo_precision":"range"},"type":"Feature","geometry":{"type":"Point","coordinates":[-79.876263,36.116543]}},{"properties":{"city, state":"MT AIRY, NC","zip":"27030","geo_score":0.488,"street":"2905 ROCKFORD ST","id":"ahc9bzdx5nko","geo_precision":"zip"},"type":"Feature","geometry":{"type":"Point","coordinates":[-80.83785,36.482354]}},{"properties":{"city, state":"ZION CROSSROADS, VA","zip":"22942","geo_score":0.611,"street":"135 MARKET STREET","id":"ahc9bzesh03t","geo_precision":"street"},"type":"Feature","geometry":{"type":"Point","coordinates":[-78.184388,38.136834]}},{"properties":{"city, state":"GRAHAM, NC","zip":"27253","geo_score":0.805,"street":"1138 SOUTH MAIN ST","id":"ahc9bzh4cqzl","geo_precision":"range"},"type":"Feature","geometry":{"type":"Point","coordinates":[-79.395879,36.047122]}},{"properties":{"city, state":"DOBSON, NC","zip":"27017","geo_score":0.805,"street":"119 SOUTH MAIN ST","id":"ahc9bzcolq2w","geo_precision":"range"},"type":"Feature","geometry":{"type":"Point","coordinates":[-80.722379,36.395516]}},{"properties":{"city, state":"SCOTT DEPOT, WV","zip":"25560","geo_score":0.805,"street":"4344B TEAYS VALLEY ROAD","id":"ahc9bznm24ld","geo_precision":"range"},"type":"Feature","geometry":{"type":"Point","coordinates":[-81.905608,38.449043]}},{"properties":{"city, state":"LEXINGTON, NC","zip":"27295","geo_score":0.805,"street":"8283 OLD US HIGHWAY 52","id":"ahc9bzdj1ee4","geo_precision":"range"},"type":"Feature","geometry":{"type":"Point","coordinates":[-80.237087,35.935342]}},{"properties":{"city, state":"JOHNSTOWN, PA","zip":"15904","geo_score":0.805,"street":"1455 SCALP AVE","id":"ahc9bz8ctlkh","geo_precision":"range"},"type":"Feature","geometry":{"type":"Point","coordinates":[-78.857916,40.271361]}},{"properties":{"city, state":"CLAYSBURG, PA","zip":"16625","geo_score":0.488,"street":"12604 DUNNINGS HIGHWAY","id":"ahc9bz7na333","geo_precision":"zip"},"type":"Feature","geometry":{"type":"Point","coordinates":[-78.512794,40.299242]}},{"properties":{"city, state":"BLAIRSVILLE, PA","zip":"15717","geo_score":0.366,"street":"610 ROUTE 22 HWY W","id":"ahc9bz7n1xi0","geo_precision":"street"},"type":"Feature","geometry":{"type":"Point","coordinates":[-79.144381,40.452306]}},{"properties":{"city, state":"ERIE, PA","zip":"16509","geo_score":0.805,"street":"8180 PERRY HIGHWAY","id":"ahc9bzeiiy0d","geo_precision":"range"},"type":"Feature","geometry":{"type":"Point","coordinates":[-80.03604,42.065634]}},{"properties":{"city, state":"SEWICKLEY, PA","zip":"15143","geo_score":0.626,"street":"1910 MT NEBO ROAD","id":"ahc9bzkh787z","geo_precision":"street"},"type":"Feature","geometry":{"type":"Point","coordinates":[-80.114382,40.553056]}},{"properties":{"city, state":"CLARKSBURG, WV","zip":"26301","geo_score":0.805,"street":"101 STONEYBROOK RD","id":"ahc9bzfwfovv","geo_precision":"range"},"type":"Feature","geometry":{"type":"Point","coordinates":[-80.371354,39.274214]}},{"properties":{"city, state":"TITUSVILLE, PA","zip":"16354","geo_score":0.611,"street":"331 WEST CENTRAL AVE","id":"ahc9bzeknabw","geo_precision":"street"},"type":"Feature","geometry":{"type":"Point","coordinates":[-79.684204,41.627074]}},{"properties":{"city, state":"NORTH HUNTINGDON, PA","zip":"15642","geo_score":0.488,"street":"101 RONDA COURT","id":"ahc9bzj2va4o","geo_precision":"zip"},"type":"Feature","geometry":{"type":"Point","coordinates":[-79.739211,40.305348]}},{"properties":{"city, state":"ROCKY MOUNT, NC","zip":"27804","geo_score":0.497,"street":"157 NORTH OLD CARRIAGE ROAD","id":"ahc9bzbehq4e","geo_precision":"street"},"type":"Feature","geometry":{"type":"Point","coordinates":[-77.896366,35.971664]}},{"properties":{"city, state":"WAKE FOREST, NC","zip":"27587","geo_score":0.61,"street":"1895 S FRANKLIN ST","id":"ahc9bzn62eb1","geo_precision":"street"},"type":"Feature","geometry":{"type":"Point","coordinates":[-78.506562,35.973893]}},{"properties":{"city, state":"WASHINGTON, NC","zip":"27889","geo_score":0.732,"street":"1695 W 5TH STREET","id":"ahc9bz83pn39","geo_precision":"range"},"type":"Feature","geometry":{"type":"Point","coordinates":[-77.074861,35.563915]}},{"properties":{"city, state":"RALEIGH, NC","zip":"27603","geo_score":0.805,"street":"7900 FAYETTEVILLE RD","id":"ahc9bzb8glvt","geo_precision":"range"},"type":"Feature","geometry":{"type":"Point","coordinates":[-78.697865,35.666346]}},{"properties":{"city, state":"REIDSVILLE, NC","zip":"27320","geo_score":0.561,"street":"1647 FREEWAY DRIVE","id":"ahc9bzfzxjlh","geo_precision":"street"},"type":"Feature","geometry":{"type":"Point","coordinates":[-79.567456,36.354959]}},{"properties":{"city, state":"GREENSBORO, NC","zip":"27408","geo_score":0.611,"street":"1300 BATTLEGROUND AVE","id":"ahc9bzmhk3z1","geo_precision":"street"},"type":"Feature","geometry":{"type":"Point","coordinates":[-79.802961,36.082383]}},{"properties":{"city, state":"YADKINVILLE, NC","zip":"27055","geo_score":0.611,"street":"805 SOUTH STATE ST","id":"ahc9bznc95cj","geo_precision":"street"},"type":"Feature","geometry":{"type":"Point","coordinates":[-80.660156,36.118162]}},{"properties":{"city, state":"SMITHFIELD, NC","zip":"27577","geo_score":0.805,"street":"1700 EAST MARKET ST","id":"ahc9bzngutnl","geo_precision":"range"},"type":"Feature","geometry":{"type":"Point","coordinates":[-78.326972,35.505408]}},{"properties":{"city, state":"KERNERSVILLE, NC","zip":"27284","geo_score":0.634,"street":"1400 NC HWY 66 SOUTH","id":"ahc9bz7aj80k","geo_precision":"range"},"type":"Feature","geometry":{"type":"Point","coordinates":[-80.099311,36.135979]}},{"properties":{"city, state":"RALEIGH, NC","zip":"27603","geo_score":0.805,"street":"9915 FAYETTEVILLE RD","id":"ahc9bza6lslw","geo_precision":"range"},"type":"Feature","geometry":{"type":"Point","coordinates":[-78.714903,35.633903]}},{"properties":{"city, state":"LEXINGTON, VA","zip":"24450","geo_score":0.805,"street":"600 EAST NELSON ST","id":"ahc9bzani3ii","geo_precision":"range"},"type":"Feature","geometry":{"type":"Point","coordinates":[-79.435407,37.778717]}},{"properties":{"city, state":"BETHEL PARK, PA","zip":"15102","geo_score":0.805,"street":"4599 LIBRARY ROAD","id":"ahc9bzbbtorm","geo_precision":"range"},"type":"Feature","geometry":{"type":"Point","coordinates":[-80.02373,40.351581]}},{"properties":{"city, state":"BRIDGEPORT, WV","zip":"26330","geo_score":0.698,"street":"20 OAKMONT LANE","id":"ahc9bzlrorym","geo_precision":"range"},"type":"Feature","geometry":{"type":"Point","coordinates":[-80.368533,39.264926]}},{"properties":{"city, state":"POCA, WV","zip":"25159","geo_score":0.61,"street":"1457 CHARLESTON ROAD","id":"ahc9bzbo7h7b","geo_precision":"street"},"type":"Feature","geometry":{"type":"Point","coordinates":[-81.95015,38.702124]}},{"properties":{"city, state":"MECHANICSBURG, PA","zip":"17050","geo_score":0.805,"street":"6054 CARLISLE PIKE","id":"ahc9bzaqc40l","geo_precision":"range"},"type":"Feature","geometry":{"type":"Point","coordinates":[-76.993319,40.243767]}},{"properties":{"city, state":"FREDERICK, MD","zip":"21704","geo_score":0.488,"street":"6050 BUCKEYSTOWN PIKE","id":"ahc9bz8n2y90","geo_precision":"zip"},"type":"Feature","geometry":{"type":"Point","coordinates":[-77.383229,39.345477]}},{"properties":{"city, state":"NORTH WARREN, PA","zip":"16365","geo_score":0.61,"street":"2425 MARKET STREET","id":"ahc9bzkj63sn","geo_precision":"street"},"type":"Feature","geometry":{"type":"Point","coordinates":[-79.150188,41.917132]}},{"properties":{"city, state":"CRANBERRY TWP, PA","zip":"16066","geo_score":0.805,"street":"2000 EHRMAN ROAD","id":"ahc9bzetoiw0","geo_precision":"range"},"type":"Feature","geometry":{"type":"Point","coordinates":[-80.109838,40.734604]}},{"properties":{"city, state":"EASTON, PA","zip":"18045","geo_score":0.805,"street":"3501 NAZARETH ROAD","id":"ahc9bz7z04ec","geo_precision":"range"},"type":"Feature","geometry":{"type":"Point","coordinates":[-75.278716,40.70887]}},{"properties":{"city, state":"HARRISBURG, PA","zip":"17109","geo_score":0.805,"street":"4001 UNION DEPOSIT RD","id":"ahc9bzcbf1uu","geo_precision":"range"},"type":"Feature","geometry":{"type":"Point","coordinates":[-76.822513,40.278538]}},{"properties":{"city, state":"TROUTMAN, NC","zip":"28166","geo_score":0.805,"street":"1023 CHARLOTTE HIGHWAY","id":"ahc9bzklfdhu","geo_precision":"range"},"type":"Feature","geometry":{"type":"Point","coordinates":[-80.855539,35.673026]}},{"properties":{"city, state":"MORRISVILLE, NC","zip":"27560","geo_score":0.805,"street":"10700 CHAPEL HILL ROAD","id":"ahc9bzdpanay","geo_precision":"range"},"type":"Feature","geometry":{"type":"Point","coordinates":[-78.838059,35.848046]}},{"properties":{"city, state":"MENTOR, OH","zip":"44060","geo_score":0.805,"street":"7766 LAKE SHORE BLVD","id":"ahc9bzkbi31u","geo_precision":"range"},"type":"Feature","geometry":{"type":"Point","coordinates":[-81.362356,41.704888]}},{"properties":{"city, state":"MECHANICSBURG, PA","zip":"17050","geo_score":0.805,"street":"5201 SIMPSON FERRY RD","id":"ahc9bzcg5ikk","geo_precision":"range"},"type":"Feature","geometry":{"type":"Point","coordinates":[-76.984213,40.217389]}},{"properties":{"city, state":"GIRARD, PA","zip":"16417","geo_score":0.805,"street":"809 MAIN STREET EAST","id":"ahc9bzetp5tt","geo_precision":"range"},"type":"Feature","geometry":{"type":"Point","coordinates":[-80.306304,42.007199]}},{"properties":{"city, state":"HARTVILLE, OH","zip":"44632","geo_score":0.805,"street":"1280 W MAPLE ST","id":"ahc9bzbr3tn1","geo_precision":"range"},"type":"Feature","geometry":{"type":"Point","coordinates":[-81.349174,40.968431]}},{"properties":{"city, state":"MUNCY, PA","zip":"17756","geo_score":0.64,"street":"45 MUNCY CREEK BLVD","id":"ahc9bz7qt64w","geo_precision":"range"},"type":"Feature","geometry":{"type":"Point","coordinates":[-76.726378,41.197743]}},{"properties":{"city, state":"ALTOONA, PA","zip":"16602","geo_score":0.611,"street":"678 FRANKSTOWN ROAD","id":"ahc9bz834hpl","geo_precision":"street"},"type":"Feature","geometry":{"type":"Point","coordinates":[-78.396667,40.480326]}},{"properties":{"city, state":"FREDERICKSBURG, VA","zip":"22408","geo_score":0.805,"street":"2807 LAFAYETTE BLVD","id":"ahc9bzgsq71q","geo_precision":"range"},"type":"Feature","geometry":{"type":"Point","coordinates":[-77.483967,38.27097]}},{"properties":{"city, state":"BROOKLYN, OH","zip":"44144","geo_score":0.805,"street":"10315 CASCADE CROSSING","id":"ahc9bz8cny5t","geo_precision":"range"},"type":"Feature","geometry":{"type":"Point","coordinates":[-81.759665,41.423608]}},{"properties":{"city, state":"GOLDSBORO, NC","zip":"27533","geo_score":0.805,"street":"1003 N SPENCE AVE","id":"ahc9bzdq3xtd","geo_precision":"range"},"type":"Feature","geometry":{"type":"Point","coordinates":[-77.947873,35.385687]}},{"properties":{"city, state":"MT JACKSON, VA","zip":"22842","geo_score":0.746,"street":"227 CONICVILLE BLVD","id":"ahc9bzad83ga","geo_precision":"range"},"type":"Feature","geometry":{"type":"Point","coordinates":[-78.68706,38.829494]}}],"is_temporal":false,"author":{"url":"","metadata":"","contact_name":"","contact_address":"","source":"","contact_phone":""},"source":"","pagination":{"sort":null,"start":0,"total":466,"limit":1000000},"state":"complete","tags":"","published":"2014-08-16T19:58:29-04:00","id":395995}