{"type":"FeatureCollection","data_type":"Dataset","url_type":null,"permissions":[{"permissions":{"download":true,"view":true},"group_id":"everyone"}],"classification":null,"title":"Mcfinal","count":501,"stream_id":396043,"contributor":{"url":"http://geocommons.com/users/59155","name":"jocleynpam"},"data_attributes":null,"calculation_params":null,"icon_link":null,"link":"http://geocommons.com/overlays/396043.json","extent":[-124.22,26.4728,-67.847,48.0131],"geometry_types":["point"],"unique_name":null,"name":"Mcfinal","feature_count":501,"description":"","next_feature":null,"is_raster":false,"short_classification":"Y","stats":{},"features":[{"properties":{"name":"Mcdonalds - 374 Queen Street, Acton","city":"Acton","post code":"L7J 2N3","country":"Canada","geo_score":0.471,"phone":"(519) 853-9128","id":"ahcfng1m2gzn","address":"374 Queen Street","province":"Ontario","geo_precision":"street"},"type":"Feature","geometry":{"type":"Point","coordinates":[-85.336905,37.341677]}},{"properties":{"name":"Mcdonalds - 151 Sandwich Street South, Amherstburg","city":"Amherstburg","post code":"N9V 2V1","country":"Canada","geo_score":0.39,"phone":"(519) 736-3250","id":"ahcfng3ei4yx","address":"151 Sandwich Street South","province":"Ontario","geo_precision":"city"},"type":"Feature","geometry":{"type":"Point","coordinates":[-81.783341,37.795916]}},{"properties":{"name":"Mcdonalds - Front Maiden Mall, 400 Sandwich Street S., Amherstburg","city":"Amherstburg","post code":"N9V 3L4","country":"Canada","geo_score":0.567,"phone":"(519) 730-1900","id":"ahcfnfxqoj7e","address":"Front Maiden Mall, 400 Sandwich Street S.","province":"Ontario","geo_precision":"range"},"type":"Feature","geometry":{"type":"Point","coordinates":[-82.223377,41.396778]}},{"properties":{"name":"Mcdonalds - 135 First Commerce Drive, Aurora","city":"Aurora","post code":"L4G 0G2","country":"Canada","geo_score":0.542,"phone":"(905) 841-5584","id":"ahcfngaurm0i","address":"135 First Commerce Drive","province":"Ontario","geo_precision":"street"},"type":"Feature","geometry":{"type":"Point","coordinates":[-90.139851,46.463156]}},{"properties":{"name":"Mcdonalds - 2 Allaura Blvd, Aurora","city":"Aurora","post code":"L4G 3S5","country":"Canada","geo_score":0.488,"phone":"(905) 727-1600","id":"ahcfng7ab2m5","address":"2 Allaura Blvd","province":"Ontario","geo_precision":"street"},"type":"Feature","geometry":{"type":"Point","coordinates":[-88.339765,41.744088]}},{"properties":{"name":"Mcdonalds - B4 Beaver Avenue, Beaverton","city":"Beaverton","post code":"L0K 1A0","country":"Canada","geo_score":0.357,"phone":"(705) 426-2672","id":"ahcfng29donl","address":"B4 Beaver Avenue","province":"Ontario","geo_precision":"street"},"type":"Feature","geometry":{"type":"Point","coordinates":[-84.325301,43.862483]}},{"properties":{"name":"Mcdonalds - 105 Highway #118 West, Bracebridge","city":"Bracebridge","post code":"P1L 1T5","country":"Canada","geo_score":0.652,"phone":"(705) 645-9941","id":"ahcfnfwydm7k","address":"105 Highway #118 West","province":"Ontario","geo_precision":"range"},"type":"Feature","geometry":{"type":"Point","coordinates":[-77.192108,40.247555]}},{"properties":{"name":"Mcdonalds - 40 Depot Drive, Bracebridge","city":"Bracebridge","post code":"P1L 0A1","country":"Canada","geo_score":0.829,"phone":"(705) 646-4444","id":"ahcfng0lghf2","address":"40 Depot Drive","province":"Ontario","geo_precision":"range"},"type":"Feature","geometry":{"type":"Point","coordinates":[-77.569251,40.599963]}},{"properties":{"name":"Mcdonalds - 1942 Parkdale Ave, Brockville","city":"Brockville","post code":"K6V 3G9","country":"Canada","geo_score":0.707,"phone":"(613) 345-6566","id":"ahcfng8nw1f4","address":"1942 Parkdale Ave","province":"Ontario","geo_precision":"street"},"type":"Feature","geometry":{"type":"Point","coordinates":[-78.622509,42.771094]}},{"properties":{"name":"Mcdonalds - 2454 Parkdale Street, Brockville","city":"Brockville","post code":"K6V 3G8","country":"Canada","geo_score":0.654,"phone":"(613) 342-5551","id":"ahcfngb7wtry","address":"2454 Parkdale Street","province":"Ontario","geo_precision":"street"},"type":"Feature","geometry":{"type":"Point","coordinates":[-74.910805,39.902891]}},{"properties":{"name":"Mcdonalds - 450 Mcneely Ave., Carleton Place","city":"Carleton Place","post code":"K7C 0A6","country":"Canada","geo_score":0.628,"phone":"(613) 257-3357","id":"ahcfng8959yw","address":"450 Mcneely Ave.","province":"Ontario","geo_precision":"street"},"type":"Feature","geometry":{"type":"Point","coordinates":[-83.893244,44.780359]}},{"properties":{"name":"Mcdonalds - 73 Strathy Road, Cobourg","city":"Cobourg","post code":"K9A 5J7","country":"Canada","geo_score":0.39,"phone":"(905) 373-0268","id":"ahcfng7o11vb","address":"73 Strathy Road","province":"Ontario","geo_precision":"city"},"type":"Feature","geometry":{"type":"Point","coordinates":[-95.264434,40.917494]}},{"properties":{"name":"Mcdonalds - 805 William Street, Cobourg","city":"Cobourg","post code":"K9A 3A8","country":"Canada","geo_score":0.708,"phone":"(905) 372-6335","id":"ahcfng84uqkx","address":"805 William Street","province":"Ontario","geo_precision":"street"},"type":"Feature","geometry":{"type":"Point","coordinates":[-123.093433,43.3017]}},{"properties":{"name":"Mcdonalds - 1301 Brookdale St., Cornwall","city":"Cornwall","post code":"K6J 4P8","country":"Canada","geo_score":0.708,"phone":"(613) 933-5619","id":"ahcfngat6uj8","address":"1301 Brookdale St.","province":"Ontario","geo_precision":"street"},"type":"Feature","geometry":{"type":"Point","coordinates":[-75.456437,40.581911]}},{"properties":{"name":"Mcdonalds - 950 Brookdale Mall, Wal-mart - Brookdale Mall, Cornwall","city":"Cornwall","post code":"K6J 4P5","country":"Canada","geo_score":0.393,"phone":"(613) 933-9214","id":"ahcfng1qbn4g","address":"950 Brookdale Mall, Wal-mart - Brookdale Mall","province":"Ontario","geo_precision":"street"},"type":"Feature","geometry":{"type":"Point","coordinates":[-116.943362,46.739419]}},{"properties":{"name":"Mcdonalds - Mcdonalds Restaurant, 1314 Second Street East, Cornwall","city":"Cornwall","post code":"K6H 2B5","country":"Canada","geo_score":0.415,"phone":"(613) 938-8081","id":"ahcfng2l21dx","address":"Mcdonalds Restaurant, 1314 Second Street East","province":"Ontario","geo_precision":"street"},"type":"Feature","geometry":{"type":"Point","coordinates":[-116.770275,46.737485]}},{"properties":{"name":"Mcdonalds - 630 Broad Street, Dunnville","city":"Dunnville","post code":"N1A 1T7","country":"Canada","geo_score":0.783,"phone":"(905) 701-7309","id":"ahcfng5k161x","address":"630 Broad Street","province":"Ontario","geo_precision":"range"},"type":"Feature","geometry":{"type":"Point","coordinates":[-80.479945,39.049351]}},{"properties":{"name":"Mcdonalds - 711 Centre St, Espanola","city":"Espanola","post code":"P5E 1J2","country":"Canada","geo_score":0.902,"phone":"(705) 862-7770","id":"ahcfng9422km","address":"711 Centre St","province":"Ontario","geo_precision":"range"},"type":"Feature","geometry":{"type":"Point","coordinates":[-81.459542,30.670882]}},{"properties":{"name":"Mcdonalds - 124 Highway 20 East, Fonthill","city":"Fonthill","post code":"L0S 1E6","country":"Canada","geo_score":0.39,"phone":"(905) 892-7906","id":"ahcfng96fv4k","address":"124 Highway 20 East","province":"Ontario","geo_precision":"city"},"type":"Feature","geometry":{"type":"Point","coordinates":[-85.003565,37.083959]}},{"properties":{"name":"Mcdonalds - 185 Guelph Street, Georgetown","city":"Georgetown","post code":"L7G 4A1","country":"Canada","geo_score":0.61,"phone":"(905) 873-7011","id":"ahcfng9v12ce","address":"185 Guelph Street","province":"Ontario","geo_precision":"range"},"type":"Feature","geometry":{"type":"Point","coordinates":[-79.295451,33.316675]}},{"properties":{"name":"Mcdonalds - 280 Guelph Street, Wal-mart - Georgetown Market Place, Georgetown","city":"Georgetown","post code":"L7G 4B1","country":"Canada","geo_score":0.418,"phone":null,"id":"ahcfng9hybul","address":"280 Guelph Street, Wal-mart - Georgetown Market Place","province":"Ontario","geo_precision":"street"},"type":"Feature","geometry":{"type":"Point","coordinates":[-79.926223,39.614118]}},{"properties":{"name":"Mcdonalds - 34 Livingston Ave Grimsby Plaza, Grimsby","city":"Grimsby","post code":"L3M 4H8","country":"Canada","geo_score":0.602,"phone":"(905) 945-5491","id":"ahcfnfy6bflu","address":"34 Livingston Ave Grimsby Plaza","province":"Ontario","geo_precision":"range"},"type":"Feature","geometry":{"type":"Point","coordinates":[-89.447947,37.748043]}},{"properties":{"name":"Mcdonalds - 1580 Cameron Street, Hawkesbury","city":"Hawkesbury","post code":"K6A 2B8","country":"Canada","geo_score":0.39,"phone":"(613) 632-9393","id":"ahcfnfzasusp","address":"1580 Cameron Street","province":"Ontario","geo_precision":"city"},"type":"Feature","geometry":{"type":"Point","coordinates":[-81.783745,39.583683]}},{"properties":{"name":"Mcdonalds - 240 Government Road, Kapuskasing","city":"Kapuskasing","post code":"P5N 2X2","country":"Canada","geo_score":0.0,"phone":"(705) 335-6922","id":"ahcfng0oapqk","address":"240 Government Road","province":"Ontario","geo_precision":"unmatched"},"type":"Feature","geometry":null},{"properties":{"name":"Mcdonalds - 350 Government Road, Kapuskasing","city":"Kapuskasing","post code":"P5N 2X7","country":"Canada","geo_score":0.0,"phone":"(705) 337-5221","id":"ahcfnfz300gp","address":"350 Government Road","province":"Ontario","geo_precision":"unmatched"},"type":"Feature","geometry":null},{"properties":{"name":"Mcdonalds - 1130 Midland Avenue, Kingston","city":"Kingston","post code":"K7P 2X9","country":"Canada","geo_score":0.568,"phone":"(613) 384-9441","id":"ahcfnfy8p1iw","address":"1130 Midland Avenue","province":"Ontario","geo_precision":"street"},"type":"Feature","geometry":{"type":"Point","coordinates":[-83.982282,35.938707]}},{"properties":{"name":"Mcdonalds - 1165 Division Street, Kingston","city":"Kingston","post code":"K7K 5W3","country":"Canada","geo_score":0.805,"phone":"(613) 549-7321","id":"ahcfngaqoiri","address":"1165 Division Street","province":"Ontario","geo_precision":"range"},"type":"Feature","geometry":{"type":"Point","coordinates":[-96.093616,33.127709]}},{"properties":{"name":"Mcdonalds - 2658 Princess St, Kingston","city":"Kingston","post code":"K7P 2W6","country":"Canada","geo_score":0.546,"phone":"(613) 634-5888","id":"ahcfng7d3bsc","address":"2658 Princess St","province":"Ontario","geo_precision":"street"},"type":"Feature","geometry":{"type":"Point","coordinates":[-81.495963,35.322862]}},{"properties":{"name":"Mcdonalds - 285 Princess, Kingston","city":"Kingston","post code":"K7L 1B4","country":"Canada","geo_score":0.519,"phone":"(613) 549-3999","id":"ahcfnfx0qpn5","address":"285 Princess","province":"Ontario","geo_precision":"street"},"type":"Feature","geometry":{"type":"Point","coordinates":[-81.499315,35.324456]}},{"properties":{"name":"Mcdonalds - 533 Gardiners Road, Kingston","city":"Kingston","post code":"K7M 3Y3","country":"Canada","geo_score":0.696,"phone":"(613) 634-9623","id":"ahcfnfxojn9s","address":"533 Gardiners Road","province":"Ontario","geo_precision":"range"},"type":"Feature","geometry":{"type":"Point","coordinates":[-81.548518,35.285882]}},{"properties":{"name":"Mcdonalds - Canadian Forces Base, 7 Niagara Park Dr Vimy Box Cfb Kingston, Kingston","city":"Kingston","post code":"K7K 5L0","country":"Canada","geo_score":0.429,"phone":"(613) 542-4228","id":"ahcfnfwv7n7v","address":"Canadian Forces Base, 7 Niagara Park Dr Vimy Box Cfb Kingston","province":"Ontario","geo_precision":"street"},"type":"Feature","geometry":{"type":"Point","coordinates":[-122.773865,44.762665]}},{"properties":{"name":"Mcdonalds - 214 Talbot Street, Leamington","city":"Leamington","post code":"N8H 1P1","country":"Canada","geo_score":0.708,"phone":"(519) 326-1311","id":"ahcfnfzrofkt","address":"214 Talbot Street","province":"Ontario","geo_precision":"street"},"type":"Feature","geometry":{"type":"Point","coordinates":[-92.031504,45.53002]}},{"properties":{"name":"Mcdonalds - 298 Erie Street South, Leamington","city":"Leamington","post code":"N8H 3C5","country":"Canada","geo_score":0.643,"phone":"(519) 326-4530","id":"ahcfng0sncox","address":"298 Erie Street South","province":"Ontario","geo_precision":"street"},"type":"Feature","geometry":{"type":"Point","coordinates":[-91.900152,45.832463]}},{"properties":{"name":"Mcdonalds - 3510 Derry Road East, Malton","city":"Malton","post code":"L4T 3V7","country":"Canada","geo_score":0.489,"phone":"(905) 677-8711","id":"ahcfng5pbn1k","address":"3510 Derry Road East","province":"Ontario","geo_precision":"street"},"type":"Feature","geometry":{"type":"Point","coordinates":[-88.430838,33.900266]}},{"properties":{"name":"Mcdonalds - 16845 Hwy #12, Midland","city":"Midland","post code":"L4R 4K3","country":"Canada","geo_score":0.512,"phone":"(705) 527-5684","id":"ahcfng1xao5v","address":"16845 Hwy #12","province":"Ontario","geo_precision":"range"},"type":"Feature","geometry":{"type":"Point","coordinates":[-80.445941,40.633093]}},{"properties":{"name":"Mcdonalds - Hwy # 93, Midland","city":"Midland","post code":"L4R 4K5","country":"Canada","geo_score":0.341,"phone":"(705) 526-4631","id":"ahcfng2zvbff","address":"Hwy # 93","province":"Ontario","geo_precision":"street"},"type":"Feature","geometry":{"type":"Point","coordinates":[-102.089805,31.994448]}},{"properties":{"name":"Mcdonalds - 1675 Merivale Road, Nepean","city":"Nepean","post code":"K2G 3K2","country":"Canada","geo_score":0.548,"phone":"(613) 224-9040","id":"ahcfng76f9t1","address":"1675 Merivale Road","province":"Ontario","geo_precision":"street"},"type":"Feature","geometry":{"type":"Point","coordinates":[-86.5024,41.707858]}},{"properties":{"name":"Mcdonalds - 1850 Baseline Road, Nepean","city":"Nepean","post code":"K2L 0C6","country":"Canada","geo_score":0.683,"phone":"(613) 723-5719","id":"ahcfng649zru","address":"1850 Baseline Road","province":"Ontario","geo_precision":"street"},"type":"Feature","geometry":{"type":"Point","coordinates":[-85.844207,41.328383]}},{"properties":{"name":"Mcdonalds - 2126 Robertson Rd.","city":"Nepean","post code":"K2H 5Z1","country":"Canada","geo_score":0.634,"phone":"(613) 829-2803","id":"ahcfnfz9gyiz","address":"2126 Robertson Rd.","province":"Ontario","geo_precision":"street"},"type":"Feature","geometry":{"type":"Point","coordinates":[-85.972353,41.753373]}},{"properties":{"name":"Mcdonalds - 3340, Fallowfield Road, Nepean","city":"Nepean","post code":"K2J 5L1","country":"Canada","geo_score":0.571,"phone":"(613) 843-8898","id":"ahcfnfw6uvzz","address":"3340, Fallowfield Road","province":"Ontario","geo_precision":"city"},"type":"Feature","geometry":{"type":"Point","coordinates":[-99.137325,40.074785]}},{"properties":{"name":"Mcdonalds - 3651 Stranherd Drive, Nepean","city":"Nepean","post code":"K2J 2B5","country":"Canada","geo_score":0.39,"phone":"(613) 823-9679","id":"ahcfnfzkh09h","address":"3651 Stranherd Drive","province":"Ontario","geo_precision":"city"},"type":"Feature","geometry":{"type":"Point","coordinates":[-99.137325,40.074785]}},{"properties":{"name":"Mcdonalds - 3773 Strandherd Drive, Nepean","city":"Nepean","post code":"K2J 4B1","country":"Canada","geo_score":0.39,"phone":"(613) 823-7838","id":"ahcfng4it5yv","address":"3773 Strandherd Drive","province":"Ontario","geo_precision":"city"},"type":"Feature","geometry":{"type":"Point","coordinates":[-99.137325,40.074785]}},{"properties":{"name":"Mcdonalds - 6161 Thorold Stone Road, Niagara Falls","city":"Niagara Falls","post code":"L2J 1A4","country":"Canada","geo_score":0.36,"phone":"(905) 356-8856","id":"ahcfng0mmwg3","address":"6161 Thorold Stone Road","province":"Ontario","geo_precision":"street"},"type":"Feature","geometry":{"type":"Point","coordinates":[-87.594034,37.802479]}},{"properties":{"name":"Mcdonalds - 6348 Lundys Lane, Niagara Falls","city":"Niagara Falls","post code":"L2G 1T6","country":"Canada","geo_score":0.431,"phone":"(905) 356-8591","id":"ahcfng4gt8in","address":"6348 Lundys Lane","province":"Ontario","geo_precision":"street"},"type":"Feature","geometry":{"type":"Point","coordinates":[-79.386703,35.15162]}},{"properties":{"name":"Mcdonalds - 7190 Morrison Street, Niagara Falls","city":"Niagara Falls","post code":"L2E 6N8","country":"Canada","geo_score":0.708,"phone":"(905) 358-1992","id":"ahcfnfywdfnk","address":"7190 Morrison Street","province":"Ontario","geo_precision":"street"},"type":"Feature","geometry":{"type":"Point","coordinates":[-89.357236,43.276581]}},{"properties":{"name":"Mcdonalds - 7275 Oakwood Dr, Niagara Falls","city":"Niagara Falls","post code":"L2E 6S5","country":"Canada","geo_score":0.533,"phone":"(905) 358-6054","id":"ahcfnfxaw2yo","address":"7275 Oakwood Dr","province":"Ontario","geo_precision":"street"},"type":"Feature","geometry":{"type":"Point","coordinates":[-89.215451,43.049986]}},{"properties":{"name":"Mcdonalds - 1500 Upper Middle Road West, Oakville","city":"Oakville","post code":"L6M 3G3","country":"Canada","geo_score":0.472,"phone":"(905) 847-6236","id":"ahcfng9zlc2i","address":"1500 Upper Middle Road West","province":"Ontario","geo_precision":"street"},"type":"Feature","geometry":{"type":"Point","coordinates":[-79.471263,40.361321]}},{"properties":{"name":"Mcdonalds - 227 Cross Ave, Oakville","city":"Oakville","post code":"L6J 2W9","country":"Canada","geo_score":0.675,"phone":"(905) 337-2976","id":"ahcfng9lp6f9","address":"227 Cross Ave","province":"Ontario","geo_precision":"range"},"type":"Feature","geometry":{"type":"Point","coordinates":[-87.112921,34.360406]}},{"properties":{"name":"Mcdonalds - 2290 Lakeshore Road West, Bronte Plaza, Oakville","city":"Oakville","post code":"L6L 1H3","country":"Canada","geo_score":0.457,"phone":"(905) 469-0175","id":"ahcfngbmup07","address":"2290 Lakeshore Road West, Bronte Plaza","province":"Ontario","geo_precision":"street"},"type":"Feature","geometry":{"type":"Point","coordinates":[-90.350692,38.488631]}},{"properties":{"name":"Mcdonalds - 235 Hays Blvd, Oakville","city":"Oakville","post code":"L6H 6M4","country":"Canada","geo_score":0.513,"phone":"(905) 257-5958","id":"ahcfng7400cl","address":"235 Hays Blvd","province":"Ontario","geo_precision":"street"},"type":"Feature","geometry":{"type":"Point","coordinates":[-79.363287,40.304588]}},{"properties":{"name":"Mcdonalds - 2510 Hampshire Gate, Oakville","city":"Oakville","post code":"L6H 6A2","country":"Canada","geo_score":0.279,"phone":"(905) 829-1227","id":"ahcfnfxbnjoa","address":"2510 Hampshire Gate","province":"Ontario","geo_precision":"street"},"type":"Feature","geometry":{"type":"Point","coordinates":[-77.361704,40.043634]}},{"properties":{"name":"Mcdonalds - 375 Iroquois Shore Rd, Oakville","city":"Oakville","post code":"L6H 1M3","country":"Canada","geo_score":0.369,"phone":"(905) 842-6865","id":"ahcfng4xgb1f","address":"375 Iroquois Shore Rd","province":"Ontario","geo_precision":"street"},"type":"Feature","geometry":{"type":"Point","coordinates":[-75.706021,38.207819]}},{"properties":{"name":"Mcdonalds - 486 Dundas St.west, Oakville","city":"Oakville","post code":"L6J 5E8","country":"Canada","geo_score":0.476,"phone":"(905) 257-6392","id":"ahcfng7up122","address":"486 Dundas St.west","province":"Ontario","geo_precision":"street"},"type":"Feature","geometry":{"type":"Point","coordinates":[-78.243935,35.927955]}},{"properties":{"name":"Mcdonalds - Oakville Town Centre Ii, 210 North Service Road West, Oakville","city":"Oakville","post code":"L6M 2Y2","country":"Canada","geo_score":0.395,"phone":"(905) 338-0554","id":"ahcfng6wyecj","address":"Oakville Town Centre Ii, 210 North Service Road West","province":"Ontario","geo_precision":"street"},"type":"Feature","geometry":{"type":"Point","coordinates":[-90.316358,38.455763]}},{"properties":{"name":"Mcdonalds - 2643 St. Joseph Blvd., Orleans","city":"Orleans","post code":"K1C 1G4","country":"Canada","geo_score":0.524,"phone":"(613) 837-2866","id":"ahcfnfzmgkvx","address":"2643 St. Joseph Blvd.","province":"Ontario","geo_precision":"street"},"type":"Feature","geometry":{"type":"Point","coordinates":[-78.171257,43.250313]}},{"properties":{"name":"Mcdonalds - 3900 Innes Road, Orleans","city":"Orleans","post code":"K1C 1T1","country":"Canada","geo_score":0.39,"phone":"(613) 837-9766","id":"ahcfng2tiigs","address":"3900 Innes Road","province":"Ontario","geo_precision":"city"},"type":"Feature","geometry":{"type":"Point","coordinates":[-75.89994,44.190608]}},{"properties":{"name":"Mcdonalds - 4416 Innes Road, Orleans","city":"Orleans","post code":"K4A 3W3","country":"Canada","geo_score":0.39,"phone":"(613) 841-6633","id":"ahcfnfycadbg","address":"4416 Innes Road","province":"Ontario","geo_precision":"city"},"type":"Feature","geometry":{"type":"Point","coordinates":[-75.89994,44.190608]}},{"properties":{"name":"Mcdonalds - 307 Grand River Street North, Paris","city":"Paris","post code":"N3L 2N9","country":"Canada","geo_score":0.659,"phone":"(519) 442-5964","id":"ahcfng8dduut","address":"307 Grand River Street North","province":"Ontario","geo_precision":"range"},"type":"Feature","geometry":{"type":"Point","coordinates":[-95.560028,33.660577]}},{"properties":{"name":"Mcdonalds - 2936 Finch Ave E, Agincourt","city":"Agincourt","post code":"M1W 2T4","country":"Canada","geo_score":0.0,"phone":"(416) 497-2166","id":"ahcfng8kb7r2","address":"2936 Finch Ave E","province":"Ontario","geo_precision":"unmatched"},"type":"Feature","geometry":null},{"properties":{"name":"Mcdonalds - 3850 Sheppard Avenue East, Wal-mart - Agincourt S.c., Agincourt","city":"Agincourt","post code":"M1T 3L4","country":"Canada","geo_score":0.0,"phone":"(416) 754-4337","id":"ahcfng0lvne2","address":"3850 Sheppard Avenue East, Wal-mart - Agincourt S.c.","province":"Ontario","geo_precision":"unmatched"},"type":"Feature","geometry":null},{"properties":{"name":"Mcdonalds - 1051 Highway 53 West, Ancaster","city":"Ancaster","post code":"L9G 3K9","country":"Canada","geo_score":0.39,"phone":"(905) 648-3945","id":"ahcfng5d976j","address":"1051 Highway 53 West","province":"Ontario","geo_precision":"city"},"type":"Feature","geometry":{"type":"Point","coordinates":[-105.486403,36.101696]}},{"properties":{"name":"Mcdonalds - Martindale Crescent, Meadowland Square, Ancaster","city":"Ancaster","post code":"L9G 3K9","country":"Canada","geo_score":0.571,"phone":null,"id":"ahcfnfxtucd6","address":"Martindale Crescent, Meadowland Square","province":"Ontario","geo_precision":"city"},"type":"Feature","geometry":{"type":"Point","coordinates":[-105.486403,36.101696]}},{"properties":{"name":"Mcdonalds - 200 Talbot Street North, Aylmer","city":"Aylmer","post code":"N5H 1K1","country":"Canada","geo_score":0.39,"phone":"(519) 773-5377","id":"ahcfng47b5mb","address":"200 Talbot Street North","province":"Ontario","geo_precision":"city"},"type":"Feature","geometry":{"type":"Point","coordinates":[-115.461375,32.979211]}},{"properties":{"name":"Mcdonalds - 185 N. Front St., Belleville","city":"Belleville","post code":"K8P 3C1","country":"Canada","geo_score":0.339,"phone":"(613) 962-7400","id":"ahcfnfxcdz66","address":"185 N. Front St.","province":"Ontario","geo_precision":"street"},"type":"Feature","geometry":{"type":"Point","coordinates":[-86.565674,35.150003]}},{"properties":{"name":"Mcdonalds - 274 Millennium Parkway, Belleville","city":"Belleville","post code":"K8N 4Z5","country":"Canada","geo_score":0.637,"phone":"(613) 962-2705","id":"ahcfng1tiw1o","address":"274 Millennium Parkway","province":"Ontario","geo_precision":"street"},"type":"Feature","geometry":{"type":"Point","coordinates":[-88.299469,42.252357]}},{"properties":{"name":"Mcdonalds - 470 Dundas Street East, Belleville","city":"Belleville","post code":"K8N 1G1","country":"Canada","geo_score":0.628,"phone":"(613) 968-5400","id":"ahcfng2i9ed4","address":"470 Dundas Street East","province":"Ontario","geo_precision":"street"},"type":"Feature","geometry":{"type":"Point","coordinates":[-71.367104,41.716532]}},{"properties":{"name":"Mcdonalds - 155 Holland Street East, Bradford","city":"Bradford","post code":"L3Z 2B1","country":"Canada","geo_score":0.491,"phone":"(905) 775-5545","id":"ahcfnfx8vtid","address":"155 Holland Street East","province":"Ontario","geo_precision":"street"},"type":"Feature","geometry":{"type":"Point","coordinates":[-71.076812,42.765681]}},{"properties":{"name":"Mcdonalds - 545 Holland Street West, Bradford","city":"Bradford","post code":"L3Z 2A4","country":"Canada","geo_score":0.488,"phone":"(905) 778-8160","id":"ahcfnfwhe7oy","address":"545 Holland Street West","province":"Ontario","geo_precision":"street"},"type":"Feature","geometry":{"type":"Point","coordinates":[-71.076812,42.765681]}},{"properties":{"name":"Mcdonalds - 1505 Guelph Line, Burlington","city":"Burlington","post code":"L7P 3B6","country":"Canada","geo_score":0.45,"phone":"(905) 336-2331","id":"ahcfng8j8780","address":"1505 Guelph Line","province":"Ontario","geo_precision":"street"},"type":"Feature","geometry":{"type":"Point","coordinates":[-91.117703,40.834597]}},{"properties":{"name":"Mcdonalds - 2040 Appleby Line, Unit #h, Burlington","city":"Burlington","post code":"L7L 6M6","country":"Canada","geo_score":0.347,"phone":"(905) 336-6364","id":"ahcfng8g8gu9","address":"2040 Appleby Line, Unit #h","province":"Ontario","geo_precision":"street"},"type":"Feature","geometry":{"type":"Point","coordinates":[-84.236398,41.587082]}},{"properties":{"name":"Mcdonalds - 2065 Fairview Road, Burlington","city":"Burlington","post code":"L4K 5V4","country":"Canada","geo_score":0.587,"phone":"(905) 681-1709","id":"ahcfng425cvt","address":"2065 Fairview Road","province":"Ontario","geo_precision":"street"},"type":"Feature","geometry":{"type":"Point","coordinates":[-93.11956,36.27229]}},{"properties":{"name":"Mcdonalds - 2991 Walkers Line, Burlington","city":"Burlington","post code":"L7M 4Y1","country":"Canada","geo_score":0.415,"phone":"(905) 336-8761","id":"ahcfng1x231m","address":"2991 Walkers Line","province":"Ontario","geo_precision":"street"},"type":"Feature","geometry":{"type":"Point","coordinates":[-83.863976,36.010365]}},{"properties":{"name":"Mcdonalds - 4490 Fairview Street, Burlington","city":"Burlington","post code":"L7L 5P9","country":"Canada","geo_score":0.61,"phone":"(905) 681-3040","id":"ahcfnfx9tmng","address":"4490 Fairview Street","province":"Ontario","geo_precision":"street"},"type":"Feature","geometry":{"type":"Point","coordinates":[-79.448421,36.074062]}},{"properties":{"name":"Mcdonalds - 4515 Dundas St West R.r.#1, Burlington","city":"Burlington","post code":"L7M 5B4","country":"Canada","geo_score":0.512,"phone":"(905) 319-0033","id":"ahcfng5j7aob","address":"4515 Dundas St West R.r.#1","province":"Ontario","geo_precision":"range"},"type":"Feature","geometry":{"type":"Point","coordinates":[-82.53902,38.405797]}},{"properties":{"name":"Mcdonalds - 623 Plains Road East, Burlington","city":"Burlington","post code":"L7T 2E8","country":"Canada","geo_score":0.504,"phone":"(905) 632-2664","id":"ahcfng3x2vsf","address":"623 Plains Road East","province":"Ontario","geo_precision":"street"},"type":"Feature","geometry":{"type":"Point","coordinates":[-91.265408,40.822728]}},{"properties":{"name":"Mcdonalds - 689 Guelph Line Rd.,, Burlington","city":"Burlington","post code":"L7R 3M7","country":"Canada","geo_score":0.447,"phone":"(905) 639-1661","id":"ahcfnfw3l1ni","address":"689 Guelph Line Rd.,","province":"Ontario","geo_precision":"street"},"type":"Feature","geometry":{"type":"Point","coordinates":[-75.154073,42.691827]}},{"properties":{"name":"Mcdonalds - 411 St. Clair St., Chatham","city":"Chatham","post code":"N7L 3K4","country":"Canada","geo_score":0.286,"phone":"(519) 351-1448","id":"ahcfng28bois","address":"411 St. Clair St.","province":"Ontario","geo_precision":"street"},"type":"Feature","geometry":{"type":"Point","coordinates":[-82.438684,40.094847]}},{"properties":{"name":"Mcdonalds - 710 Richmond Street, Chatham","city":"Chatham","post code":"N7M 5J5","country":"Canada","geo_score":0.558,"phone":"(519) 358-1553","id":"ahcfng9mtk14","address":"710 Richmond Street","province":"Ontario","geo_precision":"street"},"type":"Feature","geometry":{"type":"Point","coordinates":[-89.717036,39.680462]}},{"properties":{"name":"Mcdonalds - 801 St. Clair St., Unit 300, Chatham","city":"Chatham","post code":"N7M 5J7","country":"Canada","geo_score":0.319,"phone":"(519) 351-6086","id":"ahcfnfypulwx","address":"801 St. Clair St., Unit 300","province":"Ontario","geo_precision":"street"},"type":"Feature","geometry":{"type":"Point","coordinates":[-92.465008,32.314399]}},{"properties":{"name":"Mcdonalds - 10 Cambridge Street, Collingwood","city":"Collingwood","post code":"L9Y 3Y6","country":"Canada","geo_score":0.902,"phone":"(705) 445-2010","id":"ahcfngc6tp85","address":"10 Cambridge Street","province":"Ontario","geo_precision":"range"},"type":"Feature","geometry":{"type":"Point","coordinates":[-72.787234,41.551539]}},{"properties":{"name":"Mcdonalds - 285 First Street, Collingwood","city":"Collingwood","post code":"L9Y 1B2","country":"Canada","geo_score":0.359,"phone":"(705) 445-5232","id":"ahcfng4p1acv","address":"285 First Street","province":"Ontario","geo_precision":"street"},"type":"Feature","geometry":{"type":"Point","coordinates":[-76.089516,42.877297]}},{"properties":{"name":"Mcdonalds - 1700 Wilson Avenue, Downsview","city":"Downsview","post code":"M3L 1B2","country":"Canada","geo_score":0.0,"phone":"(416) 249-7438","id":"ahcfng6gu8ko","address":"1700 Wilson Avenue","province":"Ontario","geo_precision":"unmatched"},"type":"Feature","geometry":null},{"properties":{"name":"Mcdonalds - 1831 Finch Avenue W., Downsview","city":"Downsview","post code":"M3N 1M7","country":"Canada","geo_score":0.0,"phone":"(416) 636-7601","id":"ahcfng83lpui","address":"1831 Finch Avenue W.","province":"Ontario","geo_precision":"unmatched"},"type":"Feature","geometry":null},{"properties":{"name":"Mcdonalds - 2020 Jane Street, Downsview","city":"Downsview","post code":"M9N 2V3","country":"Canada","geo_score":0.0,"phone":"(416) 248-6648","id":"ahcfng1pg5wj","address":"2020 Jane Street","province":"Ontario","geo_precision":"unmatched"},"type":"Feature","geometry":null},{"properties":{"name":"Mcdonalds - Highway 108, Elliot Lake","city":"Elliot Lake","post code":"P5A 2T1","country":"Canada","geo_score":0.701,"phone":"(705) 848-8118","id":"ahcfng74mp6f","address":"Highway 108","province":"Ontario","geo_precision":"street"},"type":"Feature","geometry":{"type":"Point","coordinates":[-83.110642,38.690379]}},{"properties":{"name":"Mcdonalds - 390 Maidstone Ave. West, Essex","city":"Essex","post code":"N8M 2X5","country":"Canada","geo_score":0.571,"phone":"(519) 776-4343","id":"ahcfng8wfisp","address":"390 Maidstone Ave. West","province":"Ontario","geo_precision":"city"},"type":"Feature","geometry":{"type":"Point","coordinates":[-92.364896,46.712582]}},{"properties":{"name":"Mcdonalds - 1 Peace Bridge Plaza, Fort Erie","city":"Fort Erie","post code":"L2A 5N1","country":"Canada","geo_score":0.355,"phone":"(905) 871-6262","id":"ahcfnfwrdnj6","address":"1 Peace Bridge Plaza","province":"Ontario","geo_precision":"street"},"type":"Feature","geometry":{"type":"Point","coordinates":[-91.540373,31.717561]}},{"properties":{"name":"Mcdonalds - 325 Garrison Road, Fort Erie","city":"Fort Erie","post code":"L2A 1M1","country":"Canada","geo_score":0.369,"phone":"(905) 871-4965","id":"ahcfnfyi884o","address":"325 Garrison Road","province":"Ontario","geo_precision":"street"},"type":"Feature","geometry":{"type":"Point","coordinates":[-119.964635,39.516473]}},{"properties":{"name":"Mcdonalds - 750 Garrison Road, Fort Erie","city":"Fort Erie","post code":"L2A 1N7","country":"Canada","geo_score":0.481,"phone":"(905) 994-8485","id":"ahcfnfwlx6qj","address":"750 Garrison Road","province":"Ontario","geo_precision":"street"},"type":"Feature","geometry":{"type":"Point","coordinates":[-119.964568,39.518054]}},{"properties":{"name":"Mcdonalds - 1890 Innes Road, Gloucester","city":"Gloucester","post code":"K1B 3K5","country":"Canada","geo_score":0.707,"phone":"(613) 741-9610","id":"ahcfng8eaan3","address":"1890 Innes Road","province":"Ontario","geo_precision":"range"},"type":"Feature","geometry":{"type":"Point","coordinates":[-96.707134,28.834045]}},{"properties":{"name":"Mcdonalds - 2000 Montreal Rd, Gloucester","city":"Gloucester","post code":"K1L 6N2","country":"Canada","geo_score":0.654,"phone":"(613) 741-8578","id":"ahcfng8qj8a7","address":"2000 Montreal Rd","province":"Ontario","geo_precision":"street"},"type":"Feature","geometry":{"type":"Point","coordinates":[-74.742701,39.799714]}},{"properties":{"name":"Mcdonalds - 11 Woodlawn Road West, Guelph","city":"Guelph","post code":"N1H 1G8","country":"Canada","geo_score":0.663,"phone":"(519) 822-7400","id":"ahcfng5orvk4","address":"11 Woodlawn Road West","province":"Ontario","geo_precision":"street"},"type":"Feature","geometry":{"type":"Point","coordinates":[-80.016198,36.002423]}},{"properties":{"name":"Mcdonalds - 243 Woodlawn Avenue, Guelph","city":"Guelph","post code":"N1H 7L6","country":"Canada","geo_score":0.902,"phone":"(519) 826-0507","id":"ahcfng9v81bx","address":"243 Woodlawn Avenue","province":"Ontario","geo_precision":"range"},"type":"Feature","geometry":{"type":"Point","coordinates":[-87.744708,42.123548]}},{"properties":{"name":"Mcdonalds - 372 Stone Road West, Guelph","city":"Guelph","post code":"N1G 4T8","country":"Canada","geo_score":0.844,"phone":"(519) 763-8842","id":"ahcfnfzs779s","address":"372 Stone Road West","province":"Ontario","geo_precision":"range"},"type":"Feature","geometry":{"type":"Point","coordinates":[-79.381485,35.948988]}},{"properties":{"name":"Mcdonalds - 65 Gordon Street, Guelph","city":"Guelph","post code":"N1H 4H5","country":"Canada","geo_score":0.569,"phone":"(519) 836-3070","id":"ahcfng9xnxka","address":"65 Gordon Street","province":"Ontario","geo_precision":"range"},"type":"Feature","geometry":{"type":"Point","coordinates":[-80.079335,26.472827]}},{"properties":{"name":"Mcdonalds - 735 Woolwich St, Guelph","city":"Guelph","post code":"N1H 3Z2","country":"Canada","geo_score":0.39,"phone":"(519) 824-6710","id":"ahcfnfxb56qu","address":"735 Woolwich St","province":"Ontario","geo_precision":"city"},"type":"Feature","geometry":{"type":"Point","coordinates":[-87.791636,42.058029]}},{"properties":{"name":"Mcdonalds - 111 Howland Drive, Huntsville","city":"Huntsville","post code":"P1H 2P4","country":"Canada","geo_score":0.725,"phone":"(705) 788-9062","id":"ahcfng0od81y","address":"111 Howland Drive","province":"Ontario","geo_precision":"range"},"type":"Feature","geometry":{"type":"Point","coordinates":[-95.479012,30.762089]}},{"properties":{"name":"Mcdonalds - 40 King William Street, Huntsville","city":"Huntsville","post code":"P0A 1K0","country":"Canada","geo_score":0.649,"phone":"(705) 789-9877","id":"ahcfnfzpbyfn","address":"40 King William Street","province":"Ontario","geo_precision":"range"},"type":"Feature","geometry":{"type":"Point","coordinates":[-75.963901,41.334729]}},{"properties":{"name":"Mcdonalds - 24 Milkana Way, Unit #1, Kenora","city":"Kenora","post code":"P9N 4J1","country":"Canada","geo_score":0.417,"phone":"(807) 467-2867","id":"ahcfng61af5b","address":"24 Milkana Way, Unit #1","province":"Ontario","geo_precision":"street"},"type":"Feature","geometry":{"type":"Point","coordinates":[-78.396746,35.27819]}},{"properties":{"name":"Mcdonalds - 900 Highway 17 East, Kenora","city":"Kenora","post code":"P9N 1L9","country":"Canada","geo_score":0.382,"phone":"(807) 468-3018","id":"ahcfng3y5y9u","address":"900 Highway 17 East","province":"Ontario","geo_precision":"street"},"type":"Feature","geometry":{"type":"Point","coordinates":[-80.724924,40.245566]}},{"properties":{"name":"Mcdonalds - 329 Main Street, Kingsville","city":"Kingsville","post code":"N9Y 1A7","country":"Canada","geo_score":0.805,"phone":"(519) 733-9844","id":"ahcfngaon43k","address":"329 Main Street","province":"Ontario","geo_precision":"range"},"type":"Feature","geometry":{"type":"Point","coordinates":[-92.439334,31.31707]}},{"properties":{"name":"Mcdonalds - 333 Kent Street, Lindsay","city":"Lindsay","post code":"K9V 2Z7","country":"Canada","geo_score":0.415,"phone":"(705) 324-6668","id":"ahcfng7s6kam","address":"333 Kent Street","province":"Ontario","geo_precision":"street"},"type":"Feature","geometry":{"type":"Point","coordinates":[-97.61585,34.855216]}},{"properties":{"name":"Mcdonalds - 2810 Major Mackenzie Drive, Building c, Maple","city":"Maple","post code":"L6A 1S2","country":"Canada","geo_score":0.643,"phone":"(905) 303-0804","id":"ahcfnfzx00pw","address":"2810 Major Mackenzie Drive, Building 'c'","province":"Ontario","geo_precision":"street"},"type":"Feature","geometry":{"type":"Point","coordinates":[-91.573506,45.602135]}},{"properties":{"name":"Mcdonalds - 590 Martin Street, Milton","city":"Milton","post code":"L9T 3H6","country":"Canada","geo_score":0.61,"phone":"(905) 878-3303","id":"ahcfng66ahxo","address":"590 Martin Street","province":"Ontario","geo_precision":"street"},"type":"Feature","geometry":{"type":"Point","coordinates":[-87.167508,30.592439]}},{"properties":{"name":"Mcdonalds - Milton, 1280 Steeles Ave., East, Milton","city":"Milton","post code":"L9T 6R1","country":"Canada","geo_score":0.333,"phone":"(905) 875-4943","id":"ahcfngcgf3u7","address":"Milton, 1280 Steeles Ave., East","province":"Ontario","geo_precision":"street"},"type":"Feature","geometry":{"type":"Point","coordinates":[-87.033206,30.587042]}},{"properties":{"name":"Mcdonalds - 3589 Bleams Road, New Hamburg","city":"New Hamburg","post code":"N0B 2G0","country":"Canada","geo_score":0.39,"phone":"(519) 662-1500","id":"ahcfng4ziuh9","address":"3589 Bleams Road","province":"Ontario","geo_precision":"city"},"type":"Feature","geometry":{"type":"Point","coordinates":[-73.945138,41.588427]}},{"properties":{"name":"Mcdonalds - Rr #2 ,1835 Niagara Stone Rd, Niagara On The Lake","city":"Niagara On The Lake","post code":"L0S 1J0","country":"Canada","geo_score":0.258,"phone":"(905) 468-1809","id":"ahcfnga2zwf7","address":"Rr #2 ,1835 Niagara Stone Rd","province":"Ontario","geo_precision":"street"},"type":"Feature","geometry":{"type":"Point","coordinates":[-87.589689,37.805493]}},{"properties":{"name":"Mcdonalds - Highway 401 West, Rr2, Odessa","city":"Odessa","post code":"K0H 2H0","country":"Canada","geo_score":0.238,"phone":"(613) 386-7331","id":"ahcfng9trxo3","address":"Highway 401 West, Rr2","province":"Ontario","geo_precision":"street"},"type":"Feature","geometry":{"type":"Point","coordinates":[-104.525035,32.45827]}},{"properties":{"name":"Mcdonalds - 1300 King Street East, Oshawa","city":"Oshawa","post code":"L1H 8J4","country":"Canada","geo_score":0.39,"phone":"(905) 434-7111","id":"ahcfng5wcrd5","address":"1300 King Street East","province":"Ontario","geo_precision":"city"},"type":"Feature","geometry":{"type":"Point","coordinates":[-94.10524,44.300244]}},{"properties":{"name":"Mcdonalds - 1349 Simcoe St N., Oshawa","city":"Oshawa","post code":"L1G 4X5","country":"Canada","geo_score":0.495,"phone":"(905) 579-2751","id":"ahcfngc0bqvf","address":"1349 Simcoe St N.","province":"Ontario","geo_precision":"street"},"type":"Feature","geometry":{"type":"Point","coordinates":[-93.809818,44.205203]}},{"properties":{"name":"Mcdonalds - 1369 Harmony Rd N, Oshawa","city":"Oshawa","post code":"L1H 7K5","country":"Canada","geo_score":0.61,"phone":"(905) 436-6277","id":"ahcfng3h6rdd","address":"1369 Harmony Rd N","province":"Ontario","geo_precision":"street"},"type":"Feature","geometry":{"type":"Point","coordinates":[-93.361953,43.676724]}},{"properties":{"name":"Mcdonalds - 1471 Harmony Road, Oshawa","city":"Oshawa","post code":"L1H 7K5","country":"Canada","geo_score":0.649,"phone":"(905) 720-3339","id":"ahcfngckx2x5","address":"1471 Harmony Road","province":"Ontario","geo_precision":"street"},"type":"Feature","geometry":{"type":"Point","coordinates":[-94.349359,43.69763]}},{"properties":{"name":"Mcdonalds - 419 King Street West, Oshawa Centre, Oshawa","city":"Oshawa","post code":"L1J 2K5","country":"Canada","geo_score":0.623,"phone":"(905) 576-3400","id":"ahcfng3j6tet","address":"419 King Street West, Oshawa Centre","province":"Ontario","geo_precision":"street"},"type":"Feature","geometry":{"type":"Point","coordinates":[-94.068598,44.101684]}},{"properties":{"name":"Mcdonalds - 450 Stevenson Rd South, Oshawa","city":"Oshawa","post code":"L1J 0B4","country":"Canada","geo_score":0.68,"phone":"(905) 579-9444","id":"ahcfngab0o9k","address":"450 Stevenson Rd South","province":"Ontario","geo_precision":"street"},"type":"Feature","geometry":{"type":"Point","coordinates":[-94.165481,43.887878]}},{"properties":{"name":"Mcdonalds - 501 Ritson Rd S.,, Oshawa","city":"Oshawa","post code":"L1H 5K3","country":"Canada","geo_score":0.39,"phone":"(905) 579-2122","id":"ahcfng15b6q7","address":"501 Ritson Rd S.,","province":"Ontario","geo_precision":"city"},"type":"Feature","geometry":{"type":"Point","coordinates":[-94.10524,44.300244]}},{"properties":{"name":"Mcdonalds - 1 Pine Drive, Parry Sound","city":"Parry Sound","post code":"P2A 3C3","country":"Canada","geo_score":0.539,"phone":"(705) 746-4829","id":"ahcfng83o2q5","address":"1 Pine Drive","province":"Ontario","geo_precision":"street"},"type":"Feature","geometry":{"type":"Point","coordinates":[-90.109594,44.376842]}},{"properties":{"name":"Mcdonalds - 118 Bowes Street, Parry Sound","city":"Parry Sound","post code":"P2A 2K6","country":"Canada","geo_score":0.39,"phone":"(705) 746-4778","id":"ahcfng1enrvz","address":"118 Bowes Street","province":"Ontario","geo_precision":"city"},"type":"Feature","geometry":{"type":"Point","coordinates":[-92.801306,41.461943]}},{"properties":{"name":"Mcdonalds - 135 Kingston Road East, Ajax","city":"Ajax","post code":"L1S 7J4","country":"Canada","geo_score":0.0,"phone":"(905) 686-2172","id":"ahcfnfwn8d5e","address":"135 Kingston Road East","province":"Ontario","geo_precision":"unmatched"},"type":"Feature","geometry":null},{"properties":{"name":"Mcdonalds - 222 Bayly Street W., Ajax","city":"Ajax","post code":"L1S 3V4","country":"Canada","geo_score":0.0,"phone":"(905) 686-2133","id":"ahcfnga7c0ei","address":"222 Bayly Street W.","province":"Ontario","geo_precision":"unmatched"},"type":"Feature","geometry":null},{"properties":{"name":"Mcdonalds - 270 Kingston Road East, R.r. #1, Ajax","city":"Ajax","post code":"L1S 4S7","country":"Canada","geo_score":0.0,"phone":"(905) 428-9383","id":"ahcfng31coea","address":"270 Kingston Road East, R.r. #1","province":"Ontario","geo_precision":"unmatched"},"type":"Feature","geometry":null},{"properties":{"name":"Mcdonalds - 231 Mill Street, Angus","city":"Angus","post code":"L0M 1B1","country":"Canada","geo_score":0.78,"phone":"(705) 424-9390","id":"ahcfng3sgfnf","address":"231 Mill Street","province":"Ontario","geo_precision":"range"},"type":"Feature","geometry":{"type":"Point","coordinates":[-92.451427,45.452366]}},{"properties":{"name":"Mcdonalds - 347 Yonge Street, Barrie","city":"Barrie","post code":"L4N 4C9","country":"Canada","geo_score":0.39,"phone":"(705) 739-0397","id":"ahcfnfz8st60","address":"347 Yonge Street","province":"Ontario","geo_precision":"city"},"type":"Feature","geometry":{"type":"Point","coordinates":[-76.956918,38.648729]}},{"properties":{"name":"Mcdonalds - 35 Mapleview Drive West, Walmart - Barrie, Barrie","city":"Barrie","post code":"L4N 9H5","country":"Canada","geo_score":0.483,"phone":"(705) 739-8047","id":"ahcfnfxbsi0p","address":"35 Mapleview Drive West, Walmart - Barrie","province":"Ontario","geo_precision":"street"},"type":"Feature","geometry":{"type":"Point","coordinates":[-89.7819,34.627614]}},{"properties":{"name":"Mcdonalds - 446 Bayfield Street, Barrie","city":"Barrie","post code":"L4M 5A2","country":"Canada","geo_score":0.682,"phone":"(705) 726-2123","id":"ahcfng8pguj8","address":"446 Bayfield Street","province":"Ontario","geo_precision":"street"},"type":"Feature","geometry":{"type":"Point","coordinates":[-90.007292,38.905675]}},{"properties":{"name":"Mcdonalds - 450 Bayfield Street, Barrie","city":"Barrie","post code":"L4M 5A2","country":"Canada","geo_score":0.682,"phone":"(705) 721-5627","id":"ahcfng6j1jt5","address":"450 Bayfield Street","province":"Ontario","geo_precision":"street"},"type":"Feature","geometry":{"type":"Point","coordinates":[-90.007292,38.905675]}},{"properties":{"name":"Mcdonalds - 80 Barrie View Drive, Barrie","city":"Barrie","post code":"L4N 8V4","country":"Canada","geo_score":0.676,"phone":"(705) 735-1700","id":"ahcfng1mm1h6","address":"80 Barrie View Drive","province":"Ontario","geo_precision":"range"},"type":"Feature","geometry":{"type":"Point","coordinates":[-72.496153,44.173816]}},{"properties":{"name":"Mcdonalds - 85 Dunlop Street, Barrie","city":"Barrie","post code":"L4N 1A5","country":"Canada","geo_score":0.708,"phone":"(705) 726-6500","id":"ahcfng8wke3g","address":"85 Dunlop Street","province":"Ontario","geo_precision":"street"},"type":"Feature","geometry":{"type":"Point","coordinates":[-96.276473,29.186954]}},{"properties":{"name":"Mcdonalds - R.r. #5, 201 Fairview Drive, Barrie","city":"Barrie","post code":"L4M 4S7","country":"Canada","geo_score":0.262,"phone":"(705) 726-2151","id":"ahcfng2hxxgp","address":"R.r. #5, 201 Fairview Drive, Barrie, Ontario L4M 4S7","province":"Ontario","geo_precision":"street"},"type":"Feature","geometry":{"type":"Point","coordinates":[-72.518914,44.15369]}},{"properties":{"name":"Mcdonalds - 12612 Highway #50, Bolton","city":"Bolton","post code":"L7E 1T6","country":"Canada","geo_score":0.512,"phone":"(905) 951-7361","id":"ahcfnfxpnyin","address":"12612 Highway #50","province":"Ontario","geo_precision":"range"},"type":"Feature","geometry":{"type":"Point","coordinates":[-81.104863,40.921033]}},{"properties":{"name":"Mcdonalds - 150 Mcewan Drive East, Bolton","city":"Bolton","post code":"L7E 2Y3","country":"Canada","geo_score":0.628,"phone":"(905) 951-7360","id":"ahcfng4b3w3j","address":"150 Mcewan Drive East","province":"Ontario","geo_precision":"street"},"type":"Feature","geometry":{"type":"Point","coordinates":[-86.831138,35.940037]}},{"properties":{"name":"Mcdonalds - 11670 Hurontario St.n., Brampton","city":"Brampton","post code":"L7A 1E6","country":"Canada","geo_score":0.571,"phone":"(905) 846-3677","id":"ahcfng1mfdfh","address":"11670 Hurontario St.n.","province":"Ontario","geo_precision":"city"},"type":"Feature","geometry":{"type":"Point","coordinates":[-86.469427,33.582048]}},{"properties":{"name":"Mcdonalds - 160 Sandalwood Parkway East, Brampton","city":"Brampton","post code":"L6X 1B2","country":"Canada","geo_score":0.39,"phone":"(905) 840-0700","id":"ahcfng0tpgsw","address":"160 Sandalwood Parkway East","province":"Ontario","geo_precision":"city"},"type":"Feature","geometry":{"type":"Point","coordinates":[-86.469427,33.582048]}},{"properties":{"name":"Mcdonalds - 2439 Steeles Ave.east, Brampton","city":"Brampton","post code":"L6T 5J9","country":"Canada","geo_score":0.476,"phone":"(905) 494-1134","id":"ahcfngclnm8a","address":"2439 Steeles Ave.east","province":"Ontario","geo_precision":"street"},"type":"Feature","geometry":{"type":"Point","coordinates":[-86.772707,34.064389]}},{"properties":{"name":"Mcdonalds - 2450 Queen Street East Rr#4, Brampton","city":"Brampton","post code":"L6S 5X9","country":"Canada","geo_score":0.317,"phone":"(905) 793-5295","id":"ahcfng3ohmhz","address":"2450 Queen Street East Rr#4","province":"Ontario","geo_precision":"street"},"type":"Feature","geometry":{"type":"Point","coordinates":[-87.038474,45.872253]}},{"properties":{"name":"Mcdonalds - 30 Brisdale Road, Bldg \"c\", Brampton","city":"Brampton","post code":"L7A 3G1","country":"Canada","geo_score":0.371,"phone":"(905) 495-1122","id":"ahcfnfxdkhez","address":"30 Brisdale Road, Bldg \"c\"","province":"Ontario","geo_precision":"street"},"type":"Feature","geometry":{"type":"Point","coordinates":[-87.040112,45.837514]}},{"properties":{"name":"Mcdonalds - 30 Coventry Road, Brampton","city":"Brampton","post code":"L6T 5P9","country":"Canada","geo_score":0.39,"phone":"(905) 789-0030","id":"ahcfng5oz8ow","address":"30 Coventry Road","province":"Ontario","geo_precision":"city"},"type":"Feature","geometry":{"type":"Point","coordinates":[-86.469427,33.582048]}},{"properties":{"name":"Mcdonalds - 344 Queen St East, Brampton","city":"Brampton","post code":"L6V 1C3","country":"Canada","geo_score":0.243,"phone":"(905) 459-8800","id":"ahcfng3ic84s","address":"344 Queen St East","province":"Ontario","geo_precision":"street"},"type":"Feature","geometry":{"type":"Point","coordinates":[-86.551234,33.546343]}},{"properties":{"name":"Mcdonalds - 45 Mountain Ash Rd., Brampton","city":"Brampton","post code":"L6R 1W4","country":"Canada","geo_score":0.454,"phone":"(905) 458-7488","id":"ahcfngbhfjsb","address":"45 Mountain Ash Rd.","province":"Ontario","geo_precision":"street"},"type":"Feature","geometry":{"type":"Point","coordinates":[-87.010613,45.844371]}},{"properties":{"name":"Mcdonalds - 50 Kennedy Rd S, Brampton","city":"Brampton","post code":"L6W 3R7","country":"Canada","geo_score":0.379,"phone":"(905) 460-8860","id":"ahcfng4elwax","address":"50 Kennedy Rd S","province":"Ontario","geo_precision":"street"},"type":"Feature","geometry":{"type":"Point","coordinates":[-86.544285,33.551989]}},{"properties":{"name":"Mcdonalds - 50 Quarry Edge Drive, Brampton","city":"Brampton","post code":"L6Z 4K2","country":"Canada","geo_score":0.431,"phone":"(905) 451-8371","id":"ahcfng4yywcm","address":"50 Quarry Edge Drive","province":"Ontario","geo_precision":"street"},"type":"Feature","geometry":{"type":"Point","coordinates":[-86.542389,33.552862]}},{"properties":{"name":"Mcdonalds - 543 Steeles Avenue E., Orion Gate, Brampton","city":"Brampton","post code":"L6W 4S2","country":"Canada","geo_score":0.311,"phone":"(905) 453-4954","id":"ahcfnfwpec3k","address":"543 Steeles Avenue E., Orion Gate","province":"Ontario","geo_precision":"street"},"type":"Feature","geometry":{"type":"Point","coordinates":[-86.557403,33.539555]}},{"properties":{"name":"Mcdonalds - 7690 Hurontario Street, Brampton","city":"Brampton","post code":"L6Y 5B5","country":"Canada","geo_score":0.39,"phone":"(905) 456-2233","id":"ahcfng1zgeuz","address":"7690 Hurontario Street","province":"Ontario","geo_precision":"city"},"type":"Feature","geometry":{"type":"Point","coordinates":[-86.469427,33.582048]}},{"properties":{"name":"Mcdonalds - Kingspoint Plaza, 372 Main Street North, Brampton","city":"Brampton","post code":"L6V 4A4","country":"Canada","geo_score":0.547,"phone":"(905) 455-2841","id":"ahcfngau2lan","address":"Kingspoint Plaza, 372 Main Street North","province":"Ontario","geo_precision":"street"},"type":"Feature","geometry":{"type":"Point","coordinates":[-97.776348,45.994712]}},{"properties":{"name":"Mcdonalds - 282 Argyle Street South, Caledonia","city":"Caledonia","post code":"M3W 1K7","country":"Canada","geo_score":0.503,"phone":"(905) 765-9660","id":"ahcfnfzn1rxv","address":"282 Argyle Street South","province":"Ontario","geo_precision":"street"},"type":"Feature","geometry":{"type":"Point","coordinates":[-88.940218,42.32666]}},{"properties":{"name":"Mcdonalds - Highway 144, Chelmsford","city":"Chelmsford","post code":"P0M 1L0","country":"Canada","geo_score":0.571,"phone":"(705) 855-0450","id":"ahcfng2ao7cb","address":"Highway 144","province":"Ontario","geo_precision":"city"},"type":"Feature","geometry":{"type":"Point","coordinates":[-71.459405,42.446396]}},{"properties":{"name":"Mcdonalds - 101 Edgeley Blvd., Concord","city":"Concord","post code":"L4K 4Z4","country":"Canada","geo_score":0.61,"phone":"(905) 761-8368","id":"ahcfng3wq79s","address":"101 Edgeley Blvd.","province":"Ontario","geo_precision":"street"},"type":"Feature","geometry":{"type":"Point","coordinates":[-83.152731,40.040763]}},{"properties":{"name":"Mcdonalds - 1600 Highway 7, Concord","city":"Concord","post code":"L4K 4J8","country":"Canada","geo_score":0.5,"phone":"(905) 660-3144","id":"ahcfngbp6cfo","address":"1600 Highway 7","province":"Ontario","geo_precision":"street"},"type":"Feature","geometry":{"type":"Point","coordinates":[-90.372718,39.817631]}},{"properties":{"name":"Mcdonalds - 520 Government Street, Dryden","city":"Dryden","post code":"P8N 2P7","country":"Canada","geo_score":0.586,"phone":"(807) 223-4884","id":"ahcfng9vwtax","address":"520 Government Street","province":"Ontario","geo_precision":"street"},"type":"Feature","geometry":{"type":"Point","coordinates":[-90.0062,29.958036]}},{"properties":{"name":"Mcdonalds - Highway 17 East, Wal-mart - Hwy 17 East, Dryden","city":"Dryden","post code":"P8N 2Y6","country":"Canada","geo_score":0.27,"phone":"(807) 223-5907","id":"ahcfnfyo3cp4","address":"Highway 17 East, Wal-mart - Hwy 17 East","province":"Ontario","geo_precision":"street"},"type":"Feature","geometry":{"type":"Point","coordinates":[-92.273407,34.732414]}},{"properties":{"name":"Mcdonalds - 45 Industrial Drive, Elmira","city":"Elmira","post code":"N3B 3B1","country":"Canada","geo_score":0.571,"phone":"(519) 669-8980","id":"ahcfnfzifr1k","address":"45 Industrial Drive","province":"Ontario","geo_precision":"street"},"type":"Feature","geometry":{"type":"Point","coordinates":[-85.418923,41.657151]}},{"properties":{"name":"Mcdonalds - 1001 Islington Avenue South, Etobicoke","city":"Etobicoke","post code":"M8Z 5X5","country":"Canada","geo_score":0.0,"phone":"(416) 255-4152","id":"ahcfng38f7x2","address":"1001 Islington Avenue South","province":"Ontario","geo_precision":"unmatched"},"type":"Feature","geometry":null},{"properties":{"name":"Mcdonalds - 165 North Queen St., Etobicoke","city":"Etobicoke","post code":"M9T 1A2","country":"Canada","geo_score":0.0,"phone":"(416) 620-0081","id":"ahcfng8lyok2","address":"165 North Queen St.","province":"Ontario","geo_precision":"unmatched"},"type":"Feature","geometry":null},{"properties":{"name":"Mcdonalds - 1735 Kipling Avenue, Westway Plaza, Etobicoke","city":"Etobicoke","post code":"M9R 2Y8","country":"Canada","geo_score":0.0,"phone":"(416) 244-8571","id":"ahcfng6e9rrj","address":"1735 Kipling Avenue, Westway Plaza","province":"Ontario","geo_precision":"unmatched"},"type":"Feature","geometry":null},{"properties":{"name":"Mcdonalds - 195 North Queen Street, Etobicoke","city":"Etobicoke","post code":"M9C 4Y1","country":"Canada","geo_score":0.0,"phone":"(416) 621-2952","id":"ahcfng7qxcsy","address":"195 North Queen Street","province":"Ontario","geo_precision":"unmatched"},"type":"Feature","geometry":null},{"properties":{"name":"Mcdonalds - 25 Carrier Drive, Etobicoke","city":"Etobicoke","post code":"M9W 6S1","country":"Canada","geo_score":0.0,"phone":"(416) 674-1207","id":"ahcfng1hhcjc","address":"25 Carrier Drive","province":"Ontario","geo_precision":"unmatched"},"type":"Feature","geometry":null},{"properties":{"name":"Mcdonalds - 25 The West Mall, Etobicoke","city":"Etobicoke","post code":"M9C 1B8","country":"Canada","geo_score":0.0,"phone":"(416) 622-6796","id":"ahcfng390zpe","address":"25 The West Mall","province":"Ontario","geo_precision":"unmatched"},"type":"Feature","geometry":null},{"properties":{"name":"Mcdonalds - 2736 Lakeshore Blvd W, Etobicoke","city":"Etobicoke","post code":"M8V 1G5","country":"Canada","geo_score":0.0,"phone":"(416) 259-3201","id":"ahcfng2laskr","address":"2736 Lakeshore Blvd W","province":"Ontario","geo_precision":"unmatched"},"type":"Feature","geometry":null},{"properties":{"name":"Mcdonalds - 4333 Bloor St. W (mill Road), Etobicoke","city":"Etobicoke","post code":"M9C 2A5","country":"Canada","geo_score":0.0,"phone":"(416) 622-2046","id":"ahcfng472cg2","address":"4333 Bloor St. W (mill Road)","province":"Ontario","geo_precision":"unmatched"},"type":"Feature","geometry":null},{"properties":{"name":"Mcdonalds - 1250 Kings Highway, Fort Frances","city":"Fort Frances","post code":"P9A 2X6","country":"Canada","geo_score":0.464,"phone":"(807) 274-9931","id":"ahcfng0thyfg","address":"1250 Kings Highway","province":"Ontario","geo_precision":"street"},"type":"Feature","geometry":{"type":"Point","coordinates":[-80.173282,39.444827]}},{"properties":{"name":"Mcdonalds - 831 Kings Highway, Fort Frances","city":"Fort Frances","post code":"P9A 2X5","country":"Canada","geo_score":0.464,"phone":"(807) 274-8535","id":"ahcfng945ql0","address":"831 Kings Highway","province":"Ontario","geo_precision":"street"},"type":"Feature","geometry":{"type":"Point","coordinates":[-80.173282,39.444827]}},{"properties":{"name":"Mcdonalds - 354 Bayfield Road, Goderich","city":"Goderich","post code":"N7A 4E7","country":"Canada","geo_score":0.39,"phone":"(519) 524-4622","id":"ahcfng41qf49","address":"354 Bayfield Road","province":"Ontario","geo_precision":"city"},"type":"Feature","geometry":{"type":"Point","coordinates":[-67.846965,46.845322]}},{"properties":{"name":"Mcdonalds - Huron Road, Rr #2, Goderich","city":"Goderich","post code":"N7A 2X8","country":"Canada","geo_score":0.293,"phone":"(519) 524-6387","id":"ahcfnfx0obs7","address":"Huron Road, Rr #2","province":"Ontario","geo_precision":"street"},"type":"Feature","geometry":{"type":"Point","coordinates":[-83.506497,42.915606]}},{"properties":{"name":"Mcdonalds - 1268 King Street East, Hamilton","city":"Hamilton","post code":"L8N 1G8","country":"Canada","geo_score":0.545,"phone":"(905) 547-6636","id":"ahcfnga106sh","address":"1268 King Street East","province":"Ontario","geo_precision":"street"},"type":"Feature","geometry":{"type":"Point","coordinates":[-91.757477,34.782977]}},{"properties":{"name":"Mcdonalds - 2190 Rymal Road, Hamilton","city":"Hamilton","post code":"L0R 1P0","country":"Canada","geo_score":0.447,"phone":"(905) 692-8000","id":"ahcfng0etxli","address":"2190 Rymal Road","province":"Ontario","geo_precision":"street"},"type":"Feature","geometry":{"type":"Point","coordinates":[-114.181473,46.294573]}},{"properties":{"name":"Mcdonalds - 50 Dundurn Street South, Hamilton","city":"Hamilton","post code":"L8P 4W3","country":"Canada","geo_score":0.78,"phone":"(905) 577-1027","id":"ahcfng95aneg","address":"50 Dundurn Street South","province":"Ontario","geo_precision":"range"},"type":"Feature","geometry":{"type":"Point","coordinates":[-92.4089,35.087792]}},{"properties":{"name":"Mcdonalds - 665 Upper James Street, Wal-mart - Hamilton Mountain, Hamilton","city":"Hamilton","post code":"L9C 2Z5","country":"Canada","geo_score":0.412,"phone":"(905) 388-5095","id":"ahcfnfyik4cv","address":"665 Upper James Street, Wal-mart - Hamilton Mountain","province":"Ontario","geo_precision":"street"},"type":"Feature","geometry":{"type":"Point","coordinates":[-84.535756,39.381163]}},{"properties":{"name":"Mcdonalds - 674 Queenston Road, Hamilton","city":"Hamilton","post code":"L8G 1A3","country":"Canada","geo_score":0.385,"phone":"(905) 561-8960","id":"ahcfnfxyhcud","address":"674 Queenston Road","province":"Ontario","geo_precision":"street"},"type":"Feature","geometry":{"type":"Point","coordinates":[-84.620747,39.434155]}},{"properties":{"name":"Mcdonalds - 787 Barton Street, Hamilton","city":"Hamilton","post code":"L8L 3B2","country":"Canada","geo_score":0.507,"phone":"(905) 547-3544","id":"ahcfng4hz51v","address":"787 Barton Street","province":"Ontario","geo_precision":"street"},"type":"Feature","geometry":{"type":"Point","coordinates":[-76.337822,40.001764]}},{"properties":{"name":"Mcdonalds - 852 Upper Gage, Hamilton","city":"Hamilton","post code":"L8V 4K7","country":"Canada","geo_score":0.371,"phone":"(905) 388-5734","id":"ahcfnfwwq0ca","address":"852 Upper Gage","province":"Ontario","geo_precision":"street"},"type":"Feature","geometry":{"type":"Point","coordinates":[-84.62827,38.931557]}},{"properties":{"name":"Mcdonalds - 970 Upper Wentworth St., Hamilton","city":"Hamilton","post code":"L9A 4V8","country":"Canada","geo_score":0.309,"phone":"(905) 574-1333","id":"ahcfng31z0os","address":"970 Upper Wentworth St.","province":"Ontario","geo_precision":"street"},"type":"Feature","geometry":{"type":"Point","coordinates":[-84.62827,38.931557]}},{"properties":{"name":"Mcdonalds - Jackson Square, 120 King Street West, Hamilton","city":"Hamilton","post code":"L8P 4V2","country":"Canada","geo_score":0.74,"phone":"(905) 526-0984","id":"ahcfnfzj50hu","address":"Jackson Square, 120 King Street West","province":"Ontario","geo_precision":"range"},"type":"Feature","geometry":{"type":"Point","coordinates":[-91.757477,34.782977]}},{"properties":{"name":"Mcdonalds - Mcdonalds-hamilton, 20 Rymal Road East, Hamilton","city":"Hamilton","post code":"L9B 1T7","country":"Canada","geo_score":0.406,"phone":"(905) 387-9282","id":"ahcfng4hricb","address":"Mcdonalds-hamilton, 20 Rymal Road East","province":"Ontario","geo_precision":"street"},"type":"Feature","geometry":{"type":"Point","coordinates":[-114.14908,46.24717]}},{"properties":{"name":"Mcdonalds - 120 Thames Street North, Ingersoll","city":"Ingersoll","post code":"N5C 4B1","country":"Canada","geo_score":0.39,"phone":"(519) 485-0850","id":"ahcfngbj110w","address":"120 Thames Street North","province":"Ontario","geo_precision":"city"},"type":"Feature","geometry":{"type":"Point","coordinates":[-98.394797,36.796419]}},{"properties":{"name":"Mcdonalds - 24018 Woodbine Avenue, R.r.1, Yorkwood Village, Keswick","city":"Keswick","post code":"L4P 3E9","country":"Canada","geo_score":0.0,"phone":"(905) 989-2211","id":"ahcfnfwfix65","address":"24018 Woodbine Avenue, R.r.1, Yorkwood Village","province":"Ontario","geo_precision":"unmatched"},"type":"Feature","geometry":null},{"properties":{"name":"Mcdonalds - 155 Government Rd. West, Kirkland Lake","city":"Kirkland Land","post code":"P2N 2E8","country":"Canada","geo_score":0.429,"phone":"(705) 568-8595","id":"ahcfnfzwoaeu","address":"155 Government Rd. West","province":"Ontario","geo_precision":"street"},"type":"Feature","geometry":{"type":"Point","coordinates":[-119.903765,46.737798]}},{"properties":{"name":"Mcdonalds - 970 Wallace Ave North, Listowel","city":"Listowel","post code":"N4W 1M5","country":"Canada","geo_score":0.0,"phone":"(519) 291-3653","id":"ahcfng45dmco","address":"970 Wallace Ave North","province":"Ontario","geo_precision":"unmatched"},"type":"Feature","geometry":null},{"properties":{"name":"Mcdonalds - 3760 Hwy. #7, Markham","city":"Markham","post code":"L3R 0N2","country":"Canada","geo_score":0.319,"phone":"(905) 513-8978","id":"ahcfng7uq4pw","address":"3760 Hwy. #7","province":"Ontario","geo_precision":"street"},"type":"Feature","geometry":{"type":"Point","coordinates":[-123.816461,46.976268]}},{"properties":{"name":"Mcdonalds - 4390 Steeles Avenue East, Markham","city":"Markham","post code":"L3R 9V7","country":"Canada","geo_score":0.55,"phone":"(905) 415-7772","id":"ahcfnfwrpqzo","address":"4390 Steeles Avenue East","province":"Ontario","geo_precision":"street"},"type":"Feature","geometry":{"type":"Point","coordinates":[-78.305565,38.881229]}},{"properties":{"name":"Mcdonalds - 5000 Highway #7, Wal-mart - Markville S.c., Markham","city":"Markham","post code":"L3R 4W9","country":"Canada","geo_score":0.286,"phone":"(905) 415-1424","id":"ahcfng9sq2nf","address":"5000 Highway #7, Wal-mart - Markville S.c.","province":"Ontario","geo_precision":"street"},"type":"Feature","geometry":{"type":"Point","coordinates":[-123.815287,46.97687]}},{"properties":{"name":"Mcdonalds - 5225 Hwy. #7, Markham","city":"Markham","post code":"L3R 1N3","country":"Canada","geo_score":0.319,"phone":"(905) 477-2891","id":"ahcfng2ozm6y","address":"5225 Hwy. #7","province":"Ontario","geo_precision":"street"},"type":"Feature","geometry":{"type":"Point","coordinates":[-123.816461,46.976268]}},{"properties":{"name":"Mcdonalds - 7600 Kennedy Rd., Markham","city":"Markham","post code":"L3R 9S5","country":"Canada","geo_score":0.707,"phone":"(905) 940-9970","id":"ahcfng53vnhi","address":"7600 Kennedy Rd.","province":"Ontario","geo_precision":"street"},"type":"Feature","geometry":{"type":"Point","coordinates":[-92.623789,48.013124]}},{"properties":{"name":"Mcdonalds - 7630 Markham Road, Markham","city":"Markham","post code":"L3S 3K1","country":"Canada","geo_score":0.61,"phone":"(905) 472-3900","id":"ahcfng8gknsi","address":"7630 Markham Road","province":"Ontario","geo_precision":"street"},"type":"Feature","geometry":{"type":"Point","coordinates":[-92.244833,47.309825]}},{"properties":{"name":"Mcdonalds - 9291 Highway 48, Markham","city":"Markham","post code":"L6E 1A3","country":"Canada","geo_score":0.61,"phone":"(905) 472-2655","id":"ahcfng3yq155","address":"9291 Highway 48","province":"Ontario","geo_precision":"street"},"type":"Feature","geometry":{"type":"Point","coordinates":[-92.64161,46.418206]}},{"properties":{"name":"Mcdonalds - 100 City Centre Drive, Wal-mart - Square One Sc, Mississauga","city":"Mississauga","post code":"L5B 2C9","country":"Canada","geo_score":0.0,"phone":"(905) 276-3898","id":"ahcfng5tbfpk","address":"100 City Centre Drive, Wal-mart - Square One Sc","province":"Ontario","geo_precision":"unmatched"},"type":"Feature","geometry":null},{"properties":{"name":"Mcdonalds - 1050 Dundas Street East, Mississauga","city":"Mississauga","post code":"L4Y 2C1","country":"Canada","geo_score":0.0,"phone":"(905) 270-0974","id":"ahcfng2gvmpu","address":"1050 Dundas Street East","province":"Ontario","geo_precision":"unmatched"},"type":"Feature","geometry":null},{"properties":{"name":"Mcdonalds - 1256 Eglinton Avenue West, Mississauga","city":"Mississauga","post code":"L5M 2B5","country":"Canada","geo_score":0.0,"phone":"(905) 819-0550","id":"ahcfng7s8jjl","address":"1256 Eglinton Avenue West","province":"Ontario","geo_precision":"unmatched"},"type":"Feature","geometry":null},{"properties":{"name":"Mcdonalds - 2150 Burnhamthorpe, Mississauga","city":"Mississauga","post code":"L5L 3A2","country":"Canada","geo_score":0.0,"phone":"(905) 820-5785","id":"ahcfng6s1kf5","address":"2150 Burnhamthorpe","province":"Ontario","geo_precision":"unmatched"},"type":"Feature","geometry":null},{"properties":{"name":"Mcdonalds - 2255 Erin Mills Parkway, Mississauga","city":"Mississauga","post code":"L5K 1T9","country":"Canada","geo_score":0.0,"phone":"(905) 403-8112","id":"ahcfng03cvox","address":"2255 Erin Mills Parkway","province":"Ontario","geo_precision":"unmatched"},"type":"Feature","geometry":null},{"properties":{"name":"Mcdonalds - 2500 Hurontario St, Mississauga","city":"Mississauga","post code":"L5B 1N4","country":"Canada","geo_score":0.0,"phone":"(905) 276-4019","id":"ahcfngbpo2p0","address":"2500 Hurontario St","province":"Ontario","geo_precision":"unmatched"},"type":"Feature","geometry":null},{"properties":{"name":"Mcdonalds - 2800 Skymark Avenue, Mississauga","city":"Mississauga","post code":"L4W 5A6","country":"Canada","geo_score":0.0,"phone":"(905) 629-9994","id":"ahcfng8semz9","address":"2800 Skymark Avenue","province":"Ontario","geo_precision":"unmatched"},"type":"Feature","geometry":null},{"properties":{"name":"Mcdonalds - 2965 Eglinton Ave.w, Mississauga","city":"Mississauga","post code":"L5M 6J3","country":"Canada","geo_score":0.0,"phone":"(905) 820-7438","id":"ahcfng0n1fyx","address":"2965 Eglinton Ave.w","province":"Ontario","geo_precision":"unmatched"},"type":"Feature","geometry":null},{"properties":{"name":"Mcdonalds - 30 Courtney Park &amp; Hwy #10, Mississauga","city":"Mississauga","post code":"L5T 2T6","country":"Canada","geo_score":0.0,"phone":"(905) 564-1119","id":"ahcfnfyoqsvm","address":"30 Courtney Park &amp; Hwy #10","province":"Ontario","geo_precision":"unmatched"},"type":"Feature","geometry":null},{"properties":{"name":"Mcdonalds - 3025 Clayhill Rd., Mississauga","city":"Mississauga","post code":"L5B 4J3","country":"Canada","geo_score":0.0,"phone":"(905) 279-9190","id":"ahcfngbwkzq0","address":"3025 Clayhill Rd.","province":"Ontario","geo_precision":"unmatched"},"type":"Feature","geometry":null},{"properties":{"name":"Mcdonalds - 3155 Argentia Road, Mississauga","city":"Mississauga","post code":"L5N 8E1","country":"Canada","geo_score":0.0,"phone":"(905) 824-3728","id":"ahcfng9ygkos","address":"3155 Argentia Road","province":"Ontario","geo_precision":"unmatched"},"type":"Feature","geometry":null},{"properties":{"name":"Mcdonalds - 377 Burnhamthorpe Road East, Mississauga","city":"Mississauga","post code":"L5A 3Y1","country":"Canada","geo_score":0.0,"phone":"(905) 270-3529","id":"ahcfng4vs30l","address":"377 Burnhamthorpe Road East","province":"Ontario","geo_precision":"unmatched"},"type":"Feature","geometry":null},{"properties":{"name":"Mcdonalds - 44 Bristol Road East, Mississauga","city":"Mississauga","post code":"L4Z 3K8","country":"Canada","geo_score":0.0,"phone":"(905) 568-8628","id":"ahcfng2yluvj","address":"44 Bristol Road East","province":"Ontario","geo_precision":"unmatched"},"type":"Feature","geometry":null},{"properties":{"name":"Mcdonalds - 5310 Dixie Road, Mississauga","city":"Mississauga","post code":"L4W 1E3","country":"Canada","geo_score":0.0,"phone":"(905) 629-1775","id":"ahcfnfxzoa64","address":"5310 Dixie Road","province":"Ontario","geo_precision":"unmatched"},"type":"Feature","geometry":null},{"properties":{"name":"Mcdonalds - 5636 Glen Erin Drive, Mississauga","city":"Mississauga","post code":"L5M 6B1","country":"Canada","geo_score":0.0,"phone":"(905) 812-7187","id":"ahcfnfzur978","address":"5636 Glen Erin Drive","province":"Ontario","geo_precision":"unmatched"},"type":"Feature","geometry":null},{"properties":{"name":"Mcdonalds - 5995 Mavis Road, Mississauga","city":"Mississauga","post code":"L5R 3T7","country":"Canada","geo_score":0.0,"phone":"(905) 712-4335","id":"ahcfng5hc5r3","address":"5995 Mavis Road","province":"Ontario","geo_precision":"unmatched"},"type":"Feature","geometry":null},{"properties":{"name":"Mcdonalds - 6410 Millcreek Drive, Mississauga","city":"Mississauga","post code":"L5N 3E7","country":"Canada","geo_score":0.0,"phone":"(905) 826-0065","id":"ahcfng4evy70","address":"6410 Millcreek Drive","province":"Ontario","geo_precision":"unmatched"},"type":"Feature","geometry":null},{"properties":{"name":"Mcdonalds - 6650 Meadowvale Town Centre Circle, Mississauga","city":"Mississauga","post code":"L5N 4B7","country":"Canada","geo_score":0.0,"phone":"(905) 814-8983","id":"ahcfnfxkx9oe","address":"6650 Meadowvale Town Centre Circle","province":"Ontario","geo_precision":"unmatched"},"type":"Feature","geometry":null},{"properties":{"name":"Mcdonalds - 670 Eglinton Ave.west, Mississauga","city":"Mississauga","post code":"L5R 3V2","country":"Canada","geo_score":0.0,"phone":"(905) 502-5939","id":"ahcfnfyk9pd8","address":"670 Eglinton Ave.west","province":"Ontario","geo_precision":"unmatched"},"type":"Feature","geometry":null},{"properties":{"name":"Mcdonalds - 7050 Mclaughlin Road, Mississauga","city":"Mississauga","post code":"L5W 1W7","country":"Canada","geo_score":0.0,"phone":"(905) 564-9836","id":"ahcfng38wzz8","address":"7050 Mclaughlin Road","province":"Ontario","geo_precision":"unmatched"},"type":"Feature","geometry":null},{"properties":{"name":"Mcdonalds - 796 Burnhamthorpe Rd West, Mississauga","city":"Mississauga","post code":"L5C 2R9","country":"Canada","geo_score":0.0,"phone":"(905) 275-3011","id":"ahcfng5iqqu8","address":"796 Burnhamthorpe Rd West","province":"Ontario","geo_precision":"unmatched"},"type":"Feature","geometry":null},{"properties":{"name":"Mcdonalds - 800 Matheson Blvd. West, Mississauga","city":"Mississauga","post code":"L5V 2N6","country":"Canada","geo_score":0.0,"phone":"(905) 817-9828","id":"ahcfng49bq61","address":"800 Matheson Blvd. West","province":"Ontario","geo_precision":"unmatched"},"type":"Feature","geometry":null},{"properties":{"name":"Mcdonalds - 930 Derry Road East, Mississauga","city":"Mississauga","post code":"L5P 2X6","country":"Canada","geo_score":0.0,"phone":"(905) 565-7151","id":"ahcfng5kcso3","address":"930 Derry Road East","province":"Ontario","geo_precision":"unmatched"},"type":"Feature","geometry":null},{"properties":{"name":"Mcdonalds - Cavenshore Shopping Centre, 601 Lakeshore Road East, Mississauga","city":"Mississauga","post code":"L5G 1H9","country":"Canada","geo_score":0.0,"phone":"(905) 891-2800","id":"ahcfngasr1ln","address":"Cavenshore Shopping Centre, 601 Lakeshore Road East","province":"Ontario","geo_precision":"unmatched"},"type":"Feature","geometry":null},{"properties":{"name":"Mcdonalds - 1000 Regional Road # 17, Newcastle","city":"Newcastle","post code":"L1B 1L9","country":"Canada","geo_score":0.417,"phone":"(905) 987-0505","id":"ahcfngadhl9u","address":"1000 Regional Road # 17","province":"Ontario","geo_precision":"street"},"type":"Feature","geometry":{"type":"Point","coordinates":[-90.184439,35.184369]}},{"properties":{"name":"Mcdonalds - 140 Lakeshore Dr., North Bay","city":"North Bay","post code":"P1A 2A8","country":"Canada","geo_score":0.61,"phone":"(705) 474-9770","id":"ahcfng4b4e3c","address":"140 Lakeshore Dr.","province":"Ontario","geo_precision":"street"},"type":"Feature","geometry":{"type":"Point","coordinates":[-87.806604,42.81613]}},{"properties":{"name":"Mcdonalds - 1500 Fisher Street, North Bay","city":"North Bay","post code":"P1B 2H3","country":"Canada","geo_score":0.708,"phone":"(705) 494-6003","id":"ahcfnfwca4ux","address":"1500 Fisher Street","province":"Ontario","geo_precision":"street"},"type":"Feature","geometry":{"type":"Point","coordinates":[-78.873587,35.039778]}},{"properties":{"name":"Mcdonalds - 999 Mckeown, North Bay","city":"North Bay","post code":"P1B 9P3","country":"Canada","geo_score":0.525,"phone":"(705) 494-8929","id":"ahcfng8l83sm","address":"999 Mckeown","province":"Ontario","geo_precision":"street"},"type":"Feature","geometry":{"type":"Point","coordinates":[-79.437748,35.231364]}},{"properties":{"name":"Mcdonalds - 23 Broadway, Orangeville","city":"Orangeville","post code":"L9W 1J6","country":"Canada","geo_score":0.552,"phone":"(519) 941-7850","id":"ahcfng7kzd5p","address":"23 Broadway","province":"Ontario","geo_precision":"street"},"type":"Feature","geometry":{"type":"Point","coordinates":[-76.594363,39.297298]}},{"properties":{"name":"Mcdonalds - 95 First Street, Orangeville","city":"Orangeville","post code":"L9W 2E8","country":"Canada","geo_score":0.707,"phone":"(519) 940-0197","id":"ahcfng9skuoy","address":"95 First Street","province":"Ontario","geo_precision":"range"},"type":"Feature","geometry":{"type":"Point","coordinates":[-85.548217,42.424933]}},{"properties":{"name":"Mcdonalds - 1007 St. Laurent Blvd., Ottawa","city":"Ottawa","post code":"K1K 3B1","country":"Canada","geo_score":0.429,"phone":"(613) 744-5884","id":"ahcfng1pgozl","address":"1007 St. Laurent Blvd.","province":"Ontario","geo_precision":"street"},"type":"Feature","geometry":{"type":"Point","coordinates":[-95.103862,39.768954]}},{"properties":{"name":"Mcdonalds - 1350 Richmond Rd, Lincoln Height Galleria","city":"Ottawa","post code":"K2B 7Z3","country":"Canada","geo_score":0.78,"phone":"(613) 721-9239","id":"ahcfng2yuciw","address":"1350 Richmond Rd","province":"Ontario","geo_precision":"range"},"type":"Feature","geometry":{"type":"Point","coordinates":[-84.27941,37.622842]}},{"properties":{"name":"Mcdonalds - 1661 Hunt Club Road, Ottawa","city":"Ottawa","post code":"K1T 3Z3","country":"Canada","geo_score":0.358,"phone":"(613) 249-9028","id":"ahcfng1zsugt","address":"1661 Hunt Club Road","province":"Ontario","geo_precision":"street"},"type":"Feature","geometry":{"type":"Point","coordinates":[-82.890913,36.124584]}},{"properties":{"name":"Mcdonalds - 1771 Walkley, Ottawa","city":"Ottawa","post code":"K1V 1L2","country":"Canada","geo_score":0.39,"phone":"(613) 733-8354","id":"ahcfng9uwrcc","address":"1771 Walkley","province":"Ontario","geo_precision":"city"},"type":"Feature","geometry":{"type":"Point","coordinates":[-95.282668,38.564337]}},{"properties":{"name":"Mcdonalds - 1795 St. Laurent Blvd, Ottawa","city":"Ottawa","post code":"K1G 3V4","country":"Canada","geo_score":0.429,"phone":"(613) 248-8900","id":"ahcfng6iyxuc","address":"1795 St. Laurent Blvd","province":"Ontario","geo_precision":"street"},"type":"Feature","geometry":{"type":"Point","coordinates":[-95.103862,39.768954]}},{"properties":{"name":"Mcdonalds - 1880 Carling Ave., Ottawa","city":"Ottawa","post code":"K2A 1E7","country":"Canada","geo_score":0.585,"phone":"(613) 728-9898","id":"ahcfnfy0chmi","address":"1880 Carling Ave.","province":"Ontario","geo_precision":"street"},"type":"Feature","geometry":{"type":"Point","coordinates":[-84.093383,41.035858]}},{"properties":{"name":"Mcdonalds - 2210 Bank Street, Wal-mart, Ottawa","city":"Ottawa","post code":"K1V 8X1","country":"Canada","geo_score":0.857,"phone":"(613) 526-0638","id":"ahcfngatqrjp","address":"2210 Bank Street, Wal-mart","province":"Ontario","geo_precision":"street"},"type":"Feature","geometry":{"type":"Point","coordinates":[-81.841453,38.422289]}},{"properties":{"name":"Mcdonalds - 2269 Riverside Drive, Billings Bridge Plaza, Ottawa","city":"Ottawa","post code":"K1H 8K2","country":"Canada","geo_score":0.643,"phone":"(613) 739-8021","id":"ahcfng51cfte","address":"2269 Riverside Drive, Billings Bridge Plaza","province":"Ontario","geo_precision":"street"},"type":"Feature","geometry":{"type":"Point","coordinates":[-76.658202,34.745365]}},{"properties":{"name":"Mcdonalds - 2277 Riverside Drive, Ottawa","city":"Ottawa","post code":"K1H 7X6","country":"Canada","geo_score":0.561,"phone":"(613) 260-9799","id":"ahcfng2qhhcc","address":"2277 Riverside Drive","province":"Ontario","geo_precision":"street"},"type":"Feature","geometry":{"type":"Point","coordinates":[-76.658202,34.745365]}},{"properties":{"name":"Mcdonalds - 2380 Bank St, Ottawa","city":"Ottawa","post code":"K1V 8S1","country":"Canada","geo_score":0.902,"phone":"(613) 526-1265","id":"ahcfnfwb98iq","address":"2380 Bank St","province":"Ontario","geo_precision":"range"},"type":"Feature","geometry":{"type":"Point","coordinates":[-83.642224,41.009869]}},{"properties":{"name":"Mcdonalds - 252 Elgin Street, Ottawa","city":"Ottawa","post code":"K2P 1L9","country":"Canada","geo_score":0.902,"phone":"(613) 236-6769","id":"ahcfng2gu0ts","address":"252 Elgin Street","province":"Ontario","geo_precision":"range"},"type":"Feature","geometry":{"type":"Point","coordinates":[-82.80633,36.162633]}},{"properties":{"name":"Mcdonalds - 2625 Carling Avenue, Ottawa","city":"Ottawa","post code":"K2B 6V3","country":"Canada","geo_score":0.585,"phone":"(613) 820-7575","id":"ahcfng6aftxp","address":"2625 Carling Avenue","province":"Ontario","geo_precision":"street"},"type":"Feature","geometry":{"type":"Point","coordinates":[-84.093383,41.035858]}},{"properties":{"name":"Mcdonalds - 450 Terminal Avenue, Ottawa","city":"Ottawa","post code":"K1G 0Z3","country":"Canada","geo_score":0.638,"phone":"(613) 789-7911","id":"ahcfnfzq72eb","address":"450 Terminal Avenue","province":"Ontario","geo_precision":"street"},"type":"Feature","geometry":{"type":"Point","coordinates":[-77.600726,35.268659]}},{"properties":{"name":"Mcdonalds - 594 Montreal Rd., Ottawa","city":"Ottawa","post code":"K1K 0T9","country":"Canada","geo_score":0.59,"phone":"(613) 741-0093","id":"ahcfngc1no4w","address":"594 Montreal Rd.","province":"Ontario","geo_precision":"street"},"type":"Feature","geometry":{"type":"Point","coordinates":[-84.008838,35.823813]}},{"properties":{"name":"Mcdonalds - 60 George Street, Ottawa","city":"Ottawa","post code":"K1N 1J4","country":"Canada","geo_score":0.566,"phone":"(613) 241-4414","id":"ahcfng3oexgz","address":"60 George Street","province":"Ontario","geo_precision":"street"},"type":"Feature","geometry":{"type":"Point","coordinates":[-76.648812,34.72285]}},{"properties":{"name":"Mcdonalds - 670 Bronson Avenue, Ottawa","city":"Ottawa","post code":"K1S 4E9","country":"Canada","geo_score":0.681,"phone":"(613) 234-1985","id":"ahcfng0u5o4s","address":"670 Bronson Avenue","province":"Ontario","geo_precision":"street"},"type":"Feature","geometry":{"type":"Point","coordinates":[-84.095858,40.718078]}},{"properties":{"name":"Mcdonalds - 77 Bank Street, Ottawa","city":"Ottawa","post code":"K1P 5N2","country":"Canada","geo_score":0.902,"phone":"(613) 237-5854","id":"ahcfng8q27lk","address":"77 Bank Street","province":"Ontario","geo_precision":"range"},"type":"Feature","geometry":{"type":"Point","coordinates":[-81.841363,38.422531]}},{"properties":{"name":"Mcdonalds - 888 Meadowlands Drive, Ottawa","city":"Ottawa","post code":"K2C 4R2","country":"Canada","geo_score":0.474,"phone":"(613) 226-2261","id":"ahcfnfxq3qcw","address":"888 Meadowlands Drive","province":"Ontario","geo_precision":"street"},"type":"Feature","geometry":{"type":"Point","coordinates":[-82.899118,36.170857]}},{"properties":{"name":"Mcdonalds - 1108 Pembroke Street East, Pembroke","city":"Pembroke","post code":"K8V 7R5","country":"Canada","geo_score":0.565,"phone":"(613) 732-0059","id":"ahcfng4vxxq8","address":"1108 Pembroke Street East","province":"Ontario","geo_precision":"street"},"type":"Feature","geometry":{"type":"Point","coordinates":[-71.484102,43.174476]}},{"properties":{"name":"Mcdonalds - 805 Pembroke Street East, Pembroke","city":"Pembroke","post code":"K8A 3M3","country":"Canada","geo_score":0.566,"phone":"(613) 735-5635","id":"ahcfng3ncql6","address":"805 Pembroke Street East","province":"Ontario","geo_precision":"street"},"type":"Feature","geometry":{"type":"Point","coordinates":[-71.486344,43.176919]}},{"properties":{"name":"Mcdonalds - 137 Young Street West, Alliston","city":"Alliston","post code":"L9R 1V1","country":"Canada","geo_score":0.337,"phone":"(705) 434-0003","id":"ahcfnfx46zbx","address":"137 Young Street West","province":"Ontario","geo_precision":"street"},"type":"Feature","geometry":{"type":"Point","coordinates":[-85.030552,37.63111]}},{"properties":{"name":"Mcdonalds - 16 Baskin Drive W., Arnprior","city":"Arnprior","post code":"K7S 3G8","country":"Canada","geo_score":0.0,"phone":"(613) 623-7975","id":"ahcfngc8ibm3","address":"16 Baskin Drive W.","province":"Ontario","geo_precision":"unmatched"},"type":"Feature","geometry":null},{"properties":{"name":"Mcdonalds - 4748 Ontario Street, Beamsville","city":"Beamsville","post code":"L0R 1B3","country":"Canada","geo_score":0.628,"phone":"(905) 563-3331","id":"ahcfngaelz8r","address":"4748 Ontario Street","province":"Ontario","geo_precision":"street"},"type":"Feature","geometry":{"type":"Point","coordinates":[-83.769584,39.645109]}},{"properties":{"name":"Mcdonalds - 2387 Highway #2, Bowmanville","city":"Bowmanville","post code":"L1C 4Z3","country":"Canada","geo_score":0.0,"phone":"(905) 623-4200","id":"ahcfng3cbu84","address":"2387 Highway #2","province":"Ontario","geo_precision":"unmatched"},"type":"Feature","geometry":null},{"properties":{"name":"Mcdonalds - 27 Stanley Street, Brantford","city":"Brantford","post code":"N3S 6M1","country":"Canada","geo_score":0.844,"phone":"(519) 756-4011","id":"ahcfng46t9re","address":"27 Stanley Street","province":"Ontario","geo_precision":"range"},"type":"Feature","geometry":{"type":"Point","coordinates":[-77.885157,39.386573]}},{"properties":{"name":"Mcdonalds - 299 Wayne Gretzky Parkway, Brantford","city":"Brantford","post code":"N3R 8A5","country":"Canada","geo_score":0.529,"phone":"(519) 758-1010","id":"ahcfnfzkia3d","address":"299 Wayne Gretzky Parkway","province":"Ontario","geo_precision":"street"},"type":"Feature","geometry":{"type":"Point","coordinates":[-77.936261,39.471519]}},{"properties":{"name":"Mcdonalds - 300 King George Rd, Brantford","city":"Brantford","post code":"N3R 5L7","country":"Canada","geo_score":0.413,"phone":"(519) 756-2046","id":"ahcfng79c67z","address":"300 King George Rd","province":"Ontario","geo_precision":"street"},"type":"Feature","geometry":{"type":"Point","coordinates":[-78.230054,39.614962]}},{"properties":{"name":"Mcdonalds - 73 King George Rd., Brantford","city":"Brantford","post code":"N3R 5K2","country":"Canada","geo_score":0.606,"phone":"(519) 756-7350","id":"ahcfng5mpjrv","address":"73 King George Rd.","province":"Ontario","geo_precision":"range"},"type":"Feature","geometry":{"type":"Point","coordinates":[-78.235298,39.616647]}},{"properties":{"name":"Mcdonalds - 100 Jamieson Parkway, Cambridge","city":"Cambridge","post code":"N3C 4B3","country":"Canada","geo_score":0.452,"phone":"(519) 220-1617","id":"ahcfng2vn5ja","address":"100 Jamieson Parkway","province":"Ontario","geo_precision":"street"},"type":"Feature","geometry":{"type":"Point","coordinates":[-76.091788,38.567668]}},{"properties":{"name":"Mcdonalds - 22 Pinebush Road, Cambridge","city":"Cambridge","post code":"N1R 8K5","country":"Canada","geo_score":0.598,"phone":"(519) 624-6699","id":"ahcfnfzxpqjd","address":"22 Pinebush Road","province":"Ontario","geo_precision":"street"},"type":"Feature","geometry":{"type":"Point","coordinates":[-75.518716,39.63922]}},{"properties":{"name":"Mcdonalds - 400 Main Street East, Cambridge","city":"Cambridge","post code":"N1R 5S7","country":"Canada","geo_score":0.58,"phone":"(519) 740-2001","id":"ahcfng0eug6x","address":"400 Main Street East","province":"Ontario","geo_precision":"street"},"type":"Feature","geometry":{"type":"Point","coordinates":[-93.215809,45.585273]}},{"properties":{"name":"Mcdonalds - 416 Hespeler Rd., Cambridge","city":"Cambridge","post code":"N1R 6J6","country":"Canada","geo_score":0.39,"phone":"(519) 621-5000","id":"ahcfnfyzw44j","address":"416 Hespeler Rd.","province":"Ontario","geo_precision":"city"},"type":"Feature","geometry":{"type":"Point","coordinates":[-92.948802,39.257805]}},{"properties":{"name":"Mcdonalds - Hespeler Station, P O Box 2129, Cambridge","city":"Cambridge","post code":"N3C 2V6","country":"Canada","geo_score":0.607,"phone":"(519) 654-2225","id":"ahcfng5pcohn","address":"Hespeler Station, P O Box 2129","province":"Ontario","geo_precision":"street"},"type":"Feature","geometry":{"type":"Point","coordinates":[-94.378121,42.151675]}},{"properties":{"name":"Mcdonalds - Hespeler Station, P O Box 25030, Cambridge","city":"Cambridge","post code":"N3C 2V6","country":"Canada","geo_score":0.593,"phone":"(519) 654-2266","id":"ahcfnfznwk88","address":"Hespeler Station, P O Box 25030","province":"Ontario","geo_precision":"street"},"type":"Feature","geometry":{"type":"Point","coordinates":[-94.185223,41.493542]}},{"properties":{"name":"Mcdonalds - 1829 Lakeshore Blvd West, Clarkson","city":"Clarkson","post code":"L5J 1J6","country":"Canada","geo_score":0.508,"phone":"(905) 823-6480","id":"ahcfng2xg5bs","address":"1829 Lakeshore Blvd West","province":"Ontario","geo_precision":"street"},"type":"Feature","geometry":{"type":"Point","coordinates":[-83.377332,42.802828]}},{"properties":{"name":"Mcdonalds - 3464 Hwy 89, Cookstown","city":"Cookstown","post code":"L0L1L0","country":"Canada","geo_score":0.39,"phone":"(705) 458-9543","id":"ahcfng3411sq","address":"3464 Hwy 89","province":"Ontario","geo_precision":"city"},"type":"Feature","geometry":{"type":"Point","coordinates":[-74.557215,40.049551]}},{"properties":{"name":"Mcdonalds - 10 Cootes Drive, Dundas","city":"Dundas","post code":"L9H 1A9","country":"Canada","geo_score":0.447,"phone":"(905) 627-0411","id":"ahcfng71b7la","address":"10 Cootes Drive","province":"Ontario","geo_precision":"street"},"type":"Feature","geometry":{"type":"Point","coordinates":[-93.231355,44.440709]}},{"properties":{"name":"Mcdonalds - 24 Yonge Street North, Hwy 27 &amp; John, Elmvale","city":"Elmvale","post code":"L0L 1P0","country":"Canada","geo_score":0.495,"phone":"(705) 322-4444","id":"ahcfng8xlsch","address":"24 Yonge Street North, Hwy 27 &amp; John","province":"Ontario","geo_precision":"street"},"type":"Feature","geometry":{"type":"Point","coordinates":[-83.613419,39.208439]}},{"properties":{"name":"Mcdonalds - 870 Tower Street South, Fergus","city":"Fergus","post code":"N1M 2P6","country":"Canada","geo_score":0.43,"phone":"(519) 787-5125","id":"ahcfng5w2616","address":"870 Tower Street South","province":"Ontario","geo_precision":"street"},"type":"Feature","geometry":{"type":"Point","coordinates":[-84.561562,33.970405]}},{"properties":{"name":"Mcdonalds - 670 King Street East, Gananoque","city":"Gananoque","post code":"K7G 1H3","country":"Canada","geo_score":0.39,"phone":"(613) 382-4466","id":"ahcfng7jx216","address":"670 King Street East","province":"Ontario","geo_precision":"city"},"type":"Feature","geometry":{"type":"Point","coordinates":[-100.032068,44.396372]}},{"properties":{"name":"Mcdonalds - 1105 Bethune Drive, Gravenhurst","city":"Gravenhurst","post code":"P0C 1G0","country":"Canada","geo_score":0.0,"phone":"(705) 687-7753","id":"ahcfnfzx0yhb","address":"1105 Bethune Drive","province":"Ontario","geo_precision":"unmatched"},"type":"Feature","geometry":null},{"properties":{"name":"Mcdonalds - 1100-10th Street, Hanover","city":"Hanover","post code":"N4N 3B8","country":"Canada","geo_score":0.675,"phone":"(519) 364-2999","id":"ahcfng0ho5gz","address":"1100-10th Street","province":"Ontario","geo_precision":"range"},"type":"Feature","geometry":{"type":"Point","coordinates":[-96.964854,30.854764]}},{"properties":{"name":"Mcdonalds - 800 Tenth St, Hanover","city":"Hanover","post code":"N4N 1S3","country":"Canada","geo_score":0.675,"phone":"(519) 364-5198","id":"ahcfng2f9b60","address":"800 Tenth St","province":"Ontario","geo_precision":"range"},"type":"Feature","geometry":{"type":"Point","coordinates":[-96.967639,30.855545]}},{"properties":{"name":"Mcdonalds - 500 Earl Grey Drive, Kanata","city":"Kanata","post code":"K2T 1B6","country":"Canada","geo_score":0.424,"phone":"(613) 599-4250","id":"ahcfnfxbb02q","address":"500 Earl Grey Drive","province":"Ontario","geo_precision":"street"},"type":"Feature","geometry":{"type":"Point","coordinates":[-87.315312,35.2429]}},{"properties":{"name":"Mcdonalds - 510 Hazeldean Road, Kanata","city":"Kanata","post code":"K2L 2B5","country":"Canada","geo_score":0.634,"phone":"(613) 831-1143","id":"ahcfnfwcna0j","address":"510 Hazeldean Road","province":"Ontario","geo_precision":"street"},"type":"Feature","geometry":{"type":"Point","coordinates":[-81.357528,41.267989]}},{"properties":{"name":"Mcdonalds - 800 Stonhaven Drive, Kanata","city":"Kanata","post code":"K2M 2H4","country":"Canada","geo_score":0.685,"phone":"(613) 254-9438","id":"ahcfng6g17bu","address":"800 Stonhaven Drive","province":"Ontario","geo_precision":"street"},"type":"Feature","geometry":{"type":"Point","coordinates":[-82.725144,34.540198]}},{"properties":{"name":"Mcdonalds - 792 Broadway Street, Kincardine","city":"Kincardine","post code":"N2Z 2G1","country":"Canada","geo_score":0.756,"phone":"(519) 396-4414","id":"ahcfng10o9ft","address":"792 Broadway Street","province":"Ontario","geo_precision":"range"},"type":"Feature","geometry":{"type":"Point","coordinates":[-97.659322,39.569536]}},{"properties":{"name":"Mcdonalds - 1020 Ottawa Street North, Kitchener","city":"Kitchener","post code":"N2A 3Z3","country":"Canada","geo_score":0.0,"phone":"(519) 896-2115","id":"ahcfnfx1tn2z","address":"1020 Ottawa Street North","province":"Ontario","geo_precision":"unmatched"},"type":"Feature","geometry":null},{"properties":{"name":"Mcdonalds - 1138 Victoria St, Kitchener","city":"Kitchener","post code":"N2B 3C9","country":"Canada","geo_score":0.0,"phone":"(519) 741-1884","id":"ahcfng71kj3e","address":"1138 Victoria St","province":"Ontario","geo_precision":"unmatched"},"type":"Feature","geometry":null},{"properties":{"name":"Mcdonalds - 2410 Homer Watson Boul,, Kitchener","city":"Kitchener","post code":"N2G 3W5","country":"Canada","geo_score":0.0,"phone":"(519) 893-3868","id":"ahcfng9bqopi","address":"2410 Homer Watson Boul,","province":"Ontario","geo_precision":"unmatched"},"type":"Feature","geometry":null},{"properties":{"name":"Mcdonalds - 25 Frederick Street, Suite #320, Kitchener","city":"Kitchener","post code":"N2H 6M8","country":"Canada","geo_score":0.0,"phone":"(519) 568-8088","id":"ahcfng1jy0ds","address":"25 Frederick Street, Suite #320","province":"Ontario","geo_precision":"unmatched"},"type":"Feature","geometry":null},{"properties":{"name":"Mcdonalds - 2960 Kingsway Drive, Wal-mart - Fairview Park, Kitchener","city":"Kitchener","post code":"N2C 1X1","country":"Canada","geo_score":0.0,"phone":"(519) 896-0040","id":"ahcfngbbobw4","address":"2960 Kingsway Drive, Wal-mart - Fairview Park","province":"Ontario","geo_precision":"unmatched"},"type":"Feature","geometry":null},{"properties":{"name":"Mcdonalds - 40 Sportsworld Drive, Kitchener","city":"Kitchener","post code":"N2P 2J1","country":"Canada","geo_score":0.0,"phone":"(519) 653-1901","id":"ahcfnfwjv2yr","address":"40 Sportsworld Drive","province":"Ontario","geo_precision":"unmatched"},"type":"Feature","geometry":null},{"properties":{"name":"Mcdonalds - 431 Highland Road, Kitchener","city":"Kitchener","post code":"N2M 3C6","country":"Canada","geo_score":0.0,"phone":"(519) 578-8630","id":"ahcfnfxntql7","address":"431 Highland Road","province":"Ontario","geo_precision":"unmatched"},"type":"Feature","geometry":null},{"properties":{"name":"Mcdonalds - 600 King Street West, Kitchener","city":"Kitchener","post code":"N2G 1C3","country":"Canada","geo_score":0.0,"phone":"(519) 578-5610","id":"ahcfngaoffdp","address":"600 King Street West","province":"Ontario","geo_precision":"unmatched"},"type":"Feature","geometry":null},{"properties":{"name":"Mcdonalds - 666 Fairway Rd, Kitchener","city":"Kitchener","post code":"N2C 1X3","country":"Canada","geo_score":0.0,"phone":"(519) 894-0720","id":"ahcfnfwhlco9","address":"666 Fairway Rd","province":"Ontario","geo_precision":"unmatched"},"type":"Feature","geometry":null},{"properties":{"name":"Mcdonalds - 715 Ottawa Street South, Kitchener","city":"Kitchener","post code":"N2E 3H5","country":"Canada","geo_score":0.0,"phone":"(519) 569-7224","id":"ahcfng1aeoyp","address":"715 Ottawa Street South","province":"Ontario","geo_precision":"unmatched"},"type":"Feature","geometry":null},{"properties":{"name":"Mcdonalds - Fischer Hallman &amp; Westmount, 1191 Fischer Hallman Road, Kitchener","city":"Kitchener","post code":"N2R 1P4","country":"Canada","geo_score":0.0,"phone":"(519) 576-3999","id":"ahcfng7613zh","address":"Fischer Hallman &amp; Westmount, 1191 Fischer Hallman Road","province":"Ontario","geo_precision":"unmatched"},"type":"Feature","geometry":null},{"properties":{"name":"Mcdonalds - Kitchener, 1400 Ottawa Street S., Unit E, Kitchener","city":"Kitchener","post code":"N2E 4E2","country":"Canada","geo_score":0.0,"phone":"(519) 571-0880","id":"ahcfnfzf9iqp","address":"Kitchener, 1400 Ottawa Street S., Unit E","province":"Ontario","geo_precision":"unmatched"},"type":"Feature","geometry":null},{"properties":{"name":"Mcdonalds - 103 Fanshawe Park Road East, London","city":"London","post code":"N5X 2S7","country":"Canada","geo_score":0.642,"phone":"(519) 660-6950","id":"ahcfnfws8b5d","address":"103 Fanshawe Park Road East","province":"Ontario","geo_precision":"range"},"type":"Feature","geometry":{"type":"Point","coordinates":[-82.673832,40.876025]}},{"properties":{"name":"Mcdonalds - 1033 Wonderland Rd S, London","city":"London","post code":"N6K 3V1","country":"Canada","geo_score":0.669,"phone":"(519) 668-0141","id":"ahcfng5cdfu3","address":"1033 Wonderland Rd S","province":"Ontario","geo_precision":"street"},"type":"Feature","geometry":{"type":"Point","coordinates":[-78.222599,38.859016]}},{"properties":{"name":"Mcdonalds - 1074 Wellington Road South, London","city":"London","post code":"N6E 1M2","country":"Canada","geo_score":0.499,"phone":"(519) 691-1042","id":"ahcfnfzcxn4i","address":"1074 Wellington Road South","province":"Ontario","geo_precision":"street"},"type":"Feature","geometry":{"type":"Point","coordinates":[-71.080655,42.417652]}},{"properties":{"name":"Mcdonalds - 1105 Wellington Road South, Wal-mart - White Oaks Mall, London","city":"London","post code":"N6E 1V4","country":"Canada","geo_score":0.399,"phone":"(519) 680-0503","id":"ahcfng3cd1of","address":"1105 Wellington Road South, Wal-mart - White Oaks Mall","province":"Ontario","geo_precision":"street"},"type":"Feature","geometry":{"type":"Point","coordinates":[-71.048783,42.431106]}},{"properties":{"name":"Mcdonalds - 1159 Highbury Ave.,, London","city":"London","post code":"N5Y 1A6","country":"Canada","geo_score":0.39,"phone":"(519) 451-6830","id":"ahcfngatxmqa","address":"1159 Highbury Ave.,","province":"Ontario","geo_precision":"city"},"type":"Feature","geometry":{"type":"Point","coordinates":[-86.050237,32.273198]}},{"properties":{"name":"Mcdonalds - 1175 Wonderland Road, London","city":"London","post code":"N2G 2B9","country":"Canada","geo_score":0.708,"phone":"(519) 471-4279","id":"ahcfng0rhk0i","address":"1175 Wonderland Road","province":"Ontario","geo_precision":"street"},"type":"Feature","geometry":{"type":"Point","coordinates":[-78.222599,38.859016]}},{"properties":{"name":"Mcdonalds - 1280 Fanshawe Park Rd W, London","city":"London","post code":"N6G 5B1","country":"Canada","geo_score":0.447,"phone":"(519) 473-4043","id":"ahcfngbs95u5","address":"1280 Fanshawe Park Rd W","province":"Ontario","geo_precision":"street"},"type":"Feature","geometry":{"type":"Point","coordinates":[-82.673907,40.876315]}},{"properties":{"name":"Mcdonalds - 151 Dundas Street, London","city":"London","post code":"N6A 5R7","country":"Canada","geo_score":0.655,"phone":"(519) 661-0645","id":"ahcfng9o3ajf","address":"151 Dundas Street","province":"Ontario","geo_precision":"street"},"type":"Feature","geometry":{"type":"Point","coordinates":[-93.72643,44.392611]}},{"properties":{"name":"Mcdonalds - 1950 Dundas Street, London","city":"London","post code":"N5V 1P5","country":"Canada","geo_score":0.654,"phone":"(519) 451-5590","id":"ahcfngbknm2x","address":"1950 Dundas Street","province":"Ontario","geo_precision":"street"},"type":"Feature","geometry":{"type":"Point","coordinates":[-93.727767,44.392604]}},{"properties":{"name":"Mcdonalds - 330 Clarke Road, London","city":"London","post code":"N5W 6G4","country":"Canada","geo_score":0.772,"phone":"(519) 457-2990","id":"ahcfnfzeesfv","address":"330 Clarke Road","province":"Ontario","geo_precision":"range"},"type":"Feature","geometry":{"type":"Point","coordinates":[-84.184871,37.028984]}},{"properties":{"name":"Mcdonalds - 385 Wellington Rd S, London","city":"London","post code":"N6C 4P9","country":"Canada","geo_score":0.5,"phone":"(519) 681-8944","id":"ahcfng5br1vu","address":"385 Wellington Rd S","province":"Ontario","geo_precision":"street"},"type":"Feature","geometry":{"type":"Point","coordinates":[-71.080655,42.417652]}},{"properties":{"name":"Mcdonalds - 4350 Wellington Road South, London","city":"London","post code":"N6E 2Z6","country":"Canada","geo_score":0.499,"phone":"(519) 686-8860","id":"ahcfngb0g7u9","address":"4350 Wellington Road South","province":"Ontario","geo_precision":"street"},"type":"Feature","geometry":{"type":"Point","coordinates":[-86.81331,36.139711]}},{"properties":{"name":"Mcdonalds - 462 Wharncliffe Road, London","city":"London","post code":"N6J 2M9","country":"Canada","geo_score":0.39,"phone":"(519) 673-0680","id":"ahcfnfysn570","address":"462 Wharncliffe Road","province":"Ontario","geo_precision":"city"},"type":"Feature","geometry":{"type":"Point","coordinates":[-86.050237,32.273198]}},{"properties":{"name":"Mcdonalds - 530 Oxford St W, London","city":"London","post code":"N6H 1T5","country":"Canada","geo_score":0.575,"phone":"(519) 471-5540","id":"ahcfng2lpl63","address":"530 Oxford St W","province":"Ontario","geo_precision":"street"},"type":"Feature","geometry":{"type":"Point","coordinates":[-82.303636,27.915779]}},{"properties":{"name":"Mcdonalds - 61 Oxford Street West, London","city":"London","post code":"N6H 5S8","country":"Canada","geo_score":0.574,"phone":"(519) 434-1971","id":"ahcfnga9yqnk","address":"61 Oxford Street West","province":"Ontario","geo_precision":"street"},"type":"Feature","geometry":{"type":"Point","coordinates":[-82.303636,27.915779]}},{"properties":{"name":"Mcdonalds - 959 Hamilton Road East, London","city":"London","post code":"N5W 1A2","country":"Canada","geo_score":0.414,"phone":"(519) 452-1640","id":"ahcfnfzq5z2u","address":"959 Hamilton Road East","province":"Ontario","geo_precision":"street"},"type":"Feature","geometry":{"type":"Point","coordinates":[-94.371214,33.000954]}},{"properties":{"name":"Mcdonalds - 334 Sykes St S, Meaford","city":"Meaford","post code":"N4L 1X1","country":"Canada","geo_score":0.0,"phone":"(519) 538-2905","id":"ahcfnfyir59r","address":"334 Sykes St S","province":"Ontario","geo_precision":"unmatched"},"type":"Feature","geometry":null},{"properties":{"name":"Mcdonalds - 475 Centre Street North, Napanee","city":"Napanee","post code":"K7R 3S4","country":"Canada","geo_score":0.656,"phone":"(613) 354-9707","id":"ahcfng7e7x4b","address":"475 Centre Street North","province":"Ontario","geo_precision":"street"},"type":"Feature","geometry":{"type":"Point","coordinates":[-85.693119,41.333498]}},{"properties":{"name":"Mcdonalds - 89 Jim Kemmett Blvd., Napanee","city":"Napanee","post code":"K7R 3L2","country":"Canada","geo_score":0.543,"phone":"(613) 354-6463","id":"ahcfnfzz643w","address":"89 Jim Kemmett Blvd.","province":"Ontario","geo_precision":"street"},"type":"Feature","geometry":{"type":"Point","coordinates":[-86.022816,41.650069]}},{"properties":{"name":"Mcdonalds - 1100 Davis Drive, Newmarket","city":"Newmarket","post code":"L3Y 7V1","country":"Canada","geo_score":0.6,"phone":"(905) 853-0118","id":"ahcfng3e4087","address":"1100 Davis Drive","province":"Ontario","geo_precision":"street"},"type":"Feature","geometry":{"type":"Point","coordinates":[-76.874896,40.225298]}},{"properties":{"name":"Mcdonalds - 17155 Yonge Street, Newmarket","city":"Newmarket","post code":"L3Y 5L8","country":"Canada","geo_score":0.39,"phone":"(905) 895-3990","id":"ahcfng0a7u5t","address":"17155 Yonge Street","province":"Ontario","geo_precision":"city"},"type":"Feature","geometry":{"type":"Point","coordinates":[-76.852195,40.223146]}},{"properties":{"name":"Mcdonalds - 17760 Yonge Street, Newmarket","city":"Newmarket","post code":"L3Y 8P4","country":"Canada","geo_score":0.39,"phone":"(905) 895-1222","id":"ahcfng1axnur","address":"17760 Yonge Street","province":"Ontario","geo_precision":"city"},"type":"Feature","geometry":{"type":"Point","coordinates":[-76.852195,40.223146]}},{"properties":{"name":"Mcdonalds - 17940 Yonge Street, Newmarket","city":"Newmarket","post code":"L3Y 8S4","country":"Canada","geo_score":0.39,"phone":"(905) 895-0845","id":"ahcfnfx1tpi9","address":"17940 Yonge Street","province":"Ontario","geo_precision":"city"},"type":"Feature","geometry":{"type":"Point","coordinates":[-76.852195,40.223146]}},{"properties":{"name":"Mcdonalds - 1125 Sheppard Avenue East, North York","city":"North York","post code":"M2K 1C5","country":"Canada","geo_score":0.645,"phone":"(416) 224-1145","id":"ahcfng673k1g","address":"1125 Sheppard Avenue East","province":"Ontario","geo_precision":"street"},"type":"Feature","geometry":{"type":"Point","coordinates":[-77.879639,42.735013]}},{"properties":{"name":"Mcdonalds - 1800 Sheppard Ave. East, North York","city":"North York","post code":"M2J 1V4","country":"Canada","geo_score":0.471,"phone":"(416) 756-9908","id":"ahcfng1zw9gd","address":"1800 Sheppard Ave. East","province":"Ontario","geo_precision":"street"},"type":"Feature","geometry":{"type":"Point","coordinates":[-82.818041,38.54032]}},{"properties":{"name":"Mcdonalds - 2625f Weston Road, North York","city":"North York","post code":"M9N 3X2","country":"Canada","geo_score":0.486,"phone":"(416) 241-5505","id":"ahcfng3p21vr","address":"2625f Weston Road","province":"Ontario","geo_precision":"street"},"type":"Feature","geometry":{"type":"Point","coordinates":[-111.94626,46.593066]}},{"properties":{"name":"Mcdonalds - 3101 Dufferin St, North York","city":"North York","post code":"M6A 2S7","country":"Canada","geo_score":0.585,"phone":"(416) 787-5671","id":"ahcfnfyj684h","address":"3101 Dufferin St","province":"Ontario","geo_precision":"street"},"type":"Feature","geometry":{"type":"Point","coordinates":[-80.878739,39.644222]}},{"properties":{"name":"Mcdonalds - 4828 Yonge Street, North York","city":"North York","post code":"M2N 5M9","country":"Canada","geo_score":0.39,"phone":"(416) 221-3363","id":"ahcfng8ef3dp","address":"4828 Yonge Street","province":"Ontario","geo_precision":"city"},"type":"Feature","geometry":{"type":"Point","coordinates":[-91.145156,44.449961]}},{"properties":{"name":"Mcdonalds - 747 Don Mills Road, North York","city":"North York","post code":"M3C 1T2","country":"Canada","geo_score":0.405,"phone":"(416) 429-1266","id":"ahcfng9dis2x","address":"747 Don Mills Road","province":"Ontario","geo_precision":"street"},"type":"Feature","geometry":{"type":"Point","coordinates":[-76.666732,39.97437]}},{"properties":{"name":"Mcdonalds - 808 York Mills Rd., Building D Unit 1, North York","city":"North York","post code":"M3B 1X8","country":"Canada","geo_score":0.451,"phone":"(416) 385-1711","id":"ahcfng6d404g","address":"808 York Mills Rd., Building D Unit 1","province":"Ontario","geo_precision":"street"},"type":"Feature","geometry":{"type":"Point","coordinates":[-76.743923,39.976901]}},{"properties":{"name":"Mcdonalds - Peanut Plaza, 3030 Don Mills Road, North York","city":"North York","post code":"M2J 3C1","country":"Canada","geo_score":0.376,"phone":"(416) 494-9335","id":"ahcfnga5cvvf","address":"Peanut Plaza, 3030 Don Mills Road","province":"Ontario","geo_precision":"street"},"type":"Feature","geometry":{"type":"Point","coordinates":[-76.699548,40.007936]}},{"properties":{"name":"Mcdonalds - 175 Murphy Road, Orillia","city":"Orillia","post code":"L3V 0B5","country":"Canada","geo_score":0.569,"phone":"(705) 325-2585","id":"ahcfnga4d6sn","address":"175 Murphy Road","province":"Ontario","geo_precision":"street"},"type":"Feature","geometry":{"type":"Point","coordinates":[-92.673536,37.680073]}},{"properties":{"name":"Mcdonalds - 320 Memorial Ave.,, Orillia","city":"Orillia","post code":"L3V 5X6","country":"Canada","geo_score":0.488,"phone":"(705) 325-9851","id":"ahcfng3uzxne","address":"320 Memorial Ave.,","province":"Ontario","geo_precision":"street"},"type":"Feature","geometry":{"type":"Point","coordinates":[-90.726386,33.723406]}},{"properties":{"name":"Mcdonalds - 1015 - 10th Street West, Owen Sound","city":"Owen Sound","post code":"N4K 5S2","country":"Canada","geo_score":0.186,"phone":"(519) 371-3363","id":"ahcfnfxqrp76","address":"1015 - 10th Street West","province":"Ontario","geo_precision":"street"},"type":"Feature","geometry":{"type":"Point","coordinates":[-101.947626,32.723562]}},{"properties":{"name":"Mcdonalds - 1555 18th Avenue East, Owen Sound","city":"Owen Sound","post code":"N4K 6Y3","country":"Canada","geo_score":0.312,"phone":"(519) 372-9320","id":"ahcfng75vuz3","address":"1555 18th Avenue East","province":"Ontario","geo_precision":"street"},"type":"Feature","geometry":{"type":"Point","coordinates":[-111.891263,40.589943]}},{"properties":{"name":"Mcdonalds - 35 Dufferin Street, Perth","city":"Perth","post code":"K7H 3A5","country":"Canada","geo_score":0.564,"phone":"(613) 267-5070","id":"ahcfng4zz4nw","address":"35 Dufferin Street","province":"Ontario","geo_precision":"street"},"type":"Feature","geometry":{"type":"Point","coordinates":[-96.95648,37.245615]}},{"properties":{"name":"Mcdonalds - 43 Highway Street, Petawawa","city":"Petawawa","post code":"K8H 1X3","country":"Canada","geo_score":0.0,"phone":"(613) 687-1808","id":"ahcfngc7nxof","address":"43 Highway Street","province":"Ontario","geo_precision":"unmatched"},"type":"Feature","geometry":null},{"properties":{"name":"Mcdonalds - 569 Main Street, West, Port Colborne","city":"Port Colborne","post code":"L3K 3W8","country":"Canada","geo_score":0.234,"phone":"(905) 834-9644","id":"ahcfng5o8gp1","address":"569 Main Street, West","province":"Ontario","geo_precision":"street"},"type":"Feature","geometry":{"type":"Point","coordinates":[-93.243433,33.267162]}},{"properties":{"name":"Mcdonalds - 980 Obrien Rd, Renfrew","city":"Renfrew","post code":"K7V 3Z4","country":"Canada","geo_score":0.436,"phone":"(613) 433-9546","id":"ahcfnfzjnr0d","address":"980 O'brien Rd","province":"Ontario","geo_precision":"street"},"type":"Feature","geometry":{"type":"Point","coordinates":[-86.112608,33.437942]}},{"properties":{"name":"Mcdonalds - Mcdonalds Restaurant, 413 Obrien Rd., Renfrew","city":"Renfrew","post code":"K7V 3Z3","country":"Canada","geo_score":0.437,"phone":"(613) 432-7025","id":"ahcfng7028jh","address":"Mcdonald's Restaurant, 413 O'brien Rd.","province":"Ontario","geo_precision":"street"},"type":"Feature","geometry":{"type":"Point","coordinates":[-86.112608,33.437942]}},{"properties":{"name":"Mcdonalds - 1253 London &amp; Murphy Road, Sarnia","city":"Sarnia","post code":"N7S 1P3","country":"Canada","geo_score":0.714,"phone":"(519) 383-7511","id":"ahcfng4i9eke","address":"1253 London &amp; Murphy Road","province":"Ontario","geo_precision":"street"},"type":"Feature","geometry":{"type":"Point","coordinates":[-97.841231,30.463053]}},{"properties":{"name":"Mcdonalds - 1330 Exmouth Street, Sarnia","city":"Sarnia","post code":"N7S 3X9","country":"Canada","geo_score":0.39,"phone":"(519) 542-1345","id":"ahcfng3itcob","address":"1330 Exmouth Street","province":"Ontario","geo_precision":"city"},"type":"Feature","geometry":{"type":"Point","coordinates":[-87.647775,31.75571]}},{"properties":{"name":"Mcdonalds - 1444 Quinn Drive, Sarnia","city":"Sarnia","post code":"N7S 6M8","country":"Canada","geo_score":0.472,"phone":"(519) 542-8161","id":"ahcfng9781dx","address":"1444 Quinn Drive","province":"Ontario","geo_precision":"street"},"type":"Feature","geometry":{"type":"Point","coordinates":[-89.852162,37.727182]}},{"properties":{"name":"Mcdonalds - 411 Christina Street N., Sarnia","city":"Sarnia","post code":"N7T 5V8","country":"Canada","geo_score":0.798,"phone":"(519) 336-7096","id":"ahcfng1wc2sr","address":"411 Christina Street N.","province":"Ontario","geo_precision":"range"},"type":"Feature","geometry":{"type":"Point","coordinates":[-87.963348,41.781799]}},{"properties":{"name":"Mcdonalds - 160 Queensway Road East, Simcoe","city":"Simcoe","post code":"N3Y 6J1","country":"Canada","geo_score":0.627,"phone":"(519) 426-4526","id":"ahcfnfzjmyvu","address":"160 Queensway Road East","province":"Ontario","geo_precision":"street"},"type":"Feature","geometry":{"type":"Point","coordinates":[-89.651528,39.438877]}},{"properties":{"name":"Mcdonalds - 77 Queensway E, Simcoe","city":"Simcoe","post code":"N3Y 4M5","country":"Canada","geo_score":0.835,"phone":"(519) 426-8085","id":"ahcfng15r88k","address":"77 Queensway E","province":"Ontario","geo_precision":"range"},"type":"Feature","geometry":{"type":"Point","coordinates":[-89.651778,39.438792]}},{"properties":{"name":"Mcdonalds - 1250 Main Street, Unit 1, Stittsville","city":"Stittsville","post code":"K2S 1S9","country":"Canada","geo_score":0.528,"phone":"(613) 831-4440","id":"ahcfng718v2u","address":"1250 Main Street, Unit 1","province":"Ontario","geo_precision":"street"},"type":"Feature","geometry":{"type":"Point","coordinates":[-80.855807,35.775737]}},{"properties":{"name":"Mcdonalds - 150 Carroll St. East, Strathroy","city":"Strathroy","post code":"N7G 3H3","country":"Canada","geo_score":0.5,"phone":"(519) 245-7962","id":"ahcfng1ydvmd","address":"150 Carroll St. East","province":"Ontario","geo_precision":"street"},"type":"Feature","geometry":{"type":"Point","coordinates":[-81.556078,33.914608]}},{"properties":{"name":"Mcdonalds - 269 Caradoc Street S., Strathroy","city":"Strathroy","post code":"N7G 2P3","country":"Canada","geo_score":0.46,"phone":"(519) 245-3821","id":"ahcfnfxd4oub","address":"269 Caradoc Street S.","province":"Ontario","geo_precision":"street"},"type":"Feature","geometry":{"type":"Point","coordinates":[-80.465507,33.99359]}},{"properties":{"name":"Mcdonalds - 300 Steeles Ave. West, Thornhill","city":"Thornhill","post code":"L4J 1A1","country":"Canada","geo_score":0.429,"phone":"(905) 886-5200","id":"ahcfng9wwd3x","address":"300 Steeles Ave. West","province":"Ontario","geo_precision":"street"},"type":"Feature","geometry":{"type":"Point","coordinates":[-85.771023,38.231545]}},{"properties":{"name":"Mcdonalds - 700 Centre Street, Thornhill","city":"Thornhill","post code":"L4J 0A7","country":"Canada","geo_score":0.578,"phone":"(905) 707-9158","id":"ahcfng57vewf","address":"700 Centre Street","province":"Ontario","geo_precision":"street"},"type":"Feature","geometry":{"type":"Point","coordinates":[-118.559108,45.766656]}},{"properties":{"name":"Mcdonalds - One Promenade Circle, Thornhill","city":"Thornhill","post code":"L4J 4P8","country":"Canada","geo_score":0.371,"phone":"(905) 709-0812","id":"ahcfnfxcdnz9","address":"One Promenade Circle","province":"Ontario","geo_precision":"street"},"type":"Feature","geometry":{"type":"Point","coordinates":[-85.612466,38.252808]}},{"properties":{"name":"Mcdonalds - 10 Queensway, Toronto","city":"Toronto","post code":"M6R 1B4","country":"Canada","geo_score":0.635,"phone":"(416) 538-2444","id":"ahcfng6m7k2y","address":"10 Queensway","province":"Ontario","geo_precision":"street"},"type":"Feature","geometry":{"type":"Point","coordinates":[-97.650923,32.755108]}},{"properties":{"name":"Mcdonalds - 100 Wellington St. West, Toronto","city":"Toronto","post code":"M5J 2N7","country":"Canada","geo_score":0.464,"phone":"(416) 214-0884","id":"ahcfngauz3zy","address":"100 Wellington St. West","province":"Ontario","geo_precision":"street"},"type":"Feature","geometry":{"type":"Point","coordinates":[-79.668298,36.33462]}},{"properties":{"name":"Mcdonalds - 1000 Gerrard Street E, Toronto","city":"Toronto","post code":"M4M 3G6","country":"Canada","geo_score":0.829,"phone":"(416) 461-8618","id":"ahcfng8zjmn8","address":"1000 Gerrard Street E","province":"Ontario","geo_precision":"range"},"type":"Feature","geometry":{"type":"Point","coordinates":[-91.513345,44.78469]}},{"properties":{"name":"Mcdonalds - 1045 Pape Avenue, Toronto","city":"Toronto","post code":"M4K 3W3","country":"Canada","geo_score":0.554,"phone":"(416) 423-3475","id":"ahcfnfznlzry","address":"1045 Pape Avenue","province":"Ontario","geo_precision":"street"},"type":"Feature","geometry":{"type":"Point","coordinates":[-86.735163,33.596768]}},{"properties":{"name":"Mcdonalds - 109 Mccaul Street, Toronto","city":"Toronto","post code":"M5T 3K5","country":"Canada","geo_score":0.545,"phone":"(416) 977-6607","id":"ahcfnfx0305x","address":"109 Mccaul Street","province":"Ontario","geo_precision":"street"},"type":"Feature","geometry":{"type":"Point","coordinates":[-89.455697,41.823337]}},{"properties":{"name":"Mcdonalds - 11 St. Clair Ave East, Toronto","city":"Toronto","post code":"M4T 1L8","country":"Canada","geo_score":0.291,"phone":"(416) 323-3173","id":"ahcfnfz6tcmj","address":"11 St. Clair Ave East","province":"Ontario","geo_precision":"street"},"type":"Feature","geometry":{"type":"Point","coordinates":[-83.993535,42.917823]}},{"properties":{"name":"Mcdonalds - 1168 St Clair Avenue West, Toronto","city":"Toronto","post code":"M6E 1B4","country":"Canada","geo_score":0.408,"phone":"(416) 652-9536","id":"ahcfnfz724a2","address":"1168 St Clair Avenue West","province":"Ontario","geo_precision":"street"},"type":"Feature","geometry":{"type":"Point","coordinates":[-92.367348,45.295925]}},{"properties":{"name":"Mcdonalds - 1185 Dupont Street, Toronto","city":"Toronto","post code":"M6H 1A5","country":"Canada","geo_score":0.708,"phone":"(416) 536-4188","id":"ahcfngbiz36m","address":"1185 Dupont Street","province":"Ontario","geo_precision":"street"},"type":"Feature","geometry":{"type":"Point","coordinates":[-96.687438,42.681253]}},{"properties":{"name":"Mcdonalds - 121 Front St East, Toronto","city":"Toronto","post code":"M5A 4P7","country":"Canada","geo_score":0.691,"phone":"(416) 868-9998","id":"ahcfng0jieym","address":"121 Front St East","province":"Ontario","geo_precision":"range"},"type":"Feature","geometry":{"type":"Point","coordinates":[-91.811231,31.627395]}},{"properties":{"name":"Mcdonalds - 1221 King Street West, Toronto","city":"Toronto","post code":"M6K 1G3","country":"Canada","geo_score":0.489,"phone":"(416) 532-8818","id":"ahcfngbk0du8","address":"1221 King Street West","province":"Ontario","geo_precision":"street"},"type":"Feature","geometry":{"type":"Point","coordinates":[-80.554593,34.995877]}},{"properties":{"name":"Mcdonalds - 123 Queen St West, Toronto","city":"Toronto","post code":"M5H 3M9","country":"Canada","geo_score":0.349,"phone":"(416) 361-9007","id":"ahcfng5hc4n0","address":"123 Queen St West","province":"Ontario","geo_precision":"street"},"type":"Feature","geometry":{"type":"Point","coordinates":[-79.988035,35.887215]}},{"properties":{"name":"Mcdonalds - 123 Yonge St, Toronto","city":"Toronto","post code":"M5C 1W4","country":"Canada","geo_score":0.39,"phone":"(416) 862-8899","id":"ahcfngc73fo2","address":"123 Yonge St","province":"Ontario","geo_precision":"city"},"type":"Feature","geometry":{"type":"Point","coordinates":[-89.62982,39.71394]}},{"properties":{"name":"Mcdonalds - 127 Church Street, Toronto","city":"Toronto","post code":"M5C 2G5","country":"Canada","geo_score":0.652,"phone":"(416) 368-1562","id":"ahcfnfyamyfj","address":"127 Church Street","province":"Ontario","geo_precision":"street"},"type":"Feature","geometry":{"type":"Point","coordinates":[-89.861553,33.072837]}},{"properties":{"name":"Mcdonalds - 1305 Lawrence Avenue West, Wal-mart - North Park S.c., Toronto","city":"Toronto","post code":"M6L 1A5","country":"Canada","geo_score":0.29,"phone":"(416) 247-2030","id":"ahcfng0gfo1o","address":"1305 Lawrence Avenue West, Wal-mart - North Park S.c.","province":"Ontario","geo_precision":"street"},"type":"Feature","geometry":{"type":"Point","coordinates":[-91.984933,31.715494]}},{"properties":{"name":"Mcdonalds - 150 Rimrock Road, Toronto","city":"Toronto","post code":"M3J 3A6","country":"Canada","geo_score":0.39,"phone":"(416) 630-8381","id":"ahcfng5v08qj","address":"150 Rimrock Road","province":"Ontario","geo_precision":"city"},"type":"Feature","geometry":{"type":"Point","coordinates":[-89.62982,39.71394]}},{"properties":{"name":"Mcdonalds - 1530 Albion Road, Unit F-1, Toronto","city":"Toronto","post code":"M9V 1B4","country":"Canada","geo_score":0.418,"phone":"(416) 746-0175","id":"ahcfng43c25t","address":"1530 Albion Road, Unit F-1","province":"Ontario","geo_precision":"street"},"type":"Feature","geometry":{"type":"Point","coordinates":[-80.636164,35.023113]}},{"properties":{"name":"Mcdonalds - 160 Spadina Avenue, Toronto","city":"Toronto","post code":"M5T 2C2","country":"Canada","geo_score":0.628,"phone":"(416) 703-7401","id":"ahcfng2u4no1","address":"160 Spadina Avenue","province":"Ontario","geo_precision":"street"},"type":"Feature","geometry":{"type":"Point","coordinates":[-83.696343,43.11717]}},{"properties":{"name":"Mcdonalds - 1735 Danforth Avenue, Toronto","city":"Toronto","post code":"M4C 1H9","country":"Canada","geo_score":0.634,"phone":"(416) 691-9364","id":"ahcfng39j6z8","address":"1735 Danforth Avenue","province":"Ontario","geo_precision":"street"},"type":"Feature","geometry":{"type":"Point","coordinates":[-97.125543,32.649492]}},{"properties":{"name":"Mcdonalds - 1787 Bayview Avenue, Toronto","city":"Toronto","post code":"M4G 3C5","country":"Canada","geo_score":0.708,"phone":"(416) 486-8086","id":"ahcfng6aq305","address":"1787 Bayview Avenue","province":"Ontario","geo_precision":"street"},"type":"Feature","geometry":{"type":"Point","coordinates":[-124.220297,43.417411]}},{"properties":{"name":"Mcdonalds - 1807 Eglinton Avenue West, Toronto","city":"Toronto","post code":"M6E 2H7","country":"Canada","geo_score":0.401,"phone":"(416) 256-0433","id":"ahcfnfy52rb8","address":"1807 Eglinton Avenue West","province":"Ontario","geo_precision":"street"},"type":"Feature","geometry":{"type":"Point","coordinates":[-92.552998,44.680896]}},{"properties":{"name":"Mcdonalds - 181 Bay St, P.o. Box 112, Toronto","city":"Toronto","post code":"M5J 2S1","country":"Canada","geo_score":0.357,"phone":"(416) 360-4588","id":"ahcfnfxza3ua","address":"181 Bay St, P.o. Box 112","province":"Ontario","geo_precision":"street"},"type":"Feature","geometry":{"type":"Point","coordinates":[-89.63802,39.894579]}},{"properties":{"name":"Mcdonalds - 1890 Avenue Rd.,, Toronto","city":"Toronto","post code":"M5M 3Z8","country":"Canada","geo_score":0.415,"phone":"(416) 783-7562","id":"ahcfng7p8sdb","address":"1890 Avenue Rd.,","province":"Ontario","geo_precision":"street"},"type":"Feature","geometry":{"type":"Point","coordinates":[-89.565288,39.779979]}},{"properties":{"name":"Mcdonalds - 1900 Eglinton Avenue East, Toronto","city":"Toronto","post code":"M1L 2L9","country":"Canada","geo_score":0.401,"phone":"(416) 285-4192","id":"ahcfnga1fyl4","address":"1900 Eglinton Avenue East","province":"Ontario","geo_precision":"street"},"type":"Feature","geometry":{"type":"Point","coordinates":[-92.552998,44.680896]}},{"properties":{"name":"Mcdonalds - 192a Bloor St.w.,, Toronto","city":"Toronto","post code":"M5S 1T8","country":"Canada","geo_score":0.224,"phone":"(416) 960-3569","id":"ahcfng331qfk","address":"192a Bloor St.w.,","province":"Ontario","geo_precision":"street"},"type":"Feature","geometry":{"type":"Point","coordinates":[-81.848353,38.34438]}},{"properties":{"name":"Mcdonalds - 1966 Eglinton Ave E, Toronto","city":"Toronto","post code":"M1L 1V6","country":"Canada","geo_score":0.401,"phone":"(416) 752-8236","id":"ahcfnfyhnza6","address":"1966 Eglinton Ave E","province":"Ontario","geo_precision":"street"},"type":"Feature","geometry":{"type":"Point","coordinates":[-92.552998,44.680896]}},{"properties":{"name":"Mcdonalds - 2 Greystone Walk Drive, Toronto","city":"Toronto","post code":"M1K 5J2","country":"Canada","geo_score":0.365,"phone":"(416) 265-4317","id":"ahcfngc3gufc","address":"2 Greystone Walk Drive","province":"Ontario","geo_precision":"street"},"type":"Feature","geometry":{"type":"Point","coordinates":[-80.642327,34.978055]}},{"properties":{"name":"Mcdonalds - 2 Ingram Drive, Toronto","city":"Toronto","post code":"M6M 2L6","country":"Canada","geo_score":0.709,"phone":"(416) 248-9744","id":"ahcfng1y46t7","address":"2 Ingram Drive","province":"Ontario","geo_precision":"street"},"type":"Feature","geometry":{"type":"Point","coordinates":[-123.362673,43.147701]}},{"properties":{"name":"Mcdonalds - 20 Eglinton Ave E (&amp; Yonge), Toronto","city":"Toronto","post code":"M4P 1A9","country":"Canada","geo_score":0.333,"phone":"(416) 489-3773","id":"ahcfng7h5zo0","address":"20 Eglinton Ave E (&amp; Yonge)","province":"Ontario","geo_precision":"street"},"type":"Feature","geometry":{"type":"Point","coordinates":[-92.552998,44.680896]}},{"properties":{"name":"Mcdonalds - 200 Front Street West, Toronto","city":"Toronto","post code":"M5V 3K2","country":"Canada","geo_score":0.691,"phone":"(416) 542-1234","id":"ahcfng22w1vw","address":"200 Front Street West","province":"Ontario","geo_precision":"range"},"type":"Feature","geometry":{"type":"Point","coordinates":[-83.31657,38.602358]}},{"properties":{"name":"Mcdonalds - 218 Yonge Street, 3rd Level, Toronto","city":"Toronto","post code":"M5B 2H6","country":"Canada","geo_score":0.347,"phone":"(416) 597-2412","id":"ahcfng45xcls","address":"218 Yonge Street, 3rd Level","province":"Ontario","geo_precision":"street"},"type":"Feature","geometry":{"type":"Point","coordinates":[-91.967061,44.62712]}},{"properties":{"name":"Mcdonalds - 218 Yonge Street, Eaton Center Food Court, Toronto","city":"Toronto","post code":"M5B 2H6","country":"Canada","geo_score":0.442,"phone":"(416) 585-9502","id":"ahcfng93g4qy","address":"218 Yonge Street, Eaton Center Food Court","province":"Ontario","geo_precision":"street"},"type":"Feature","geometry":{"type":"Point","coordinates":[-86.759581,33.571169]}},{"properties":{"name":"Mcdonalds - 2218 Bloor Street West, Toronto","city":"Toronto","post code":"M6S 1N4","country":"Canada","geo_score":0.329,"phone":"(416) 762-9949","id":"ahcfnfx59qtz","address":"2218 Bloor Street West","province":"Ontario","geo_precision":"street"},"type":"Feature","geometry":{"type":"Point","coordinates":[-81.842957,38.343558]}},{"properties":{"name":"Mcdonalds - 2362 Finch Avenue West, Toronto","city":"Toronto","post code":"M9M 2C7","country":"Canada","geo_score":0.501,"phone":"(416) 743-2484","id":"ahcfng8dxen6","address":"2362 Finch Avenue West","province":"Ontario","geo_precision":"street"},"type":"Feature","geometry":{"type":"Point","coordinates":[-86.778257,33.586302]}},{"properties":{"name":"Mcdonalds - 2365 Dundas Street West, Toronto","city":"Toronto","post code":"M6P 1W7","country":"Canada","geo_score":0.548,"phone":"(416) 536-3715","id":"ahcfng4htfmn","address":"2365 Dundas Street West","province":"Ontario","geo_precision":"street"},"type":"Feature","geometry":{"type":"Point","coordinates":[-79.663058,36.293296]}},{"properties":{"name":"Mcdonalds - 2525 St. Clair Ave. West, Toronto","city":"Toronto","post code":"M6N 4Z5","country":"Canada","geo_score":0.204,"phone":"(416) 763-4120","id":"ahcfng6re5ge","address":"2525 St. Clair Ave. West","province":"Ontario","geo_precision":"street"},"type":"Feature","geometry":{"type":"Point","coordinates":[-92.362106,45.311498]}},{"properties":{"name":"Mcdonalds - 29-31 Woodward Avenue, Toronto","city":"Toronto","post code":"M4L 2Y5","country":"Canada","geo_score":0.902,"phone":"(416) 463-2124","id":"ahcfng3qf8q8","address":"29-31 Woodward Avenue","province":"Ontario","geo_precision":"range"},"type":"Feature","geometry":{"type":"Point","coordinates":[-91.390039,44.928084]}},{"properties":{"name":"Mcdonalds - 3400 Yonge St, Toronto","city":"Toronto","post code":"M4N 2M7","country":"Canada","geo_score":0.39,"phone":"(416) 481-8779","id":"ahcfnfxe8c4g","address":"3400 Yonge St","province":"Ontario","geo_precision":"city"},"type":"Feature","geometry":{"type":"Point","coordinates":[-89.62982,39.71394]}},{"properties":{"name":"Mcdonalds - 344 Bathurst Street, Toronto","city":"Toronto","post code":"M5T 2S3","country":"Canada","geo_score":0.39,"phone":"(416) 362-5499","id":"ahcfnfxr5viz","address":"344 Bathurst Street","province":"Ontario","geo_precision":"city"},"type":"Feature","geometry":{"type":"Point","coordinates":[-89.62982,39.71394]}},{"properties":{"name":"Mcdonalds - 345 Bloor Street East, Toronto","city":"Toronto","post code":"M4W 3J6","country":"Canada","geo_score":0.33,"phone":"(416) 967-1081","id":"ahcfnfxdpd05","address":"345 Bloor Street East","province":"Ontario","geo_precision":"street"},"type":"Feature","geometry":{"type":"Point","coordinates":[-81.842957,38.343558]}},{"properties":{"name":"Mcdonalds - 3929 Keele Street, Toronto","city":"Toronto","post code":"M3J 1N6","country":"Canada","geo_score":0.447,"phone":"(416) 398-6519","id":"ahcfng8ao6ya","address":"3929 Keele Street","province":"Ontario","geo_precision":"street"},"type":"Feature","geometry":{"type":"Point","coordinates":[-95.945422,37.797273]}},{"properties":{"name":"Mcdonalds - 4025 Yonge Street, Toronto","city":"Toronto","post code":"M2P 2E3","country":"Canada","geo_score":0.39,"phone":"(416) 224-8517","id":"ahcfnfzo710x","address":"4025 Yonge Street","province":"Ontario","geo_precision":"city"},"type":"Feature","geometry":{"type":"Point","coordinates":[-89.62982,39.71394]}},{"properties":{"name":"Mcdonalds - 45 Overlea Blvd, Toronto","city":"Toronto","post code":"M4H 1C5","country":"Canada","geo_score":0.587,"phone":"(416) 429-3787","id":"ahcfng8ux8i1","address":"45 Overlea Blvd","province":"Ontario","geo_precision":"street"},"type":"Feature","geometry":{"type":"Point","coordinates":[-79.566816,40.411888]}},{"properties":{"name":"Mcdonalds - 470 Yonge Street, Toronto","city":"Toronto","post code":"M4Y 1X5","country":"Canada","geo_score":0.39,"phone":"(416) 922-2905","id":"ahcfnfyb319d","address":"470 Yonge Street","province":"Ontario","geo_precision":"city"},"type":"Feature","geometry":{"type":"Point","coordinates":[-89.62982,39.71394]}},{"properties":{"name":"Mcdonalds - 5453 Dundas Street St.w, Toronto","city":"Toronto","post code":"M9B 1B5","country":"Canada","geo_score":0.184,"phone":"(416) 207-1962","id":"ahcfngal97ne","address":"5453 Dundas Street St.w","province":"Ontario","geo_precision":"street"},"type":"Feature","geometry":{"type":"Point","coordinates":[-83.983127,42.918101]}},{"properties":{"name":"Mcdonalds - 552 Yonge Street, Toronto","city":"Toronto","post code":"M4Y 1Y8","country":"Canada","geo_score":0.39,"phone":"(416) 924-7600","id":"ahcfnfy4jutz","address":"552 Yonge Street","province":"Ontario","geo_precision":"city"},"type":"Feature","geometry":{"type":"Point","coordinates":[-89.62982,39.71394]}},{"properties":{"name":"Mcdonalds - 595 Bay St, Toronto","city":"Toronto","post code":"M5G 1M5","country":"Canada","geo_score":0.429,"phone":"(416) 591-0662","id":"ahcfnfwknuna","address":"595 Bay St","province":"Ontario","geo_precision":"street"},"type":"Feature","geometry":{"type":"Point","coordinates":[-86.776257,33.646369]}},{"properties":{"name":"Mcdonalds - 630 Keele Street, Toronto","city":"Toronto","post code":"M6N 3E5","country":"Canada","geo_score":0.448,"phone":"(416) 604-1496","id":"ahcfng4eyd3j","address":"630 Keele Street","province":"Ontario","geo_precision":"street"},"type":"Feature","geometry":{"type":"Point","coordinates":[-95.945725,37.799161]}},{"properties":{"name":"Mcdonalds - 675 Yonge Street, Toronto","city":"Toronto","post code":"M4Y 1T2","country":"Canada","geo_score":0.39,"phone":"(416) 413-1442","id":"ahcfng6l85wk","address":"675 Yonge Street","province":"Ontario","geo_precision":"city"},"type":"Feature","geometry":{"type":"Point","coordinates":[-89.62982,39.71394]}},{"properties":{"name":"Mcdonalds - 700 Lawrence St W, Toronto","city":"Toronto","post code":"M6A 3B4","country":"Canada","geo_score":0.487,"phone":"(416) 783-0397","id":"ahcfng2pfz4e","address":"700 Lawrence St W","province":"Ontario","geo_precision":"street"},"type":"Feature","geometry":{"type":"Point","coordinates":[-80.432259,35.065045]}},{"properties":{"name":"Mcdonalds - 710 King Street West, Toronto","city":"Toronto","post code":"M5V 2Y6","country":"Canada","geo_score":0.49,"phone":"(416) 504-7268","id":"ahcfng9yi4pm","address":"710 King Street West","province":"Ontario","geo_precision":"street"},"type":"Feature","geometry":{"type":"Point","coordinates":[-80.554593,34.995877]}},{"properties":{"name":"Mcdonalds - 710 St. Clair W., Toronto","city":"Toronto","post code":"M6C 1B2","country":"Canada","geo_score":0.291,"phone":"(416) 656-1702","id":"ahcfng1586tn","address":"710 St. Clair W.","province":"Ontario","geo_precision":"street"},"type":"Feature","geometry":{"type":"Point","coordinates":[-83.993535,42.917823]}},{"properties":{"name":"Mcdonalds - 900 Dufferin Street, Wal-mart - Dufferin Mall, Toronto","city":"Toronto","post code":"M6H 4E9","country":"Canada","geo_score":0.332,"phone":"(416) 537-8169","id":"ahcfng5lws7c","address":"900 Dufferin Street, Wal-mart - Dufferin Mall","province":"Ontario","geo_precision":"street"},"type":"Feature","geometry":{"type":"Point","coordinates":[-122.864753,43.941666]}},{"properties":{"name":"Mcdonalds - 98 Danforth Ave, Toronto","city":"Toronto","post code":"M4K 1N2","country":"Canada","geo_score":0.634,"phone":"(416) 461-2900","id":"ahcfngb5mj1g","address":"98 Danforth Ave","province":"Ontario","geo_precision":"street"},"type":"Feature","geometry":{"type":"Point","coordinates":[-97.121283,32.649837]}},{"properties":{"name":"Mcdonalds - Dufferin Mall, 900 Dufferin Street, Toronto","city":"Toronto","post code":"M5H 4B1","country":"Canada","geo_score":0.342,"phone":"(416) 537-0934","id":"ahcfng5z6siu","address":"Dufferin Mall, 900 Dufferin Street","province":"Ontario","geo_precision":"street"},"type":"Feature","geometry":{"type":"Point","coordinates":[-97.089692,32.879554]}},{"properties":{"name":"Mcdonalds - Go Concourse, Union Station, 61 Front Street West, Toronto","city":"Toronto","post code":"M5J 1E6","country":"Canada","geo_score":0.5,"phone":"(416) 368-2225","id":"ahcfng1zakdi","address":"Go Concourse, Union Station, 61 Front Street West","province":"Ontario","geo_precision":"street"},"type":"Feature","geometry":{"type":"Point","coordinates":[-91.811157,31.627609]}},{"properties":{"name":"Mcdonalds - Rexdale, 2267 Islington Avenue, Toronto","city":"Toronto","post code":"M9W 3W7","country":"Canada","geo_score":0.39,"phone":"(416) 743-0800","id":"ahcfng4vz63p","address":"Rexdale, 2267 Islington Avenue","province":"Ontario","geo_precision":"city"},"type":"Feature","geometry":{"type":"Point","coordinates":[-89.62982,39.71394]}},{"properties":{"name":"Mcdonalds - 3140 Rutherford Road, Vaughan","city":"Vaughan","post code":"L4K 5R3","country":"Canada","geo_score":0.605,"phone":"(905) 832-0473","id":"ahcfnfz89nro","address":"3140 Rutherford Road","province":"Ontario","geo_precision":"street"},"type":"Feature","geometry":{"type":"Point","coordinates":[-85.04647,37.908555]}},{"properties":{"name":"Mcdonalds - 3320 Steeles Avenue West, Vaughan","city":"Vaughan","post code":"L4K 1A2","country":"Canada","geo_score":0.39,"phone":"(905) 760-9900","id":"ahcfng8neuvx","address":"3320 Steeles Avenue West","province":"Ontario","geo_precision":"city"},"type":"Feature","geometry":{"type":"Point","coordinates":[-80.113691,38.96399]}},{"properties":{"name":"Mcdonalds - 8300 Highway #27, Vaughan","city":"Vaughan","post code":"L4H 0R9","country":"Canada","geo_score":0.417,"phone":"(905) 264-6675","id":"ahcfng5dp844","address":"8300 Highway #27","province":"Ontario","geo_precision":"street"},"type":"Feature","geometry":{"type":"Point","coordinates":[-84.57343,37.879419]}},{"properties":{"name":"Mcdonalds - 9200 Weston Road, Vaughan","city":"Vaughan","post code":"L4H 2P8","country":"Canada","geo_score":0.39,"phone":"(905) 832-0424","id":"ahcfngabvpms","address":"9200 Weston Road","province":"Ontario","geo_precision":"city"},"type":"Feature","geometry":{"type":"Point","coordinates":[-80.113691,38.96399]}},{"properties":{"name":"Mcdonalds - 9600 Islington Ave, Bldg C1, Vaughan","city":"Vaughan","post code":"L4L 1A7","country":"Canada","geo_score":0.536,"phone":"(905) 893-3909","id":"ahcfng6lryz4","address":"9600 Islington Ave, Bldg C1","province":"Ontario","geo_precision":"street"},"type":"Feature","geometry":{"type":"Point","coordinates":[-84.591734,37.882625]}},{"properties":{"name":"Mcdonalds - 335 Farmers Market Road, Waterloo","city":"Waterloo","post code":"N2V 0A4","country":"Canada","geo_score":0.667,"phone":"(519) 885-1402","id":"ahcfng7vyjo5","address":"335 Farmers Market Road","province":"Ontario","geo_precision":"range"},"type":"Feature","geometry":{"type":"Point","coordinates":[-90.148545,38.333841]}},{"properties":{"name":"Mcdonalds - 55 Northfield Dr, Waterloo","city":"Waterloo","post code":"N2L 4E6","country":"Canada","geo_score":0.712,"phone":"(519) 884-5503","id":"ahcfnfyy6s69","address":"55 Northfield Dr","province":"Ontario","geo_precision":"street"},"type":"Feature","geometry":{"type":"Point","coordinates":[-83.950741,30.873087]}},{"properties":{"name":"Mcdonalds - Mcdonalds-waterloo, 362 King Street North, Waterloo","city":"Waterloo","post code":"N2J 2Z2","country":"Canada","geo_score":0.545,"phone":"(519) 886-7370","id":"ahcfng20v6gt","address":"Mcdonalds-waterloo, 362 King Street North","province":"Ontario","geo_precision":"street"},"type":"Feature","geometry":{"type":"Point","coordinates":[-74.709201,40.905038]}},{"properties":{"name":"Mcdonalds - 2780 Tecumseh Rd E.,, Windsor","city":"Windsor","post code":"N8W 1G6","country":"Canada","geo_score":0.64,"phone":"(519) 945-3634","id":"ahcfnga67a1b","address":"2780 Tecumseh Rd E.,","province":"Ontario","geo_precision":"street"},"type":"Feature","geometry":{"type":"Point","coordinates":[-90.488424,38.645233]}},{"properties":{"name":"Mcdonalds - 3195 Howard Avenue, Windsor","city":"Windsor","post code":"N8X 3Y9","country":"Canada","geo_score":0.561,"phone":"(519) 966-0131","id":"ahcfng5cb499","address":"3195 Howard Avenue","province":"Ontario","geo_precision":"street"},"type":"Feature","geometry":{"type":"Point","coordinates":[-75.96127,40.567994]}},{"properties":{"name":"Mcdonalds - 3208 Dougall Rd, Windsor","city":"Windsor","post code":"N9E 1S6","country":"Canada","geo_score":0.411,"phone":"(519) 966-1402","id":"ahcfng2nz9uy","address":"3208 Dougall Rd","province":"Ontario","geo_precision":"street"},"type":"Feature","geometry":{"type":"Point","coordinates":[-93.695999,41.599094]}},{"properties":{"name":"Mcdonalds - 4395 Walker Rd., Windsor","city":"Windsor","post code":"N8W 3T5","country":"Canada","geo_score":0.493,"phone":"(519) 972-1117","id":"ahcfng50eikr","address":"4395 Walker Rd.","province":"Ontario","geo_precision":"street"},"type":"Feature","geometry":{"type":"Point","coordinates":[-77.159018,38.768976]}},{"properties":{"name":"Mcdonalds - 4840 Wyandotte Street East, Windsor","city":"Windsor","post code":"N8Y 1H7","country":"Canada","geo_score":0.666,"phone":"(519) 944-0896","id":"ahcfng1vx7s4","address":"4840 Wyandotte Street East","province":"Ontario","geo_precision":"street"},"type":"Feature","geometry":{"type":"Point","coordinates":[-75.678531,36.031687]}},{"properties":{"name":"Mcdonalds - 5631 Ojibway Parkway, Windsor","city":"Windsor","post code":"N9C 3Y4","country":"Canada","geo_score":0.585,"phone":"(519) 250-5311","id":"ahcfng3hknqg","address":"5631 Ojibway Parkway","province":"Ontario","geo_precision":"street"},"type":"Feature","geometry":{"type":"Point","coordinates":[-76.145641,36.838819]}},{"properties":{"name":"Mcdonalds - 7100 Tecumseh Rd E, Windsor","city":"Windsor","post code":"N8T 1E6","country":"Canada","geo_score":0.64,"phone":"(519) 974-2587","id":"ahcfng63p63w","address":"7100 Tecumseh Rd E","province":"Ontario","geo_precision":"street"},"type":"Feature","geometry":{"type":"Point","coordinates":[-90.488424,38.645233]}},{"properties":{"name":"Mcdonalds - 7777 Tecumseh Rd E., Windsor","city":"Windsor","post code":"N8T 1G3","country":"Canada","geo_score":0.64,"phone":"(519) 945-4751","id":"ahcfnfw4upwj","address":"7777 Tecumseh Rd E.","province":"Ontario","geo_precision":"street"},"type":"Feature","geometry":{"type":"Point","coordinates":[-73.069397,42.29382]}},{"properties":{"name":"Mcdonalds - 883 Huron Church Line Rd.,, Windsor","city":"Windsor","post code":"N9C 2K3","country":"Canada","geo_score":0.449,"phone":"(519) 258-3531","id":"ahcfng5swec2","address":"883 Huron Church Line Rd.,","province":"Ontario","geo_precision":"street"},"type":"Feature","geometry":{"type":"Point","coordinates":[-77.084549,36.088542]}},{"properties":{"name":"Mcdonalds - 93 Wyandotte Street East, Windsor","city":"Windsor","post code":"N9A 3H1","country":"Canada","geo_score":0.666,"phone":"(519) 258-7428","id":"ahcfng1jnr8m","address":"93 Wyandotte Street East","province":"Ontario","geo_precision":"street"},"type":"Feature","geometry":{"type":"Point","coordinates":[-75.677129,36.029329]}},{"properties":{"name":"Mcdonalds - Mcdonalds-windsor, 3354 Dougall Road, Windsor","city":"Windsor","post code":"N9E 1S6","country":"Canada","geo_score":0.477,"phone":"(519) 966-0454","id":"ahcfnfwgcrt7","address":"Mcdonald's-windsor, 3354 Dougall Road","province":"Ontario","geo_precision":"street"},"type":"Feature","geometry":{"type":"Point","coordinates":[-84.939971,37.121722]}},{"properties":{"name":"Mcdonalds - 978 Lansdowne St., Peterborough","city":"Peterborough","post code":"K9J 1Z5","country":"Canada","geo_score":0.512,"phone":"(705) 743-6731","id":"ahcfngavcaag","address":"978 Lansdowne St.","province":"Ontario","geo_precision":"street"},"type":"Feature","geometry":{"type":"Point","coordinates":[-76.182313,42.953925]}},{"properties":{"name":"Mcdonalds - 278 Goderich Street, Port Elgin","city":"Port Elgin","post code":"N0H 2C1","country":"Canada","geo_score":0.655,"phone":"(519) 389-4663","id":"ahcfngb1be1d","address":"278 Goderich Street","province":"Ontario","geo_precision":"street"},"type":"Feature","geometry":{"type":"Point","coordinates":[-94.864769,32.401663]}},{"properties":{"name":"Mcdonalds - 5122 Hwy 21, Port Elgin","city":"Port Elgin","post code":"N0H 2C0","country":"Canada","geo_score":0.49,"phone":"(519) 389-4656","id":"ahcfngci01wp","address":"5122 Hwy 21","province":"Ontario","geo_precision":"street"},"type":"Feature","geometry":{"type":"Point","coordinates":[-93.547793,36.146667]}},{"properties":{"name":"Mcdonalds - 2116 Kipling Ave N.,, Rexdale","city":"Rexdale","post code":"M9W 4K5","country":"Canada","geo_score":0.0,"phone":"(416) 743-8100","id":"ahcfng3855i1","address":"2116 Kipling Ave N.,","province":"Ontario","geo_precision":"unmatched"},"type":"Feature","geometry":null},{"properties":{"name":"Mcdonalds - 293 Bay Street, Sault Ste Marie","city":"Sault Ste Marie","post code":"P6A 1X3","country":"Canada","geo_score":0.459,"phone":"(705) 949-5556","id":"ahcfng0hp8vt","address":"293 Bay Street","province":"Ontario","geo_precision":"street"},"type":"Feature","geometry":{"type":"Point","coordinates":[-79.976214,40.387624]}},{"properties":{"name":"Mcdonalds - 371 Great Northern Road, Sault Ste Marie","city":"Sault Ste Marie","post code":"P6B 4Z8","country":"Canada","geo_score":0.456,"phone":"(705) 949-0700","id":"ahcfnfyju1il","address":"371 Great Northern Road","province":"Ontario","geo_precision":"range"},"type":"Feature","geometry":{"type":"Point","coordinates":[-92.136627,32.81128]}},{"properties":{"name":"Mcdonalds - 446 Great Northern Road, Sault Ste Marie","city":"Sault Ste Marie","post code":"P6B 4Z9","country":"Canada","geo_score":0.578,"phone":"(705) 256-2590","id":"ahcfng2gqc0q","address":"446 Great Northern Road","province":"Ontario","geo_precision":"range"},"type":"Feature","geometry":{"type":"Point","coordinates":[-92.135453,32.811167]}},{"properties":{"name":"Mcdonalds - 673 Trunk Road, Sault Ste Marie","city":"Sault Ste Marie","post code":"P6A 3T1","country":"Canada","geo_score":0.635,"phone":"(705) 942-2459","id":"ahcfng1wb3r4","address":"673 Trunk Road","province":"Ontario","geo_precision":"street"},"type":"Feature","geometry":{"type":"Point","coordinates":[-88.542398,43.675475]}},{"properties":{"name":"Mcdonalds - 114 Lombard Street, Smiths Falls","city":"Smith Falls","post code":"K7A 5B8","country":"Canada","geo_score":0.477,"phone":"(613) 283-8494","id":"ahcfng8cwtxn","address":"114 Lombard Street","province":"Ontario","geo_precision":"street"},"type":"Feature","geometry":{"type":"Point","coordinates":[-80.954743,34.925141]}},{"properties":{"name":"Mcdonalds - 81 Lombard Street, Smiths Falls","city":"Smith Falls","post code":"K7A 4Y9","country":"Canada","geo_score":0.477,"phone":"(613) 283-8633","id":"ahcfng18xh51","address":"81 Lombard Street","province":"Ontario","geo_precision":"street"},"type":"Feature","geometry":{"type":"Point","coordinates":[-80.954743,34.925141]}},{"properties":{"name":"Mcdonalds - 21 Upper Centennial Pkwy S., Stoney Creek","city":"Stoney Creek","post code":"L8J 3W2","country":"Canada","geo_score":0.417,"phone":"(905) 664-6826","id":"ahcfngcixt5z","address":"21 Upper Centennial Pkwy S.","province":"Ontario","geo_precision":"street"},"type":"Feature","geometry":{"type":"Point","coordinates":[-75.890414,40.321723]}},{"properties":{"name":"Mcdonalds - 385 Highway 8, Stoney Creek","city":"Stoney Creek","post code":"L8G 1E7","country":"Canada","geo_score":0.435,"phone":"(905) 662-1423","id":"ahcfngcjo4ab","address":"385 Highway 8","province":"Ontario","geo_precision":"street"},"type":"Feature","geometry":{"type":"Point","coordinates":[-84.178581,40.268859]}},{"properties":{"name":"Mcdonalds - 75 Centennial Parkway North, Wal-mart - Eastgate Square S.c., Stoney Creek","city":"Stoney Creek","post code":"L8E 2P2","country":"Canada","geo_score":0.369,"phone":"(905) 573-8877","id":"ahcfng6x1yhb","address":"75 Centennial Parkway North, Wal-mart - Eastgate Square S.c.","province":"Ontario","geo_precision":"street"},"type":"Feature","geometry":{"type":"Point","coordinates":[-78.941991,40.344756]}},{"properties":{"name":"Mcdonalds - 195 Front Street, Sturgeon Falls","city":"Sturgeon Falls","post code":"P2B 2J4","country":"Canada","geo_score":0.547,"phone":"(705) 753-5155","id":"ahcfng5lld0l","address":"195 Front Street","province":"Ontario","geo_precision":"street"},"type":"Feature","geometry":{"type":"Point","coordinates":[-78.614549,35.821147]}},{"properties":{"name":"Mcdonalds - 201 Arthur St., Thunder Bay","city":"Thunder Bay","post code":"P7E 5P7","country":"Canada","geo_score":0.35,"phone":"(807) 577-8718","id":"ahcfng3fyl4v","address":"201 Arthur St.","province":"Ontario","geo_precision":"street"},"type":"Feature","geometry":{"type":"Point","coordinates":[-79.232674,34.788802]}},{"properties":{"name":"Mcdonalds - 770 Memorial Avenue, Thunder Bay","city":"Thunder Bay","post code":"P7B 3Z8","country":"Canada","geo_score":0.829,"phone":"(807) 346-8081","id":"ahcfngbvkqbu","address":"770 Memorial Avenue","province":"Ontario","geo_precision":"range"},"type":"Feature","geometry":{"type":"Point","coordinates":[-78.08497,35.003937]}},{"properties":{"name":"Mcdonalds - 777 Memorial Avenue, Thunder Bay","city":"Thunder Bay","post code":"P7B 3Z7","country":"Canada","geo_score":0.829,"phone":"(807) 344-0788","id":"ahcfnfx3aei1","address":"777 Memorial Avenue","province":"Ontario","geo_precision":"range"},"type":"Feature","geometry":{"type":"Point","coordinates":[-78.086177,35.004517]}},{"properties":{"name":"Mcdonalds - 81 North Cumberland Street, Thunder Bay","city":"Thunder Bay","post code":"P7A 4L8","country":"Canada","geo_score":0.717,"phone":"(807) 344-1513","id":"ahcfngb7erei","address":"81 North Cumberland Street","province":"Ontario","geo_precision":"street"},"type":"Feature","geometry":{"type":"Point","coordinates":[-92.396729,34.307759]}},{"properties":{"name":"Mcdonalds - 853 Red River Road, Thunder Bay","city":"Thunder Bay","post code":"P7B 1K3","country":"Canada","geo_score":0.399,"phone":"(807) 767-7551","id":"ahcfng8royhd","address":"853 Red River Road","province":"Ontario","geo_precision":"street"},"type":"Feature","geometry":{"type":"Point","coordinates":[-81.051458,32.035427]}},{"properties":{"name":"Mcdonalds - 18 Monogram Place, Trenton","city":"Trenton","post code":"K8V 6S3","country":"Canada","geo_score":0.769,"phone":"(613) 394-4533","id":"ahcfngb09f2k","address":"18 Monogram Place","province":"Ontario","geo_precision":"range"},"type":"Feature","geometry":{"type":"Point","coordinates":[-88.790571,35.863373]}},{"properties":{"name":"Mcdonalds - 266 Dundas St East Trenton Town Ctr, Trenton","city":"Trenton","post code":"K8V 5Z9","country":"Canada","geo_score":0.638,"phone":"(613) 392-7400","id":"ahcfng7jvt6l","address":"266 Dundas St East Trenton Town Ctr","province":"Ontario","geo_precision":"range"},"type":"Feature","geometry":{"type":"Point","coordinates":[-89.013902,35.97421]}},{"properties":{"name":"Mcdonalds - R.r.#4, Trenton","city":"Trenton","post code":"K8V 5P7","country":"Canada","geo_score":0.512,"phone":"(613) 394-1414","id":"ahcfng9ehtxu","address":"R.r.#4","province":"Ontario","geo_precision":"range"},"type":"Feature","geometry":{"type":"Point","coordinates":[-88.922277,36.022772]}},{"properties":{"name":"Mcdonalds - 50 Mcnaughton Ave, Wallaceburg","city":"Wallaceburg","post code":"N8A 1R9","country":"Canada","geo_score":0.39,"phone":"(519) 627-3376","id":"ahcfnfwp4hse","address":"50 Mcnaughton Ave","province":"Ontario","geo_precision":"city"},"type":"Feature","geometry":{"type":"Point","coordinates":[-86.7653,41.497265]}},{"properties":{"name":"Mcdonalds - 60 Mcnaughton Ave., Wallaceburg","city":"Wallaceburg","post code":"N8A 1R9","country":"Canada","geo_score":0.39,"phone":"(519) 627-8700","id":"ahcfnfz1ssjx","address":"60 Mcnaughton Ave.","province":"Ontario","geo_precision":"city"},"type":"Feature","geometry":{"type":"Point","coordinates":[-86.7653,41.497265]}},{"properties":{"name":"Mcdonalds - 102 Primeway Drive, Welland","city":"Welland","post code":"L3B 0A1","country":"Canada","geo_score":0.39,"phone":"(905) 732-2307","id":"ahcfnfzchuzw","address":"102 Primeway Drive","province":"Ontario","geo_precision":"city"},"type":"Feature","geometry":{"type":"Point","coordinates":[-95.302966,41.418923]}},{"properties":{"name":"Mcdonalds - 631 Niagara St., Welland","city":"Welland","post code":"L3C 1L9","country":"Canada","geo_score":0.649,"phone":"(905) 735-1064","id":"ahcfnfw9bgsp","address":"631 Niagara St.","province":"Ontario","geo_precision":"street"},"type":"Feature","geometry":{"type":"Point","coordinates":[-84.24647,36.012018]}},{"properties":{"name":"Mcdonalds - (pine Valley), 4535 Highway #7, Woodbridge","city":"Woodbridge","post code":"L4L 1S6","country":"Canada","geo_score":0.512,"phone":"(905) 851-7405","id":"ahcfng0wy211","address":"(pine Valley), 4535 Highway #7","province":"Ontario","geo_precision":"range"},"type":"Feature","geometry":{"type":"Point","coordinates":[-73.015906,41.362929]}},{"properties":{"name":"Mcdonalds - 1300 Kingston Rd, Pickering","city":"Pickering","post code":"L1V 3M9","country":"Canada","geo_score":0.0,"phone":"(905) 839-5665","id":"ahcfngccpph4","address":"1300 Kingston Rd","province":"Ontario","geo_precision":"unmatched"},"type":"Feature","geometry":null},{"properties":{"name":"Mcdonalds - 1899 Brock Rd, Pickering","city":"Pickering","post code":"L1V 4H7","country":"Canada","geo_score":0.0,"phone":"(905) 619-6627","id":"ahcfnfxap7wd","address":"1899 Brock Rd","province":"Ontario","geo_precision":"unmatched"},"type":"Feature","geometry":null},{"properties":{"name":"Mcdonalds - 1899 Brock Road, Pickering","city":"Pickering","post code":"L1V 4H7","country":"Canada","geo_score":0.0,"phone":"(905) 683-0944","id":"ahcfng3r6tmv","address":"1899 Brock Road","province":"Ontario","geo_precision":"unmatched"},"type":"Feature","geometry":null},{"properties":{"name":"Mcdonalds - 175 Rose Glen Road North, Port Hope","city":"Port Hope","post code":"L1A 3V6","country":"Canada","geo_score":0.583,"phone":"(905) 885-2480","id":"ahcfnfyvb62n","address":"175 Rose Glen Road North","province":"Ontario","geo_precision":"range"},"type":"Feature","geometry":{"type":"Point","coordinates":[-85.261647,37.092237]}},{"properties":{"name":"Mcdonalds - 1070 Major Mackenzie Drive East, Richmond Hill","city":"Richmond Hill","post code":"L4S 1P3","country":"Canada","geo_score":0.561,"phone":"(905) 508-9550","id":"ahcfngb2ntg9","address":"1070 Major Mackenzie Drive East","province":"Ontario","geo_precision":"street"},"type":"Feature","geometry":{"type":"Point","coordinates":[-77.223597,40.141]}},{"properties":{"name":"Mcdonalds - 11005 Yonge Street, Richmond Hill","city":"Richmond Hill","post code":"L4C 3E3","country":"Canada","geo_score":0.649,"phone":"(905) 780-6740","id":"ahcfng7qlsal","address":"11005 Yonge Street","province":"Ontario","geo_precision":"street"},"type":"Feature","geometry":{"type":"Point","coordinates":[-87.254155,30.437314]}},{"properties":{"name":"Mcdonalds - 13081 Yonge Street, Richmond Hill","city":"Richmond Hill","post code":"L4E 3M2","country":"Canada","geo_score":0.649,"phone":"(905) 773-6777","id":"ahcfnfw3t9s9","address":"13081 Yonge Street","province":"Ontario","geo_precision":"street"},"type":"Feature","geometry":{"type":"Point","coordinates":[-87.254155,30.437314]}},{"properties":{"name":"Mcdonalds - 420 Hwy 7e., Richmond Hill","city":"Richmond Hill","post code":"L4B 3K2","country":"Canada","geo_score":0.426,"phone":"(905) 882-6550","id":"ahcfnfy1l6f9","address":"420 Hwy 7e.","province":"Ontario","geo_precision":"street"},"type":"Feature","geometry":{"type":"Point","coordinates":[-88.335274,42.444092]}},{"properties":{"name":"Mcdonalds - 9301 Yonge Street, Richmond Hill","city":"Richmond Hill","post code":"L4C 1V4","country":"Canada","geo_score":0.649,"phone":"(905) 770-0135","id":"ahcfng3csecg","address":"9301 Yonge Street","province":"Ontario","geo_precision":"street"},"type":"Feature","geometry":{"type":"Point","coordinates":[-87.254155,30.437314]}},{"properties":{"name":"Mcdonalds - 9989 Bayview, Richmond Hill","city":"Richmond Hill","post code":"L4C 9W4","country":"Canada","geo_score":0.484,"phone":"(905) 770-5301","id":"ahcfnfwzard4","address":"9989 Bayview","province":"Ontario","geo_precision":"street"},"type":"Feature","geometry":{"type":"Point","coordinates":[-77.510562,37.441646]}},{"properties":{"name":"Mcdonalds - 1 Eglinton Square, Scarborough","city":"Scarborough","post code":"M1L 2K1","country":"Canada","geo_score":0.585,"phone":"(416) 701-9560","id":"ahcfnfybjlc2","address":"1 Eglinton Square","province":"Ontario","geo_precision":"street"},"type":"Feature","geometry":{"type":"Point","coordinates":[-84.462707,33.981864]}},{"properties":{"name":"Mcdonalds - 1280 Markham Rd, Scarborough","city":"Scarborough","post code":"M1H 3B4","country":"Canada","geo_score":0.708,"phone":"(416) 438-3344","id":"ahcfngbiopy4","address":"1280 Markham Rd","province":"Ontario","geo_precision":"street"},"type":"Feature","geometry":{"type":"Point","coordinates":[-83.0458,39.159979]}},{"properties":{"name":"Mcdonalds - 1571 Sandhurst Circle, Scarborough","city":"Scarborough","post code":"M1V 1V2","country":"Canada","geo_score":0.665,"phone":"(416) 292-6706","id":"ahcfng1c54t7","address":"1571 Sandhurst Circle","province":"Ontario","geo_precision":"street"},"type":"Feature","geometry":{"type":"Point","coordinates":[-88.603273,41.656836]}},{"properties":{"name":"Mcdonalds - 2260 Markham Road, Scarborough","city":"Scarborough","post code":"M1B 2W4","country":"Canada","geo_score":0.707,"phone":"(416) 321-3590","id":"ahcfng1o4an3","address":"2260 Markham Road","province":"Ontario","geo_precision":"street"},"type":"Feature","geometry":{"type":"Point","coordinates":[-83.0458,39.159979]}},{"properties":{"name":"Mcdonalds - 2480 Gerrard Street East, Scarborough","city":"Scarborough","post code":"M1N 4C3","country":"Canada","geo_score":0.634,"phone":"(416) 690-3659","id":"ahcfnfzaksnb","address":"2480 Gerrard Street East","province":"Ontario","geo_precision":"street"},"type":"Feature","geometry":{"type":"Point","coordinates":[-70.733498,43.432168]}},{"properties":{"name":"Mcdonalds - 2701 Lawrence Avenue East, Scarborough","city":"Scarborough","post code":"M1P 2S2","country":"Canada","geo_score":0.666,"phone":"(416) 752-2610","id":"ahcfng2wd0w1","address":"2701 Lawrence Avenue East","province":"Ontario","geo_precision":"street"},"type":"Feature","geometry":{"type":"Point","coordinates":[-82.577651,38.415793]}},{"properties":{"name":"Mcdonalds - 2870 Eglinton Ave E, Scarborough","city":"Scarborough","post code":"M1J 2C8","country":"Canada","geo_score":0.562,"phone":"(416) 267-5984","id":"ahcfngaxulqv","address":"2870 Eglinton Ave E","province":"Ontario","geo_precision":"street"},"type":"Feature","geometry":{"type":"Point","coordinates":[-84.462707,33.981864]}},{"properties":{"name":"Mcdonalds - 2900 Warden Ave, Scarborough","city":"Scarborough","post code":"M1W 2S8","country":"Canada","geo_score":0.621,"phone":"(416) 491-3199","id":"ahcfnga3pko6","address":"2900 Warden Ave","province":"Ontario","geo_precision":"street"},"type":"Feature","geometry":{"type":"Point","coordinates":[-88.250022,41.729935]}},{"properties":{"name":"Mcdonalds - 300 Borough Dr, Unit #3, Scarborough","city":"Scarborough","post code":"M1P 4P5","country":"Canada","geo_score":0.61,"phone":"(416) 279-0722","id":"ahcfng40esdq","address":"300 Borough Dr, Unit #3","province":"Ontario","geo_precision":"range"},"type":"Feature","geometry":{"type":"Point","coordinates":[-70.114234,43.844398]}},{"properties":{"name":"Mcdonalds - 300 Borough Drive, Suite #4, Scarborough","city":"Scarborough","post code":"M1P 4P5","country":"Canada","geo_score":0.61,"phone":"(416) 290-6195","id":"ahcfng5dp46y","address":"300 Borough Drive, Suite #4","province":"Ontario","geo_precision":"range"},"type":"Feature","geometry":{"type":"Point","coordinates":[-73.673446,41.326802]}},{"properties":{"name":"Mcdonalds - 3150 St. Clair E.,, Scarborough","city":"Scarborough","post code":"M1L 1V6","country":"Canada","geo_score":0.524,"phone":"(416) 751-9014","id":"ahcfng9cmmpl","address":"3150 St. Clair E.,","province":"Ontario","geo_precision":"street"},"type":"Feature","geometry":{"type":"Point","coordinates":[-70.512973,43.732378]}},{"properties":{"name":"Mcdonalds - 3227 Eglinton Ave. E. Unit #139, Scarborough","city":"Scarborough","post code":"M1J 2H7","country":"Canada","geo_score":0.42,"phone":"(416) 264-5983","id":"ahcfnfxskwhv","address":"3227 Eglinton Ave. E. Unit #139","province":"Ontario","geo_precision":"street"},"type":"Feature","geometry":{"type":"Point","coordinates":[-83.023899,39.372693]}},{"properties":{"name":"Mcdonalds - 3305 Sheppard Ave.e.,, Scarborough","city":"Scarborough","post code":"M1T 3K2","country":"Canada","geo_score":0.471,"phone":"(416) 491-7751","id":"ahcfng8gdm4s","address":"3305 Sheppard Ave.e.,","province":"Ontario","geo_precision":"street"},"type":"Feature","geometry":{"type":"Point","coordinates":[-82.311635,32.598058]}},{"properties":{"name":"Mcdonalds - 3495 Lawrence Ave. East, Scarborough","city":"Scarborough","post code":"M1H 1B3","country":"Canada","geo_score":0.476,"phone":"(416) 289-2830","id":"ahcfng6qpkuz","address":"3495 Lawrence Ave. East","province":"Ontario","geo_precision":"street"},"type":"Feature","geometry":{"type":"Point","coordinates":[-73.769774,41.094054]}},{"properties":{"name":"Mcdonalds - 395 Bamburgh Circle, Scarborough","city":"Scarborough","post code":"M1W 3G4","country":"Canada","geo_score":0.39,"phone":"(416) 756-2229","id":"ahcfnga1qx8a","address":"395 Bamburgh Circle","province":"Ontario","geo_precision":"city"},"type":"Feature","geometry":{"type":"Point","coordinates":[-89.034259,41.781419]}},{"properties":{"name":"Mcdonalds - 4435 Kingston Rd.,, Scarborough","city":"Scarborough","post code":"M1E 2N7","country":"Canada","geo_score":0.53,"phone":"(416) 282-9497","id":"ahcfnfymerx6","address":"4435 Kingston Rd.,","province":"Ontario","geo_precision":"street"},"type":"Feature","geometry":{"type":"Point","coordinates":[-81.939171,32.794525]}},{"properties":{"name":"Mcdonalds - 5995 Steeles Avenue East, Scarborough","city":"Scarborough","post code":"M1V 5P7","country":"Canada","geo_score":0.617,"phone":"(416) 293-2944","id":"ahcfng6yaxh0","address":"5995 Steeles Avenue East","province":"Ontario","geo_precision":"street"},"type":"Feature","geometry":{"type":"Point","coordinates":[-73.733595,40.93942]}},{"properties":{"name":"Mcdonalds - 65 Ellesmere Road, Scarborough","city":"Scarborough","post code":"M1R 4B8","country":"Canada","geo_score":0.617,"phone":"(416) 391-0404","id":"ahcfngbreuyv","address":"65 Ellesmere Road","province":"Ontario","geo_precision":"street"},"type":"Feature","geometry":{"type":"Point","coordinates":[-84.464438,34.030055]}},{"properties":{"name":"Mcdonalds - 7431 Kingston Road, Scarborough","city":"Scarborough","post code":"M1B 5S3","country":"Canada","geo_score":0.53,"phone":"(416) 283-1033","id":"ahcfng09ped9","address":"7431 Kingston Road","province":"Ontario","geo_precision":"street"},"type":"Feature","geometry":{"type":"Point","coordinates":[-81.939171,32.794525]}},{"properties":{"name":"Mcdonalds - 785 Milner Avenue, Scarborough","city":"Scarborough","post code":"M1B 3C3","country":"Canada","geo_score":0.39,"phone":"(416) 284-5362","id":"ahcfng4uh0fs","address":"785 Milner Avenue","province":"Ontario","geo_precision":"city"},"type":"Feature","geometry":{"type":"Point","coordinates":[-89.034259,41.781419]}},{"properties":{"name":"Mcdonalds - Malvern Town Centre, 31 Tapscott Road, Scarborough","city":"Scarborough","post code":"M1B 4Y7","country":"Canada","geo_score":0.565,"phone":"(416) 754-8071","id":"ahcfng7bbums","address":"Malvern Town Centre, 31 Tapscott Road","province":"Ontario","geo_precision":"range"},"type":"Feature","geometry":{"type":"Point","coordinates":[-70.285013,43.592437]}},{"properties":{"name":"Mcdonalds - 210 Glendale Avenue, St Catharines","city":"St Catharines","post code":"L2T 3Y6","country":"Canada","geo_score":0.0,"phone":"(905) 688-8877","id":"ahcfng496r87","address":"210 Glendale Avenue","province":"Ontario","geo_precision":"unmatched"},"type":"Feature","geometry":null},{"properties":{"name":"Mcdonalds - 285 Geneva Street, St Catharines","city":"St Catharines","post code":"L2N 2G1","country":"Canada","geo_score":0.0,"phone":"(905) 646-4450","id":"ahcfng03rop6","address":"285 Geneva Street","province":"Ontario","geo_precision":"unmatched"},"type":"Feature","geometry":null},{"properties":{"name":"Mcdonalds - 385 Ontario St., St Catharines","city":"St Catharines","post code":"L2R 5L3","country":"Canada","geo_score":0.0,"phone":"(905) 688-0244","id":"ahcfng3zjoq9","address":"385 Ontario St.","province":"Ontario","geo_precision":"unmatched"},"type":"Feature","geometry":null},{"properties":{"name":"Mcdonalds - 420 Vansickle Rd, St Catharines","city":"St Catharines","post code":"L2R 6P9","country":"Canada","geo_score":0.0,"phone":"(905) 687-8820","id":"ahcfng43e7xx","address":"420 Vansickle Rd","province":"Ontario","geo_precision":"unmatched"},"type":"Feature","geometry":null},{"properties":{"name":"Mcdonalds - 420 Vansickle Road, St Catharines","city":"St Catharines","post code":"L2R 6P9","country":"Canada","geo_score":0.0,"phone":"(905) 682-5762","id":"ahcfnfz0e6as","address":"420 Vansickle Road","province":"Ontario","geo_precision":"unmatched"},"type":"Feature","geometry":null},{"properties":{"name":"Mcdonalds - 460 St David Rd, St Catharines","city":"St Catharines","post code":"L2T 4C2","country":"Canada","geo_score":0.0,"phone":"(905) 682-3993","id":"ahcfng1wovkh","address":"460 St David Rd","province":"Ontario","geo_precision":"unmatched"},"type":"Feature","geometry":null},{"properties":{"name":"Mcdonalds - 500 Welland Ave, St Catharines","city":"St Catharines","post code":"L2M 5V5","country":"Canada","geo_score":0.0,"phone":"(905) 688-5461","id":"ahcfnfw8u1h9","address":"500 Welland Ave","province":"Ontario","geo_precision":"unmatched"},"type":"Feature","geometry":null},{"properties":{"name":"Mcdonalds - 525 Welland Ave, Wal-mart - Lincoln Mall, St Catharines","city":"St Catharines","post code":"L2M 6P3","country":"Canada","geo_score":0.0,"phone":"(905) 688-8306","id":"ahcfng3fyunl","address":"525 Welland Ave, Wal-mart - Lincoln Mall","province":"Ontario","geo_precision":"unmatched"},"type":"Feature","geometry":null},{"properties":{"name":"Mcdonalds - 1050 Hoover Park Drive, Stouffville","city":"Stouffville","post code":"L4A 0G9","country":"Canada","geo_score":0.0,"phone":"(905) 642-2950","id":"ahcfng3h2aw8","address":"1050 Hoover Park Drive","province":"Ontario","geo_precision":"unmatched"},"type":"Feature","geometry":null},{"properties":{"name":"Mcdonalds - 28 Sandiford Dr, Stouffville","city":"Stouffville","post code":"L4S 7X5","country":"Canada","geo_score":0.0,"phone":"(905) 642-1689","id":"ahcfng48vqt4","address":"28 Sandiford Dr","province":"Ontario","geo_precision":"unmatched"},"type":"Feature","geometry":null},{"properties":{"name":"Mcdonalds - 1194 Kingsway, Sudbury","city":"Sudbury","post code":"P3B 2E8","country":"Canada","geo_score":0.39,"phone":"(705) 566-1307","id":"ahcfng66fybc","address":"1194 Kingsway","province":"Ontario","geo_precision":"city"},"type":"Feature","geometry":{"type":"Point","coordinates":[-71.459405,42.446396]}},{"properties":{"name":"Mcdonalds - 1349 Lasalle Boul, Sudbury","city":"Sudbury","post code":"P3A 1Z4","country":"Canada","geo_score":0.61,"phone":"(705) 524-3055","id":"ahcfnfyu9534","address":"1349 Lasalle Boul","province":"Ontario","geo_precision":"street"},"type":"Feature","geometry":{"type":"Point","coordinates":[-71.383766,42.317831]}},{"properties":{"name":"Mcdonalds - 1740 Regent St S.,, Sudbury","city":"Sudbury","post code":"P3E 3Z8","country":"Canada","geo_score":0.39,"phone":"(705) 522-1325","id":"ahcfng6zlu3x","address":"1740 Regent St S.,","province":"Ontario","geo_precision":"city"},"type":"Feature","geometry":{"type":"Point","coordinates":[-71.459405,42.446396]}},{"properties":{"name":"Mcdonalds - 2416 Long Lake Road, Sudbury","city":"Sudbury","post code":"P3C 4P4","country":"Canada","geo_score":0.829,"phone":"(705) 523-6698","id":"ahcfng2eu6fk","address":"2416 Long Lake Road","province":"Ontario","geo_precision":"range"},"type":"Feature","geometry":{"type":"Point","coordinates":[-73.355851,43.730925]}},{"properties":{"name":"Mcdonalds - Mcdonalds Restaurant, 914 Newgate Ave, Sudbury","city":"Sudbury","post code":"P3A 5J9","country":"Canada","geo_score":0.441,"phone":"(705) 560-3030","id":"ahcfng38o7i3","address":"Mcdonald's Restaurant, 914 Newgate Ave","province":"Ontario","geo_precision":"street"},"type":"Feature","geometry":{"type":"Point","coordinates":[-71.457238,42.281557]}},{"properties":{"name":"Mcdonalds - 170 Simcoe Street, Tillsonburg","city":"Tillsonburg","post code":"N4G 4Z6","country":"Canada","geo_score":0.0,"phone":"(519) 842-7655","id":"ahcfngblrqnk","address":"170 Simcoe Street","province":"Ontario","geo_precision":"unmatched"},"type":"Feature","geometry":null},{"properties":{"name":"Mcdonalds - 296 Toronto St, Uxbridge","city":"Uxbridge","post code":"L9P 1N5","country":"Canada","geo_score":0.0,"phone":"(905) 852-0554","id":"ahcfngbacl3y","address":"296 Toronto St","province":"Ontario","geo_precision":"unmatched"},"type":"Feature","geometry":null},{"properties":{"name":"Mcdonalds - 6 Welwood Dr., Uxbridge","city":"Uxbridge","post code":"L9P 1Y4","country":"Canada","geo_score":0.0,"phone":"(905) 862-0811","id":"ahcfng9xzb4n","address":"6 Welwood Dr.","province":"Ontario","geo_precision":"unmatched"},"type":"Feature","geometry":null},{"properties":{"name":"Mcdonalds - 100 Stonebridge Road, Wasaga Beach","city":"Wasaga Beach","post code":"L9Z 2N7","country":"Canada","geo_score":0.902,"phone":"(705) 429-3390","id":"ahcfng1afv0e","address":"100 Stonebridge Road","province":"Ontario","geo_precision":"range"},"type":"Feature","geometry":{"type":"Point","coordinates":[-90.489137,42.736971]}},{"properties":{"name":"Mcdonalds - 1269 - 1275 Mosley Street, Wasaga Beach","city":"Wasaga Beach","post code":"L0L 2P0","country":"Canada","geo_score":0.309,"phone":"(705) 429-2678","id":"ahcfng8dcxjj","address":"1269 - 1275 Mosley Street","province":"Ontario","geo_precision":"range"},"type":"Feature","geometry":{"type":"Point","coordinates":[-87.737557,31.929674]}},{"properties":{"name":"Mcdonalds - 1301 Brock St. South, Whitby","city":"Whitby","post code":"L1N 9K2","country":"Canada","geo_score":0.429,"phone":"(905) 666-9589","id":"ahcfng4s4bbz","address":"1301 Brock St. South","province":"Ontario","geo_precision":"street"},"type":"Feature","geometry":{"type":"Point","coordinates":[-81.12695,37.734711]}},{"properties":{"name":"Mcdonalds - 1615 Dundas St E, Whitby","city":"Whitby","post code":"L1N 2L1","country":"Canada","geo_score":0.39,"phone":"(905) 728-6308","id":"ahcfnfxtaf8v","address":"1615 Dundas St E","province":"Ontario","geo_precision":"city"},"type":"Feature","geometry":{"type":"Point","coordinates":[-81.184265,37.666227]}},{"properties":{"name":"Mcdonalds - 200 Taunton Road East, Whitby","city":"Whitby","post code":"L1R 3H8","country":"Canada","geo_score":0.659,"phone":"(905) 666-5133","id":"ahcfng1fie8d","address":"200 Taunton Road East","province":"Ontario","geo_precision":"street"},"type":"Feature","geometry":{"type":"Point","coordinates":[-81.08326,37.634557]}},{"properties":{"name":"Mcdonalds - 4100 Baldwin St. South, Whitby","city":"Whitby","post code":"L1R 3H8","country":"Canada","geo_score":0.429,"phone":"(905) 655-6536","id":"ahcfng8jsbxk","address":"4100 Baldwin St. South","province":"Ontario","geo_precision":"street"},"type":"Feature","geometry":{"type":"Point","coordinates":[-81.244129,37.872934]}},{"properties":{"name":"Mcdonalds - 499 Norwich Avenue, Woodstock","city":"Woodstock","post code":"N4S 9A2","country":"Canada","geo_score":0.902,"phone":"(519) 539-5247","id":"ahcfng2kzxdh","address":"499 Norwich Avenue","province":"Ontario","geo_precision":"range"},"type":"Feature","geometry":{"type":"Point","coordinates":[-72.245357,41.572072]}},{"properties":{"name":"Mcdonalds - 507 Norwich Avenue, Woodstock","city":"Woodstock","post code":"N4S 9A2","country":"Canada","geo_score":0.902,"phone":"(519) 539-4475","id":"ahcfnfynu61n","address":"507 Norwich Avenue","province":"Ontario","geo_precision":"range"},"type":"Feature","geometry":{"type":"Point","coordinates":[-72.249496,41.572229]}},{"properties":{"name":"Mcdonalds - 980 Dundas St, Woodstock","city":"Woodstock","post code":"N4S 1H3","country":"Canada","geo_score":0.39,"phone":"(519) 537-2643","id":"ahcfnfx7k4i1","address":"980 Dundas St","province":"Ontario","geo_precision":"city"},"type":"Feature","geometry":{"type":"Point","coordinates":[-86.18471,39.827542]}},{"properties":{"name":"Mcdonalds - 97 Main St., Compartment 13, Picton","city":"Picton","post code":"K0K 2T0","country":"Canada","geo_score":0.578,"phone":"(613) 476-9090","id":"ahcfng3lqrnb","address":"97 Main St., Compartment 13","province":"Ontario","geo_precision":"street"},"type":"Feature","geometry":{"type":"Point","coordinates":[-83.016684,39.069148]}},{"properties":{"name":"Mcdonalds - 14500 Simcoe St., Port Perry","city":"Port Perry","post code":"L9L 1V4","country":"Canada","geo_score":0.385,"phone":"(905) 982-1256","id":"ahcfngcis68r","address":"14500 Simcoe St.","province":"Ontario","geo_precision":"street"},"type":"Feature","geometry":{"type":"Point","coordinates":[-93.233561,44.071625]}},{"properties":{"name":"Mcdonalds - 2686 Laurier Street, Rockland","city":"Rockland","post code":"K4K 1A2","country":"Canada","geo_score":0.39,"phone":"(613) 446-7416","id":"ahcfng7kvhgn","address":"2686 Laurier Street","province":"Ontario","geo_precision":"city"},"type":"Feature","geometry":{"type":"Point","coordinates":[-86.24746,33.715229]}},{"properties":{"name":"Mcdonalds - 3001 Richelieu Street, Rockland","city":"Rockland","post code":"K4K 0B5","country":"Canada","geo_score":0.427,"phone":"(613) 446-6254","id":"ahcfng03ssqk","address":"3001 Richelieu Street","province":"Ontario","geo_precision":"street"},"type":"Feature","geometry":{"type":"Point","coordinates":[-88.842327,37.06489]}},{"properties":{"name":"Mcdonalds - R.r.#2, Comp. #104, Shanty Bay","city":"Shanty Bay","post code":"L0L 2L0","country":"Canada","geo_score":0.229,"phone":"(705) 739-8180","id":"ahcfng5b9l3l","address":"R.r.#2, Comp. #104","province":"Ontario","geo_precision":"street"},"type":"Feature","geometry":{"type":"Point","coordinates":[-97.04251,41.048479]}},{"properties":{"name":"Mcdonalds - 1063 Talbot Street, St Thomas","city":"St Thomas","post code":"NP5 1G4","country":"Canada","geo_score":0.707,"phone":"(519) 631-2275","id":"ahcfngauny1l","address":"1063 Talbot Street","province":"Ontario","geo_precision":"street"},"type":"Feature","geometry":{"type":"Point","coordinates":[-83.14164,42.564962]}},{"properties":{"name":"Mcdonalds - 955 Talbot Street, St Thomas","city":"St Thomas","post code":"N5P 1E8","country":"Canada","geo_score":0.707,"phone":"(519) 631-1950","id":"ahcfng210ynf","address":"955 Talbot Street","province":"Ontario","geo_precision":"street"},"type":"Feature","geometry":{"type":"Point","coordinates":[-83.14164,42.564962]}},{"properties":{"name":"Mcdonalds - 1040 Ontario St., Stratford","city":"Stratford","post code":"N5A 6Z3","country":"Canada","geo_score":0.61,"phone":"(519) 271-1100","id":"ahcfng71cgpz","address":"1040 Ontario St.","province":"Ontario","geo_precision":"street"},"type":"Feature","geometry":{"type":"Point","coordinates":[-73.147725,41.17483]}},{"properties":{"name":"Mcdonalds - 709 Erie Street, Stratford","city":"Stratford","post code":"N4Z 1A2","country":"Canada","geo_score":0.528,"phone":"(519) 273-3730","id":"ahcfng0u4rti","address":"709 Erie Street","province":"Ontario","geo_precision":"street"},"type":"Feature","geometry":{"type":"Point","coordinates":[-73.110902,41.252297]}},{"properties":{"name":"Mcdonalds - 1631 Manning Road, Tecumseh","city":"Tecumseh","post code":"N8N 2L9","country":"Canada","geo_score":0.586,"phone":"(519) 735-8122","id":"ahcfnfwkzste","address":"1631 Manning Road","province":"Ontario","geo_precision":"street"},"type":"Feature","geometry":{"type":"Point","coordinates":[-84.899667,34.354729]}},{"properties":{"name":"Mcdonalds - 1870 Riverside Drive, Rr2, Timmins","city":"Timmins","post code":"P4R 1N7","country":"Canada","geo_score":0.0,"phone":"(705) 267-4411","id":"ahcfng49dhkx","address":"1870 Riverside Drive, Rr2","province":"Ontario","geo_precision":"unmatched"},"type":"Feature","geometry":null},{"properties":{"name":"Mcdonalds - 520-522 Algonquin Blvd E, Timmins","city":"Timmins","post code":"P4N 1B7","country":"Canada","geo_score":0.0,"phone":"(705) 264-7323","id":"ahcfngafy4gr","address":"520-522 Algonquin Blvd E","province":"Ontario","geo_precision":"unmatched"},"type":"Feature","geometry":null},{"properties":{"name":"Mcdonalds - 2956 Hwy 69 North, Val Caron","city":"Val Caron","post code":"P3N 1E3","country":"Canada","geo_score":0.566,"phone":"(705) 897-2369","id":"ahcfng4qxezn","address":"2956 Hwy 69 North","province":"Ontario","geo_precision":"range"},"type":"Feature","geometry":{"type":"Point","coordinates":[-93.600723,41.702614]}},{"properties":{"name":"Mcdonalds - 115 Hamilton Street North, Waterdown","city":"Waterdown","post code":"L0R 2H0","country":"Canada","geo_score":0.794,"phone":"(905) 690-8458","id":"ahcfng1mjefu","address":"115 Hamilton Street North","province":"Ontario","geo_precision":"range"},"type":"Feature","geometry":{"type":"Point","coordinates":[-75.895102,43.970946]}},{"properties":{"name":"Mcdonalds - 90 Dundas Street East, Waterdown","city":"Waterdown","post code":"L0R 2H2","country":"Canada","geo_score":0.796,"phone":"(905) 690-8400","id":"ahcfng46teov","address":"90 Dundas Street East","province":"Ontario","geo_precision":"range"},"type":"Feature","geometry":{"type":"Point","coordinates":[-93.798255,45.290163]}},{"properties":{"name":"Mcdonalds - 6170 Bathurst St., Willowdale","city":"Willowdale","post code":"M2R 2A2","country":"Canada","geo_score":0.39,"phone":"(416) 226-0351","id":"ahcfnfw9bz0c","address":"6170 Bathurst St.","province":"Ontario","geo_precision":"city"},"type":"Feature","geometry":{"type":"Point","coordinates":[-120.943098,44.805402]}},{"properties":{"name":"Mcdonalds - 6344 Yonge Street, Willowdale","city":"Willowdale","post code":"M2M 3X4","country":"Canada","geo_score":0.39,"phone":"(416) 226-5063","id":"ahcfng82wavm","address":"6344 Yonge Street","province":"Ontario","geo_precision":"city"},"type":"Feature","geometry":{"type":"Point","coordinates":[-120.943098,44.805402]}}],"is_temporal":false,"author":{"url":null,"metadata":null,"contact_name":null,"contact_address":null,"source":null,"contact_phone":null},"source":null,"pagination":{"sort":null,"start":0,"total":501,"limit":1000000},"state":"complete","tags":"","published":"2014-08-16T20:00:01-04:00","id":396043}