{"type":"FeatureCollection","data_type":"Dataset","url_type":null,"permissions":[{"permissions":{"download":true,"view":true},"group_id":"everyone"}],"classification":null,"title":"Public Works","count":15,"stream_id":396161,"contributor":{"url":"http://geocommons.com/users/73781","name":"aurodata12"},"data_attributes":null,"calculation_params":null,"icon_link":null,"link":"http://geocommons.com/overlays/396161.json","extent":[-106.651,26.0522,-90.3047,35.8358],"geometry_types":["point"],"unique_name":null,"name":"Public Works","feature_count":15,"description":"","next_feature":null,"is_raster":false,"short_classification":"Y","stats":{"total project amount ($)":{"max":6600000,"variance":2788465670371.0,"mean":2058857.0,"stdev":1669869.95612563,"min":271850,"median":1500000},"eda amount ($)":{"max":1498048,"variance":163322394591.695,"mean":958536.533333333,"stdev":404131.655023082,"min":135000,"median":1000000},"prog code":{"max":2,"variance":0.0,"mean":2.0,"stdev":0.0,"min":2,"median":2}},"features":[{"properties":{"city":"Albuquerque","total project amount ($)":6600000,"congressional district":"NM-1","county":"Bernalillo","geo_score":0.857,"eda amount ($)":1498048,"program":"Public Works","prog code":2,"id":"ahcyu8zlszbn","geo_precision":"city","grantee":"University of New Mexico","location":"Albuquerque, NM","state":"NM"},"type":"Feature","geometry":{"type":"Point","coordinates":[-106.651137,35.084491]}},{"properties":{"city":"La Feria","total project amount ($)":1537500,"congressional district":"TX-34","county":"Cameron","geo_score":0.857,"eda amount ($)":1000000,"program":"Public Works","prog code":2,"id":"ahcyu8r2dpvz","geo_precision":"city","grantee":"City of La Feria","location":"La Feria, TX","state":"TX"},"type":"Feature","geometry":{"type":"Point","coordinates":[-97.754971,26.131353]}},{"properties":{"city":"Simmesport","total project amount ($)":2000000,"congressional district":"LA-5","county":"Avoyelles","geo_score":0.857,"eda amount ($)":1200000,"program":"Public Works","prog code":2,"id":"ahcyu91ho8l3","geo_precision":"city","grantee":"Avoyelles Parish Port Commission/Town of Simmesport","location":"Simmesport, LA","state":"LA"},"type":"Feature","geometry":{"type":"Point","coordinates":[-91.894355,30.946808]}},{"properties":{"city":"Smithville","total project amount ($)":2192740,"congressional district":"TX-10","county":"Bastrop","geo_score":0.857,"eda amount ($)":1000000,"program":"Public Works","prog code":2,"id":"ahcyu8q61ndv","geo_precision":"city","grantee":"City of Smithville","location":"Smithville, TX","state":"TX"},"type":"Feature","geometry":{"type":"Point","coordinates":[-97.222121,30.003401]}},{"properties":{"city":"Bayview","total project amount ($)":1500000,"congressional district":"TX-27","county":"Cameron","geo_score":0.857,"eda amount ($)":1200000,"program":"Public Works","prog code":2,"id":"ahcyu91luuji","geo_precision":"city","grantee":"San Benito Economic Development Corporation","location":"Bayview, TX","state":"TX"},"type":"Feature","geometry":{"type":"Point","coordinates":[-95.004372,29.514952]}},{"properties":{"city":"McAllen","total project amount ($)":1270000,"congressional district":"TX-15","county":"Hidalgo","geo_score":0.857,"eda amount ($)":600000,"program":"Public Works","prog code":2,"id":"ahcyu91jiyzy","geo_precision":"city","grantee":"City of McAllen","location":"McAllen, TX","state":"TX"},"type":"Feature","geometry":{"type":"Point","coordinates":[-98.224364,26.269305]}},{"properties":{"city":"Clarksville","total project amount ($)":1500000,"congressional district":"TX-4","county":"Red River","geo_score":0.857,"eda amount ($)":1200000,"program":"Public Works","prog code":2,"id":"ahcyu8yy5g9b","geo_precision":"city","grantee":"City of Clarksville","location":"Clarksville, TX","state":"TX"},"type":"Feature","geometry":{"type":"Point","coordinates":[-95.096511,33.61306]}},{"properties":{"city":"Anadarko","total project amount ($)":956551,"congressional district":"OK-3","county":"Caddo","geo_score":0.857,"eda amount ($)":950000,"program":"Public Works","prog code":2,"id":"ahcyu8tnwvbl","geo_precision":"city","grantee":"Delaware Nation","location":"Anadarko, OK","state":"OK"},"type":"Feature","geometry":{"type":"Point","coordinates":[-98.325598,35.167108]}},{"properties":{"city":"Lubbock","total project amount ($)":2050332,"congressional district":"TX-19","county":"Lubbock","geo_score":0.636,"eda amount ($)":1225000,"program":"Public Works","prog code":2,"id":"ahcyu8ucyg4w","geo_precision":"street","grantee":"Lubbock Reese Redevelopment Authority/Texas Department of Transportation","location":"9801 Reese Blvd., Lubbock, TX 79416","state":"TX"},"type":"Feature","geometry":{"type":"Point","coordinates":[-102.03293,33.593848]}},{"properties":{"city":"El Paso","total project amount ($)":1337480,"congressional district":"TX-16","county":"El Paso","geo_score":0.857,"eda amount ($)":1000000,"program":"Public Works","prog code":2,"id":"ahcyu8wvhrs9","geo_precision":"city","grantee":"Medical Center of the Americas Foundation","location":"El Paso, TX","state":"TX"},"type":"Feature","geometry":{"type":"Point","coordinates":[-106.484592,31.763608]}},{"properties":{"city":"Brownsville","total project amount ($)":341402,"congressional district":"TX-27","county":"Cameron","geo_score":0.857,"eda amount ($)":270000,"program":"Public Works","prog code":2,"id":"ahcyu9539y10","geo_precision":"city","grantee":"Cameron Works, Inc.","location":"Brownsville, TX","state":"TX"},"type":"Feature","geometry":{"type":"Point","coordinates":[-97.514466,26.052155]}},{"properties":{"city":"Jonesboro","total project amount ($)":271850,"congressional district":"AR-1","county":"Craighead","geo_score":0.857,"eda amount ($)":135000,"program":"Public Works","prog code":2,"id":"ahcyu8prkxwh","geo_precision":"city","grantee":"City of Jonesboro/Jonesboro City Water and Light Plant","location":"Jonesboro, AR","state":"AR"},"type":"Feature","geometry":{"type":"Point","coordinates":[-90.623071,35.835847]}},{"properties":{"city":"Canyon","total project amount ($)":4200000,"congressional district":"TX-13","county":"Randall","geo_score":0.857,"eda amount ($)":1200000,"program":"Public Works","prog code":2,"id":"ahcyu8zq33hb","geo_precision":"city","grantee":"West Texas A&amp;M University","location":"Canyon, TX","state":"TX"},"type":"Feature","geometry":{"type":"Point","coordinates":[-101.91008,35.004998]}},{"properties":{"city":"Jena","total project amount ($)":1165000,"congressional district":"LA-5","county":"La Salle","geo_score":0.857,"eda amount ($)":500000,"program":"Public Works","prog code":2,"id":"ahcyu8voq9et","geo_precision":"city","grantee":"LaSalle Parish Police Jury/Town of Jena","location":"Jena, LA","state":"LA"},"type":"Feature","geometry":{"type":"Point","coordinates":[-92.140733,31.60603]}},{"properties":{"city":"Galliano","total project amount ($)":3960000,"congressional district":"LA-3","county":"Lafourche","geo_score":0.857,"eda amount ($)":1400000,"program":"Public Works","prog code":2,"id":"ahcyu8qfu42k","geo_precision":"city","grantee":"Greater Lafourche Port Commission/Edward Wisner Donation Advisory Committee","location":"Galliano, LA","state":"LA"},"type":"Feature","geometry":{"type":"Point","coordinates":[-90.304724,29.437009]}}],"is_temporal":false,"author":{"url":"","metadata":"","contact_name":"","contact_address":"","source":"","contact_phone":""},"source":"","pagination":{"sort":null,"start":0,"total":15,"limit":1000000},"state":"complete","tags":"","published":"2014-08-16T20:03:04-04:00","id":396161}