{"type":"FeatureCollection","data_type":"Dataset","url_type":null,"permissions":[{"permissions":{"download":true,"view":true},"group_id":"everyone"}],"classification":null,"title":"Alabama Hospitals","count":95,"stream_id":396798,"contributor":{"url":"http://geocommons.com/users/45960","name":"doylean"},"data_attributes":null,"calculation_params":null,"icon_link":null,"link":"http://geocommons.com/overlays/396798.json","extent":[-88.296,30.4676,-85.1569,34.8036],"geometry_types":["point"],"unique_name":null,"name":"Alabama Hospitals","feature_count":95,"description":"A map of all of Alabama's hospitals","next_feature":null,"is_raster":false,"short_classification":"Y","stats":{"beds":{"max":1146,"variance":35284.6819708847,"mean":168.631578947368,"stdev":187.842173035995,"min":15,"median":100}},"features":[{"properties":{"hospital":"Shelby Baptist Medical Center","beds":192,"id":"ahfjoozgjcnp","address":"1000 First Street North, Alabaster, AL, 35007"},"type":"Feature","geometry":{"type":"Point","coordinates":[-86.813908,33.254961]}},{"properties":{"hospital":"Russell Hospital","beds":73,"id":"ahfjooy7523c","address":"3316 Highway 280, Alexander City, AL, 35011"},"type":"Feature","geometry":{"type":"Point","coordinates":[-86.60479,33.351137]}},{"properties":{"hospital":"Andalusia Regional Hospital","beds":100,"id":"ahfjop416v4v","address":"849 South Three Notch Street, Andalusia, AL, 36420"},"type":"Feature","geometry":{"type":"Point","coordinates":[-86.462672,31.316681]}},{"properties":{"hospital":"Northeast Alabama Regional Medical Center","beds":338,"id":"ahfjop86o3zc","address":"400 East Tenth Street, Anniston, AL, 36202"},"type":"Feature","geometry":{"type":"Point","coordinates":[-85.82257,33.657106]}},{"properties":{"hospital":"Stringfellow Memorial Hospital","beds":125,"id":"ahfjop28qte9","address":"301 East 18th Street, Anniston, AL, 36202"},"type":"Feature","geometry":{"type":"Point","coordinates":[-85.825715,33.667698]}},{"properties":{"hospital":"Clay County Hospital","beds":45,"id":"ahfjop1ccgu9","address":"83825 Highway 9, Ashland, AL, 36251"},"type":"Feature","geometry":{"type":"Point","coordinates":[-85.92226,33.193481]}},{"properties":{"hospital":"Athens Limestone Hospital","beds":101,"id":"ahfjoov3t54u","address":"700 West Market Street, Athens, AL, 35611"},"type":"Feature","geometry":{"type":"Point","coordinates":[-86.977383,34.803582]}},{"properties":{"hospital":"Atmore Community Hospital","beds":49,"id":"ahfjop07g4rx","address":"401 Medical Park Dr., Atmore, AL, 36502"},"type":"Feature","geometry":{"type":"Point","coordinates":[-87.479717,31.017391]}},{"properties":{"hospital":"North Baldwin Infirmary","beds":55,"id":"ahfjop2jvsti","address":"1815 Hand Avenue, Bay Minette, AL, 36507"},"type":"Feature","geometry":{"type":"Point","coordinates":[-87.782968,30.901514]}},{"properties":{"hospital":"Medical West","beds":300,"id":"ahfjop6z7av6","address":"995 Ninth Avenue Southwest, Bessemer, AL, 35021"},"type":"Feature","geometry":{"type":"Point","coordinates":[-86.992254,33.372697]}},{"properties":{"hospital":"Baptist Medical Center-Princeton","beds":499,"id":"ahfjop61w6rw","address":"701 Princeton Avenue Southwest, Birmingham, AL, 35211"},"type":"Feature","geometry":{"type":"Point","coordinates":[-86.84707,33.498519]}},{"properties":{"hospital":"Brookwood Medical Center","beds":602,"id":"ahfjoov441c5","address":"2010 Brookwood Medical Center Drive, Birmingham, AL, 35259"},"type":"Feature","geometry":{"type":"Point","coordinates":[-86.774132,33.464138]}},{"properties":{"hospital":"Children's Hospital of Alabama","beds":275,"id":"ahfjootn4ozo","address":"1600 Seventh Avenue South, Birmingham, AL, 35233"},"type":"Feature","geometry":{"type":"Point","coordinates":[-86.80675,33.502595]}},{"properties":{"hospital":"Cooper Green-Mercy Hospital","beds":141,"id":"ahfjop4l6wc7","address":"1515 South Sixth Avenue, Birmingham, AL, 35233"},"type":"Feature","geometry":{"type":"Point","coordinates":[-86.806387,33.504189]}},{"properties":{"hospital":"St. Vincent's Birmingham","beds":372,"id":"ahfjop02nkzx","address":"810 St. Vincent's Drive, Birmingham, AL, 35205"},"type":"Feature","geometry":{"type":"Point","coordinates":[-86.789293,33.508854]}},{"properties":{"hospital":"University of Alabama Hospital","beds":1146,"id":"ahfjoows3435","address":"619 South Nineteenth Street, Birmingham, AL, 35233"},"type":"Feature","geometry":{"type":"Point","coordinates":[-86.80132,33.505425]}},{"properties":{"hospital":"St. Vincent's East","beds":328,"id":"ahfjoouiw51v","address":"50 Medical Park East Drive, Birmingham, AL, 35235"},"type":"Feature","geometry":{"type":"Point","coordinates":[-86.680925,33.587406]}},{"properties":{"hospital":"Marshall Medical Center South","beds":150,"id":"ahfjooyb4ex3","address":"2505 U.S. Highway 431 South, Boaz, AL, 35957"},"type":"Feature","geometry":{"type":"Point","coordinates":[-86.159458,34.221564]}},{"properties":{"hospital":"D. W. McMillan Memorial Hospital","beds":49,"id":"ahfjop788bjp","address":"1301 Belleville Avenue, Brewton, AL, 36427"},"type":"Feature","geometry":{"type":"Point","coordinates":[-87.072547,31.127737]}},{"properties":{"hospital":"Choctaw General Hospital","beds":25,"id":"ahfjop44gluy","address":"401 Vanity Fair Drive, Butler, AL, 36904"},"type":"Feature","geometry":{"type":"Point","coordinates":[-88.212564,32.099458]}},{"properties":{"hospital":"J. Paul Jones Hospital","beds":32,"id":"ahfjop54u7sr","address":"317 McWilliams Avenue, Camden, AL, 36726"},"type":"Feature","geometry":{"type":"Point","coordinates":[-87.299385,31.998248]}},{"properties":{"hospital":"Pickens County Medical Center Inc.","beds":48,"id":"ahfjoot0bo59","address":"241 Robert K. Wilson Drive, Carrollton, AL, 35447"},"type":"Feature","geometry":{"type":"Point","coordinates":[-87.61366,33.22493]}},{"properties":{"hospital":"Cherokee Medical Center","beds":60,"id":"ahfjoosrdvhq","address":"400 Northwood Drive, Centre, AL, 35960"},"type":"Feature","geometry":{"type":"Point","coordinates":[-85.653644,34.162699]}},{"properties":{"hospital":"Bibb Medical Center","beds":28,"id":"ahfjooxwh2yr","address":"208 Pierson Avenue, Centreville, AL, 35042"},"type":"Feature","geometry":{"type":"Point","coordinates":[-87.144727,32.951463]}},{"properties":{"hospital":"Washington County Hospital","beds":15,"id":"ahfjoowalvdd","address":"14600 St. Stephens Avenue, Chatom, AL, 36518"},"type":"Feature","geometry":{"type":"Point","coordinates":[-88.230812,31.458764]}},{"properties":{"hospital":"Cullman Regional Medical Center","beds":115,"id":"ahfjop6xbv2h","address":"1912 Alabama Highway 157, Cullman, AL, 35055"},"type":"Feature","geometry":{"type":"Point","coordinates":[-86.827078,34.175135]}},{"properties":{"hospital":"Lake Martin Community Hospital","beds":28,"id":"ahfjoouygl21","address":"201 Mariarden Road, Dadeville, AL, 36853"},"type":"Feature","geometry":{"type":"Point","coordinates":[-85.7417,32.815047]}},{"properties":{"hospital":"Decatur General Hospital","beds":230,"id":"ahfjop2w9vtn","address":"1201 Seventh Street Southeast, Decatur, AL, 35601"},"type":"Feature","geometry":{"type":"Point","coordinates":[-86.971359,34.591197]}},{"properties":{"hospital":"Decatur General West","beds":64,"id":"ahfjoouuoxb1","address":"2205 Beltline Road Southwest, Decatur, AL, 35601"},"type":"Feature","geometry":{"type":"Point","coordinates":[-87.024087,34.583783]}},{"properties":{"hospital":"Parkway Medical Center","beds":108,"id":"ahfjoowhksu3","address":"1874 Beltline Road Southwest, Decatur, AL, 35601"},"type":"Feature","geometry":{"type":"Point","coordinates":[-87.01684,34.575904]}},{"properties":{"hospital":"Bryan W. Whitfield Memorial Hospital","beds":99,"id":"ahfjop87iibs","address":"150 U.S. Highway 80, Demopolis, AL, 36732"},"type":"Feature","geometry":{"type":"Point","coordinates":[-87.841529,32.501385]}},{"properties":{"hospital":"Flowers Hospital","beds":235,"id":"ahfjop4ununc","address":"4370 West Main Street, Dothan, AL, 36302"},"type":"Feature","geometry":{"type":"Point","coordinates":[-85.438043,31.228669]}},{"properties":{"hospital":"Southeast Alabama Medical Center","beds":420,"id":"ahfjop2kft2s","address":"1108 Ross Clark Circle, Dothan, AL, 36301"},"type":"Feature","geometry":{"type":"Point","coordinates":[-85.361336,31.215868]}},{"properties":{"hospital":"Medical Center Enterprise","beds":131,"id":"ahfjop34i4sk","address":"400 North Edwards Street, Enterprise, AL, 36330"},"type":"Feature","geometry":{"type":"Point","coordinates":[-85.856079,31.319094]}},{"properties":{"hospital":"Medical Center Barbour","beds":74,"id":"ahfjop40m14j","address":"820 West Washington Street, Eufaula, AL, 36027"},"type":"Feature","geometry":{"type":"Point","coordinates":[-85.156912,31.88806]}},{"properties":{"hospital":"Greene County Hospital","beds":20,"id":"ahfjop7354oy","address":"509 Wilson Avenue, Eutaw, AL, 35462"},"type":"Feature","geometry":{"type":"Point","coordinates":[-87.88961,32.843171]}},{"properties":{"hospital":"Evergreen Medical Center","beds":58,"id":"ahfjop504koe","address":"101 Crestview Avenue, Evergreen, AL, 36401"},"type":"Feature","geometry":{"type":"Point","coordinates":[-87.314475,31.506739]}},{"properties":{"hospital":"Thomas Hospital","beds":138,"id":"ahfjop778u17","address":"750 Morphy Avenue, Fairhope, AL, 36533"},"type":"Feature","geometry":{"type":"Point","coordinates":[-87.88769,30.519917]}},{"properties":{"hospital":"Fayette Medical Center","beds":61,"id":"ahfjoovwzdtx","address":"1653 Temple Avenue North, Fayette, AL, 35555"},"type":"Feature","geometry":{"type":"Point","coordinates":[-87.823668,33.707825]}},{"properties":{"hospital":"Florala Community Hospital","beds":23,"id":"ahfjop7m3s9z","address":"24273 Fifth Avenue, Florala, AL, 36442"},"type":"Feature","geometry":{"type":"Point","coordinates":[-86.326085,31.004227]}},{"properties":{"hospital":"Eliza Coffee Memorial Hospital","beds":328,"id":"ahfjop58o2hp","address":"205 Marengo Street, Florence, AL, 35631"},"type":"Feature","geometry":{"type":"Point","coordinates":[-87.683649,34.792777]}},{"properties":{"hospital":"South Baldwin Regional Medical Center","beds":112,"id":"ahfjoovadzvc","address":"1613 North McKenzie Street, Foley, AL, 36535"},"type":"Feature","geometry":{"type":"Point","coordinates":[-87.692401,30.467608]}},{"properties":{"hospital":"DeKalb Regional Medical Center","beds":134,"id":"ahfjop0yxnqu","address":"200 Medical Center Drive SW, Fort Payne, AL, 35968"},"type":"Feature","geometry":{"type":"Point","coordinates":[-85.965447,34.008479]}},{"properties":{"hospital":"Gadsden Regional Medical Center","beds":279,"id":"ahfjoovzjjac","address":"1007 Goodyear Avenue, Gadsden, AL, 35903"},"type":"Feature","geometry":{"type":"Point","coordinates":[-85.971035,34.009362]}},{"properties":{"hospital":"Riverview Regional Medical Center","beds":281,"id":"ahfjop4hhcik","address":"600 South Third Street, Gadsden, AL,  35999-0268"},"type":"Feature","geometry":{"type":"Point","coordinates":[-86.004093,34.003826]}},{"properties":{"hospital":"Wiregrass Medical Center","beds":83,"id":"ahfjop4xeexp","address":"1200 West Maple Avenue, Geneva, AL, 36340"},"type":"Feature","geometry":{"type":"Point","coordinates":[-85.888635,31.048479]}},{"properties":{"hospital":"Georgiana Hospital","beds":22,"id":"ahfjop1a36bn","address":"515 Miranda Street, Georgiana, AL, 36033"},"type":"Feature","geometry":{"type":"Point","coordinates":[-86.742728,31.64278]}},{"properties":{"hospital":"Hale County Hospital","beds":39,"id":"ahfjop01aeh6","address":"508 Greene Street, Greensboro, AL, 36744"},"type":"Feature","geometry":{"type":"Point","coordinates":[-87.587556,32.694675]}},{"properties":{"hospital":"L. V. Stabler Memorial Hospital","beds":72,"id":"ahfjooxukpq7","address":"29 L. V. Stabler Drive, Greenville, AL, 36037"},"type":"Feature","geometry":{"type":"Point","coordinates":[-86.272864,31.710621]}},{"properties":{"hospital":"Grove Hill Memorial Hospital","beds":50,"id":"ahfjop4l6udp","address":"295 Jackson Highway South, Grove Hill, AL, 36451"},"type":"Feature","geometry":{"type":"Point","coordinates":[-87.801307,31.704953]}},{"properties":{"hospital":"Marshall Medical Center North","beds":90,"id":"ahfjoozppbdt","address":"8000 Alabama Highway 69, Guntersville, AL, 35976"},"type":"Feature","geometry":{"type":"Point","coordinates":[-86.420496,34.363638]}},{"properties":{"hospital":"Lakeland Community Hospital","beds":50,"id":"ahfjootptz51","address":"42024 Highway 195, Haleyville, AL, 35565"},"type":"Feature","geometry":{"type":"Point","coordinates":[-87.583302,34.245407]}},{"properties":{"hospital":"Marion Regional Medical Center","beds":57,"id":"ahfjootvrzd1","address":"1256 Military Street South, Hamilton, AL, 35570"},"type":"Feature","geometry":{"type":"Point","coordinates":[-87.989826,34.127272]}},{"properties":{"hospital":"Crestwood Medical Center","beds":150,"id":"ahfjoosvebpv","address":"One Hospital Drive, Huntsville, AL, 35801"},"type":"Feature","geometry":{"type":"Point","coordinates":[-86.5725,34.692364]}},{"properties":{"hospital":"The Huntsville Hospital","beds":881,"id":"ahfjop4v63rp","address":"101 Sivley Road, Huntsville, AL, 35801"},"type":"Feature","geometry":{"type":"Point","coordinates":[-86.581505,34.721218]}},{"properties":{"hospital":"Jackson Medical Center","beds":35,"id":"ahfjooyoewx4","address":"220 Hospital Drive, Jackson, AL, 36545"},"type":"Feature","geometry":{"type":"Point","coordinates":[-87.888657,30.520863]}},{"properties":{"hospital":"Jacksonville Medical Center","beds":63,"id":"ahfjoozqtvec","address":"1701 South Pelham Road, Jacksonville, AL, 36265"},"type":"Feature","geometry":{"type":"Point","coordinates":[-85.761737,33.782015]}},{"properties":{"hospital":"Walker Baptist Medical Center","beds":267,"id":"ahfjop3mli9y","address":"3400 Highway 78 East, Jasper, AL,  35502-3547"},"type":"Feature","geometry":{"type":"Point","coordinates":[-87.577973,33.918054]}},{"properties":{"hospital":"Crenshaw Community Hospital","beds":49,"id":"ahfjooyafyrc","address":"101 Hospital Circle, Luverne, AL, 36049"},"type":"Feature","geometry":{"type":"Point","coordinates":[-86.187266,32.551603]}},{"properties":{"hospital":"Madison Hospital","beds":60,"id":"ahfjooz3qoas","address":"8375 Highway 72 West, Madison, AL, 35758"},"type":"Feature","geometry":{"type":"Point","coordinates":[-86.73474,34.683389]}},{"properties":{"hospital":"Mobile Infirmary Medical Center","beds":704,"id":"ahfjop39yok7","address":"5 Mobile Infirmary Circle, Mobile, AL, 36652"},"type":"Feature","geometry":{"type":"Point","coordinates":[-88.079222,30.696476]}},{"properties":{"hospital":"Springhill Memorial Hospital","beds":252,"id":"ahfjop4co3gg","address":"3719 Dauphin Street, Mobile, AL, 36608"},"type":"Feature","geometry":{"type":"Point","coordinates":[-88.1434,30.685375]}},{"properties":{"hospital":"University of South Alabama Children's and Women's Hospital","beds":152,"id":"ahfjop5i35wp","address":"1700 Center Street, Mobile, AL,  36604-3391"},"type":"Feature","geometry":{"type":"Point","coordinates":[-88.077438,30.696216]}},{"properties":{"hospital":"University of South Alabama Medical Center","beds":406,"id":"ahfjop6bi7te","address":"2451 Fillingim Street, Mobile, AL,  36617-2293"},"type":"Feature","geometry":{"type":"Point","coordinates":[-88.100367,30.707926]}},{"properties":{"hospital":"Providence Hospital","beds":349,"id":"ahfjooyzot9h","address":"6801 Airport Boulevard, Mobile, AL, 36685"},"type":"Feature","geometry":{"type":"Point","coordinates":[-88.198971,30.68188]}},{"properties":{"hospital":"Monroe County Hospital","beds":94,"id":"ahfjooue3tf1","address":"2016 South Alabama Avenue, Monroeville, AL, 36461"},"type":"Feature","geometry":{"type":"Point","coordinates":[-87.31996,31.49503]}},{"properties":{"hospital":"Baptist Medical Center East","beds":150,"id":"ahfjooynajwj","address":"400 Taylor Road, Montgomery, AL,  36124-1267"},"type":"Feature","geometry":{"type":"Point","coordinates":[-86.172374,32.377023]}},{"properties":{"hospital":"Baptist Medical Center South","beds":347,"id":"ahfjop4yivl2","address":"2105 East South Boulevard, Montgomery, AL,  36111-0010"},"type":"Feature","geometry":{"type":"Point","coordinates":[-86.302253,32.326538]}},{"properties":{"hospital":"Jackson Hospital and Clinic Inc.","beds":344,"id":"ahfjoozn4uzp","address":"1725 Pine Street, Montgomery, AL, 36106"},"type":"Feature","geometry":{"type":"Point","coordinates":[-86.285858,32.366622]}},{"properties":{"hospital":"Lawrence Medical Center","beds":98,"id":"ahfjop81pooy","address":"202 Hospital Street, Moulton, AL, 35650"},"type":"Feature","geometry":{"type":"Point","coordinates":[-87.286024,34.48289]}},{"properties":{"hospital":"Shoals Hospital","beds":119,"id":"ahfjop5pvvi7","address":"201 West Avalon Avenue, Muscle Shoals, AL, 35661"},"type":"Feature","geometry":{"type":"Point","coordinates":[-87.694029,34.745197]}},{"properties":{"hospital":"Northport Medical Center","beds":204,"id":"ahfjoosbbbub","address":"2700 Hospital Drive, Northport, AL, 35476"},"type":"Feature","geometry":{"type":"Point","coordinates":[-87.569413,33.233229]}},{"properties":{"hospital":"St. Vincent's Blount","beds":40,"id":"ahfjop2xce5i","address":"150 Gilbreath Drive, Oneonta, AL, 35121"},"type":"Feature","geometry":{"type":"Point","coordinates":[-86.495224,33.933473]}},{"properties":{"hospital":"East Alabama Medical Center","beds":314,"id":"ahfjop1pemk9","address":"2000 Pepperell Parkway, Opelika, AL, 36801"},"type":"Feature","geometry":{"type":"Point","coordinates":[-85.40585,32.637955]}},{"properties":{"hospital":"Mizell Memorial Hospital","beds":99,"id":"ahfjootzw16m","address":"702 Main Street, Opp, AL, 36467"},"type":"Feature","geometry":{"type":"Point","coordinates":[-86.255564,31.288441]}},{"properties":{"hospital":"Dale Medical Center","beds":89,"id":"ahfjop591eaj","address":"126 Hospital Avenue, Ozark, AL, 36360"},"type":"Feature","geometry":{"type":"Point","coordinates":[-85.631088,31.450085]}},{"properties":{"hospital":"St. Vincent's - St. Clair","beds":82,"id":"ahfjop25gbn5","address":"2805 Dr. John Haynes Drive, Pell City, AL, 35125"},"type":"Feature","geometry":{"type":"Point","coordinates":[-86.271172,33.603653]}},{"properties":{"hospital":"Jack Hughston Memorial Hospital","beds":70,"id":"ahfjop62w3s4","address":"4401 River Chase Drive, Phenix City, AL, 36867"},"type":"Feature","geometry":{"type":"Point","coordinates":[-85.874766,32.889282]}},{"properties":{"hospital":"Prattville Baptist Hospital","beds":47,"id":"ahfjoota62oy","address":"124 South Memorial Drive, Prattville, AL, 36067"},"type":"Feature","geometry":{"type":"Point","coordinates":[-86.451006,32.464361]}},{"properties":{"hospital":"Red Bay Hospital","beds":25,"id":"ahfjop5e32ie","address":"211 Hospital Road, Red Bay, AL, 35582"},"type":"Feature","geometry":{"type":"Point","coordinates":[-88.147569,34.457567]}},{"properties":{"hospital":"Russellville Hospital","beds":100,"id":"ahfjooz66duo","address":"15155 Highway 43, Russellville, AL, 35653"},"type":"Feature","geometry":{"type":"Point","coordinates":[-87.717422,34.513875]}},{"properties":{"hospital":"Highlands Medical Center","beds":170,"id":"ahfjop6803c8","address":"380 Woods Cove Road, Scottsboro, AL, 35768"},"type":"Feature","geometry":{"type":"Point","coordinates":[-86.046715,34.661782]}},{"properties":{"hospital":"Vaughan Regional Medical Center-Parkway Campus","beds":163,"id":"ahfjooyxl811","address":"1015 Medical Center Parkway, Selma, AL,  36701-6748"},"type":"Feature","geometry":{"type":"Point","coordinates":[-87.053018,32.428371]}},{"properties":{"hospital":"Helen Keller Memorial Hospital","beds":166,"id":"ahfjop4u1t5p","address":"1301 South Montgomery Avenue, Sheffield, AL, 35660"},"type":"Feature","geometry":{"type":"Point","coordinates":[-87.698917,34.745287]}},{"properties":{"hospital":"Coosa Valley Medical Center","beds":163,"id":"ahfjop0fl5js","address":"315 West Hickory Street, Sylacauga, AL, 35150"},"type":"Feature","geometry":{"type":"Point","coordinates":[-86.228703,33.316003]}},{"properties":{"hospital":"Citizens Baptist Medical Center","beds":103,"id":"ahfjop4rz58j","address":"604 Stone Avenue, Talladega, AL, 35161"},"type":"Feature","geometry":{"type":"Point","coordinates":[-86.092173,33.439871]}},{"properties":{"hospital":"Community Hospital Inc.","beds":69,"id":"ahfjootseh30","address":"805 Friendship Road, Tallassee, AL,  36078-1225"},"type":"Feature","geometry":{"type":"Point","coordinates":[-85.911747,32.535195]}},{"properties":{"hospital":"Troy Regional Medical Center","beds":97,"id":"ahfjop5ohzw3","address":"1330 Highway 231 South, Troy, AL, 36081"},"type":"Feature","geometry":{"type":"Point","coordinates":[-86.004151,31.873093]}},{"properties":{"hospital":"DCH Regional Medical Center","beds":583,"id":"ahfjooyrle39","address":"809 University Boulevard East, Tuscaloosa, AL, 35401"},"type":"Feature","geometry":{"type":"Point","coordinates":[-87.530167,33.20669]}},{"properties":{"hospital":"Bullock County Hospital","beds":54,"id":"ahfjoosh28dx","address":"102 West Conecuh Avenue, Union Springs, AL, 36089"},"type":"Feature","geometry":{"type":"Point","coordinates":[-85.714738,32.14336]}},{"properties":{"hospital":"George H. Lanier Memorial Hospital","beds":115,"id":"ahfjootxl7r9","address":"4800 48th Street, Valley, AL, 36854"},"type":"Feature","geometry":{"type":"Point","coordinates":[-85.170209,32.823828]}},{"properties":{"hospital":"Wedowee Hospital","beds":25,"id":"ahfjop4t5ne5","address":"209 North Main Street, Wedowee, AL, 36278"},"type":"Feature","geometry":{"type":"Point","coordinates":[-85.488048,33.317064]}},{"properties":{"hospital":"Elmore Community Hospital","beds":69,"id":"ahfjooxvtbwu","address":"500 Hospital Drive, Wetumpka, AL, 36092"},"type":"Feature","geometry":{"type":"Point","coordinates":[-86.187266,32.551603]}},{"properties":{"hospital":"Northwest Medical Center","beds":71,"id":"ahfjop0v95eg","address":"1530 U. S. Highway 43, Winfield, AL, 35594"},"type":"Feature","geometry":{"type":"Point","coordinates":[-87.823505,33.859546]}},{"properties":{"hospital":"Hill Hospital of Sumter County","beds":33,"id":"ahfjoouhx22f","address":"751 Derby Drive, York, AL, 36925"},"type":"Feature","geometry":{"type":"Point","coordinates":[-88.295987,32.491767]}}],"is_temporal":false,"author":{"url":"","metadata":"","contact_name":"Niki Doyle","contact_address":"2201 4th Ave. N.\r\nBirmingham, AL 35203","source":"","contact_phone":"205-325-3180"},"source":"","pagination":{"sort":null,"start":0,"total":95,"limit":1000000},"state":"complete","tags":"alabama,healthcare","published":"2013-09-23T16:00:00Z","id":396798}