{"type":"FeatureCollection","data_type":"Dataset","url_type":null,"permissions":[{"permissions":{"download":true,"view":true},"group_id":"everyone"}],"classification":null,"title":"MaryHogan student addresses","count":403,"stream_id":398145,"contributor":{"url":"http://geocommons.com/users/75712","name":"b8sigrist"},"data_attributes":null,"calculation_params":null,"icon_link":null,"link":"http://geocommons.com/overlays/398145.json","extent":[-73.2737,43.4112,-72.7212,44.3497],"geometry_types":["point"],"unique_name":null,"name":"MaryHogan student addresses","feature_count":403,"description":"","next_feature":null,"is_raster":false,"short_classification":"Y","stats":{},"features":[{"properties":{"city":"East Middlebury","geo_score":0.842,"street":"7 Piper Road","id":"ahi3ezm1xrjy","address":"7 Piper Road  East Middlebury , VT","geo_precision":"range","state":"VT"},"type":"Feature","geometry":{"type":"Point","coordinates":[-73.098348,43.973632]}},{"properties":{"city":"East Middlebury","geo_score":0.842,"street":"5 Piper Road","id":"ahi3ezwq42gv","address":"5 Piper Road  East Middlebury , VT","geo_precision":"range","state":"VT"},"type":"Feature","geometry":{"type":"Point","coordinates":[-73.098382,43.973623]}},{"properties":{"city":"East Middlebury","geo_score":0.852,"street":"30 Grist Mill Road","id":"ahi3ezp88xoc","address":"30 Grist Mill Road  East Middlebury , VT","geo_precision":"range","state":"VT"},"type":"Feature","geometry":{"type":"Point","coordinates":[-73.097456,43.969721]}},{"properties":{"city":"East Middlebury","geo_score":0.842,"street":"9 Piper Road","id":"ahi3ezldlt94","address":"9 Piper Road  East Middlebury , VT","geo_precision":"range","state":"VT"},"type":"Feature","geometry":{"type":"Point","coordinates":[-73.098297,43.973637]}},{"properties":{"city":"East Middlebury","geo_score":0.842,"street":"7 Piper Road","id":"ahi3ezr35amh","address":"7 Piper Road  East Middlebury , VT","geo_precision":"range","state":"VT"},"type":"Feature","geometry":{"type":"Point","coordinates":[-73.098348,43.973632]}},{"properties":{"city":"East Middlebury","geo_score":0.855,"street":"3 Church Street","id":"ahi3ezntx6mv","address":"3 Church Street  East Middlebury , VT","geo_precision":"range","state":"VT"},"type":"Feature","geometry":{"type":"Point","coordinates":[-73.106156,43.973287]}},{"properties":{"city":"East Middlebury","geo_score":0.855,"street":"3 Church Street","id":"ahi3ezyn4x5e","address":"3 Church Street  East Middlebury , VT","geo_precision":"range","state":"VT"},"type":"Feature","geometry":{"type":"Point","coordinates":[-73.106156,43.973287]}},{"properties":{"city":"East Middlebury","geo_score":0.852,"street":"30 Grist Mill Road","id":"ahi3ezw8wg5w","address":"30 Grist Mill Road  East Middlebury , VT","geo_precision":"range","state":"VT"},"type":"Feature","geometry":{"type":"Point","coordinates":[-73.097456,43.969721]}},{"properties":{"city":"East Middlebury","geo_score":0.841,"street":"8 Maple Court","id":"ahi3ezu7dtvo","address":"8 Maple Court  East Middlebury , VT","geo_precision":"range","state":"VT"},"type":"Feature","geometry":{"type":"Point","coordinates":[-73.100839,43.972724]}},{"properties":{"city":"East Middlebury","geo_score":0.841,"street":"8 Maple Court","id":"ahi3eztkhvm4","address":"8 Maple Court  East Middlebury , VT","geo_precision":"range","state":"VT"},"type":"Feature","geometry":{"type":"Point","coordinates":[-73.100839,43.972724]}},{"properties":{"city":"East Middlebury","geo_score":0.842,"street":"9 Piper Road","id":"ahi3ezsa8yu8","address":"9 Piper Road  East Middlebury , VT","geo_precision":"range","state":"VT"},"type":"Feature","geometry":{"type":"Point","coordinates":[-73.098297,43.973637]}},{"properties":{"city":"East Middlebury","geo_score":0.849,"street":"3 North Branch Road","id":"ahi3f00a2jxi","address":"3 North Branch Road  East Middlebury , VT","geo_precision":"range","state":"VT"},"type":"Feature","geometry":{"type":"Point","coordinates":[-73.074216,43.974971]}},{"properties":{"city":"Midddlebury","geo_score":0.622,"street":"43 South Street","id":"ahi3ezrdgihe","address":"43 South Street  Midddlebury , VT","geo_precision":"range","state":"VT"},"type":"Feature","geometry":{"type":"Point","coordinates":[-73.215113,44.173647]}},{"properties":{"city":"Middlebury","geo_score":0.818,"street":"74 Seminary Street Ext.","id":"ahi3ezn16w9l","address":"74 Seminary Street Ext.  Middlebury , VT","geo_precision":"range","state":"VT"},"type":"Feature","geometry":{"type":"Point","coordinates":[-73.158987,44.01658]}},{"properties":{"city":"Middlebury","geo_score":0.428,"street":"91 Jackson Lane Apt. 20","id":"ahi3eznp1rl9","address":"91 Jackson Lane Apt. 20  Middlebury , VT","geo_precision":"street","state":"VT"},"type":"Feature","geometry":{"type":"Point","coordinates":[-72.721152,43.660087]}},{"properties":{"city":"Middlebury","geo_score":0.841,"street":"76 Peterson Terrace","id":"ahi3ezpztdzm","address":"76 Peterson Terrace  Middlebury , VT","geo_precision":"range","state":"VT"},"type":"Feature","geometry":{"type":"Point","coordinates":[-73.15208,44.020516]}},{"properties":{"city":"Middlebury","geo_score":0.84,"street":"706 Happy Valley Road","id":"ahi3eznoiel4","address":"706 Happy Valley Road  Middlebury , VT","geo_precision":"range","state":"VT"},"type":"Feature","geometry":{"type":"Point","coordinates":[-73.151046,44.031815]}},{"properties":{"city":"Middlebury","geo_score":0.856,"street":"356 Washington Street Ext. #3","id":"ahi3ezpan928","address":"356 Washington Street Ext. #3  Middlebury , VT","geo_precision":"range","state":"VT"},"type":"Feature","geometry":{"type":"Point","coordinates":[-73.15305,44.021636]}},{"properties":{"city":"Middlebury","geo_score":0.854,"street":"111 Oak Drive","id":"ahi3ezwrtxg7","address":"111 Oak Drive  Middlebury , VT","geo_precision":"range","state":"VT"},"type":"Feature","geometry":{"type":"Point","coordinates":[-73.090274,43.991419]}},{"properties":{"city":"Middlebury","geo_score":0.84,"street":"31A John Graham Court","id":"ahi3ezysem8p","address":"31A John Graham Court  Middlebury , VT","geo_precision":"range","state":"VT"},"type":"Feature","geometry":{"type":"Point","coordinates":[-73.166581,44.015996]}},{"properties":{"city":"Middlebury","geo_score":0.842,"street":"39 Seminary Street","id":"ahi3ezz6td9j","address":"39 Seminary Street  Middlebury , VT","geo_precision":"range","state":"VT"},"type":"Feature","geometry":{"type":"Point","coordinates":[-73.162346,44.016924]}},{"properties":{"city":"Middlebury","geo_score":0.846,"street":"167 Monroe Street","id":"ahi3f018hfkg","address":"167 Monroe Street  Middlebury , VT","geo_precision":"range","state":"VT"},"type":"Feature","geometry":{"type":"Point","coordinates":[-73.15722,44.007581]}},{"properties":{"city":"Middlebury","geo_score":0.844,"street":"171 Lindale Circle","id":"ahi3ezsczmwo","address":"171 Lindale Circle  Middlebury , VT","geo_precision":"range","state":"VT"},"type":"Feature","geometry":{"type":"Point","coordinates":[-73.097908,44.024703]}},{"properties":{"city":"Middlebury","geo_score":0.849,"street":"184 Birch Drive","id":"ahi3ezoxce03","address":"184 Birch Drive  Middlebury , VT","geo_precision":"range","state":"VT"},"type":"Feature","geometry":{"type":"Point","coordinates":[-73.089024,43.993732]}},{"properties":{"city":"Middlebury","geo_score":0.854,"street":"67 Oak Drive","id":"ahi3ezr8uopr","address":"67 Oak Drive  Middlebury , VT","geo_precision":"range","state":"VT"},"type":"Feature","geometry":{"type":"Point","coordinates":[-73.089621,43.991396]}},{"properties":{"city":"Middlebury","geo_score":0.837,"street":"226 South Munger Street","id":"ahi3ezwcgwr7","address":"226 South Munger Street  Middlebury , VT","geo_precision":"range","state":"VT"},"type":"Feature","geometry":{"type":"Point","coordinates":[-73.113598,44.018142]}},{"properties":{"city":"Middlebury","geo_score":0.849,"street":"16 Case Street","id":"ahi3eztw34bp","address":"16 Case Street  Middlebury , VT","geo_precision":"range","state":"VT"},"type":"Feature","geometry":{"type":"Point","coordinates":[-73.106414,43.976103]}},{"properties":{"city":"Middlebury","geo_score":0.84,"street":"1 South Gorham Lane","id":"ahi3ezurwuj5","address":"1 South Gorham Lane  Middlebury , VT","geo_precision":"range","state":"VT"},"type":"Feature","geometry":{"type":"Point","coordinates":[-73.180149,44.016245]}},{"properties":{"city":"Middlebury","geo_score":0.846,"street":"7 Swanage Court","id":"ahi3ezw4162n","address":"7 Swanage Court  Middlebury , VT","geo_precision":"range","state":"VT"},"type":"Feature","geometry":{"type":"Point","coordinates":[-73.156974,44.008538]}},{"properties":{"city":"Middlebury","geo_score":0.523,"street":"28 North Forty Lane","id":"ahi3ezz03yc5","address":"28 North Forty Lane  Middlebury , VT","geo_precision":"street","state":"VT"},"type":"Feature","geometry":{"type":"Point","coordinates":[-73.273648,44.349689]}},{"properties":{"city":"Middlebury","geo_score":0.658,"street":"315 East Main Street","id":"ahi3eztmfbzc","address":"315 East Main Street  Middlebury , VT","geo_precision":"street","state":"VT"},"type":"Feature","geometry":{"type":"Point","coordinates":[-73.113408,43.974302]}},{"properties":{"city":"Middlebury","geo_score":0.61,"street":"1818 Route 7 South","id":"ahi3ezwve4jc","address":"1818 Route 7 South  Middlebury , VT","geo_precision":"range","state":"VT"},"type":"Feature","geometry":{"type":"Point","coordinates":[-73.12804,43.98293]}},{"properties":{"city":"Middlebury","geo_score":0.846,"street":"4 Thomas Street","id":"ahi3ezvjcoup","address":"4 Thomas Street  Middlebury , VT","geo_precision":"range","state":"VT"},"type":"Feature","geometry":{"type":"Point","coordinates":[-73.161315,44.007713]}},{"properties":{"city":"Middlebury","geo_score":0.847,"street":"102 Chipman Park","id":"ahi3f016675l","address":"102 Chipman Park  Middlebury , VT","geo_precision":"range","state":"VT"},"type":"Feature","geometry":{"type":"Point","coordinates":[-73.172609,44.005575]}},{"properties":{"city":"Middlebury","geo_score":0.842,"street":"52 Seminary Street","id":"ahi3f009lcne","address":"52 Seminary Street  Middlebury , VT","geo_precision":"range","state":"VT"},"type":"Feature","geometry":{"type":"Point","coordinates":[-73.16136,44.016837]}},{"properties":{"city":"Middlebury","geo_score":0.756,"street":"242 Valley View Road Apt. C4","id":"ahi3ezzxfliw","address":"242 Valley View Road Apt. C4  Middlebury , VT","geo_precision":"range","state":"VT"},"type":"Feature","geometry":{"type":"Point","coordinates":[-73.156331,44.014044]}},{"properties":{"city":"Middlebury","geo_score":0.851,"street":"227 Creek Road","id":"ahi3ezvai5ok","address":"227 Creek Road  Middlebury , VT","geo_precision":"range","state":"VT"},"type":"Feature","geometry":{"type":"Point","coordinates":[-73.160384,44.001842]}},{"properties":{"city":"Middlebury","geo_score":0.84,"street":"27 Lower Plains Road","id":"ahi3ezv9dnkt","address":"27 Lower Plains Road  Middlebury , VT","geo_precision":"range","state":"VT"},"type":"Feature","geometry":{"type":"Point","coordinates":[-73.091043,43.961039]}},{"properties":{"city":"Middlebury","geo_score":0.754,"street":"70 Ossie Road","id":"ahi3ezt5k7t5","address":"70 Ossie Road  Middlebury , VT","geo_precision":"street","state":"VT"},"type":"Feature","geometry":{"type":"Point","coordinates":[-73.109318,43.971894]}},{"properties":{"city":"Middlebury","geo_score":0.84,"street":"10 Lower Plains Road","id":"ahi3ezyrbszz","address":"10 Lower Plains Road  Middlebury , VT","geo_precision":"range","state":"VT"},"type":"Feature","geometry":{"type":"Point","coordinates":[-73.091156,43.961146]}},{"properties":{"city":"Middlebury","geo_score":0.849,"street":"172 Valley View","id":"ahi3ezzgc9en","address":"172 Valley View  Middlebury , VT","geo_precision":"range","state":"VT"},"type":"Feature","geometry":{"type":"Point","coordinates":[-73.156406,44.013741]}},{"properties":{"city":"Middlebury","geo_score":0.738,"street":"43 Court Street","id":"ahi3ezr00chr","address":"43 Court Street  Middlebury , VT","geo_precision":"range","state":"VT"},"type":"Feature","geometry":{"type":"Point","coordinates":[-73.163821,44.011252]}},{"properties":{"city":"Middlebury","geo_score":0.847,"street":"31 Twin Circles","id":"ahi3eznkvqjh","address":"31 Twin Circles  Middlebury , VT","geo_precision":"range","state":"VT"},"type":"Feature","geometry":{"type":"Point","coordinates":[-73.155384,44.012062]}},{"properties":{"city":"Middlebury","geo_score":0.523,"street":"28 North Forty Lane","id":"ahi3ezo91pvk","address":"28 North Forty Lane  Middlebury , VT","geo_precision":"street","state":"VT"},"type":"Feature","geometry":{"type":"Point","coordinates":[-73.273648,44.349689]}},{"properties":{"city":"Middlebury","geo_score":0.849,"street":"4548 Case Street","id":"ahi3ezsjkpu4","address":"4548 Case Street  Middlebury , VT","geo_precision":"range","state":"VT"},"type":"Feature","geometry":{"type":"Point","coordinates":[-73.091719,44.03591]}},{"properties":{"city":"Middlebury","geo_score":0.846,"street":"55 Commodore Way","id":"ahi3ezv0cuye","address":"55 Commodore Way  Middlebury , VT","geo_precision":"range","state":"VT"},"type":"Feature","geometry":{"type":"Point","coordinates":[-73.096911,44.025758]}},{"properties":{"city":"Middlebury","geo_score":0.844,"street":"70 Sugarwood Court #12","id":"ahi3ezryraf1","address":"70 Sugarwood Court #12  Middlebury , VT","geo_precision":"range","state":"VT"},"type":"Feature","geometry":{"type":"Point","coordinates":[-73.152011,44.020618]}},{"properties":{"city":"Middlebury","geo_score":0.846,"street":"1 Church Street","id":"ahi3ezqjc7mp","address":"1 Church Street  Middlebury , VT","geo_precision":"range","state":"VT"},"type":"Feature","geometry":{"type":"Point","coordinates":[-73.106231,43.973326]}},{"properties":{"city":"Middlebury","geo_score":0.846,"street":"78 Gambrel Court","id":"ahi3ezmeg857","address":"78 Gambrel Court  Middlebury , VT","geo_precision":"range","state":"VT"},"type":"Feature","geometry":{"type":"Point","coordinates":[-73.152705,44.020238]}},{"properties":{"city":"Middlebury","geo_score":0.627,"street":"11 Seminary Street Apt. 2","id":"ahi3ezp5joky","address":"11 Seminary Street Apt. 2  Middlebury , VT","geo_precision":"street","state":"VT"},"type":"Feature","geometry":{"type":"Point","coordinates":[-73.155579,44.015982]}},{"properties":{"city":"Middlebury","geo_score":0.653,"street":"336 Chipman Park","id":"ahi3f00l2bdm","address":"336 Chipman Park  Middlebury , VT","geo_precision":"street","state":"VT"},"type":"Feature","geometry":{"type":"Point","coordinates":[-73.171487,44.006237]}},{"properties":{"city":"Middlebury","geo_score":0.654,"street":"329 Woodland Park","id":"ahi3ezqjerg4","address":"329 Woodland Park  Middlebury , VT","geo_precision":"street","state":"VT"},"type":"Feature","geometry":{"type":"Point","coordinates":[-73.154791,44.008328]}},{"properties":{"city":"Middlebury","geo_score":0.84,"street":"11 Lower Plains Road","id":"ahi3ezu8d8tn","address":"11 Lower Plains Road  Middlebury , VT","geo_precision":"range","state":"VT"},"type":"Feature","geometry":{"type":"Point","coordinates":[-73.091066,43.961158]}},{"properties":{"city":"Middlebury","geo_score":0.685,"street":"164 Cottage Lane","id":"ahi3ezv0rkjn","address":"164 Cottage Lane  Middlebury , VT","geo_precision":"street","state":"VT"},"type":"Feature","geometry":{"type":"Point","coordinates":[-73.159478,44.001885]}},{"properties":{"city":"Middlebury","geo_score":0.732,"street":"93 Jackson Lane, Apt. 23","id":"ahi3ezmt335a","address":"93 Jackson Lane, Apt. 23  Middlebury , VT","geo_precision":"range","state":"VT"},"type":"Feature","geometry":{"type":"Point","coordinates":[-73.180348,44.018381]}},{"properties":{"city":"Middlebury","geo_score":0.842,"street":"4 Heritage Circle","id":"ahi3ezmghvud","address":"4 Heritage Circle  Middlebury , VT","geo_precision":"range","state":"VT"},"type":"Feature","geometry":{"type":"Point","coordinates":[-73.157554,44.011467]}},{"properties":{"city":"Middlebury","geo_score":0.835,"street":"88G South Pleasant Street","id":"ahi3ezprphum","address":"88G South Pleasant Street  Middlebury , VT","geo_precision":"range","state":"VT"},"type":"Feature","geometry":{"type":"Point","coordinates":[-73.166023,44.011398]}},{"properties":{"city":"Middlebury","geo_score":0.84,"street":"959 Happy Valley Road","id":"ahi3ezyzm1m6","address":"959 Happy Valley Road  Middlebury , VT","geo_precision":"range","state":"VT"},"type":"Feature","geometry":{"type":"Point","coordinates":[-73.148262,44.028619]}},{"properties":{"city":"Middlebury","geo_score":0.851,"street":"10 Meadow Way","id":"ahi3ezpmcr0f","address":"10 Meadow Way  Middlebury , VT","geo_precision":"range","state":"VT"},"type":"Feature","geometry":{"type":"Point","coordinates":[-73.158601,44.010342]}},{"properties":{"city":"Middlebury","geo_score":0.849,"street":"153 Rogers Road","id":"ahi3ezv4rm3t","address":"153 Rogers Road  Middlebury , VT","geo_precision":"range","state":"VT"},"type":"Feature","geometry":{"type":"Point","coordinates":[-73.155416,44.005181]}},{"properties":{"city":"Middlebury","geo_score":0.84,"street":"36 Lower Plains Road","id":"ahi3ezwlh3ub","address":"36 Lower Plains Road  Middlebury , VT","geo_precision":"range","state":"VT"},"type":"Feature","geometry":{"type":"Point","coordinates":[-73.091258,43.960947]}},{"properties":{"city":"Middlebury","geo_score":0.701,"street":"18 South Street","id":"ahi3ezvg73gu","address":"18 South Street  Middlebury , VT","geo_precision":"range","state":"VT"},"type":"Feature","geometry":{"type":"Point","coordinates":[-73.170495,44.009196]}},{"properties":{"city":"Middlebury","geo_score":0.857,"street":"11 Seminary Street #4","id":"ahi3ezu9p4tx","address":"11 Seminary Street #4  Middlebury , VT","geo_precision":"range","state":"VT"},"type":"Feature","geometry":{"type":"Point","coordinates":[-73.166172,44.016559]}},{"properties":{"city":"Middlebury","geo_score":0.841,"street":"275 Weybridge Street","id":"ahi3ezoq8rnb","address":"275 Weybridge Street  Middlebury , VT","geo_precision":"range","state":"VT"},"type":"Feature","geometry":{"type":"Point","coordinates":[-73.180611,44.01844]}},{"properties":{"city":"Middlebury","geo_score":0.84,"street":"100 South Main Street","id":"ahi3ezogvy9k","address":"100 South Main Street  Middlebury , VT","geo_precision":"range","state":"VT"},"type":"Feature","geometry":{"type":"Point","coordinates":[-73.170974,44.010732]}},{"properties":{"city":"Middlebury","geo_score":0.851,"street":"195A Creek Road","id":"ahi3ezrepbia","address":"195A Creek Road  Middlebury , VT","geo_precision":"range","state":"VT"},"type":"Feature","geometry":{"type":"Point","coordinates":[-73.16031,44.002318]}},{"properties":{"city":"Middlebury","geo_score":0.829,"street":"53 Sugarwood Court Apt.8","id":"ahi3ezs2hsxk","address":"53 Sugarwood Court Apt.8  Middlebury , VT","geo_precision":"range","state":"VT"},"type":"Feature","geometry":{"type":"Point","coordinates":[-73.151833,44.020772]}},{"properties":{"city":"Middlebury","geo_score":0.818,"street":"82 Seminary Street Ext.","id":"ahi3ezri2bvr","address":"82 Seminary Street Ext.  Middlebury , VT","geo_precision":"range","state":"VT"},"type":"Feature","geometry":{"type":"Point","coordinates":[-73.154547,44.015685]}},{"properties":{"city":"Middlebury","geo_score":0.677,"street":"13 Washington Street Ext., Apt 2","id":"ahi3ezyeldzh","address":"13 Washington Street Ext., Apt 2  Middlebury , VT","geo_precision":"range","state":"VT"},"type":"Feature","geometry":{"type":"Point","coordinates":[-73.165092,44.014662]}},{"properties":{"city":"Middlebury","geo_score":0.84,"street":"11 Lower Plains Road","id":"ahi3ezzfwb8b","address":"11 Lower Plains Road  Middlebury , VT","geo_precision":"range","state":"VT"},"type":"Feature","geometry":{"type":"Point","coordinates":[-73.091066,43.961158]}},{"properties":{"city":"Middlebury","geo_score":0.701,"street":"20 South Street","id":"ahi3ezxdm0oi","address":"20 South Street  Middlebury , VT","geo_precision":"range","state":"VT"},"type":"Feature","geometry":{"type":"Point","coordinates":[-73.170488,44.008943]}},{"properties":{"city":"Middlebury","geo_score":0.861,"street":"15 Sugarwood Court #2","id":"ahi3ezp99e6l","address":"15 Sugarwood Court #2  Middlebury , VT","geo_precision":"range","state":"VT"},"type":"Feature","geometry":{"type":"Point","coordinates":[-73.151085,44.020633]}},{"properties":{"city":"Middlebury","geo_score":0.705,"street":"3945 Case Street Apt. D","id":"ahi3ezplmz82","address":"3945 Case Street Apt. D  Middlebury , VT","geo_precision":"range","state":"VT"},"type":"Feature","geometry":{"type":"Point","coordinates":[-73.098873,44.027336]}},{"properties":{"city":"Middlebury","geo_score":0.701,"street":"2 North Street","id":"ahi3ezrpzabf","address":"2 North Street  Middlebury , VT","geo_precision":"range","state":"VT"},"type":"Feature","geometry":{"type":"Point","coordinates":[-73.165593,44.018136]}},{"properties":{"city":"Middlebury","geo_score":0.756,"street":"228 Valley View Road Apt. B6","id":"ahi3eztyoqz2","address":"228 Valley View Road Apt. B6  Middlebury , VT","geo_precision":"range","state":"VT"},"type":"Feature","geometry":{"type":"Point","coordinates":[-73.156346,44.013984]}},{"properties":{"city":"Middlebury","geo_score":0.701,"street":"21 South Street","id":"ahi3ezprn5zy","address":"21 South Street  Middlebury , VT","geo_precision":"range","state":"VT"},"type":"Feature","geometry":{"type":"Point","coordinates":[-73.170327,44.008911]}},{"properties":{"city":"Middlebury","geo_score":0.847,"street":"223 Airport Road","id":"ahi3ezvxmnej","address":"223 Airport Road  Middlebury , VT","geo_precision":"range","state":"VT"},"type":"Feature","geometry":{"type":"Point","coordinates":[-73.099788,43.987458]}},{"properties":{"city":"Middlebury","geo_score":0.701,"street":"40 South Street","id":"ahi3ezu2ky5k","address":"40 South Street  Middlebury , VT","geo_precision":"range","state":"VT"},"type":"Feature","geometry":{"type":"Point","coordinates":[-73.170285,44.006979]}},{"properties":{"city":"Middlebury","geo_score":0.84,"street":"100 South Main Street","id":"ahi3ezkwy788","address":"100 South Main Street  Middlebury , VT","geo_precision":"range","state":"VT"},"type":"Feature","geometry":{"type":"Point","coordinates":[-73.170974,44.010732]}},{"properties":{"city":"Middlebury","geo_score":0.849,"street":"4548 Case Street","id":"ahi3ezlnsfke","address":"4548 Case Street  Middlebury , VT","geo_precision":"range","state":"VT"},"type":"Feature","geometry":{"type":"Point","coordinates":[-73.091719,44.03591]}},{"properties":{"city":"Middlebury","geo_score":0.61,"street":"1818 Route 7 South","id":"ahi3ezoqpb9f","address":"1818 Route 7 South  Middlebury , VT","geo_precision":"range","state":"VT"},"type":"Feature","geometry":{"type":"Point","coordinates":[-73.12804,43.98293]}},{"properties":{"city":"Middlebury","geo_score":0.844,"street":"198 Charles Avenue","id":"ahi3ezxqcffb","address":"198 Charles Avenue  Middlebury , VT","geo_precision":"range","state":"VT"},"type":"Feature","geometry":{"type":"Point","coordinates":[-73.163436,44.008671]}},{"properties":{"city":"Middlebury","geo_score":0.52,"street":"48 High Street","id":"ahi3ezsyyk4c","address":"48 High Street  Middlebury , VT","geo_precision":"city","state":"VT"},"type":"Feature","geometry":{"type":"Point","coordinates":[-73.171578,43.991942]}},{"properties":{"city":"Middlebury","geo_score":0.738,"street":"89 Court Street","id":"ahi3ezqld2y5","address":"89 Court Street  Middlebury , VT","geo_precision":"range","state":"VT"},"type":"Feature","geometry":{"type":"Point","coordinates":[-73.160778,44.007033]}},{"properties":{"city":"Middlebury","geo_score":0.656,"street":"252 Fields Road","id":"ahi3ezqquj5b","address":"252 Fields Road  Middlebury , VT","geo_precision":"street","state":"VT"},"type":"Feature","geometry":{"type":"Point","coordinates":[-73.156405,44.000821]}},{"properties":{"city":"Middlebury","geo_score":0.707,"street":"18 Court Street, Apt. 1A","id":"ahi3ezqa6g9d","address":"18 Court Street, Apt. 1A  Middlebury , VT","geo_precision":"range","state":"VT"},"type":"Feature","geometry":{"type":"Point","coordinates":[-73.266377,43.597185]}},{"properties":{"city":"Middlebury","geo_score":0.861,"street":"15 Sugarwood Court #2","id":"ahi3ezvuhwfc","address":"15 Sugarwood Court #2  Middlebury , VT","geo_precision":"range","state":"VT"},"type":"Feature","geometry":{"type":"Point","coordinates":[-73.151085,44.020633]}},{"properties":{"city":"Middlebury","geo_score":0.515,"street":"358 South Street Ext.","id":"ahi3ezmqy13z","address":"358 South Street Ext.  Middlebury , VT","geo_precision":"city","state":"VT"},"type":"Feature","geometry":{"type":"Point","coordinates":[-73.171578,43.991942]}},{"properties":{"city":"Middlebury","geo_score":0.849,"street":"122 Birch Drive","id":"ahi3ezpf2a0l","address":"122 Birch Drive  Middlebury , VT","geo_precision":"range","state":"VT"},"type":"Feature","geometry":{"type":"Point","coordinates":[-73.09034,43.993437]}},{"properties":{"city":"Middlebury","geo_score":0.428,"street":"91 Jackson Lane Apt. 20","id":"ahi3ezq1mhwp","address":"91 Jackson Lane Apt. 20  Middlebury , VT","geo_precision":"street","state":"VT"},"type":"Feature","geometry":{"type":"Point","coordinates":[-72.721152,43.660087]}},{"properties":{"city":"Middlebury","geo_score":0.846,"street":"235 Burnham Drive","id":"ahi3ezocswx6","address":"235 Burnham Drive  Middlebury , VT","geo_precision":"range","state":"VT"},"type":"Feature","geometry":{"type":"Point","coordinates":[-73.089024,43.993732]}},{"properties":{"city":"Middlebury","geo_score":0.777,"street":"2 Cross Street Apt 3","id":"ahi3ezpantz0","address":"2 Cross Street Apt 3  Middlebury , VT","geo_precision":"range","state":"VT"},"type":"Feature","geometry":{"type":"Point","coordinates":[-73.164087,44.011607]}},{"properties":{"city":"Middlebury","geo_score":0.641,"street":"34 North Pleasant Street, Apt. B, Apt. B","id":"ahi3f0138gvj","address":"34 North Pleasant Street, Apt. B, Apt. B  Middlebury , VT","geo_precision":"range","state":"VT"},"type":"Feature","geometry":{"type":"Point","coordinates":[-73.166159,44.011409]}},{"properties":{"city":"Middlebury","geo_score":0.841,"street":"396 East Main Street","id":"ahi3ezxxbz74","address":"396 East Main Street  Middlebury , VT","geo_precision":"range","state":"VT"},"type":"Feature","geometry":{"type":"Point","coordinates":[-73.103154,43.972833]}},{"properties":{"city":"Middlebury","geo_score":0.653,"street":"334 Chipman Park","id":"ahi3ezlmy4mg","address":"334 Chipman Park  Middlebury , VT","geo_precision":"street","state":"VT"},"type":"Feature","geometry":{"type":"Point","coordinates":[-73.171487,44.006237]}},{"properties":{"city":"Middlebury","geo_score":0.576,"street":"20 1/2 Seymour Street","id":"ahi3eznqkfn9","address":"20 1/2 Seymour Street  Middlebury , VT","geo_precision":"street","state":"VT"},"type":"Feature","geometry":{"type":"Point","coordinates":[-73.168837,44.016366]}},{"properties":{"city":"Middlebury","geo_score":0.847,"street":"73 Perkins Lane","id":"ahi3eztpugc0","address":"73 Perkins Lane  Middlebury , VT","geo_precision":"range","state":"VT"},"type":"Feature","geometry":{"type":"Point","coordinates":[-73.103452,43.984564]}},{"properties":{"city":"Middlebury","geo_score":0.818,"street":"86 Seminary Street Ext.","id":"ahi3ezy8rkiq","address":"86 Seminary Street Ext.  Middlebury , VT","geo_precision":"range","state":"VT"},"type":"Feature","geometry":{"type":"Point","coordinates":[-73.153111,44.015606]}},{"properties":{"city":"Middlebury","geo_score":0.65,"street":"468 East Main Street","id":"ahi3f0190on4","address":"468 East Main Street  Middlebury , VT","geo_precision":"street","state":"VT"},"type":"Feature","geometry":{"type":"Point","coordinates":[-73.102837,43.972872]}},{"properties":{"city":"Middlebury","geo_score":0.811,"street":"45 Seymour Street Apt. 4","id":"ahi3ezzbz0em","address":"45 Seymour Street Apt. 4  Middlebury , VT","geo_precision":"range","state":"VT"},"type":"Feature","geometry":{"type":"Point","coordinates":[-73.176866,44.025184]}},{"properties":{"city":"Middlebury","geo_score":0.846,"street":"1123 Munger Street","id":"ahi3ezyk7x0r","address":"1123 Munger Street  Middlebury , VT","geo_precision":"range","state":"VT"},"type":"Feature","geometry":{"type":"Point","coordinates":[-73.116214,44.052276]}},{"properties":{"city":"Middlebury","geo_score":0.842,"street":"65 Otterside Court","id":"ahi3f00m03uo","address":"65 Otterside Court  Middlebury , VT","geo_precision":"range","state":"VT"},"type":"Feature","geometry":{"type":"Point","coordinates":[-73.174243,44.02033]}},{"properties":{"city":"Middlebury","geo_score":0.846,"street":"245 Monroe Street","id":"ahi3ezvmgq1w","address":"245 Monroe Street  Middlebury , VT","geo_precision":"range","state":"VT"},"type":"Feature","geometry":{"type":"Point","coordinates":[-73.157263,44.007573]}},{"properties":{"city":"Middlebury","geo_score":0.683,"street":"4 Jayne Court Apt. 33, Apt. 33","id":"ahi3ezrldgi0","address":"4 Jayne Court Apt. 33, Apt. 33  Middlebury , VT","geo_precision":"range","state":"VT"},"type":"Feature","geometry":{"type":"Point","coordinates":[-73.177223,44.017561]}},{"properties":{"city":"Middlebury","geo_score":0.849,"street":"855 Case Street","id":"ahi3ezl5n2s1","address":"855 Case Street  Middlebury , VT","geo_precision":"range","state":"VT"},"type":"Feature","geometry":{"type":"Point","coordinates":[-73.104052,43.985975]}},{"properties":{"city":"Middlebury","geo_score":0.84,"street":"6 Lower Plains Road","id":"ahi3ezq7jso7","address":"6 Lower Plains Road  Middlebury , VT","geo_precision":"range","state":"VT"},"type":"Feature","geometry":{"type":"Point","coordinates":[-73.091141,43.961177]}},{"properties":{"city":"Middlebury","geo_score":0.825,"street":"13 Washington Street Apt. 4","id":"ahi3f006b2h2","address":"13 Washington Street Apt. 4  Middlebury , VT","geo_precision":"range","state":"VT"},"type":"Feature","geometry":{"type":"Point","coordinates":[-73.15541,44.020886]}},{"properties":{"city":"Middlebury","geo_score":0.846,"street":"56 Monarch Court","id":"ahi3ezz4unnu","address":"56 Monarch Court  Middlebury , VT","geo_precision":"range","state":"VT"},"type":"Feature","geometry":{"type":"Point","coordinates":[-73.097292,44.02678]}},{"properties":{"city":"Middlebury","geo_score":0.479,"street":"11 Seminary Street, Apt. 3","id":"ahi3ezy9n40n","address":"11 Seminary Street, Apt. 3  Middlebury , VT","geo_precision":"street","state":"VT"},"type":"Feature","geometry":{"type":"Point","coordinates":[-73.155579,44.015982]}},{"properties":{"city":"Middlebury","geo_score":0.732,"street":"93 Jackson Lane, Apt. 23","id":"ahi3ezyg45ko","address":"93 Jackson Lane, Apt. 23  Middlebury , VT","geo_precision":"range","state":"VT"},"type":"Feature","geometry":{"type":"Point","coordinates":[-73.180348,44.018381]}},{"properties":{"city":"Middlebury","geo_score":0.52,"street":"24 High Street","id":"ahi3ezrqdd2k","address":"24 High Street  Middlebury , VT","geo_precision":"city","state":"VT"},"type":"Feature","geometry":{"type":"Point","coordinates":[-73.171578,43.991942]}},{"properties":{"city":"Middlebury","geo_score":0.52,"street":"Blue Spruce Motel 2428 Rt 7S","id":"ahi3f00vwklg","address":"Blue Spruce Motel 2428 Rt 7S  Middlebury , VT","geo_precision":"street","state":"VT"},"type":"Feature","geometry":{"type":"Point","coordinates":[-73.138224,43.985009]}},{"properties":{"city":"Middlebury","geo_score":0.835,"street":"51 North Pleasant Street","id":"ahi3ezzh813k","address":"51 North Pleasant Street  Middlebury , VT","geo_precision":"range","state":"VT"},"type":"Feature","geometry":{"type":"Point","coordinates":[-73.166752,44.017292]}},{"properties":{"city":"Middlebury","geo_score":0.61,"street":"2888 Route 7 South","id":"ahi3eztyzz33","address":"2888 Route 7 South  Middlebury , VT","geo_precision":"range","state":"VT"},"type":"Feature","geometry":{"type":"Point","coordinates":[-73.116749,43.974748]}},{"properties":{"city":"Middlebury","geo_score":0.849,"street":"3669 Case Street","id":"ahi3eznyv3gg","address":"3669 Case Street  Middlebury , VT","geo_precision":"range","state":"VT"},"type":"Feature","geometry":{"type":"Point","coordinates":[-73.10266,44.021776]}},{"properties":{"city":"Middlebury","geo_score":0.619,"street":"85 Court Street Apt. 2","id":"ahi3ezlptynd","address":"85 Court Street Apt. 2  Middlebury , VT","geo_precision":"range","state":"VT"},"type":"Feature","geometry":{"type":"Point","coordinates":[-73.051166,43.443878]}},{"properties":{"city":"Middlebury","geo_score":0.683,"street":"53 Sugarwood Court, Apt. 7","id":"ahi3ezpele5a","address":"53 Sugarwood Court, Apt. 7  Middlebury , VT","geo_precision":"range","state":"VT"},"type":"Feature","geometry":{"type":"Point","coordinates":[-73.166645,44.013836]}},{"properties":{"city":"Middlebury","geo_score":0.841,"street":"275 Weybridge Street","id":"ahi3ezwtgo5s","address":"275 Weybridge Street  Middlebury , VT","geo_precision":"range","state":"VT"},"type":"Feature","geometry":{"type":"Point","coordinates":[-73.180611,44.01844]}},{"properties":{"city":"Middlebury","geo_score":0.605,"street":"30 South Village Green #301","id":"ahi3ezmkv9ew","address":"30 South Village Green #301  Middlebury , VT","geo_precision":"range","state":"VT"},"type":"Feature","geometry":{"type":"Point","coordinates":[-73.039133,43.665422]}},{"properties":{"city":"Middlebury","geo_score":0.841,"street":"567 Weybridge Street","id":"ahi3ezn77x3t","address":"567 Weybridge Street  Middlebury , VT","geo_precision":"range","state":"VT"},"type":"Feature","geometry":{"type":"Point","coordinates":[-73.178887,44.017295]}},{"properties":{"city":"Middlebury","geo_score":0.84,"street":"31B John Graham Court","id":"ahi3ezueqgp1","address":"31B John Graham Court  Middlebury , VT","geo_precision":"range","state":"VT"},"type":"Feature","geometry":{"type":"Point","coordinates":[-73.166581,44.015996]}},{"properties":{"city":"Middlebury","geo_score":0.61,"street":"1818 Route 7 South","id":"ahi3eznhz054","address":"1818 Route 7 South  Middlebury , VT","geo_precision":"range","state":"VT"},"type":"Feature","geometry":{"type":"Point","coordinates":[-73.12804,43.98293]}},{"properties":{"city":"Middlebury","geo_score":0.846,"street":"245 Monroe Street","id":"ahi3ezz1vy1g","address":"245 Monroe Street  Middlebury , VT","geo_precision":"range","state":"VT"},"type":"Feature","geometry":{"type":"Point","coordinates":[-73.157263,44.007573]}},{"properties":{"city":"Middlebury","geo_score":0.841,"street":"413 East Main Street","id":"ahi3ezloq2qj","address":"413 East Main Street  Middlebury , VT","geo_precision":"range","state":"VT"},"type":"Feature","geometry":{"type":"Point","coordinates":[-73.105764,43.973315]}},{"properties":{"city":"Middlebury","geo_score":0.847,"street":"102 Chipman Park","id":"ahi3ezrdbzfe","address":"102 Chipman Park  Middlebury , VT","geo_precision":"range","state":"VT"},"type":"Feature","geometry":{"type":"Point","coordinates":[-73.172609,44.005575]}},{"properties":{"city":"Middlebury","geo_score":0.84,"street":"13 Lower Plains Road","id":"ahi3ezldh716","address":"13 Lower Plains Road  Middlebury , VT","geo_precision":"range","state":"VT"},"type":"Feature","geometry":{"type":"Point","coordinates":[-73.091066,43.961158]}},{"properties":{"city":"Middlebury","geo_score":0.849,"street":"26 Nashua Lane","id":"ahi3ezyzl1r8","address":"26 Nashua Lane  Middlebury , VT","geo_precision":"range","state":"VT"},"type":"Feature","geometry":{"type":"Point","coordinates":[-73.101018,44.024147]}},{"properties":{"city":"Middlebury","geo_score":0.849,"street":"4961 Case Street","id":"ahi3ezrkjtni","address":"4961 Case Street  Middlebury , VT","geo_precision":"range","state":"VT"},"type":"Feature","geometry":{"type":"Point","coordinates":[-73.095683,44.030312]}},{"properties":{"city":"Middlebury","geo_score":0.847,"street":"94 Skyline Lane","id":"ahi3ezxfu3e7","address":"94 Skyline Lane  Middlebury , VT","geo_precision":"range","state":"VT"},"type":"Feature","geometry":{"type":"Point","coordinates":[-73.098733,44.025748]}},{"properties":{"city":"Middlebury","geo_score":0.844,"street":"88 Charles Avenue","id":"ahi3ezp2wmwy","address":"88 Charles Avenue  Middlebury , VT","geo_precision":"range","state":"VT"},"type":"Feature","geometry":{"type":"Point","coordinates":[-73.162466,44.00728]}},{"properties":{"city":"Middlebury","geo_score":0.842,"street":"19 Chipman Heights","id":"ahi3ezzo5xdk","address":"19 Chipman Heights  Middlebury , VT","geo_precision":"range","state":"VT"},"type":"Feature","geometry":{"type":"Point","coordinates":[-73.163297,44.019964]}},{"properties":{"city":"Middlebury","geo_score":0.743,"street":"387 East Main Street","id":"ahi3ezp9dlli","address":"387 East Main Street  Middlebury , VT","geo_precision":"street","state":"VT"},"type":"Feature","geometry":{"type":"Point","coordinates":[-73.106066,43.973371]}},{"properties":{"city":"Middlebury","geo_score":0.719,"street":"408 East Main Street","id":"ahi3f00in4kn","address":"408 East Main Street  Middlebury , VT","geo_precision":"range","state":"VT"},"type":"Feature","geometry":{"type":"Point","coordinates":[-73.105827,43.973327]}},{"properties":{"city":"Middlebury","geo_score":0.738,"street":"43 Court Street","id":"ahi3ezw8hg1j","address":"43 Court Street  Middlebury , VT","geo_precision":"range","state":"VT"},"type":"Feature","geometry":{"type":"Point","coordinates":[-73.163821,44.011252]}},{"properties":{"city":"Middlebury","geo_score":0.825,"street":"13 Washington Street Apt. 4","id":"ahi3ezq4v50d","address":"13 Washington Street Apt. 4  Middlebury , VT","geo_precision":"range","state":"VT"},"type":"Feature","geometry":{"type":"Point","coordinates":[-73.15541,44.020886]}},{"properties":{"city":"Middlebury","geo_score":0.842,"street":"51 Seminary Street","id":"ahi3ezysxks7","address":"51 Seminary Street  Middlebury , VT","geo_precision":"range","state":"VT"},"type":"Feature","geometry":{"type":"Point","coordinates":[-73.16242,44.016914]}},{"properties":{"city":"Middlebury","geo_score":0.653,"street":"364 Chipman Park","id":"ahi3ezvyadt4","address":"364 Chipman Park  Middlebury , VT","geo_precision":"street","state":"VT"},"type":"Feature","geometry":{"type":"Point","coordinates":[-73.171487,44.006237]}},{"properties":{"city":"Middlebury","geo_score":0.851,"street":"5 Meadow Way","id":"ahi3ezowalyp","address":"5 Meadow Way  Middlebury , VT","geo_precision":"range","state":"VT"},"type":"Feature","geometry":{"type":"Point","coordinates":[-73.158616,44.010181]}},{"properties":{"city":"Middlebury","geo_score":0.844,"street":"12 Lindale Circle","id":"ahi3ezkw0ics","address":"12 Lindale Circle  Middlebury , Vt","geo_precision":"range","state":"Vt"},"type":"Feature","geometry":{"type":"Point","coordinates":[-73.100517,44.025447]}},{"properties":{"city":"Middlebury","geo_score":0.738,"street":"89 Court Street","id":"ahi3ezl9n1yb","address":"89 Court Street  Middlebury , VT","geo_precision":"range","state":"VT"},"type":"Feature","geometry":{"type":"Point","coordinates":[-73.160778,44.007033]}},{"properties":{"city":"Middlebury","geo_score":0.841,"street":"332 East Main Street","id":"ahi3ezlo8jx9","address":"332 East Main Street  Middlebury , VT","geo_precision":"range","state":"VT"},"type":"Feature","geometry":{"type":"Point","coordinates":[-73.113272,43.974188]}},{"properties":{"city":"Middlebury","geo_score":0.842,"street":"15 Woodbridge Lane","id":"ahi3eznfb8uy","address":"15 Woodbridge Lane  Middlebury , VT","geo_precision":"range","state":"VT"},"type":"Feature","geometry":{"type":"Point","coordinates":[-73.174467,44.027213]}},{"properties":{"city":"Middlebury","geo_score":0.756,"street":"228 Valley View Road Apt. B6","id":"ahi3ezpd1i8k","address":"228 Valley View Road Apt. B6  Middlebury , VT","geo_precision":"range","state":"VT"},"type":"Feature","geometry":{"type":"Point","coordinates":[-73.156346,44.013984]}},{"properties":{"city":"Middlebury","geo_score":0.535,"street":"86 Chipman Park","id":"ahi3ezqq78yd","address":"86 Chipman Park  Middlebury , VT","geo_precision":"street","state":"VT"},"type":"Feature","geometry":{"type":"Point","coordinates":[-73.171319,44.007725]}},{"properties":{"city":"Middlebury","geo_score":0.592,"street":"524 Buttolph Drive","id":"ahi3ezz92ma7","address":"524 Buttolph Drive  Middlebury , VT","geo_precision":"street","state":"VT"},"type":"Feature","geometry":{"type":"Point","coordinates":[-73.158695,44.010236]}},{"properties":{"city":"Middlebury","geo_score":0.592,"street":"107 Sarah's Way","id":"ahi3ezv8u51j","address":"107 Sarah's Way  Middlebury , VT","geo_precision":"range","state":"VT"},"type":"Feature","geometry":{"type":"Point","coordinates":[-72.774911,43.447874]}},{"properties":{"city":"Middlebury","geo_score":0.543,"street":"155 Cottage Lane","id":"ahi3ezt8rgr4","address":"155 Cottage Lane  Middlebury , VT","geo_precision":"street","state":"VT"},"type":"Feature","geometry":{"type":"Point","coordinates":[-73.159478,44.001885]}},{"properties":{"city":"Middlebury","geo_score":0.844,"street":"651 Blake Roy Road","id":"ahi3ezp3kjmd","address":"651 Blake Roy Road  Middlebury , VT","geo_precision":"range","state":"VT"},"type":"Feature","geometry":{"type":"Point","coordinates":[-73.133242,43.955101]}},{"properties":{"city":"Middlebury","geo_score":0.835,"street":"73 North Pleasant Street","id":"ahi3eztjj1e5","address":"73 North Pleasant Street  Middlebury , VT","geo_precision":"range","state":"VT"},"type":"Feature","geometry":{"type":"Point","coordinates":[-73.165663,44.019685]}},{"properties":{"city":"Middlebury","geo_score":0.605,"street":"30 South Village Green #301","id":"ahi3ezvv17if","address":"30 South Village Green #301  Middlebury , VT","geo_precision":"range","state":"VT"},"type":"Feature","geometry":{"type":"Point","coordinates":[-73.039133,43.665422]}},{"properties":{"city":"Middlebury","geo_score":0.67,"street":"430 East Main Street","id":"ahi3ezqrj0b0","address":"430 East Main Street  Middlebury , VT","geo_precision":"street","state":"VT"},"type":"Feature","geometry":{"type":"Point","coordinates":[-73.102837,43.972872]}},{"properties":{"city":"Middlebury","geo_score":0.842,"street":"16 Springside Road","id":"ahi3f00kowed","address":"16 Springside Road  Middlebury , VT","geo_precision":"range","state":"VT"},"type":"Feature","geometry":{"type":"Point","coordinates":[-73.161889,44.018664]}},{"properties":{"city":"Middlebury","geo_score":0.849,"street":"45 Bakery Lane","id":"ahi3ezpm6yzf","address":"45 Bakery Lane  Middlebury , VT","geo_precision":"range","state":"VT"},"type":"Feature","geometry":{"type":"Point","coordinates":[-73.16809,44.012751]}},{"properties":{"city":"Middlebury","geo_score":0.844,"street":"12 Lindale Circle","id":"ahi3f01dn9db","address":"12 Lindale Circle  Middlebury , Vt","geo_precision":"range","state":"Vt"},"type":"Feature","geometry":{"type":"Point","coordinates":[-73.100517,44.025447]}},{"properties":{"city":"Middlebury","geo_score":0.844,"street":"51 Seymour Street","id":"ahi3ezsqht4l","address":"51 Seymour Street  Middlebury , VT","geo_precision":"range","state":"VT"},"type":"Feature","geometry":{"type":"Point","coordinates":[-73.177142,44.024635]}},{"properties":{"city":"Middlebury","geo_score":0.523,"street":"28 North Forty Lane","id":"ahi3ezxeg6n5","address":"28 North Forty Lane  Middlebury , VT","geo_precision":"street","state":"VT"},"type":"Feature","geometry":{"type":"Point","coordinates":[-73.273648,44.349689]}},{"properties":{"city":"Middlebury","geo_score":0.849,"street":"4277 Case Street","id":"ahi3eztucr8o","address":"4277 Case Street  Middlebury , VT","geo_precision":"range","state":"VT"},"type":"Feature","geometry":{"type":"Point","coordinates":[-73.095363,44.03074]}},{"properties":{"city":"Middlebury","geo_score":0.846,"street":"40 Monroe Street","id":"ahi3ezsfti3x","address":"40 Monroe Street  Middlebury , VT","geo_precision":"range","state":"VT"},"type":"Feature","geometry":{"type":"Point","coordinates":[-73.157168,44.007439]}},{"properties":{"city":"Middlebury","geo_score":0.656,"street":"252 Fields Road","id":"ahi3eznq099z","address":"252 Fields Road  Middlebury , VT","geo_precision":"street","state":"VT"},"type":"Feature","geometry":{"type":"Point","coordinates":[-73.156405,44.000821]}},{"properties":{"city":"Middlebury","geo_score":0.84,"street":"636 Happy Valley Road","id":"ahi3ezsvtd68","address":"636 Happy Valley Road  Middlebury , VT","geo_precision":"range","state":"VT"},"type":"Feature","geometry":{"type":"Point","coordinates":[-73.152056,44.032651]}},{"properties":{"city":"Middlebury","geo_score":0.847,"street":"15 Maple Street","id":"ahi3ezlzje3t","address":"15 Maple Street  Middlebury , VT","geo_precision":"range","state":"VT"},"type":"Feature","geometry":{"type":"Point","coordinates":[-73.169815,44.017182]}},{"properties":{"city":"Middlebury","geo_score":0.839,"street":"316 Painter Hills Road","id":"ahi3ezxs7att","address":"316 Painter Hills Road  Middlebury , VT","geo_precision":"range","state":"VT"},"type":"Feature","geometry":{"type":"Point","coordinates":[-73.144792,44.024182]}},{"properties":{"city":"Middlebury","geo_score":0.84,"street":"109 South Main Street","id":"ahi3ezuxrgvh","address":"109 South Main Street  Middlebury , VT","geo_precision":"range","state":"VT"},"type":"Feature","geometry":{"type":"Point","coordinates":[-73.172021,44.009736]}},{"properties":{"city":"Middlebury","geo_score":0.842,"street":"58 Otterside Court","id":"ahi3ezyf3912","address":"58 Otterside Court  Middlebury , VT","geo_precision":"range","state":"VT"},"type":"Feature","geometry":{"type":"Point","coordinates":[-73.174415,44.020432]}},{"properties":{"city":"Middlebury","geo_score":0.842,"street":"39 Seminary Street","id":"ahi3ezpbu3z1","address":"39 Seminary Street  Middlebury , VT","geo_precision":"range","state":"VT"},"type":"Feature","geometry":{"type":"Point","coordinates":[-73.162346,44.016924]}},{"properties":{"city":"Middlebury","geo_score":0.743,"street":"415 East Main Street","id":"ahi3ezzyok7v","address":"415 East Main Street  Middlebury , VT","geo_precision":"street","state":"VT"},"type":"Feature","geometry":{"type":"Point","coordinates":[-73.105764,43.973315]}},{"properties":{"city":"Middlebury","geo_score":0.847,"street":"104 Water Street","id":"ahi3eznrpdzw","address":"104 Water Street  Middlebury , VT","geo_precision":"range","state":"VT"},"type":"Feature","geometry":{"type":"Point","coordinates":[-73.165515,44.010242]}},{"properties":{"city":"Middlebury","geo_score":0.847,"street":"73 Perkins Lane","id":"ahi3ezr9p7n5","address":"73 Perkins Lane  Middlebury , VT","geo_precision":"range","state":"VT"},"type":"Feature","geometry":{"type":"Point","coordinates":[-73.103452,43.984564]}},{"properties":{"city":"Middlebury","geo_score":0.657,"street":"3945 Case Street, Apt. B","id":"ahi3eztu3vrq","address":"3945 Case Street, Apt. B  Middlebury , VT","geo_precision":"range","state":"VT"},"type":"Feature","geometry":{"type":"Point","coordinates":[-73.098873,44.027336]}},{"properties":{"city":"Middlebury","geo_score":0.842,"street":"23 Woodbridge Lane","id":"ahi3ezn52nr8","address":"23 Woodbridge Lane  Middlebury , VT","geo_precision":"range","state":"VT"},"type":"Feature","geometry":{"type":"Point","coordinates":[-73.174497,44.027313]}},{"properties":{"city":"Middlebury","geo_score":0.519,"street":"4 Murdock Court","id":"ahi3ezw2b8iv","address":"4 Murdock Court  Middlebury , VT","geo_precision":"city","state":"VT"},"type":"Feature","geometry":{"type":"Point","coordinates":[-73.171578,43.991942]}},{"properties":{"city":"Middlebury","geo_score":0.844,"street":"51 Seymour Street","id":"ahi3ezrd1l7c","address":"51 Seymour Street  Middlebury , VT","geo_precision":"range","state":"VT"},"type":"Feature","geometry":{"type":"Point","coordinates":[-73.177142,44.024635]}},{"properties":{"city":"Middlebury","geo_score":0.747,"street":"70 Maple Street Unit 304","id":"ahi3ezzg7r43","address":"70 Maple Street Unit 304  Middlebury , VT","geo_precision":"range","state":"VT"},"type":"Feature","geometry":{"type":"Point","coordinates":[-73.170299,44.015951]}},{"properties":{"city":"Middlebury","geo_score":0.428,"street":"91 Jackson Lane Apt. 20","id":"ahi3ezu0gwgu","address":"91 Jackson Lane Apt. 20  Middlebury , VT","geo_precision":"street","state":"VT"},"type":"Feature","geometry":{"type":"Point","coordinates":[-72.721152,43.660087]}},{"properties":{"city":"Middlebury","geo_score":0.549,"street":"30 South Village Green , Apt. 101","id":"ahi3f00i0u8i","address":"30 South Village Green , Apt. 101  Middlebury , VT","geo_precision":"range","state":"VT"},"type":"Feature","geometry":{"type":"Point","coordinates":[-72.938831,43.625312]}},{"properties":{"city":"Middlebury","geo_score":0.675,"street":"228 Valley View, Apt. B2","id":"ahi3ezwgmb5f","address":"228 Valley View, Apt. B2  Middlebury , VT","geo_precision":"range","state":"VT"},"type":"Feature","geometry":{"type":"Point","coordinates":[-73.156346,44.013984]}},{"properties":{"city":"Middlebury","geo_score":0.84,"street":"31B John Graham Court","id":"ahi3ezumk080","address":"31B John Graham Court  Middlebury , VT","geo_precision":"range","state":"VT"},"type":"Feature","geometry":{"type":"Point","coordinates":[-73.166581,44.015996]}},{"properties":{"city":"Middlebury","geo_score":0.78,"street":"66 Otterside","id":"ahi3ezwaskm0","address":"66 Otterside  Middlebury , VT","geo_precision":"range","state":"VT"},"type":"Feature","geometry":{"type":"Point","coordinates":[-73.174326,44.020457]}},{"properties":{"city":"Middlebury","geo_score":0.659,"street":"21 Otterside Court, Apt. 27","id":"ahi3ezlff3ok","address":"21 Otterside Court, Apt. 27  Middlebury , VT","geo_precision":"range","state":"VT"},"type":"Feature","geometry":{"type":"Point","coordinates":[-73.17386,44.021382]}},{"properties":{"city":"Middlebury","geo_score":0.851,"street":"161 Creek Road","id":"ahi3ezyfsdo9","address":"161 Creek Road  Middlebury , VT","geo_precision":"range","state":"VT"},"type":"Feature","geometry":{"type":"Point","coordinates":[-73.160158,44.002794]}},{"properties":{"city":"Middlebury","geo_score":0.515,"street":"358 South Street Ext.","id":"ahi3ezmekt68","address":"358 South Street Ext.  Middlebury , VT","geo_precision":"city","state":"VT"},"type":"Feature","geometry":{"type":"Point","coordinates":[-73.171578,43.991942]}},{"properties":{"city":"Middlebury","geo_score":0.846,"street":"235 Burnham Drive","id":"ahi3ezrmm08y","address":"235 Burnham Drive  Middlebury , VT","geo_precision":"range","state":"VT"},"type":"Feature","geometry":{"type":"Point","coordinates":[-73.089024,43.993732]}},{"properties":{"city":"Middlebury","geo_score":0.835,"street":"51 North Pleasant Street","id":"ahi3ezpz02z0","address":"51 North Pleasant Street  Middlebury , VT","geo_precision":"range","state":"VT"},"type":"Feature","geometry":{"type":"Point","coordinates":[-73.166752,44.017292]}},{"properties":{"city":"Middlebury","geo_score":0.818,"street":"78 Seminary Street Ext.","id":"ahi3ezzg10ru","address":"78 Seminary Street Ext.  Middlebury , VT","geo_precision":"range","state":"VT"},"type":"Feature","geometry":{"type":"Point","coordinates":[-73.155579,44.015982]}},{"properties":{"city":"Middlebury","geo_score":0.846,"street":"6 Forbes Circle","id":"ahi3ezy935xs","address":"6 Forbes Circle  Middlebury , VT","geo_precision":"range","state":"VT"},"type":"Feature","geometry":{"type":"Point","coordinates":[-73.155933,44.015076]}},{"properties":{"city":"Middlebury","geo_score":0.842,"street":"10 Chipman Heights","id":"ahi3ezwowkbq","address":"10 Chipman Heights  Middlebury , VT","geo_precision":"range","state":"VT"},"type":"Feature","geometry":{"type":"Point","coordinates":[-73.163172,44.020126]}},{"properties":{"city":"Middlebury","geo_score":0.659,"street":"39 Sugarwood Court , Apt. 6","id":"ahi3ezm77loh","address":"39 Sugarwood Court , Apt. 6  Middlebury , VT","geo_precision":"range","state":"VT"},"type":"Feature","geometry":{"type":"Point","coordinates":[-73.151439,44.020728]}},{"properties":{"city":"Middlebury","geo_score":0.846,"street":"55 Commodore Way","id":"ahi3f00wl630","address":"55 Commodore Way  Middlebury , VT","geo_precision":"range","state":"VT"},"type":"Feature","geometry":{"type":"Point","coordinates":[-73.096911,44.025758]}},{"properties":{"city":"Middlebury","geo_score":0.849,"street":"424 Quarry Road","id":"ahi3ezsrr537","address":"424 Quarry Road  Middlebury , VT","geo_precision":"range","state":"VT"},"type":"Feature","geometry":{"type":"Point","coordinates":[-73.111293,44.019761]}},{"properties":{"city":"Middlebury","geo_score":0.844,"street":"103 Seymour Street","id":"ahi3ezug9xia","address":"103 Seymour Street  Middlebury , VT","geo_precision":"range","state":"VT"},"type":"Feature","geometry":{"type":"Point","coordinates":[-73.177142,44.024635]}},{"properties":{"city":"Middlebury","geo_score":0.849,"street":"1283 Case Street","id":"ahi3ezxz8jt4","address":"1283 Case Street  Middlebury , VT","geo_precision":"range","state":"VT"},"type":"Feature","geometry":{"type":"Point","coordinates":[-73.105093,43.993268]}},{"properties":{"city":"Middlebury","geo_score":0.839,"street":"6 Forest Ridge Drive","id":"ahi3ezqiz9j4","address":"6 Forest Ridge Drive  Middlebury , VT","geo_precision":"range","state":"VT"},"type":"Feature","geometry":{"type":"Point","coordinates":[-73.09263,43.975673]}},{"properties":{"city":"Middlebury","geo_score":0.844,"street":"274 Lindale Circle","id":"ahi3ezodrc9r","address":"274 Lindale Circle  Middlebury , VT","geo_precision":"range","state":"VT"},"type":"Feature","geometry":{"type":"Point","coordinates":[-73.099174,44.02426]}},{"properties":{"city":"Middlebury","geo_score":0.847,"street":"150 Chipman Park","id":"ahi3ezpozsh5","address":"150 Chipman Park  Middlebury , VT","geo_precision":"range","state":"VT"},"type":"Feature","geometry":{"type":"Point","coordinates":[-73.171476,44.006121]}},{"properties":{"city":"Middlebury","geo_score":0.849,"street":"700 Munson Road","id":"ahi3ezyhq31f","address":"700 Munson Road  Middlebury , VT","geo_precision":"range","state":"VT"},"type":"Feature","geometry":{"type":"Point","coordinates":[-73.093964,43.994983]}},{"properties":{"city":"Middlebury","geo_score":0.528,"street":"516 Weybridge Street","id":"ahi3ezu4r1ba","address":"516 Weybridge Street  Middlebury , VT","geo_precision":"street","state":"VT"},"type":"Feature","geometry":{"type":"Point","coordinates":[-73.178887,44.017295]}},{"properties":{"city":"Middlebury","geo_score":0.841,"street":"403 East Main Street","id":"ahi3ezp5wis2","address":"403 East Main Street  Middlebury , VT","geo_precision":"range","state":"VT"},"type":"Feature","geometry":{"type":"Point","coordinates":[-73.10589,43.973339]}},{"properties":{"city":"Middlebury","geo_score":0.842,"street":"17 Stonegate Drive","id":"ahi3ezzvvmgi","address":"17 Stonegate Drive  Middlebury , VT","geo_precision":"range","state":"VT"},"type":"Feature","geometry":{"type":"Point","coordinates":[-73.14492,44.001]}},{"properties":{"city":"Middlebury","geo_score":0.846,"street":"209 Monroe Street","id":"ahi3ezv0vfj4","address":"209 Monroe Street  Middlebury , VT","geo_precision":"range","state":"VT"},"type":"Feature","geometry":{"type":"Point","coordinates":[-73.157243,44.007577]}},{"properties":{"city":"Middlebury","geo_score":0.841,"street":"757 Weybridge Street","id":"ahi3ezrs2o2q","address":"757 Weybridge Street  Middlebury , VT","geo_precision":"range","state":"VT"},"type":"Feature","geometry":{"type":"Point","coordinates":[-73.178887,44.017295]}},{"properties":{"city":"Middlebury","geo_score":0.849,"street":"4220 Case Street","id":"ahi3ezpw02cn","address":"4220 Case Street  Middlebury , VT","geo_precision":"range","state":"VT"},"type":"Feature","geometry":{"type":"Point","coordinates":[-73.095332,44.030531]}},{"properties":{"city":"Middlebury","geo_score":0.592,"street":"107 Sarah's Way","id":"ahi3ezpbmca6","address":"107 Sarah's Way  Middlebury , VT","geo_precision":"range","state":"VT"},"type":"Feature","geometry":{"type":"Point","coordinates":[-72.774911,43.447874]}},{"properties":{"city":"Middlebury","geo_score":0.846,"street":"67 Monroe Street","id":"ahi3ezmtnd3p","address":"67 Monroe Street  Middlebury , VT","geo_precision":"range","state":"VT"},"type":"Feature","geometry":{"type":"Point","coordinates":[-73.159777,44.00723]}},{"properties":{"city":"Middlebury","geo_score":0.849,"street":"172 Valley View","id":"ahi3ezsc51a0","address":"172 Valley View  Middlebury , VT","geo_precision":"range","state":"VT"},"type":"Feature","geometry":{"type":"Point","coordinates":[-73.156406,44.013741]}},{"properties":{"city":"Middlebury","geo_score":0.846,"street":"255 Rolling Acres","id":"ahi3ezwgp3ln","address":"255 Rolling Acres  Middlebury , VT","geo_precision":"range","state":"VT"},"type":"Feature","geometry":{"type":"Point","coordinates":[-73.125593,44.018117]}},{"properties":{"city":"Middlebury","geo_score":0.84,"street":"31 Lower Plains Road","id":"ahi3ezyx2653","address":"31 Lower Plains Road  Middlebury , VT","geo_precision":"range","state":"VT"},"type":"Feature","geometry":{"type":"Point","coordinates":[-73.091064,43.960996]}},{"properties":{"city":"Middlebury","geo_score":0.847,"street":"1 Lantern Lane","id":"ahi3ezpodb1f","address":"1 Lantern Lane  Middlebury , VT","geo_precision":"range","state":"VT"},"type":"Feature","geometry":{"type":"Point","coordinates":[-73.16909,44.007346]}},{"properties":{"city":"Middlebury","geo_score":0.84,"street":"922 Happy Valley Road","id":"ahi3ezzeincf","address":"922 Happy Valley Road  Middlebury , VT","geo_precision":"range","state":"VT"},"type":"Feature","geometry":{"type":"Point","coordinates":[-73.148719,44.029046]}},{"properties":{"city":"Middlebury","geo_score":0.847,"street":"131 Skyline Lane","id":"ahi3ezqs8vae","address":"131 Skyline Lane  Middlebury , VT","geo_precision":"range","state":"VT"},"type":"Feature","geometry":{"type":"Point","coordinates":[-73.099398,44.025628]}},{"properties":{"city":"Middlebury","geo_score":0.844,"street":"87 Lindale Circle","id":"ahi3ezqmswmb","address":"87 Lindale Circle  Middlebury , VT","geo_precision":"range","state":"VT"},"type":"Feature","geometry":{"type":"Point","coordinates":[-73.099126,44.025286]}},{"properties":{"city":"Middlebury","geo_score":0.514,"street":"1229 South Street Ext.","id":"ahi3ezo1jk03","address":"1229 South Street Ext.  Middlebury , VT","geo_precision":"city","state":"VT"},"type":"Feature","geometry":{"type":"Point","coordinates":[-73.171578,43.991942]}},{"properties":{"city":"Middlebury","geo_score":0.65,"street":"468 East Main Street","id":"ahi3f017jf95","address":"468 East Main Street  Middlebury , VT","geo_precision":"street","state":"VT"},"type":"Feature","geometry":{"type":"Point","coordinates":[-73.102837,43.972872]}},{"properties":{"city":"Middlebury","geo_score":0.849,"street":"877 Quarry Road","id":"ahi3eznl2zoe","address":"877 Quarry Road  Middlebury , VT","geo_precision":"range","state":"VT"},"type":"Feature","geometry":{"type":"Point","coordinates":[-73.113531,44.018786]}},{"properties":{"city":"Middlebury","geo_score":0.844,"street":"651 Blake Roy Road","id":"ahi3ezwqu3ax","address":"651 Blake Roy Road  Middlebury , VT","geo_precision":"range","state":"VT"},"type":"Feature","geometry":{"type":"Point","coordinates":[-73.133242,43.955101]}},{"properties":{"city":"Middlebury","geo_score":0.847,"street":"350 Foote Street","id":"ahi3ezstal5r","address":"350 Foote Street  Middlebury , VT","geo_precision":"range","state":"VT"},"type":"Feature","geometry":{"type":"Point","coordinates":[-73.134488,43.994327]}},{"properties":{"city":"Middlebury","geo_score":0.847,"street":"150 Chipman Park","id":"ahi3f00md37z","address":"150 Chipman Park  Middlebury , VT","geo_precision":"range","state":"VT"},"type":"Feature","geometry":{"type":"Point","coordinates":[-73.171476,44.006121]}},{"properties":{"city":"Middlebury","geo_score":0.844,"street":"65 Gardiner Close","id":"ahi3ezo2tf4k","address":"65 Gardiner Close  Middlebury , VT","geo_precision":"range","state":"VT"},"type":"Feature","geometry":{"type":"Point","coordinates":[-73.153793,43.997254]}},{"properties":{"city":"Middlebury","geo_score":0.841,"street":"403 East Main Street","id":"ahi3ezn5ga6i","address":"403 East Main Street  Middlebury , VT","geo_precision":"range","state":"VT"},"type":"Feature","geometry":{"type":"Point","coordinates":[-73.10589,43.973339]}},{"properties":{"city":"Middlebury","geo_score":0.64,"street":"41 Court Street","id":"ahi3ezwe28t1","address":"41 Court Street  Middlebury , VT","geo_precision":"street","state":"VT"},"type":"Feature","geometry":{"type":"Point","coordinates":[-73.163821,44.011252]}},{"properties":{"city":"Middlebury","geo_score":0.754,"street":"47 Ossie Road","id":"ahi3ezwilpit","address":"47 Ossie Road  Middlebury , VT","geo_precision":"street","state":"VT"},"type":"Feature","geometry":{"type":"Point","coordinates":[-73.109282,43.971978]}},{"properties":{"city":"Middlebury","geo_score":0.777,"street":"2 Cross Street Apt. 3","id":"ahi3ezl7k5bw","address":"2 Cross Street Apt. 3  Middlebury , VT","geo_precision":"range","state":"VT"},"type":"Feature","geometry":{"type":"Point","coordinates":[-73.164087,44.011607]}},{"properties":{"city":"Middlebury","geo_score":0.728,"street":"1 East Road","id":"ahi3ezzjdyjd","address":"1 East Road  Middlebury , VT","geo_precision":"range","state":"VT"},"type":"Feature","geometry":{"type":"Point","coordinates":[-73.153111,44.015606]}},{"properties":{"city":"Middlebury","geo_score":0.846,"street":"394 Woodland Park","id":"ahi3ezo4xw3j","address":"394 Woodland Park  Middlebury , VT","geo_precision":"range","state":"VT"},"type":"Feature","geometry":{"type":"Point","coordinates":[-73.15472,44.008689]}},{"properties":{"city":"Middlebury","geo_score":0.512,"street":"428 Court Street, Apt. 106","id":"ahi3ezs4xqui","address":"428 Court Street, Apt. 106  Middlebury , VT","geo_precision":"city","state":"VT"},"type":"Feature","geometry":{"type":"Point","coordinates":[-73.171578,43.991942]}},{"properties":{"city":"Middlebury","geo_score":0.851,"street":"195A Creek Road","id":"ahi3ezog235w","address":"195A Creek Road  Middlebury , VT","geo_precision":"range","state":"VT"},"type":"Feature","geometry":{"type":"Point","coordinates":[-73.16031,44.002318]}},{"properties":{"city":"Middlebury","geo_score":0.835,"street":"54 North Pleasant Street","id":"ahi3ezwjqjy2","address":"54 North Pleasant Street  Middlebury , VT","geo_precision":"range","state":"VT"},"type":"Feature","geometry":{"type":"Point","coordinates":[-73.167018,44.017052]}},{"properties":{"city":"Middlebury","geo_score":0.849,"street":"45 Bakery Lane","id":"ahi3ezpdv10c","address":"45 Bakery Lane  Middlebury , VT","geo_precision":"range","state":"VT"},"type":"Feature","geometry":{"type":"Point","coordinates":[-73.16809,44.012751]}},{"properties":{"city":"Middlebury","geo_score":0.839,"street":"6 Forest Ridge Drive","id":"ahi3ezlqjfjl","address":"6 Forest Ridge Drive  Middlebury , VT","geo_precision":"range","state":"VT"},"type":"Feature","geometry":{"type":"Point","coordinates":[-73.09263,43.975673]}},{"properties":{"city":"Middlebury","geo_score":0.849,"street":"424 Quarry Road","id":"ahi3ezs2p9gz","address":"424 Quarry Road  Middlebury , VT","geo_precision":"range","state":"VT"},"type":"Feature","geometry":{"type":"Point","coordinates":[-73.111293,44.019761]}},{"properties":{"city":"Middlebury","geo_score":0.766,"street":"2 Jayne Court Apt. #15","id":"ahi3f017hq9z","address":"2 Jayne Court Apt. #15  Middlebury , VT","geo_precision":"range","state":"VT"},"type":"Feature","geometry":{"type":"Point","coordinates":[-73.177292,44.017603]}},{"properties":{"city":"Middlebury","geo_score":0.844,"street":"50 Lindale Circle","id":"ahi3ezky2onf","address":"50 Lindale Circle  Middlebury , VT","geo_precision":"range","state":"VT"},"type":"Feature","geometry":{"type":"Point","coordinates":[-73.099823,44.025271]}},{"properties":{"city":"Middlebury","geo_score":0.854,"street":"415 Mead Lane","id":"ahi3eztt9kfl","address":"415 Mead Lane  Middlebury , VT","geo_precision":"range","state":"VT"},"type":"Feature","geometry":{"type":"Point","coordinates":[-73.097624,44.0294]}},{"properties":{"city":"Middlebury","geo_score":0.589,"street":"30 South Village Green Apt. 105","id":"ahi3ezzhrll9","address":"30 South Village Green Apt. 105  Middlebury , VT","geo_precision":"range","state":"VT"},"type":"Feature","geometry":{"type":"Point","coordinates":[-73.263017,43.570251]}},{"properties":{"city":"Middlebury","geo_score":0.846,"street":"287 Rolling Acres","id":"ahi3ezs7h3v1","address":"287 Rolling Acres  Middlebury , VT","geo_precision":"range","state":"VT"},"type":"Feature","geometry":{"type":"Point","coordinates":[-73.125569,44.018058]}},{"properties":{"city":"Middlebury","geo_score":0.653,"street":"310 Chipman Park","id":"ahi3eztdzgaw","address":"310 Chipman Park  Middlebury , VT","geo_precision":"street","state":"VT"},"type":"Feature","geometry":{"type":"Point","coordinates":[-73.171487,44.006237]}},{"properties":{"city":"Middlebury","geo_score":0.654,"street":"329 Woodland Park","id":"ahi3ezmlvrd6","address":"329 Woodland Park  Middlebury , VT","geo_precision":"street","state":"VT"},"type":"Feature","geometry":{"type":"Point","coordinates":[-73.154791,44.008328]}},{"properties":{"city":"Middlebury","geo_score":0.847,"street":"209 Danyow Drive","id":"ahi3ezkuqtc5","address":"209 Danyow Drive  Middlebury , VT","geo_precision":"range","state":"VT"},"type":"Feature","geometry":{"type":"Point","coordinates":[-73.156265,44.004204]}},{"properties":{"city":"Middlebury","geo_score":0.849,"street":"5471 Case Street","id":"ahi3ezs3hl4s","address":"5471 Case Street  Middlebury , VT","geo_precision":"range","state":"VT"},"type":"Feature","geometry":{"type":"Point","coordinates":[-73.09592,44.029994]}},{"properties":{"city":"Middlebury","geo_score":0.849,"street":"1646 Case Street","id":"ahi3ezwdp2fl","address":"1646 Case Street  Middlebury , VT","geo_precision":"range","state":"VT"},"type":"Feature","geometry":{"type":"Point","coordinates":[-73.104683,43.994607]}},{"properties":{"city":"Middlebury","geo_score":0.846,"street":"72 Mayapple Lane","id":"ahi3ezt96rft","address":"72 Mayapple Lane  Middlebury , VT","geo_precision":"range","state":"VT"},"type":"Feature","geometry":{"type":"Point","coordinates":[-73.167734,44.027891]}},{"properties":{"city":"Middlebury","geo_score":0.842,"street":"10 Woodbridge Lane","id":"ahi3ezydj7sj","address":"10 Woodbridge Lane  Middlebury , VT","geo_precision":"range","state":"VT"},"type":"Feature","geometry":{"type":"Point","coordinates":[-73.174588,44.027095]}},{"properties":{"city":"Middlebury","geo_score":0.592,"street":"89 Sarah's Way","id":"ahi3ezx6ctt7","address":"89 Sarah's Way  Middlebury , VT","geo_precision":"range","state":"VT"},"type":"Feature","geometry":{"type":"Point","coordinates":[-72.77518,43.447919]}},{"properties":{"city":"Middlebury","geo_score":0.846,"street":"340 Halladay Road","id":"ahi3ezwsim21","address":"340 Halladay Road  Middlebury , VT","geo_precision":"range","state":"VT"},"type":"Feature","geometry":{"type":"Point","coordinates":[-73.139316,43.987074]}},{"properties":{"city":"Middlebury","geo_score":0.743,"street":"435 Weybridge Street","id":"ahi3ezpp49zd","address":"435 Weybridge Street  Middlebury , VT","geo_precision":"street","state":"VT"},"type":"Feature","geometry":{"type":"Point","coordinates":[-73.179721,44.017927]}},{"properties":{"city":"Middlebury","geo_score":0.842,"street":"51 Seminary Street","id":"ahi3f00q7ql8","address":"51 Seminary Street  Middlebury , VT","geo_precision":"range","state":"VT"},"type":"Feature","geometry":{"type":"Point","coordinates":[-73.16242,44.016914]}},{"properties":{"city":"Middlebury","geo_score":0.844,"street":"44 Seymour Street","id":"ahi3ezrmqlsi","address":"44 Seymour Street  Middlebury , VT","geo_precision":"range","state":"VT"},"type":"Feature","geometry":{"type":"Point","coordinates":[-73.177142,44.024635]}},{"properties":{"city":"Middlebury","geo_score":0.84,"street":"1 South Gorham Lane","id":"ahi3ezledjql","address":"1 South Gorham Lane  Middlebury , VT","geo_precision":"range","state":"VT"},"type":"Feature","geometry":{"type":"Point","coordinates":[-73.180149,44.016245]}},{"properties":{"city":"Middlebury","geo_score":0.701,"street":"35 South Street","id":"ahi3ezpzporg","address":"35 South Street  Middlebury , VT","geo_precision":"range","state":"VT"},"type":"Feature","geometry":{"type":"Point","coordinates":[-73.170184,44.007669]}},{"properties":{"city":"Middlebury","geo_score":0.581,"street":"157 Jackson Lane Apt. 28","id":"ahi3eztcskb7","address":"157 Jackson Lane Apt. 28  Middlebury , VT","geo_precision":"range","state":"VT"},"type":"Feature","geometry":{"type":"Point","coordinates":[-73.113811,43.419102]}},{"properties":{"city":"Middlebury","geo_score":0.668,"street":"11 Seminary Street, Apt. 1","id":"ahi3ezqcexac","address":"11 Seminary Street, Apt. 1  Middlebury , VT","geo_precision":"range","state":"VT"},"type":"Feature","geometry":{"type":"Point","coordinates":[-73.160768,44.020345]}},{"properties":{"city":"Middlebury","geo_score":0.841,"street":"334 East Main Street","id":"ahi3ezozjziq","address":"334 East Main Street  Middlebury , VT","geo_precision":"range","state":"VT"},"type":"Feature","geometry":{"type":"Point","coordinates":[-73.113028,43.974154]}},{"properties":{"city":"Middlebury","geo_score":0.756,"street":"264 Valley View Road Apt. D4","id":"ahi3eznhiv9x","address":"264 Valley View Road Apt. D4  Middlebury , VT","geo_precision":"range","state":"VT"},"type":"Feature","geometry":{"type":"Point","coordinates":[-73.156307,44.01414]}},{"properties":{"city":"Middlebury","geo_score":0.656,"street":"252 Fields Road","id":"ahi3eznurd8d","address":"252 Fields Road  Middlebury , VT","geo_precision":"street","state":"VT"},"type":"Feature","geometry":{"type":"Point","coordinates":[-73.156405,44.000821]}},{"properties":{"city":"Middlebury","geo_score":0.651,"street":"2056 Munger Street","id":"ahi3f00xqfdg","address":"2056 Munger Street  Middlebury , VT","geo_precision":"street","state":"VT"},"type":"Feature","geometry":{"type":"Point","coordinates":[-73.116759,44.048029]}},{"properties":{"city":"Middlebury","geo_score":0.837,"street":"137 South Munger Street","id":"ahi3ezz28pql","address":"137 South Munger Street  Middlebury , VT","geo_precision":"range","state":"VT"},"type":"Feature","geometry":{"type":"Point","coordinates":[-73.113515,44.017106]}},{"properties":{"city":"Middlebury","geo_score":0.849,"street":"4961 Case Street","id":"ahi3eznpzvsw","address":"4961 Case Street  Middlebury , VT","geo_precision":"range","state":"VT"},"type":"Feature","geometry":{"type":"Point","coordinates":[-73.095683,44.030312]}},{"properties":{"city":"Middlebury","geo_score":0.849,"street":"4220 Case Street","id":"ahi3f002ltdl","address":"4220 Case Street  Middlebury , VT","geo_precision":"range","state":"VT"},"type":"Feature","geometry":{"type":"Point","coordinates":[-73.095332,44.030531]}},{"properties":{"city":"Middlebury","geo_score":0.535,"street":"86 Chipman Park","id":"ahi3ezwkqy0r","address":"86 Chipman Park  Middlebury , VT","geo_precision":"street","state":"VT"},"type":"Feature","geometry":{"type":"Point","coordinates":[-73.171319,44.007725]}},{"properties":{"city":"Middlebury","geo_score":0.844,"street":"53 Seymour Street","id":"ahi3ezqx9dpi","address":"53 Seymour Street  Middlebury , VT","geo_precision":"range","state":"VT"},"type":"Feature","geometry":{"type":"Point","coordinates":[-73.177142,44.024635]}},{"properties":{"city":"Middlebury","geo_score":0.847,"street":"223 Airport Road","id":"ahi3ezq89q5m","address":"223 Airport Road  Middlebury , VT","geo_precision":"range","state":"VT"},"type":"Feature","geometry":{"type":"Point","coordinates":[-73.099788,43.987458]}},{"properties":{"city":"Middlebury","geo_score":0.849,"street":"172 Valley View","id":"ahi3ezove66o","address":"172 Valley View  Middlebury , VT","geo_precision":"range","state":"VT"},"type":"Feature","geometry":{"type":"Point","coordinates":[-73.156406,44.013741]}},{"properties":{"city":"Middlebury","geo_score":0.738,"street":"43 Court Street","id":"ahi3ezwf2fm9","address":"43 Court Street  Middlebury , VT","geo_precision":"range","state":"VT"},"type":"Feature","geometry":{"type":"Point","coordinates":[-73.163821,44.011252]}},{"properties":{"city":"Middlebury","geo_score":0.842,"street":"10 Stonegate Drive","id":"ahi3f009t9lx","address":"10 Stonegate Drive  Middlebury , VT","geo_precision":"range","state":"VT"},"type":"Feature","geometry":{"type":"Point","coordinates":[-73.144786,44.000931]}},{"properties":{"city":"Middlebury","geo_score":0.842,"street":"7 Ledgewood Court","id":"ahi3ezty6smh","address":"7 Ledgewood Court  Middlebury , VT","geo_precision":"range","state":"VT"},"type":"Feature","geometry":{"type":"Point","coordinates":[-73.175352,44.027194]}},{"properties":{"city":"Middlebury","geo_score":0.847,"street":"627 Painter Road","id":"ahi3ezqatol6","address":"627 Painter Road  Middlebury , VT","geo_precision":"range","state":"VT"},"type":"Feature","geometry":{"type":"Point","coordinates":[-73.136842,44.029771]}},{"properties":{"city":"Middlebury","geo_score":0.615,"street":"115 Jackson Lane Apt. 25","id":"ahi3ezqqdedx","address":"115 Jackson Lane Apt. 25  Middlebury , VT","geo_precision":"range","state":"VT"},"type":"Feature","geometry":{"type":"Point","coordinates":[-72.736525,43.637254]}},{"properties":{"city":"Middlebury","geo_score":0.549,"street":"30 South Village Green, Apt 201","id":"ahi3ezsdm0nh","address":"30 South Village Green, Apt 201  Middlebury , VT","geo_precision":"range","state":"VT"},"type":"Feature","geometry":{"type":"Point","coordinates":[-72.938831,43.625312]}},{"properties":{"city":"Middlebury","geo_score":0.842,"street":"65 Otterside Court","id":"ahi3ezmc55c7","address":"65 Otterside Court  Middlebury , VT","geo_precision":"range","state":"VT"},"type":"Feature","geometry":{"type":"Point","coordinates":[-73.174243,44.02033]}},{"properties":{"city":"Middlebury","geo_score":0.479,"street":"11 Seminary Street, Apt. 3","id":"ahi3ezmj82zx","address":"11 Seminary Street, Apt. 3  Middlebury , VT","geo_precision":"street","state":"VT"},"type":"Feature","geometry":{"type":"Point","coordinates":[-73.155579,44.015982]}},{"properties":{"city":"Middlebury","geo_score":0.846,"street":"6 Thomas Street","id":"ahi3eztajpgb","address":"6 Thomas Street  Middlebury , VT","geo_precision":"range","state":"VT"},"type":"Feature","geometry":{"type":"Point","coordinates":[-73.161292,44.007724]}},{"properties":{"city":"Middlebury","geo_score":0.839,"street":"316 Painter Hills Road","id":"ahi3ezr25eug","address":"316 Painter Hills Road  Middlebury , VT","geo_precision":"range","state":"VT"},"type":"Feature","geometry":{"type":"Point","coordinates":[-73.144792,44.024182]}},{"properties":{"city":"Middlebury","geo_score":0.581,"street":"157 Jackson Lane Apt. 28","id":"ahi3ezkw9wb8","address":"157 Jackson Lane Apt. 28  Middlebury , VT","geo_precision":"range","state":"VT"},"type":"Feature","geometry":{"type":"Point","coordinates":[-73.113811,43.419102]}},{"properties":{"city":"Middlebury","geo_score":0.701,"street":"21 South Street","id":"ahi3eztaj2tx","address":"21 South Street  Middlebury , VT","geo_precision":"range","state":"VT"},"type":"Feature","geometry":{"type":"Point","coordinates":[-73.170327,44.008911]}},{"properties":{"city":"Middlebury","geo_score":0.701,"street":"19 South Street","id":"ahi3ezuxuhqx","address":"19 South Street  Middlebury , VT","geo_precision":"range","state":"VT"},"type":"Feature","geometry":{"type":"Point","coordinates":[-73.170343,44.009137]}},{"properties":{"city":"Middlebury","geo_score":0.847,"street":"285 Airport Road","id":"ahi3ezr2a8bg","address":"285 Airport Road  Middlebury , VT","geo_precision":"range","state":"VT"},"type":"Feature","geometry":{"type":"Point","coordinates":[-73.097279,43.987738]}},{"properties":{"city":"Middlebury","geo_score":0.854,"street":"98 Mead Lane","id":"ahi3ezylmn9h","address":"98 Mead Lane  Middlebury , VT","geo_precision":"range","state":"VT"},"type":"Feature","geometry":{"type":"Point","coordinates":[-73.101821,44.02608]}},{"properties":{"city":"Middlebury","geo_score":0.738,"street":"29 North Pleasant Street Apt. A","id":"ahi3f005refq","address":"29 North Pleasant Street Apt. A  Middlebury , VT","geo_precision":"range","state":"VT"},"type":"Feature","geometry":{"type":"Point","coordinates":[-73.16668,44.014136]}},{"properties":{"city":"Middlebury","geo_score":0.849,"street":"44 Munson Road","id":"ahi3ezlsbmsv","address":"44 Munson Road  Middlebury , VT","geo_precision":"range","state":"VT"},"type":"Feature","geometry":{"type":"Point","coordinates":[-73.094591,43.994803]}},{"properties":{"city":"Middlebury","geo_score":0.846,"street":"11 Swanage Court","id":"ahi3ezmw9lia","address":"11 Swanage Court  Middlebury , VT","geo_precision":"range","state":"VT"},"type":"Feature","geometry":{"type":"Point","coordinates":[-73.157088,44.008522]}},{"properties":{"city":"Middlebury","geo_score":0.841,"street":"567 Weybridge Street","id":"ahi3ezw9e5g4","address":"567 Weybridge Street  Middlebury , VT","geo_precision":"range","state":"VT"},"type":"Feature","geometry":{"type":"Point","coordinates":[-73.178887,44.017295]}},{"properties":{"city":"Middlebury","geo_score":0.854,"street":"133 Drew Lane","id":"ahi3ezvbejvk","address":"133 Drew Lane  Middlebury , VT","geo_precision":"range","state":"VT"},"type":"Feature","geometry":{"type":"Point","coordinates":[-73.103349,44.028293]}},{"properties":{"city":"Middlebury","geo_score":0.847,"street":"104 Water Street","id":"ahi3ezlunof4","address":"104 Water Street  Middlebury , VT","geo_precision":"range","state":"VT"},"type":"Feature","geometry":{"type":"Point","coordinates":[-73.165515,44.010242]}},{"properties":{"city":"Middlebury","geo_score":0.835,"street":"54 North Pleasant Street","id":"ahi3ezwutq3t","address":"54 North Pleasant Street  Middlebury , VT","geo_precision":"range","state":"VT"},"type":"Feature","geometry":{"type":"Point","coordinates":[-73.167018,44.017052]}},{"properties":{"city":"Middlebury","geo_score":0.518,"street":"10 Murdock Court","id":"ahi3ezti11cz","address":"10 Murdock Court  Middlebury , VT","geo_precision":"city","state":"VT"},"type":"Feature","geometry":{"type":"Point","coordinates":[-73.171578,43.991942]}},{"properties":{"city":"Middlebury","geo_score":0.839,"street":"6 Forest Ridge Drive","id":"ahi3ezvsl97j","address":"6 Forest Ridge Drive  Middlebury , VT","geo_precision":"range","state":"VT"},"type":"Feature","geometry":{"type":"Point","coordinates":[-73.09263,43.975673]}},{"properties":{"city":"Middlebury","geo_score":0.846,"street":"87 Benedict Lane","id":"ahi3ezpe0wrb","address":"87 Benedict Lane  Middlebury , VT","geo_precision":"range","state":"VT"},"type":"Feature","geometry":{"type":"Point","coordinates":[-73.171319,44.007725]}},{"properties":{"city":"Middlebury","geo_score":0.849,"street":"1271 Case Street","id":"ahi3ezs3qaga","address":"1271 Case Street  Middlebury , VT","geo_precision":"range","state":"VT"},"type":"Feature","geometry":{"type":"Point","coordinates":[-73.104572,43.987006]}},{"properties":{"city":"Middlebury","geo_score":0.656,"street":"252 Fields Road","id":"ahi3ezr0d2cf","address":"252 Fields Road  Middlebury , VT","geo_precision":"street","state":"VT"},"type":"Feature","geometry":{"type":"Point","coordinates":[-73.156405,44.000821]}},{"properties":{"city":"Middlebury","geo_score":0.589,"street":"30 South Village Green Apt. #205","id":"ahi3ezsvjroq","address":"30 South Village Green Apt. #205  Middlebury , VT","geo_precision":"range","state":"VT"},"type":"Feature","geometry":{"type":"Point","coordinates":[-73.263017,43.570251]}},{"properties":{"city":"Middlebury","geo_score":0.842,"street":"23 North Leno Lane","id":"ahi3ezo59m4v","address":"23 North Leno Lane  Middlebury , VT","geo_precision":"range","state":"VT"},"type":"Feature","geometry":{"type":"Point","coordinates":[-73.105661,43.978924]}},{"properties":{"city":"Middlebury","geo_score":0.52,"street":"Blue Spruce Motel 2428 Rt 7S","id":"ahi3ezqsq6y0","address":"Blue Spruce Motel 2428 Rt 7S  Middlebury , VT","geo_precision":"street","state":"VT"},"type":"Feature","geometry":{"type":"Point","coordinates":[-73.138224,43.985009]}},{"properties":{"city":"Middlebury","geo_score":0.592,"street":"107 Sarah's Way","id":"ahi3ezqpcho1","address":"107 Sarah's Way  Middlebury , VT","geo_precision":"range","state":"VT"},"type":"Feature","geometry":{"type":"Point","coordinates":[-72.774911,43.447874]}},{"properties":{"city":"Middlebury","geo_score":0.851,"street":"195B Creek Road","id":"ahi3ezxlk5ps","address":"195B Creek Road  Middlebury , VT","geo_precision":"range","state":"VT"},"type":"Feature","geometry":{"type":"Point","coordinates":[-73.16031,44.002318]}},{"properties":{"city":"Middlebury","geo_score":0.844,"street":"51 Seymour Street","id":"ahi3ezzpo4rc","address":"51 Seymour Street  Middlebury , VT","geo_precision":"range","state":"VT"},"type":"Feature","geometry":{"type":"Point","coordinates":[-73.177142,44.024635]}},{"properties":{"city":"Middlebury","geo_score":0.592,"street":"65 Sarah's Way","id":"ahi3ezx429bh","address":"65 Sarah's Way  Middlebury , VT","geo_precision":"range","state":"VT"},"type":"Feature","geometry":{"type":"Point","coordinates":[-72.775361,43.44798]}},{"properties":{"city":"Middlebury","geo_score":0.84,"street":"36 Lower Plains Road","id":"ahi3ezsk9tc0","address":"36 Lower Plains Road  Middlebury , VT","geo_precision":"range","state":"VT"},"type":"Feature","geometry":{"type":"Point","coordinates":[-73.091258,43.960947]}},{"properties":{"city":"Middlebury","geo_score":0.849,"street":"2020 Case Street","id":"ahi3ezkwtd4r","address":"2020 Case Street  Middlebury , VT","geo_precision":"range","state":"VT"},"type":"Feature","geometry":{"type":"Point","coordinates":[-73.100646,44.001611]}},{"properties":{"city":"Middlebury","geo_score":0.392,"street":"127 Jackson Lane #27","id":"ahi3eztymjib","address":"127 Jackson Lane #27  Middlebury , VT","geo_precision":"street","state":"VT"},"type":"Feature","geometry":{"type":"Point","coordinates":[-73.118586,43.411248]}},{"properties":{"city":"Middlebury","geo_score":0.842,"street":"10 Stonegate Drive","id":"ahi3eznz827y","address":"10 Stonegate Drive  Middlebury , VT","geo_precision":"range","state":"VT"},"type":"Feature","geometry":{"type":"Point","coordinates":[-73.144786,44.000931]}},{"properties":{"city":"Middlebury","geo_score":0.641,"street":"37 North Pleasant Street, Apt. B","id":"ahi3f009bgbb","address":"37 North Pleasant Street, Apt. B  Middlebury , VT","geo_precision":"range","state":"VT"},"type":"Feature","geometry":{"type":"Point","coordinates":[-73.167046,44.016182]}},{"properties":{"city":"Middlebury","geo_score":0.418,"street":"287 Shard Villa Road","id":"ahi3ezli21e1","address":"287 Shard Villa Road  Middlebury , VT","geo_precision":"street","state":"VT"},"type":"Feature","geometry":{"type":"Point","coordinates":[-73.156172,44.014148]}},{"properties":{"city":"Middlebury","geo_score":0.846,"street":"191 Burnham Drive","id":"ahi3ezphsln9","address":"191 Burnham Drive  Middlebury , VT","geo_precision":"range","state":"VT"},"type":"Feature","geometry":{"type":"Point","coordinates":[-73.089024,43.993732]}},{"properties":{"city":"MIddlebury","geo_score":0.647,"street":"30 South Village Green, Apt. 103","id":"ahi3ezp1o61z","address":"30 South Village Green, Apt. 103  MIddlebury , VT","geo_precision":"range","state":"VT"},"type":"Feature","geometry":{"type":"Point","coordinates":[-72.83917,43.448861]}},{"properties":{"city":"Middlebury","geo_score":0.84,"street":"636 Happy Valley Road","id":"ahi3ezu4o7da","address":"636 Happy Valley Road  Middlebury , VT","geo_precision":"range","state":"VT"},"type":"Feature","geometry":{"type":"Point","coordinates":[-73.152056,44.032651]}},{"properties":{"city":"Middlebury","geo_score":0.842,"street":"58 Otterside Court","id":"ahi3ezuhz1oj","address":"58 Otterside Court  Middlebury , VT","geo_precision":"range","state":"VT"},"type":"Feature","geometry":{"type":"Point","coordinates":[-73.174415,44.020432]}},{"properties":{"city":"Middlebury","geo_score":0.849,"street":"4220 Case Street","id":"ahi3ezyogzm6","address":"4220 Case Street  Middlebury , VT","geo_precision":"range","state":"VT"},"type":"Feature","geometry":{"type":"Point","coordinates":[-73.095332,44.030531]}},{"properties":{"city":"Middlebury","geo_score":0.847,"street":"370 Foote Street","id":"ahi3ezx64ja4","address":"370 Foote Street  Middlebury , VT","geo_precision":"range","state":"VT"},"type":"Feature","geometry":{"type":"Point","coordinates":[-73.134602,43.993683]}},{"properties":{"city":"Middlebury","geo_score":0.766,"street":"2 Jayne Court Apt. 19","id":"ahi3ezwygcbt","address":"2 Jayne Court Apt. 19  Middlebury , VT","geo_precision":"range","state":"VT"},"type":"Feature","geometry":{"type":"Point","coordinates":[-73.177292,44.017603]}},{"properties":{"city":"Middlebury","geo_score":0.846,"street":"6 Forbes Circle","id":"ahi3ezzfj13v","address":"6 Forbes Circle  Middlebury , VT","geo_precision":"range","state":"VT"},"type":"Feature","geometry":{"type":"Point","coordinates":[-73.155933,44.015076]}},{"properties":{"city":"Middlebury","geo_score":0.592,"street":"65 Sarah's Way","id":"ahi3ezloz7cd","address":"65 Sarah's Way  Middlebury , VT","geo_precision":"range","state":"VT"},"type":"Feature","geometry":{"type":"Point","coordinates":[-72.775361,43.44798]}},{"properties":{"city":"Middlebury","geo_score":0.846,"street":"255 Rolling Acres","id":"ahi3ezqnl4tz","address":"255 Rolling Acres  Middlebury , VT","geo_precision":"range","state":"VT"},"type":"Feature","geometry":{"type":"Point","coordinates":[-73.125593,44.018117]}},{"properties":{"city":"Middlebury","geo_score":0.849,"street":"184 Birch Drive","id":"ahi3ezt4rs1j","address":"184 Birch Drive  Middlebury , VT","geo_precision":"range","state":"VT"},"type":"Feature","geometry":{"type":"Point","coordinates":[-73.089024,43.993732]}},{"properties":{"city":"Middlebury","geo_score":0.847,"street":"3 Twin Circles","id":"ahi3ezx6pve4","address":"3 Twin Circles  Middlebury , VT","geo_precision":"range","state":"VT"},"type":"Feature","geometry":{"type":"Point","coordinates":[-73.155602,44.01177]}},{"properties":{"city":"Middlebury","geo_score":0.842,"street":"2 Woodbridge Lane","id":"ahi3ezw6nqma","address":"2 Woodbridge Lane  Middlebury , VT","geo_precision":"range","state":"VT"},"type":"Feature","geometry":{"type":"Point","coordinates":[-73.174467,44.027021]}},{"properties":{"city":"Middlebury","geo_score":0.837,"street":"226 South Munger Street","id":"ahi3ezlvt5c2","address":"226 South Munger Street  Middlebury , VT","geo_precision":"range","state":"VT"},"type":"Feature","geometry":{"type":"Point","coordinates":[-73.113598,44.018142]}},{"properties":{"city":"Middlebury","geo_score":0.849,"street":"4025 Case Street","id":"ahi3ezo7qrd6","address":"4025 Case Street  Middlebury , VT","geo_precision":"range","state":"VT"},"type":"Feature","geometry":{"type":"Point","coordinates":[-73.09728,44.02878]}},{"properties":{"city":"Middlebury","geo_score":0.653,"street":"364 Chipman Park","id":"ahi3ezxxp35c","address":"364 Chipman Park  Middlebury , VT","geo_precision":"street","state":"VT"},"type":"Feature","geometry":{"type":"Point","coordinates":[-73.171487,44.006237]}},{"properties":{"city":"Middlebury","geo_score":0.835,"street":"7 Old College Farm Road","id":"ahi3ezxkrxw8","address":"7 Old College Farm Road  Middlebury , VT","geo_precision":"range","state":"VT"},"type":"Feature","geometry":{"type":"Point","coordinates":[-73.15886,44.014431]}},{"properties":{"city":"Middlebury","geo_score":0.844,"street":"24 Seymour Street","id":"ahi3ezyvopn3","address":"24 Seymour Street  Middlebury , VT","geo_precision":"range","state":"VT"},"type":"Feature","geometry":{"type":"Point","coordinates":[-73.169303,44.017383]}},{"properties":{"city":"Middlebury","geo_score":0.846,"street":"5 Swanage Court","id":"ahi3eztmoox0","address":"5 Swanage Court  Middlebury , VT","geo_precision":"range","state":"VT"},"type":"Feature","geometry":{"type":"Point","coordinates":[-73.156943,44.008545]}},{"properties":{"city":"Middlebury","geo_score":0.846,"street":"235 Rolling Acres","id":"ahi3ezzc2gg3","address":"235 Rolling Acres  Middlebury , VT","geo_precision":"range","state":"VT"},"type":"Feature","geometry":{"type":"Point","coordinates":[-73.125609,44.018154]}},{"properties":{"city":"Middlebury","geo_score":0.84,"street":"51A John Graham Court","id":"ahi3ezyg45dw","address":"51A John Graham Court  Middlebury , VT","geo_precision":"range","state":"VT"},"type":"Feature","geometry":{"type":"Point","coordinates":[-73.166022,44.01533]}},{"properties":{"city":"Middlebury","geo_score":0.701,"street":"20 South Street","id":"ahi3ezoecz7t","address":"20 South Street  Middlebury , VT","geo_precision":"range","state":"VT"},"type":"Feature","geometry":{"type":"Point","coordinates":[-73.170488,44.008943]}},{"properties":{"city":"Middlebury","geo_score":0.847,"street":"15 Maple Street","id":"ahi3ezt1oqos","address":"15 Maple Street  Middlebury , VT","geo_precision":"range","state":"VT"},"type":"Feature","geometry":{"type":"Point","coordinates":[-73.169815,44.017182]}},{"properties":{"city":"Middlebury","geo_score":0.738,"street":"97 Court Street","id":"ahi3ezmt4d5r","address":"97 Court Street  Middlebury , VT","geo_precision":"range","state":"VT"},"type":"Feature","geometry":{"type":"Point","coordinates":[-73.160767,44.007009]}},{"properties":{"city":"Middlebury","geo_score":0.841,"street":"395 East Main Street","id":"ahi3ezxhu29z","address":"395 East Main Street  Middlebury , VT","geo_precision":"range","state":"VT"},"type":"Feature","geometry":{"type":"Point","coordinates":[-73.105991,43.973357]}},{"properties":{"city":"Middlebury","geo_score":0.849,"street":"21 Fields Road","id":"ahi3ezwcz6fl","address":"21 Fields Road  Middlebury , VT","geo_precision":"range","state":"VT"},"type":"Feature","geometry":{"type":"Point","coordinates":[-73.15594,44.000188]}},{"properties":{"city":"Middlebury","geo_score":0.846,"street":"72 Mayapple Lane","id":"ahi3ezo1lki4","address":"72 Mayapple Lane  Middlebury , VT","geo_precision":"range","state":"VT"},"type":"Feature","geometry":{"type":"Point","coordinates":[-73.167734,44.027891]}},{"properties":{"city":"Middlebury","geo_score":0.701,"street":"19 South Street","id":"ahi3ezxsy45t","address":"19 South Street  Middlebury , VT","geo_precision":"range","state":"VT"},"type":"Feature","geometry":{"type":"Point","coordinates":[-73.170343,44.009137]}},{"properties":{"city":"Middlebury","geo_score":0.719,"street":"374 Weybridge Street","id":"ahi3f015wguc","address":"374 Weybridge Street  Middlebury , VT","geo_precision":"range","state":"VT"},"type":"Feature","geometry":{"type":"Point","coordinates":[-73.180017,44.018021]}},{"properties":{"city":"Middlebury","geo_score":0.847,"street":"162 Danyow Drive","id":"ahi3ezq99psp","address":"162 Danyow Drive  Middlebury , VT","geo_precision":"range","state":"VT"},"type":"Feature","geometry":{"type":"Point","coordinates":[-73.156548,44.004767]}},{"properties":{"city":"Middlebury","geo_score":0.605,"street":"30 South Village Green #305","id":"ahi3ezpwqvux","address":"30 South Village Green #305  Middlebury , VT","geo_precision":"range","state":"VT"},"type":"Feature","geometry":{"type":"Point","coordinates":[-73.039133,43.665422]}},{"properties":{"city":"Middlebury","geo_score":0.846,"street":"12 Swanage Court","id":"ahi3ezu819lk","address":"12 Swanage Court  Middlebury , VT","geo_precision":"range","state":"VT"},"type":"Feature","geometry":{"type":"Point","coordinates":[-73.15705,44.008377]}},{"properties":{"city":"Middlebury","geo_score":0.847,"street":"350 Foote Street","id":"ahi3ezmmghlc","address":"350 Foote Street  Middlebury , VT","geo_precision":"range","state":"VT"},"type":"Feature","geometry":{"type":"Point","coordinates":[-73.134488,43.994327]}},{"properties":{"city":"Middlebury","geo_score":0.849,"street":"1108 Quarry Road","id":"ahi3f00ca7x7","address":"1108 Quarry Road  Middlebury , VT","geo_precision":"range","state":"VT"},"type":"Feature","geometry":{"type":"Point","coordinates":[-73.109658,44.020624]}},{"properties":{"city":"Middlebury","geo_score":0.514,"street":"2815 South Street Ext.","id":"ahi3ezxnp5yb","address":"2815 South Street Ext.  Middlebury , Vt","geo_precision":"city","state":"Vt"},"type":"Feature","geometry":{"type":"Point","coordinates":[-73.171578,43.991942]}},{"properties":{"city":"Middlebury","geo_score":0.851,"street":"80 Ossie Road","id":"ahi3ezyzbz5s","address":"80 Ossie Road  Middlebury , VT","geo_precision":"range","state":"VT"},"type":"Feature","geometry":{"type":"Point","coordinates":[-73.109346,43.971889]}},{"properties":{"city":"Middlebury","geo_score":0.846,"street":"4 Thomas Street","id":"ahi3ezv7keym","address":"4 Thomas Street  Middlebury , VT","geo_precision":"range","state":"VT"},"type":"Feature","geometry":{"type":"Point","coordinates":[-73.161315,44.007713]}},{"properties":{"city":"Middlebury","geo_score":0.683,"street":"4 Jayne Court Apt. 33, Apt. 33","id":"ahi3ezt63108","address":"4 Jayne Court Apt. 33, Apt. 33  Middlebury , VT","geo_precision":"range","state":"VT"},"type":"Feature","geometry":{"type":"Point","coordinates":[-73.177223,44.017561]}},{"properties":{"city":"Middlebury","geo_score":0.835,"street":"66 North Pleasant Street","id":"ahi3ezpkp6mq","address":"66 North Pleasant Street  Middlebury , VT","geo_precision":"range","state":"VT"},"type":"Feature","geometry":{"type":"Point","coordinates":[-73.16554,44.022256]}},{"properties":{"city":"Middlebury","geo_score":0.842,"street":"52 Seminary Street","id":"ahi3ezo93nu8","address":"52 Seminary Street  Middlebury , VT","geo_precision":"range","state":"VT"},"type":"Feature","geometry":{"type":"Point","coordinates":[-73.16136,44.016837]}},{"properties":{"city":"Middlebury","geo_score":0.584,"street":"426 East Main Street Unit A","id":"ahi3ezpjvjqu","address":"426 East Main Street Unit A  Middlebury , VT","geo_precision":"range","state":"VT"},"type":"Feature","geometry":{"type":"Point","coordinates":[-73.105392,43.973213]}},{"properties":{"city":"Middlebury","geo_score":0.846,"street":"147 Rolling Acres","id":"ahi3ezzrnie0","address":"147 Rolling Acres  Middlebury , VT","geo_precision":"range","state":"VT"},"type":"Feature","geometry":{"type":"Point","coordinates":[-73.125676,44.018316]}},{"properties":{"city":"Middlebury","geo_score":0.842,"street":"6 Overbrook Drive","id":"ahi3ezqzr8ly","address":"6 Overbrook Drive  Middlebury , VT","geo_precision":"range","state":"VT"},"type":"Feature","geometry":{"type":"Point","coordinates":[-73.158926,44.009155]}},{"properties":{"city":"Middlebury","geo_score":0.592,"street":"89 Sarah's Way","id":"ahi3ezudfudg","address":"89 Sarah's Way  Middlebury , VT","geo_precision":"range","state":"VT"},"type":"Feature","geometry":{"type":"Point","coordinates":[-72.77518,43.447919]}},{"properties":{"city":"Middlebury","geo_score":0.846,"street":"167 Monroe Street","id":"ahi3ezoydhfb","address":"167 Monroe Street  Middlebury , VT","geo_precision":"range","state":"VT"},"type":"Feature","geometry":{"type":"Point","coordinates":[-73.15722,44.007581]}},{"properties":{"city":"Middlebury","geo_score":0.841,"street":"108 Peterson Terrace","id":"ahi3ezvt5vr1","address":"108 Peterson Terrace  Middlebury , VT","geo_precision":"range","state":"VT"},"type":"Feature","geometry":{"type":"Point","coordinates":[-73.152108,44.020429]}},{"properties":{"city":"Middlebury","geo_score":0.844,"street":"582 Buttolph Drive","id":"ahi3ezm7w24f","address":"582 Buttolph Drive  Middlebury , VT","geo_precision":"range","state":"VT"},"type":"Feature","geometry":{"type":"Point","coordinates":[-73.158889,44.010541]}},{"properties":{"city":"Middlebury","geo_score":0.849,"street":"1196 Quarry Road","id":"ahi3f00i93qf","address":"1196 Quarry Road  Middlebury , VT","geo_precision":"range","state":"VT"},"type":"Feature","geometry":{"type":"Point","coordinates":[-73.109666,44.020542]}},{"properties":{"city":"Middlebury","geo_score":0.846,"street":"55 Commodore Way","id":"ahi3ezzrnv8p","address":"55 Commodore Way  Middlebury , VT","geo_precision":"range","state":"VT"},"type":"Feature","geometry":{"type":"Point","coordinates":[-73.096911,44.025758]}},{"properties":{"city":"Middlebury","geo_score":0.847,"street":"131 Skyline Lane","id":"ahi3ezp2dsw8","address":"131 Skyline Lane  Middlebury , VT","geo_precision":"range","state":"VT"},"type":"Feature","geometry":{"type":"Point","coordinates":[-73.099398,44.025628]}},{"properties":{"city":"Middlebury","geo_score":0.67,"street":"430 East Main Street","id":"ahi3f01boea1","address":"430 East Main Street  Middlebury , VT","geo_precision":"street","state":"VT"},"type":"Feature","geometry":{"type":"Point","coordinates":[-73.102837,43.972872]}},{"properties":{"city":"Middlebury","geo_score":0.61,"street":"1818 Route 7 South","id":"ahi3ezv038c7","address":"1818 Route 7 South  Middlebury , VT","geo_precision":"range","state":"VT"},"type":"Feature","geometry":{"type":"Point","coordinates":[-73.12804,43.98293]}},{"properties":{"city":"Middlebury","geo_score":0.844,"street":"88 Charles Avenue","id":"ahi3ezqpudxp","address":"88 Charles Avenue  Middlebury , VT","geo_precision":"range","state":"VT"},"type":"Feature","geometry":{"type":"Point","coordinates":[-73.162466,44.00728]}},{"properties":{"city":"Middlebury","geo_score":0.61,"street":"15 Court Street Apt. 1D","id":"ahi3ezz8wunk","address":"15 Court Street Apt. 1D  Middlebury , VT","geo_precision":"range","state":"VT"},"type":"Feature","geometry":{"type":"Point","coordinates":[-73.266304,43.597334]}},{"properties":{"city":"Middlebury","geo_score":0.523,"street":"108 North Forty Lane","id":"ahi3ezww7zae","address":"108 North Forty Lane  Middlebury , VT","geo_precision":"street","state":"VT"},"type":"Feature","geometry":{"type":"Point","coordinates":[-73.273648,44.349689]}},{"properties":{"city":"Middlebury","geo_score":0.701,"street":"19 South Street","id":"ahi3ezlef9br","address":"19 South Street  Middlebury , VT","geo_precision":"range","state":"VT"},"type":"Feature","geometry":{"type":"Point","coordinates":[-73.170343,44.009137]}},{"properties":{"city":"Middlebury","geo_score":0.847,"street":"285 Airport Road","id":"ahi3eznhviat","address":"285 Airport Road  Middlebury , VT","geo_precision":"range","state":"VT"},"type":"Feature","geometry":{"type":"Point","coordinates":[-73.097279,43.987738]}},{"properties":{"city":"Middlebury","geo_score":0.433,"street":"7 Court Street, Apt. 3","id":"ahi3ezr2msoy","address":"7 Court Street, Apt. 3  Middlebury , VT","geo_precision":"street","state":"VT"},"type":"Feature","geometry":{"type":"Point","coordinates":[-73.155768,43.969946]}},{"properties":{"city":"Middlebury","geo_score":0.849,"street":"153 Rogers Road","id":"ahi3ezul5t2l","address":"153 Rogers Road  Middlebury , VT","geo_precision":"range","state":"VT"},"type":"Feature","geometry":{"type":"Point","coordinates":[-73.155416,44.005181]}},{"properties":{"city":"Middlebury","geo_score":0.849,"street":"2020 Case Street","id":"ahi3ezr9hp4m","address":"2020 Case Street  Middlebury , VT","geo_precision":"range","state":"VT"},"type":"Feature","geometry":{"type":"Point","coordinates":[-73.100646,44.001611]}},{"properties":{"city":"Middlebury","geo_score":0.732,"street":"157 Jackson Lane, Apt 30","id":"ahi3ezyjfr00","address":"157 Jackson Lane, Apt 30  Middlebury , VT","geo_precision":"range","state":"VT"},"type":"Feature","geometry":{"type":"Point","coordinates":[-73.174051,44.008042]}},{"properties":{"city":"Middlebury","geo_score":0.748,"street":"210 Valley View Road Unit A5","id":"ahi3ezzghwf9","address":"210 Valley View Road Unit A5  Middlebury , VT","geo_precision":"range","state":"VT"},"type":"Feature","geometry":{"type":"Point","coordinates":[-73.156365,44.013906]}},{"properties":{"city":"Middlebury","geo_score":0.659,"street":"18 Elm Street, Apt. 8","id":"ahi3ezy4mgkj","address":"18 Elm Street, Apt. 8  Middlebury , VT","geo_precision":"range","state":"VT"},"type":"Feature","geometry":{"type":"Point","coordinates":[-73.168728,44.018364]}},{"properties":{"city":"Middlebury","geo_score":0.849,"street":"1283 Case Street","id":"ahi3ezstab7p","address":"1283 Case Street  Middlebury , VT","geo_precision":"range","state":"VT"},"type":"Feature","geometry":{"type":"Point","coordinates":[-73.105093,43.993268]}},{"properties":{"city":"Middlebury","geo_score":0.518,"street":"10 Murdock Court","id":"ahi3ezntb247","address":"10 Murdock Court  Middlebury , VT","geo_precision":"city","state":"VT"},"type":"Feature","geometry":{"type":"Point","coordinates":[-73.171578,43.991942]}},{"properties":{"city":"Middlebury","geo_score":0.851,"street":"8 Harrow Way","id":"ahi3ezmn95md","address":"8 Harrow Way  Middlebury , VT","geo_precision":"range","state":"VT"},"type":"Feature","geometry":{"type":"Point","coordinates":[-73.157061,44.009548]}},{"properties":{"city":"Middlebury","geo_score":0.653,"street":"310 Chipman Park","id":"ahi3ezx03e8o","address":"310 Chipman Park  Middlebury , VT","geo_precision":"street","state":"VT"},"type":"Feature","geometry":{"type":"Point","coordinates":[-73.171487,44.006237]}},{"properties":{"city":"Middlebury","geo_score":0.795,"street":"64 Sugarwood Court Apt. 10","id":"ahi3ezozlbqx","address":"64 Sugarwood Court Apt. 10  Middlebury , VT","geo_precision":"range","state":"VT"},"type":"Feature","geometry":{"type":"Point","coordinates":[-73.151902,44.020622]}},{"properties":{"city":"Middlebury","geo_score":0.693,"street":"1 Lower Plains Road","id":"ahi3ezxwv4oq","address":"1 Lower Plains Road  Middlebury , VT","geo_precision":"street","state":"VT"},"type":"Feature","geometry":{"type":"Point","coordinates":[-73.091066,43.961158]}},{"properties":{"city":"Middlebury","geo_score":0.841,"street":"395 East Main Street","id":"ahi3ezlaybc1","address":"395 East Main Street  Middlebury , VT","geo_precision":"range","state":"VT"},"type":"Feature","geometry":{"type":"Point","coordinates":[-73.105991,43.973357]}},{"properties":{"city":"Middlebury","geo_score":0.842,"street":"6 Overbrook Drive","id":"ahi3ezlw8wg9","address":"6 Overbrook Drive  Middlebury , VT","geo_precision":"range","state":"VT"},"type":"Feature","geometry":{"type":"Point","coordinates":[-73.158926,44.009155]}},{"properties":{"city":"Middlebury","geo_score":0.849,"street":"4301 Case Street","id":"ahi3ezowocar","address":"4301 Case Street  Middlebury , VT","geo_precision":"range","state":"VT"},"type":"Feature","geometry":{"type":"Point","coordinates":[-73.095375,44.030725]}},{"properties":{"city":"Middlebury","geo_score":0.52,"street":"17 High Street","id":"ahi3ezlewoux","address":"17 High Street  Middlebury , VT","geo_precision":"city","state":"VT"},"type":"Feature","geometry":{"type":"Point","coordinates":[-73.171578,43.991942]}},{"properties":{"city":"Middlebury","geo_score":0.849,"street":"3669 Case Street","id":"ahi3ezm3oeth","address":"3669 Case Street  Middlebury , VT","geo_precision":"range","state":"VT"},"type":"Feature","geometry":{"type":"Point","coordinates":[-73.10266,44.021776]}},{"properties":{"city":"Middlebury","geo_score":0.851,"street":"9 Harrow Way","id":"ahi3ezmm50a9","address":"9 Harrow Way  Middlebury , VT","geo_precision":"range","state":"VT"},"type":"Feature","geometry":{"type":"Point","coordinates":[-73.157074,44.009396]}},{"properties":{"city":"Middlebury","geo_score":0.854,"street":"98 Mead Lane","id":"ahi3ezljh2pi","address":"98 Mead Lane  Middlebury , VT","geo_precision":"range","state":"VT"},"type":"Feature","geometry":{"type":"Point","coordinates":[-73.101821,44.02608]}},{"properties":{"city":"Middlebury","geo_score":0.842,"street":"10 Chipman Heights","id":"ahi3ezr0myfp","address":"10 Chipman Heights  Middlebury , VT","geo_precision":"range","state":"VT"},"type":"Feature","geometry":{"type":"Point","coordinates":[-73.163172,44.020126]}},{"properties":{"city":"Middlebury","geo_score":0.846,"street":"1190 Halladay Road","id":"ahi3eznuisni","address":"1190 Halladay Road  Middlebury , VT","geo_precision":"range","state":"VT"},"type":"Feature","geometry":{"type":"Point","coordinates":[-73.134308,43.975001]}},{"properties":{"city":"Middlebury","geo_score":0.851,"street":"7 Meadow Way","id":"ahi3f00ksr6y","address":"7 Meadow Way  Middlebury , VT","geo_precision":"range","state":"VT"},"type":"Feature","geometry":{"type":"Point","coordinates":[-73.158587,44.010189]}},{"properties":{"city":"Middlebury","geo_score":0.589,"street":"30 South Village Green Apt. 105","id":"ahi3f00sjbu1","address":"30 South Village Green Apt. 105  Middlebury , VT","geo_precision":"range","state":"VT"},"type":"Feature","geometry":{"type":"Point","coordinates":[-73.263017,43.570251]}},{"properties":{"city":"Middlebury","geo_score":0.846,"street":"186 Burnham Drive","id":"ahi3ezmsg54f","address":"186 Burnham Drive  Middlebury , VT","geo_precision":"range","state":"VT"},"type":"Feature","geometry":{"type":"Point","coordinates":[-73.089024,43.993732]}},{"properties":{"city":"Middlebury","geo_score":0.844,"street":"24 Seymour Street","id":"ahi3ezt2y3tv","address":"24 Seymour Street  Middlebury , VT","geo_precision":"range","state":"VT"},"type":"Feature","geometry":{"type":"Point","coordinates":[-73.169303,44.017383]}},{"properties":{"city":"Middlebury","geo_score":0.846,"street":"191 Burnham Drive","id":"ahi3ezyps9st","address":"191 Burnham Drive  Middlebury , VT","geo_precision":"range","state":"VT"},"type":"Feature","geometry":{"type":"Point","coordinates":[-73.089024,43.993732]}},{"properties":{"city":"Middlebury","geo_score":0.849,"street":"91B Munson Road","id":"ahi3ezlv0lbv","address":"91B Munson Road  Middlebury , VT","geo_precision":"range","state":"VT"},"type":"Feature","geometry":{"type":"Point","coordinates":[-73.095671,43.994845]}},{"properties":{"city":"Middlebury","geo_score":0.84,"street":"636 Happy Valley Road","id":"ahi3eztwngq5","address":"636 Happy Valley Road  Middlebury , VT","geo_precision":"range","state":"VT"},"type":"Feature","geometry":{"type":"Point","coordinates":[-73.152056,44.032651]}},{"properties":{"city":"Middlebury","geo_score":0.847,"street":"123 Juniper Lane","id":"ahi3ezvdnq0r","address":"123 Juniper Lane  Middlebury , VT","geo_precision":"range","state":"VT"},"type":"Feature","geometry":{"type":"Point","coordinates":[-73.144659,44.025079]}},{"properties":{"city":"Middlebury","geo_score":0.659,"street":"25 Sugarwood Court, Apt. 4","id":"ahi3ezri09ji","address":"25 Sugarwood Court, Apt. 4  Middlebury , VT","geo_precision":"range","state":"VT"},"type":"Feature","geometry":{"type":"Point","coordinates":[-73.151253,44.020671]}},{"properties":{"city":"Middlebury","geo_score":0.851,"street":"227 Creek Road","id":"ahi3ezqp1rc1","address":"227 Creek Road  Middlebury , VT","geo_precision":"range","state":"VT"},"type":"Feature","geometry":{"type":"Point","coordinates":[-73.160384,44.001842]}},{"properties":{"city":"Middlebury","geo_score":0.754,"street":"70 Ossie Road","id":"ahi3ezysly8p","address":"70 Ossie Road  Middlebury , VT","geo_precision":"street","state":"VT"},"type":"Feature","geometry":{"type":"Point","coordinates":[-73.109318,43.971894]}},{"properties":{"city":"Middlebury","geo_score":0.543,"street":"155 Cottage Lane","id":"ahi3ezzsrgev","address":"155 Cottage Lane  Middlebury , VT","geo_precision":"street","state":"VT"},"type":"Feature","geometry":{"type":"Point","coordinates":[-73.159478,44.001885]}},{"properties":{"city":"Middlebury","geo_score":0.847,"street":"285 Airport Road","id":"ahi3ezp5ct3r","address":"285 Airport Road  Middlebury , VT","geo_precision":"range","state":"VT"},"type":"Feature","geometry":{"type":"Point","coordinates":[-73.097279,43.987738]}},{"properties":{"city":"Middlebury","geo_score":0.659,"street":"39 Sugarwood Court , Apt. 6","id":"ahi3ezvv0wzu","address":"39 Sugarwood Court , Apt. 6  Middlebury , VT","geo_precision":"range","state":"VT"},"type":"Feature","geometry":{"type":"Point","coordinates":[-73.151439,44.020728]}},{"properties":{"city":"Middlebury","geo_score":0.849,"street":"180 Rogers Road","id":"ahi3ezky79ah","address":"180 Rogers Road  Middlebury , VT","geo_precision":"range","state":"VT"},"type":"Feature","geometry":{"type":"Point","coordinates":[-73.155318,44.004273]}},{"properties":{"city":"Middlebury","geo_score":0.677,"street":"87 Jackson Lane #18","id":"ahi3ezl3ysnr","address":"87 Jackson Lane #18  Middlebury , VT","geo_precision":"range","state":"VT"},"type":"Feature","geometry":{"type":"Point","coordinates":[-73.148045,44.025191]}},{"properties":{"city":"Middlebury","geo_score":0.724,"street":"573 Munger Street","id":"ahi3ezxrkebn","address":"573 Munger Street  Middlebury , VT","geo_precision":"range","state":"VT"},"type":"Feature","geometry":{"type":"Point","coordinates":[-73.114376,44.025693]}},{"properties":{"city":"Middlebury","geo_score":0.825,"street":"13 Washington Street Apt. 4","id":"ahi3ezzjt70f","address":"13 Washington Street Apt. 4  Middlebury , VT","geo_precision":"range","state":"VT"},"type":"Feature","geometry":{"type":"Point","coordinates":[-73.15541,44.020886]}},{"properties":{"city":"Middlebury","geo_score":0.847,"street":"38 Juniper Lane","id":"ahi3ezwmx8ff","address":"38 Juniper Lane  Middlebury , VT","geo_precision":"range","state":"VT"},"type":"Feature","geometry":{"type":"Point","coordinates":[-73.144816,44.024523]}},{"properties":{"city":"Middlebury","geo_score":0.818,"street":"178A Washington Street Ext.","id":"ahi3ezwns2er","address":"178A Washington Street Ext.  Middlebury , VT","geo_precision":"range","state":"VT"},"type":"Feature","geometry":{"type":"Point","coordinates":[-73.151073,44.02281]}},{"properties":{"city":"Middlebury","geo_score":0.605,"street":"30 South Village Green #305","id":"ahi3ezv7sgdk","address":"30 South Village Green #305  Middlebury , VT","geo_precision":"range","state":"VT"},"type":"Feature","geometry":{"type":"Point","coordinates":[-73.039133,43.665422]}},{"properties":{"city":"Middlebury","geo_score":0.841,"street":"120 Peterson Terrace","id":"ahi3ezwu0m2c","address":"120 Peterson Terrace  Middlebury , VT","geo_precision":"range","state":"VT"},"type":"Feature","geometry":{"type":"Point","coordinates":[-73.152119,44.020402]}},{"properties":{"city":"Middlebury","geo_score":0.854,"street":"415 Mead Lane","id":"ahi3ezye0hdw","address":"415 Mead Lane  Middlebury , VT","geo_precision":"range","state":"VT"},"type":"Feature","geometry":{"type":"Point","coordinates":[-73.097624,44.0294]}},{"properties":{"city":"Middlebury","geo_score":0.846,"street":"5 Swanage Court","id":"ahi3ezlyki45","address":"5 Swanage Court  Middlebury , VT","geo_precision":"range","state":"VT"},"type":"Feature","geometry":{"type":"Point","coordinates":[-73.156943,44.008545]}}],"is_temporal":false,"author":{"url":"","metadata":"","contact_name":"","contact_address":"","source":"","contact_phone":""},"source":"","pagination":{"sort":null,"start":0,"total":403,"limit":1000000},"state":"complete","tags":"","published":"2014-08-16T22:52:22-04:00","id":398145}