{"type":"FeatureCollection","data_type":"Dataset","url_type":null,"permissions":[{"permissions":{"download":true,"view":true},"group_id":"everyone"}],"classification":null,"title":"TESTMAPpatent","count":6,"stream_id":398699,"contributor":{"url":"http://geocommons.com/users/78068","name":"gtls23@yahoo.com"},"data_attributes":null,"calculation_params":null,"icon_link":null,"link":"http://geocommons.com/overlays/398699.json","extent":[-121.705,37.1894,-71.1329,42.3804],"geometry_types":["point"],"unique_name":null,"name":"TESTMAPpatent","feature_count":6,"description":"","next_feature":null,"is_raster":false,"short_classification":"Y","stats":{"us patent":{"max":1264,"variance":178922.666666667,"mean":489.666666666667,"stdev":422.99251372414,"min":65,"median":494}},"features":[{"properties":{"zip":"2138","geo_score":0.857,"id":"ahjywowt4p4i","geo_precision":"zip","state":"MA","us patent":65},"type":"Feature","geometry":{"type":"Point","coordinates":[-71.132947,42.380442]}},{"properties":{"zip":"2138","geo_score":0.857,"id":"ahjywovp1v0b","geo_precision":"zip","state":"MA","us patent":494},"type":"Feature","geometry":{"type":"Point","coordinates":[-71.132947,42.380442]}},{"properties":{"zip":"2138","geo_score":0.857,"id":"ahjywop81jiz","geo_precision":"zip","state":"MA","us patent":519},"type":"Feature","geometry":{"type":"Point","coordinates":[-71.132947,42.380442]}},{"properties":{"zip":"94305","geo_score":0.857,"id":"ahjywole4aae","geo_precision":"zip","state":"CA","us patent":440},"type":"Feature","geometry":{"type":"Point","coordinates":[-121.705327,37.189396]}},{"properties":{"zip":"8540","geo_score":0.857,"id":"ahjywonwwr86","geo_precision":"zip","state":"NJ","us patent":156},"type":"Feature","geometry":{"type":"Point","coordinates":[-74.64795,40.363882]}},{"properties":{"zip":"10025","geo_score":0.857,"id":"ahjywoxkwamr","geo_precision":"zip","state":"NY","us patent":1264},"type":"Feature","geometry":{"type":"Point","coordinates":[-73.967778,40.798664]}}],"is_temporal":false,"author":{"url":"","metadata":null,"contact_name":null,"contact_address":null,"source":null,"contact_phone":null},"source":"","pagination":{"sort":null,"start":0,"total":6,"limit":1000000},"state":"complete","tags":"","published":"2014-08-16T23:40:14-04:00","id":398699}