{"type":"FeatureCollection","data_type":"Dataset","url_type":null,"permissions":[{"permissions":{"download":true,"view":true},"group_id":"everyone"}],"classification":null,"title":"map_ARWU_ALL_US_UNIVERSITIES_RANK_ZIP","count":165,"stream_id":398803,"contributor":{"url":"http://geocommons.com/users/78068","name":"gtls23@yahoo.com"},"data_attributes":null,"calculation_params":null,"icon_link":null,"link":"http://geocommons.com/overlays/398803.json","extent":[-157.941,21.6712,-68.6334,64.8601],"geometry_types":["point"],"unique_name":null,"name":"map_ARWU_ALL_US_UNIVERSITIES_RANK_ZIP","feature_count":165,"description":"","next_feature":null,"is_raster":false,"short_classification":"Y","stats":{"rank":{"max":900,"variance":41880.4512195122,"mean":214.0,"stdev":204.647138312541,"min":1,"median":151}},"features":[{"properties":{"zip":"02138","geo_score":0.857,"rank":1,"id":"ahkr8hafb9qm","geo_precision":"zip","state":"MA"},"type":"Feature","geometry":{"type":"Point","coordinates":[-71.132947,42.380442]}},{"properties":{"zip":"94704","geo_score":0.857,"rank":2,"id":"ahkr8hfvokj9","geo_precision":"zip","state":"CA"},"type":"Feature","geometry":{"type":"Point","coordinates":[-122.256729,37.866975]}},{"properties":{"zip":"94305","geo_score":0.714,"rank":3,"id":"ahkr8hbo111d","geo_precision":"zip","state":"MA"},"type":"Feature","geometry":{"type":"Point","coordinates":[-121.705327,37.189396]}},{"properties":{"zip":"02139","geo_score":0.857,"rank":4,"id":"ahkr8hhegear","geo_precision":"zip","state":"MA"},"type":"Feature","geometry":{"type":"Point","coordinates":[-71.103663,42.358431]}},{"properties":{"zip":"91125","geo_score":0.857,"rank":6,"id":"ahkr8h2xy09e","geo_precision":"zip","state":"CA"},"type":"Feature","geometry":{"type":"Point","coordinates":[-118.298662,33.786594]}},{"properties":{"zip":"08540","geo_score":0.857,"rank":7,"id":"ahkr8h92bi3j","geo_precision":"zip","state":"NJ"},"type":"Feature","geometry":{"type":"Point","coordinates":[-74.64795,40.363882]}},{"properties":{"zip":"10027","geo_score":0.857,"rank":8,"id":"ahkr8h9glz2u","geo_precision":"zip","state":"NY"},"type":"Feature","geometry":{"type":"Point","coordinates":[-73.9532,40.812242]}},{"properties":{"zip":"60637","geo_score":0.857,"rank":9,"id":"ahkr8h3xbbfs","geo_precision":"zip","state":"IL"},"type":"Feature","geometry":{"type":"Point","coordinates":[-87.68732,41.811929]}},{"properties":{"zip":"06520","geo_score":0.857,"rank":11,"id":"ahkr8h5ngumu","geo_precision":"zip","state":"CT"},"type":"Feature","geometry":{"type":"Point","coordinates":[-72.927507,41.365709]}},{"properties":{"zip":"14850","geo_score":0.857,"rank":12,"id":"ahkr8hhrn826","geo_precision":"zip","state":"NY"},"type":"Feature","geometry":{"type":"Point","coordinates":[-76.437994,42.455073]}},{"properties":{"zip":"90095","geo_score":0.857,"rank":13,"id":"ahkr8hg3ka24","geo_precision":"zip","state":"CA"},"type":"Feature","geometry":{"type":"Point","coordinates":[-118.298662,33.786594]}},{"properties":{"zip":"92093","geo_score":0.857,"rank":14,"id":"ahkr8h9m7tti","geo_precision":"zip","state":"ca"},"type":"Feature","geometry":{"type":"Point","coordinates":[-116.846046,33.016928]}},{"properties":{"zip":"19104","geo_score":0.857,"rank":15,"id":"ahkr8h6pl0bs","geo_precision":"zip","state":"PA"},"type":"Feature","geometry":{"type":"Point","coordinates":[-75.19668,39.960912]}},{"properties":{"zip":"98195","geo_score":0.857,"rank":16,"id":"ahkr8ha7frni","geo_precision":"zip","state":"WA"},"type":"Feature","geometry":{"type":"Point","coordinates":[-121.803388,47.432251]}},{"properties":{"zip":"53706","geo_score":0.857,"rank":17,"id":"ahkr8h5wz1es","geo_precision":"zip","state":"WI"},"type":"Feature","geometry":{"type":"Point","coordinates":[-89.413326,43.077755]}},{"properties":{"zip":"21218","geo_score":0.857,"rank":18,"id":"ahkr8hbl09pv","geo_precision":"zip","state":"MD"},"type":"Feature","geometry":{"type":"Point","coordinates":[-76.618023,39.334829]}},{"properties":{"zip":"94143","geo_score":0.857,"rank":18,"id":"ahkr8hgkm40y","geo_precision":"zip","state":"CA"},"type":"Feature","geometry":{"type":"Point","coordinates":[-122.458582,37.76313]}},{"properties":{"zip":"48109","geo_score":0.857,"rank":22,"id":"ahkr8h57whn8","geo_precision":"zip","state":"MI"},"type":"Feature","geometry":{"type":"Point","coordinates":[-83.711228,42.276324]}},{"properties":{"zip":"61820","geo_score":0.857,"rank":25,"id":"ahkr8h2ixscc","geo_precision":"zip","state":"IL"},"type":"Feature","geometry":{"type":"Point","coordinates":[-88.235605,40.142532]}},{"properties":{"zip":"55455","geo_score":0.857,"rank":28,"id":"ahkr8h74x8xr","geo_precision":"zip","state":"MN"},"type":"Feature","geometry":{"type":"Point","coordinates":[-93.298376,45.038364]}},{"properties":{"zip":"60208","geo_score":0.857,"rank":29,"id":"ahkr8h7i8ifz","geo_precision":"zip","state":"IL"},"type":"Feature","geometry":{"type":"Point","coordinates":[-87.684506,42.058629]}},{"properties":{"zip":"63130","geo_score":0.857,"rank":30,"id":"ahkr8he8qr6e","geo_precision":"zip","state":"MO"},"type":"Feature","geometry":{"type":"Point","coordinates":[-90.309281,38.655885]}},{"properties":{"zip":"10012","geo_score":0.857,"rank":31,"id":"ahkr8hd7pjsj","geo_precision":"zip","state":"NY"},"type":"Feature","geometry":{"type":"Point","coordinates":[-73.991582,40.729124]}},{"properties":{"zip":"93106","geo_score":0.857,"rank":32,"id":"ahkr8h368kzx","geo_precision":"zip","state":"CA"},"type":"Feature","geometry":{"type":"Point","coordinates":[-119.837072,34.432896]}},{"properties":{"zip":"80309","geo_score":0.857,"rank":32,"id":"ahkr8hdjzfba","geo_precision":"zip","state":"CO"},"type":"Feature","geometry":{"type":"Point","coordinates":[-105.373507,40.087835]}},{"properties":{"zip":"10065","geo_score":0.857,"rank":34,"id":"ahkr8h8i4cvr","geo_precision":"zip","state":"NY"},"type":"Feature","geometry":{"type":"Point","coordinates":[-74.005973,40.714269]}},{"properties":{"zip":"27705","geo_score":0.857,"rank":35,"id":"ahkr8hgx8saq","geo_precision":"zip","state":"NC"},"type":"Feature","geometry":{"type":"Point","coordinates":[-78.899525,36.019354]}},{"properties":{"zip":"20742","geo_score":0.857,"rank":36,"id":"ahkr8heux59e","geo_precision":"zip","state":"MD"},"type":"Feature","geometry":{"type":"Point","coordinates":[-76.877743,38.833563]}},{"properties":{"zip":"78712","geo_score":0.857,"rank":38,"id":"ahkr8hb91xfi","geo_precision":"zip","state":"TX"},"type":"Feature","geometry":{"type":"Point","coordinates":[-97.735394,30.285207]}},{"properties":{"zip":"27514","geo_score":0.857,"rank":41,"id":"ahkr8hewajdd","geo_precision":"zip","state":"NC"},"type":"Feature","geometry":{"type":"Point","coordinates":[-79.187514,35.921808]}},{"properties":{"zip":"16802","geo_score":0.857,"rank":43,"id":"ahkr8heu57tp","geo_precision":"zip","state":"PA"},"type":"Feature","geometry":{"type":"Point","coordinates":[-77.862339,40.799672]}},{"properties":{"zip":"95616","geo_score":0.857,"rank":46,"id":"ahkr8h24vlqn","geo_precision":"zip","state":"CA"},"type":"Feature","geometry":{"type":"Point","coordinates":[-121.749016,38.521776]}},{"properties":{"zip":"92697","geo_score":0.857,"rank":46,"id":"ahkr8h28gk36","geo_precision":"zip","state":"CA"},"type":"Feature","geometry":{"type":"Point","coordinates":[-117.769442,33.640302]}},{"properties":{"zip":"90089","geo_score":0.857,"rank":46,"id":"ahkr8h5amzd1","geo_precision":"zip","state":"CA"},"type":"Feature","geometry":{"type":"Point","coordinates":[-118.298662,33.786594]}},{"properties":{"zip":"75235","geo_score":0.857,"rank":49,"id":"ahkr8h4ajwzk","geo_precision":"zip","state":"TX"},"type":"Feature","geometry":{"type":"Point","coordinates":[-96.623022,32.692682]}},{"properties":{"zip":"37235","geo_score":0.857,"rank":53,"id":"ahkr8hdtvala","geo_precision":"zip","state":"TN"},"type":"Feature","geometry":{"type":"Point","coordinates":[-86.785248,36.186605]}},{"properties":{"zip":"8901","geo_score":0.714,"rank":54,"id":"ahkr8hhqod5l","geo_precision":"zip","state":"N"},"type":"Feature","geometry":{"type":"Point","coordinates":[-74.444395,40.486754]}},{"properties":{"zip":"15213","geo_score":0.857,"rank":56,"id":"ahkr8hb79bkh","geo_precision":"zip","state":"PA"},"type":"Feature","geometry":{"type":"Point","coordinates":[-79.980624,40.423069]}},{"properties":{"zip":"15213","geo_score":0.857,"rank":58,"id":"ahkr8h70ix0m","geo_precision":"zip","state":"PA"},"type":"Feature","geometry":{"type":"Point","coordinates":[-79.980624,40.423069]}},{"properties":{"zip":"43201","geo_score":0.857,"rank":59,"id":"ahkr8he7wlu6","geo_precision":"zip","state":"OH"},"type":"Feature","geometry":{"type":"Point","coordinates":[-83.011389,39.969036]}},{"properties":{"zip":"2912","geo_score":0.857,"rank":65,"id":"ahkr8h87uc0s","geo_precision":"zip","state":"RI"},"type":"Feature","geometry":{"type":"Point","coordinates":[-71.397699,41.826737]}},{"properties":{"zip":"32611","geo_score":0.857,"rank":68,"id":"ahkr8h3y5ys6","geo_precision":"zip","state":"FL"},"type":"Feature","geometry":{"type":"Point","coordinates":[-82.353862,29.681312]}},{"properties":{"zip":"47907","geo_score":0.857,"rank":69,"id":"ahkr8h31q3qm","geo_precision":"zip","state":"IN"},"type":"Feature","geometry":{"type":"Point","coordinates":[-86.916215,40.424923]}},{"properties":{"zip":"2215","geo_score":0.857,"rank":77,"id":"ahkr8h97xhpi","geo_precision":"zip","state":"MA"},"type":"Feature","geometry":{"type":"Point","coordinates":[-71.107653,42.345079]}},{"properties":{"zip":"85721","geo_score":0.857,"rank":78,"id":"ahkr8hagehi5","geo_precision":"zip","state":"AZ"},"type":"Feature","geometry":{"type":"Point","coordinates":[-110.949996,32.233761]}},{"properties":{"zip":"85004","geo_score":0.857,"rank":81,"id":"ahkr8h5cddj3","geo_precision":"zip","state":"AZ"},"type":"Feature","geometry":{"type":"Point","coordinates":[-112.18717,33.276539]}},{"properties":{"zip":"14627","geo_score":0.857,"rank":82,"id":"ahkr8h2r0hhx","geo_precision":"zip","state":"NY"},"type":"Feature","geometry":{"type":"Point","coordinates":[-77.627674,43.127513]}},{"properties":{"zip":"84112","geo_score":0.857,"rank":82,"id":"ahkr8hgh4yod","geo_precision":"zip","state":"UT"},"type":"Feature","geometry":{"type":"Point","coordinates":[-111.840284,40.765868]}},{"properties":{"zip":"48824","geo_score":0.857,"rank":86,"id":"ahkr8h1n3sjc","geo_precision":"zip","state":"MI"},"type":"Feature","geometry":{"type":"Point","coordinates":[-84.488226,42.728334]}},{"properties":{"zip":"47405","geo_score":0.857,"rank":90,"id":"ahkr8h6sz74e","geo_precision":"zip","state":"IN"},"type":"Feature","geometry":{"type":"Point","coordinates":[-86.515145,39.173447]}},{"properties":{"zip":"77843","geo_score":0.857,"rank":95,"id":"ahkr8hbhlx23","geo_precision":"zip","state":"TX"},"type":"Feature","geometry":{"type":"Point","coordinates":[-96.341012,30.65212]}},{"properties":{"zip":"22903","geo_score":0.857,"rank":96,"id":"ahkr8hf0fp47","geo_precision":"zip","state":"VA"},"type":"Feature","geometry":{"type":"Point","coordinates":[-78.54418,38.051249]}},{"properties":{"zip":"44106","geo_score":0.857,"rank":97,"id":"ahkr8haeo6hp","geo_precision":"zip","state":"OH"},"type":"Feature","geometry":{"type":"Point","coordinates":[-81.602799,41.504751]}},{"properties":{"zip":"77251","geo_score":0.857,"rank":99,"id":"ahkr8hb3badu","geo_precision":"zip","state":"TX"},"type":"Feature","geometry":{"type":"Point","coordinates":[-95.434241,29.83399]}},{"properties":{"zip":"77030","geo_score":0.857,"rank":101,"id":"ahkr8hb5pe8e","geo_precision":"zip","state":"TX"},"type":"Feature","geometry":{"type":"Point","coordinates":[-95.434241,29.83399]}},{"properties":{"zip":"30322","geo_score":0.857,"rank":101,"id":"ahkr8h9whrpe","geo_precision":"zip","state":"GA"},"type":"Feature","geometry":{"type":"Point","coordinates":[-84.324824,33.795204]}},{"properties":{"zip":"30332","geo_score":0.857,"rank":101,"id":"ahkr8h85032t","geo_precision":"zip","state":"GA"},"type":"Feature","geometry":{"type":"Point","coordinates":[-84.397976,33.776305]}},{"properties":{"zip":"55905","geo_score":0.857,"rank":101,"id":"ahkr8hcg3kgx","geo_precision":"zip","state":"MN"},"type":"Feature","geometry":{"type":"Point","coordinates":[-92.466826,44.022513]}},{"properties":{"zip":"27695","geo_score":0.857,"rank":101,"id":"ahkr8h4nlnsy","geo_precision":"zip","state":"NC"},"type":"Feature","geometry":{"type":"Point","coordinates":[-78.625265,35.797692]}},{"properties":{"zip":"97331","geo_score":0.857,"rank":101,"id":"ahkr8h38wl74","geo_precision":"zip","state":"OR"},"type":"Feature","geometry":{"type":"Point","coordinates":[-123.278957,44.565613]}},{"properties":{"zip":"30602","geo_score":0.857,"rank":101,"id":"ahkr8hgaup60","geo_precision":"zip","state":"GA"},"type":"Feature","geometry":{"type":"Point","coordinates":[-83.365029,33.925971]}},{"properties":{"zip":"92507","geo_score":0.857,"rank":101,"id":"ahkr8h3dvpi9","geo_precision":"zip","state":"CA"},"type":"Feature","geometry":{"type":"Point","coordinates":[-117.296431,33.946683]}},{"properties":{"zip":"95064","geo_score":0.857,"rank":101,"id":"ahkr8hcy7zk9","geo_precision":"zip","state":"CA"},"type":"Feature","geometry":{"type":"Point","coordinates":[-122.059073,36.988837]}},{"properties":{"zip":"96822","geo_score":0.857,"rank":101,"id":"ahkr8h7puzmp","geo_precision":"zip","state":"HI"},"type":"Feature","geometry":{"type":"Point","coordinates":[-157.94085,21.67115]}},{"properties":{"zip":"50309","geo_score":0.857,"rank":101,"id":"ahkr8hf4zpsc","geo_precision":"zip","state":"IA"},"type":"Feature","geometry":{"type":"Point","coordinates":[-93.620267,41.584089]}},{"properties":{"zip":"1003","geo_score":0.857,"rank":101,"id":"ahkr8h1guuqk","geo_precision":"zip","state":"MA"},"type":"Feature","geometry":{"type":"Point","coordinates":[-72.63599,42.369562]}},{"properties":{"zip":"1655","geo_score":0.857,"rank":101,"id":"ahkr8hdloyp3","geo_precision":"zip","state":"MA"},"type":"Feature","geometry":{"type":"Point","coordinates":[-71.896868,42.364807]}},{"properties":{"zip":"33124","geo_score":0.857,"rank":101,"id":"ahkr8hg13xei","geo_precision":"zip","state":"FL"},"type":"Feature","geometry":{"type":"Point","coordinates":[-80.193659,25.774266]}},{"properties":{"zip":"80523","geo_score":0.857,"rank":151,"id":"ahkr8h3rudr9","geo_precision":"zip","state":"CO"},"type":"Feature","geometry":{"type":"Point","coordinates":[-105.464832,40.45553]}},{"properties":{"zip":"03755","geo_score":0.857,"rank":151,"id":"ahkr8hhra8xd","geo_precision":"zip","state":"NH"},"type":"Feature","geometry":{"type":"Point","coordinates":[-72.120314,43.861077]}},{"properties":{"zip":"32306","geo_score":0.857,"rank":151,"id":"ahkr8he82ykn","geo_precision":"zip","state":"FL"},"type":"Feature","geometry":{"type":"Point","coordinates":[-84.29855,30.442499]}},{"properties":{"zip":"22030","geo_score":0.857,"rank":151,"id":"ahkr8hc1i89a","geo_precision":"zip","state":"VA"},"type":"Feature","geometry":{"type":"Point","coordinates":[-77.363875,38.87289]}},{"properties":{"zip":"50011","geo_score":0.857,"rank":151,"id":"ahkr8h6gtbof","geo_precision":"zip","state":"IA"},"type":"Feature","geometry":{"type":"Point","coordinates":[-93.465172,42.035998]}},{"properties":{"zip":"70802","geo_score":0.857,"rank":151,"id":"ahkr8h6kpe8f","geo_precision":"zip","state":"LA"},"type":"Feature","geometry":{"type":"Point","coordinates":[-91.155956,30.44304]}},{"properties":{"zip":"10029","geo_score":0.857,"rank":151,"id":"ahkr8ha0wvz3","geo_precision":"zip","state":"NY"},"type":"Feature","geometry":{"type":"Point","coordinates":[-73.943517,40.791884]}},{"properties":{"zip":"97239","geo_score":0.857,"rank":151,"id":"ahkr8hhfm02g","geo_precision":"zip","state":"OR"},"type":"Feature","geometry":{"type":"Point","coordinates":[-122.691267,45.488178]}},{"properties":{"zip":"11790","geo_score":0.857,"rank":151,"id":"ahkr8h5sww57","geo_precision":"zip","state":"NY"},"type":"Feature","geometry":{"type":"Point","coordinates":[-73.182803,40.90129]}},{"properties":{"zip":"35294","geo_score":0.857,"rank":151,"id":"ahkr8hbqxmq4","geo_precision":"zip","state":"AL"},"type":"Feature","geometry":{"type":"Point","coordinates":[-86.929208,33.544622]}},{"properties":{"zip":"6269","geo_score":0.0,"rank":151,"id":"ahkr8hf9gita","geo_precision":"unmatched","state":"CT"},"type":"Feature","geometry":null},{"properties":{"zip":"77030","geo_score":0.857,"rank":151,"id":"ahkr8hcg3gla","geo_precision":"zip","state":"TX"},"type":"Feature","geometry":{"type":"Point","coordinates":[-95.434241,29.83399]}},{"properties":{"zip":"19711","geo_score":0.857,"rank":151,"id":"ahkr8hduwby4","geo_precision":"zip","state":"DE"},"type":"Feature","geometry":{"type":"Point","coordinates":[-75.680209,39.689001]}},{"properties":{"zip":"60607","geo_score":0.857,"rank":151,"id":"ahkr8hdgt2bx","geo_precision":"zip","state":"IL"},"type":"Feature","geometry":{"type":"Point","coordinates":[-87.81381,41.928881]}},{"properties":{"zip":"21201","geo_score":0.857,"rank":151,"id":"ahkr8h4s88rm","geo_precision":"zip","state":"MD"},"type":"Feature","geometry":{"type":"Point","coordinates":[-76.623489,39.296536]}},{"properties":{"zip":"68508","geo_score":0.714,"rank":151,"id":"ahkr8h2no8dm","geo_precision":"zip","state":"NB"},"type":"Feature","geometry":{"type":"Point","coordinates":[-96.624692,40.7981]}},{"properties":{"zip":"37996","geo_score":0.857,"rank":151,"id":"ahkr8h4gw2z7","geo_precision":"zip","state":"TN"},"type":"Feature","geometry":{"type":"Point","coordinates":[-83.96218,35.990142]}},{"properties":{"zip":"23284","geo_score":0.857,"rank":151,"id":"ahkr8h9aoqn8","geo_precision":"zip","state":"VA"},"type":"Feature","geometry":{"type":"Point","coordinates":[-77.451155,37.549446]}},{"properties":{"zip":"24061","geo_score":0.857,"rank":151,"id":"ahkr8h4uvcvo","geo_precision":"zip","state":"VA"},"type":"Feature","geometry":{"type":"Point","coordinates":[-80.351482,37.179115]}},{"properties":{"zip":"2453","geo_score":0.857,"rank":201,"id":"ahkr8hgr3tce","geo_precision":"zip","state":"MA"},"type":"Feature","geometry":{"type":"Point","coordinates":[-71.23165,42.365396]}},{"properties":{"zip":"10075","geo_score":0.857,"rank":201,"id":"ahkr8hfatkr8","geo_precision":"zip","state":"NY"},"type":"Feature","geometry":{"type":"Point","coordinates":[-74.005973,40.714269]}},{"properties":{"zip":"12180","geo_score":0.857,"rank":201,"id":"ahkr8hahe30h","geo_precision":"zip","state":"NY"},"type":"Feature","geometry":{"type":"Point","coordinates":[-73.620394,42.670079]}},{"properties":{"zip":"14260","geo_score":0.857,"rank":201,"id":"ahkr8h2ucr1g","geo_precision":"zip","state":"NY"},"type":"Feature","geometry":{"type":"Point","coordinates":[-78.887094,42.768413]}},{"properties":{"zip":"20052","geo_score":0.857,"rank":201,"id":"ahkr8hbe788o","geo_precision":"zip","state":"DC"},"type":"Feature","geometry":{"type":"Point","coordinates":[-77.047899,38.90014]}},{"properties":{"zip":"87131","geo_score":0.857,"rank":201,"id":"ahkr8h5hkta2","geo_precision":"zip","state":"NM"},"type":"Feature","geometry":{"type":"Point","coordinates":[-106.672872,35.044339]}},{"properties":{"zip":"78229","geo_score":0.857,"rank":201,"id":"ahkr8h98twxj","geo_precision":"zip","state":"TX"},"type":"Feature","geometry":{"type":"Point","coordinates":[-98.33469,29.269288]}},{"properties":{"zip":"32816","geo_score":0.857,"rank":201,"id":"ahkr8h8l7kwr","geo_precision":"zip","state":"FL"},"type":"Feature","geometry":{"type":"Point","coordinates":[-81.260818,28.566338]}},{"properties":{"zip":"45219","geo_score":0.857,"rank":201,"id":"ahkr8h5namf3","geo_precision":"zip","state":"OH"},"type":"Feature","geometry":{"type":"Point","coordinates":[-84.515191,39.12851]}},{"properties":{"zip":"80202","geo_score":0.857,"rank":201,"id":"ahkr8ha8k1mj","geo_precision":"zip","state":"CO"},"type":"Feature","geometry":{"type":"Point","coordinates":[-104.996553,39.760189]}},{"properties":{"zip":"77004","geo_score":0.857,"rank":201,"id":"ahkr8hci4m0u","geo_precision":"zip","state":"TX"},"type":"Feature","geometry":{"type":"Point","coordinates":[-95.434241,29.83399]}},{"properties":{"zip":"66045","geo_score":0.857,"rank":201,"id":"ahkr8h269bgi","geo_precision":"zip","state":"KS"},"type":"Feature","geometry":{"type":"Point","coordinates":[-95.275623,38.952526]}},{"properties":{"zip":"40506","geo_score":0.857,"rank":201,"id":"ahkr8h4v6hww","geo_precision":"zip","state":"KY"},"type":"Feature","geometry":{"type":"Point","coordinates":[-84.507471,38.028712]}},{"properties":{"zip":"7107","geo_score":0.857,"rank":201,"id":"ahkr8hdfv1pq","geo_precision":"zip","state":"NJ"},"type":"Feature","geometry":{"type":"Point","coordinates":[-74.190701,40.755101]}},{"properties":{"zip":"65211","geo_score":0.857,"rank":201,"id":"ahkr8hdvvg15","geo_precision":"zip","state":"MO"},"type":"Feature","geometry":{"type":"Point","coordinates":[-92.102153,38.903318]}},{"properties":{"zip":"46556","geo_score":0.857,"rank":201,"id":"ahkr8h2sjzzf","geo_precision":"zip","state":"IN"},"type":"Feature","geometry":{"type":"Point","coordinates":[-86.292991,41.596769]}},{"properties":{"zip":"97403","geo_score":0.857,"rank":201,"id":"ahkr8hbs2tm3","geo_precision":"zip","state":"OR"},"type":"Feature","geometry":{"type":"Point","coordinates":[-123.095799,44.032396]}},{"properties":{"zip":"29201","geo_score":0.857,"rank":201,"id":"ahkr8h7im8q5","geo_precision":"zip","state":"SC"},"type":"Feature","geometry":{"type":"Point","coordinates":[-81.029814,33.976544]}},{"properties":{"zip":"33620","geo_score":0.857,"rank":201,"id":"ahkr8hgh6b89","geo_precision":"zip","state":"FL"},"type":"Feature","geometry":{"type":"Point","coordinates":[-82.436093,28.069196]}},{"properties":{"zip":"5401","geo_score":0.857,"rank":201,"id":"ahkr8he0nlfz","geo_precision":"zip","state":"VT"},"type":"Feature","geometry":{"type":"Point","coordinates":[-73.151384,44.507404]}},{"properties":{"zip":"99163","geo_score":0.857,"rank":201,"id":"ahkr8hfti0y4","geo_precision":"zip","state":"WA"},"type":"Feature","geometry":{"type":"Point","coordinates":[-117.137945,46.631552]}},{"properties":{"zip":"10033","geo_score":0.857,"rank":201,"id":"ahkr8hb7cnrq","geo_precision":"zip","state":"NY"},"type":"Feature","geometry":{"type":"Point","coordinates":[-73.934764,40.851293]}},{"properties":{"zip":"84602","geo_score":0.857,"rank":301,"id":"ahkr8he5e0fq","geo_precision":"zip","state":"UT"},"type":"Feature","geometry":{"type":"Point","coordinates":[-111.732476,40.356343]}},{"properties":{"zip":"29634","geo_score":0.857,"rank":301,"id":"ahkr8hd7ej1t","geo_precision":"zip","state":"SC"},"type":"Feature","geometry":{"type":"Point","coordinates":[-82.710126,34.847372]}},{"properties":{"zip":"19104","geo_score":0.857,"rank":301,"id":"ahkr8h3zunvy","geo_precision":"zip","state":"PA"},"type":"Feature","geometry":{"type":"Point","coordinates":[-75.19668,39.960912]}},{"properties":{"zip":"20057","geo_score":0.857,"rank":301,"id":"ahkr8ha5ksad","geo_precision":"zip","state":"DC"},"type":"Feature","geometry":{"type":"Point","coordinates":[-77.014647,38.893311]}},{"properties":{"zip":"66506","geo_score":0.857,"rank":301,"id":"ahkr8h9nh1np","geo_precision":"zip","state":"KS"},"type":"Feature","geometry":{"type":"Point","coordinates":[-96.583875,39.196032]}},{"properties":{"zip":"29425","geo_score":0.857,"rank":301,"id":"ahkr8h74yyx3","geo_precision":"zip","state":"SC"},"type":"Feature","geometry":{"type":"Point","coordinates":[-79.94711,32.786176]}},{"properties":{"zip":"63103","geo_score":0.857,"rank":301,"id":"ahkr8h3pepok","geo_precision":"zip","state":"MO"},"type":"Feature","geometry":{"type":"Point","coordinates":[-90.216411,38.629901]}},{"properties":{"zip":"92182","geo_score":0.857,"rank":301,"id":"ahkr8h7qxbob","geo_precision":"zip","state":"CA"},"type":"Feature","geometry":{"type":"Point","coordinates":[-117.076176,32.775088]}},{"properties":{"zip":"12222","geo_score":0.857,"rank":301,"id":"ahkr8h4py2bs","geo_precision":"zip","state":"NY"},"type":"Feature","geometry":{"type":"Point","coordinates":[-73.838035,42.692909]}},{"properties":{"zip":"11203","geo_score":0.857,"rank":301,"id":"ahkr8hfv1ik9","geo_precision":"zip","state":"NY"},"type":"Feature","geometry":{"type":"Point","coordinates":[-73.949389,40.663551]}},{"properties":{"zip":"13210","geo_score":0.857,"rank":301,"id":"ahkr8h4o35fl","geo_precision":"zip","state":"NY"},"type":"Feature","geometry":{"type":"Point","coordinates":[-76.110995,43.031416]}},{"properties":{"zip":"19122","geo_score":0.857,"rank":301,"id":"ahkr8h1y3my9","geo_precision":"zip","state":"PA"},"type":"Feature","geometry":{"type":"Point","coordinates":[-75.141271,39.977462]}},{"properties":{"zip":"79401","geo_score":0.857,"rank":301,"id":"ahkr8hauaa6h","geo_precision":"zip","state":"TX"},"type":"Feature","geometry":{"type":"Point","coordinates":[-101.767112,33.693972]}},{"properties":{"zip":"59812","geo_score":0.714,"rank":301,"id":"ahkr8hammdh5","geo_precision":"zip","state":"MO"},"type":"Feature","geometry":{"type":"Point","coordinates":[-114.049824,47.116034]}},{"properties":{"zip":"75080","geo_score":0.857,"rank":301,"id":"ahkr8hctzen8","geo_precision":"zip","state":"TX"},"type":"Feature","geometry":{"type":"Point","coordinates":[-96.726826,32.962811]}},{"properties":{"zip":"77550","geo_score":0.857,"rank":301,"id":"ahkr8h59spt6","geo_precision":"zip","state":"TX"},"type":"Feature","geometry":{"type":"Point","coordinates":[-94.979646,29.189684]}},{"properties":{"zip":"19107","geo_score":0.857,"rank":301,"id":"ahkr8hbi2ojn","geo_precision":"zip","state":"PA"},"type":"Feature","geometry":{"type":"Point","coordinates":[-75.162871,39.962612]}},{"properties":{"zip":"70118","geo_score":0.857,"rank":301,"id":"ahkr8hb2nkbd","geo_precision":"zip","state":"LA"},"type":"Feature","geometry":{"type":"Point","coordinates":[-90.130074,29.947427]}},{"properties":{"zip":"99709","geo_score":0.857,"rank":301,"id":"ahkr8h279l3g","geo_precision":"zip","state":"AK"},"type":"Feature","geometry":{"type":"Point","coordinates":[-147.999791,64.860126]}},{"properties":{"zip":"72701","geo_score":0.714,"rank":301,"id":"ahkr8h8rbtof","geo_precision":"zip","state":"AK"},"type":"Feature","geometry":{"type":"Point","coordinates":[-94.277152,36.15369]}},{"properties":{"zip":"3824","geo_score":0.714,"rank":301,"id":"ahkr8hfeisl7","geo_precision":"zip","state":"nc"},"type":"Feature","geometry":{"type":"Point","coordinates":[-71.01145,43.12314]}},{"properties":{"zip":"73019","geo_score":0.857,"rank":301,"id":"ahkr8hepavw4","geo_precision":"zip","state":"OK"},"type":"Feature","geometry":{"type":"Point","coordinates":[-97.44451,35.208566]}},{"properties":{"zip":"2881","geo_score":0.857,"rank":301,"id":"ahkr8h81qxip","geo_precision":"zip","state":"RI"},"type":"Feature","geometry":{"type":"Point","coordinates":[-71.524317,41.482901]}},{"properties":{"zip":"27106","geo_score":0.857,"rank":301,"id":"ahkr8h2chvew","geo_precision":"zip","state":"NC"},"type":"Feature","geometry":{"type":"Point","coordinates":[-80.285329,36.125415]}},{"properties":{"zip":"48202","geo_score":0.857,"rank":301,"id":"ahkr8hakifws","geo_precision":"zip","state":"MI"},"type":"Feature","geometry":{"type":"Point","coordinates":[-83.150823,42.239933]}},{"properties":{"zip":"36849","geo_score":0.0,"rank":401,"id":"ahkr8hfa9bxa","geo_precision":"unmatched","state":"AL"},"type":"Feature","geometry":null},{"properties":{"zip":"2467","geo_score":0.857,"rank":401,"id":"ahkr8hdpcwvu","geo_precision":"zip","state":"MA"},"type":"Feature","geometry":{"type":"Point","coordinates":[-71.211649,42.357564]}},{"properties":{"zip":"46202","geo_score":0.857,"rank":401,"id":"ahkr8h4l8caj","geo_precision":"zip","state":"IN"},"type":"Feature","geometry":{"type":"Point","coordinates":[-86.143736,39.762392]}},{"properties":{"zip":"44242","geo_score":0.857,"rank":401,"id":"ahkr8h8huls7","geo_precision":"zip","state":"OH"},"type":"Feature","geometry":{"type":"Point","coordinates":[-81.196615,41.170006]}},{"properties":{"zip":"18015","geo_score":0.857,"rank":401,"id":"ahkr8h9hzgf1","geo_precision":"zip","state":"PA"},"type":"Feature","geometry":{"type":"Point","coordinates":[-75.392403,40.572043]}},{"properties":{"zip":"53226","geo_score":0.857,"rank":401,"id":"ahkr8h82x9ft","geo_precision":"zip","state":"WI"},"type":"Feature","geometry":{"type":"Point","coordinates":[-88.041387,43.049312]}},{"properties":{"zip":"59715","geo_score":0.714,"rank":401,"id":"ahkr8h3s5mbg","geo_precision":"zip","state":"MO"},"type":"Feature","geometry":{"type":"Point","coordinates":[-111.168212,45.809998]}},{"properties":{"zip":"2115","geo_score":0.857,"rank":401,"id":"ahkr8hdnww50","geo_precision":"zip","state":"MA"},"type":"Feature","geometry":{"type":"Point","coordinates":[-71.096848,42.342043]}},{"properties":{"zip":"45701","geo_score":0.857,"rank":401,"id":"ahkr8h6wrj5v","geo_precision":"zip","state":"OH"},"type":"Feature","geometry":{"type":"Point","coordinates":[-82.1032,39.312018]}},{"properties":{"zip":"97201","geo_score":0.857,"rank":401,"id":"ahkr8h3iht1f","geo_precision":"zip","state":"OR"},"type":"Feature","geometry":{"type":"Point","coordinates":[-122.693157,45.498931]}},{"properties":{"zip":"6030","geo_score":0.857,"rank":401,"id":"ahkr8h7en1f3","geo_precision":"zip","state":"CT"},"type":"Feature","geometry":{"type":"Point","coordinates":[-72.718832,41.791776]}},{"properties":{"zip":"78249","geo_score":0.857,"rank":401,"id":"ahkr8herfwq8","geo_precision":"zip","state":"TX"},"type":"Feature","geometry":{"type":"Point","coordinates":[-98.461582,29.437532]}},{"properties":{"zip":"72204","geo_score":0.857,"rank":401,"id":"ahkr8hgu3a00","geo_precision":"zip","state":"AR"},"type":"Feature","geometry":{"type":"Point","coordinates":[-92.297304,34.711026]}},{"properties":{"zip":"66160","geo_score":0.857,"rank":401,"id":"ahkr8h1tz4as","geo_precision":"zip","state":"KS"},"type":"Feature","geometry":{"type":"Point","coordinates":[-94.749538,39.096551]}},{"properties":{"zip":"68198","geo_score":0.857,"rank":401,"id":"ahkr8hgcx8xw","geo_precision":"zip","state":"NE"},"type":"Feature","geometry":{"type":"Point","coordinates":[-96.171104,41.291736]}},{"properties":{"zip":"82071","geo_score":0.857,"rank":401,"id":"ahkr8he248wx","geo_precision":"zip","state":"WY"},"type":"Feature","geometry":{"type":"Point","coordinates":[-105.797388,41.715061]}},{"properties":{"zip":"84322","geo_score":0.857,"rank":401,"id":"ahkr8hc6iiiy","geo_precision":"zip","state":"UT"},"type":"Feature","geometry":{"type":"Point","coordinates":[-111.896571,41.641189]}},{"properties":{"zip":"33431","geo_score":0.857,"rank":900,"id":"ahkr8he5fvbs","geo_precision":"zip","state":"FL"},"type":"Feature","geometry":{"type":"Point","coordinates":[-80.104343,26.378704]}},{"properties":{"zip":"57042","geo_score":0.857,"rank":900,"id":"ahkr8h6feje7","geo_precision":"zip","state":"SD"},"type":"Feature","geometry":{"type":"Point","coordinates":[-97.167562,44.006085]}},{"properties":{"zip":"04469","geo_score":0.857,"rank":900,"id":"ahkr8hg30gqc","geo_precision":"zip","state":"ME"},"type":"Feature","geometry":{"type":"Point","coordinates":[-68.63343,45.002798]}},{"properties":{"zip":"89119","geo_score":0.857,"rank":900,"id":"ahkr8hevnjjk","geo_precision":"zip","state":"NV"},"type":"Feature","geometry":{"type":"Point","coordinates":[-115.148313,36.089022]}},{"properties":{"zip":"89557","geo_score":0.857,"rank":301,"id":"ahkr8h96sdnj","geo_precision":"zip","state":"NV"},"type":"Feature","geometry":{"type":"Point","coordinates":[-119.586934,40.541218]}},{"properties":{"zip":"26506","geo_score":0.714,"rank":900,"id":"ahkr8hcqq1gh","geo_precision":"zip","state":"VA"},"type":"Feature","geometry":{"type":"Point","coordinates":[-79.962669,39.645276]}},{"properties":{"zip":"35899","geo_score":0.857,"rank":500,"id":"ahkr8h5a6nef","geo_precision":"zip","state":"AL"},"type":"Feature","geometry":{"type":"Point","coordinates":[-86.645592,34.733898]}},{"properties":{"zip":"58102","geo_score":0.857,"rank":500,"id":"ahkr8h1opd29","geo_precision":"zip","state":"ND"},"type":"Feature","geometry":{"type":"Point","coordinates":[-96.802581,46.949131]}},{"properties":{"zip":"40202","geo_score":0.857,"rank":500,"id":"ahkr8h48zj6e","geo_precision":"zip","state":"KY"},"type":"Feature","geometry":{"type":"Point","coordinates":[-85.753812,38.25247]}},{"properties":{"zip":"76706","geo_score":0.857,"rank":500,"id":"ahkr8hgrc827","geo_precision":"zip","state":"TX"},"type":"Feature","geometry":{"type":"Point","coordinates":[-97.114723,31.467669]}},{"properties":{"zip":"45469","geo_score":0.857,"rank":500,"id":"ahkr8h4pd2nx","geo_precision":"zip","state":"OH"},"type":"Feature","geometry":{"type":"Point","coordinates":[-84.178939,39.740509]}},{"properties":{"zip":"37604","geo_score":0.857,"rank":900,"id":"ahkr8h29oe2m","geo_precision":"zip","state":"TN"},"type":"Feature","geometry":{"type":"Point","coordinates":[-82.387422,36.308229]}},{"properties":{"zip":"47809","geo_score":0.857,"rank":900,"id":"ahkr8h20kblv","geo_precision":"zip","state":"IN"},"type":"Feature","geometry":{"type":"Point","coordinates":[-87.41107,39.470986]}},{"properties":{"zip":"61761","geo_score":0.857,"rank":900,"id":"ahkr8h5ywx4b","geo_precision":"zip","state":"IL"},"type":"Feature","geometry":{"type":"Point","coordinates":[-88.7989,40.530375]}}],"is_temporal":false,"author":{"url":"","metadata":null,"contact_name":null,"contact_address":null,"source":null,"contact_phone":null},"source":"","pagination":{"sort":null,"start":0,"total":165,"limit":1000000},"state":"complete","tags":"","published":"2014-08-16T23:45:46-04:00","id":398803}