{"type":"FeatureCollection","data_type":"Dataset","url_type":null,"permissions":[{"permissions":{"download":true,"view":true},"group_id":"everyone"}],"classification":null,"title":"map_Select_UShospitals_Assets","count":117,"stream_id":398844,"contributor":{"url":"http://geocommons.com/users/83534","name":"stor00z"},"data_attributes":null,"calculation_params":null,"icon_link":null,"link":"http://geocommons.com/overlays/398844.json","extent":[-157.855,21.3078,-68.75,47.653],"geometry_types":["point"],"unique_name":null,"name":"map_Select_UShospitals_Assets","feature_count":117,"description":"","next_feature":null,"is_raster":false,"short_classification":"Y","stats":{"assets":{"max":2624104291,"mean":309153525.411765,"variance":2.68048990321952e+17,"stdev":517734478.591055,"min":-154346288,"median":139793242}},"features":[{"properties":{"city":"Cambridge","zip":"2238","assets":206302903,"geo_score":0.585,"id":"ahkvispq3dbp","address":"330 Mount Auburn Street","geo_precision":"zip","state":"MA"},"type":"Feature","geometry":{"type":"Point","coordinates":[-71.459405,42.446396]}},{"properties":{"city":"Boston","zip":"2108","assets":616715731,"geo_score":1.0,"id":"ahkvispiqxg5","address":"294 Washington Street","geo_precision":"range","state":"MA"},"type":"Feature","geometry":{"type":"Point","coordinates":[-71.058362,42.357288]}},{"properties":{"city":"Boston","zip":"2114","assets":2624104291,"geo_score":1.0,"id":"ahkvisweoj71","address":"55 Fruit Street","geo_precision":"range","state":"MA"},"type":"Feature","geometry":{"type":"Point","coordinates":[-71.069803,42.362495]}},{"properties":{"city":"Winchester","zip":"1890","assets":169225077,"geo_score":0.659,"id":"ahkvisocowu9","address":"41 Highland Avenue","geo_precision":"range","state":"MA"},"type":"Feature","geometry":{"type":"Point","coordinates":[-71.103325,42.773339]}},{"properties":{"city":"Stanford","zip":"94305","assets":1300835176,"geo_score":0.805,"id":"ahkvishigj2e","address":"300 Pasteur Drive","geo_precision":"range","state":"CA"},"type":"Feature","geometry":{"type":"Point","coordinates":[-122.1781,37.43407]}},{"properties":{"city":"San Mateo","zip":"94403-4364","assets":2944755,"geo_score":0.614,"id":"ahkvisvqc850","address":"222 W. 39th Avenue","geo_precision":"street","state":"CA"},"type":"Feature","geometry":{"type":"Point","coordinates":[-122.292613,37.532907]}},{"properties":{"city":"Princeton","zip":"8540","assets":292070706,"geo_score":0.902,"id":"ahkvisnphow8","address":"253 Witherspoon Street","geo_precision":"street","state":"NJ"},"type":"Feature","geometry":{"type":"Point","coordinates":[-74.663061,40.357337]}},{"properties":{"city":"Trenton","zip":"8638","assets":327785903,"geo_score":1.0,"id":"ahkvisxnqjh3","address":"750 Brunswick Avenue","geo_precision":"range","state":"NJ"},"type":"Feature","geometry":{"type":"Point","coordinates":[-74.752385,40.236573]}},{"properties":{"city":"New York","zip":"10025-1716","assets":-21978430,"geo_score":1.0,"id":"ahkvistpdsu8","address":"1111 Amsterdam Avenue","geo_precision":"range","state":"NY"},"type":"Feature","geometry":{"type":"Point","coordinates":[-73.961676,40.805751]}},{"properties":{"city":"New York","zip":"10037","assets":null,"geo_score":0.585,"id":"ahkvistzptn7","address":"506 Lenox Avenue","geo_precision":"zip","state":"NY"},"type":"Feature","geometry":{"type":"Point","coordinates":[-73.938498,40.813884]}},{"properties":{"city":"Bronx","zip":"10456","assets":21899165,"geo_score":0.806,"id":"ahkvisp31drq","address":"1650 Grand Concourse","geo_precision":"street","state":"NY"},"type":"Feature","geometry":{"type":"Point","coordinates":[-73.913755,40.838743]}},{"properties":{"city":"Chicago","zip":"60637","assets":1164974823,"geo_score":0.602,"id":"ahkvishfx104","address":"5841 S. Maryland Avenue","geo_precision":"street","state":"IL"},"type":"Feature","geometry":{"type":"Point","coordinates":[-87.604984,41.79317]}},{"properties":{"city":"Chicago","zip":"60621","assets":14504037,"geo_score":0.619,"id":"ahkvislvt42m","address":"326 W. 64th Street","geo_precision":"street","state":"IL"},"type":"Feature","geometry":{"type":"Point","coordinates":[-87.630288,41.778159]}},{"properties":{"city":"New Haven","zip":"6504","assets":674612219,"geo_score":1.0,"id":"ahkviskccx9s","address":"20 York Street","geo_precision":"range","state":"CT"},"type":"Feature","geometry":{"type":"Point","coordinates":[-72.934843,41.303954]}},{"properties":{"city":"New Haven","zip":"6511","assets":-46504271,"geo_score":1.0,"id":"ahkvisl25pci","address":"1450 Chapel Street","geo_precision":"range","state":"CT"},"type":"Feature","geometry":{"type":"Point","coordinates":[-72.943597,41.310965]}},{"properties":{"city":"Derby","zip":"6418","assets":-34662632,"geo_score":0.811,"id":"ahkvisma6nx2","address":"130 Division Street","geo_precision":"street","state":"CT"},"type":"Feature","geometry":{"type":"Point","coordinates":[-73.085071,41.333399]}},{"properties":{"city":"Ithaca","zip":"14850","assets":174274449,"geo_score":1.0,"id":"ahkvisk98r2c","address":"101 Dates Drive","geo_precision":"range","state":"NY"},"type":"Feature","geometry":{"type":"Point","coordinates":[-76.532428,42.47368]}},{"properties":{"city":"Philadelphia","zip":"19104-4283","assets":383615966,"geo_score":1.0,"id":"ahkvisv3antx","address":"3400 Spruce Street","geo_precision":"range","state":"PA"},"type":"Feature","geometry":{"type":"Point","coordinates":[-75.195321,39.950781]}},{"properties":{"city":"Philadelphia","zip":"19152","assets":376459000,"geo_score":1.0,"id":"ahkvisxi67ai","address":"8556 Bustleton Avenue","geo_precision":"range","state":"PA"},"type":"Feature","geometry":{"type":"Point","coordinates":[-75.047156,40.073696]}},{"properties":{"city":"Seattle","zip":"98195","assets":null,"geo_score":0.604,"id":"ahkviskrr6th","address":"1959 N.E. Pacific","geo_precision":"street","state":"WA"},"type":"Feature","geometry":{"type":"Point","coordinates":[-122.312465,47.652983]}},{"properties":{"city":"Seattle","zip":"98101","assets":307457872,"geo_score":0.916,"id":"ahkvisnk93xa","address":"1100 9th Avenue","geo_precision":"range","state":"WA"},"type":"Feature","geometry":{"type":"Point","coordinates":[-122.328667,47.609834]}},{"properties":{"city":"Madison","zip":"53715","assets":296743683,"geo_score":0.619,"id":"ahkvisjrfjzc","address":"202 S. Park Street","geo_precision":"street","state":"WI"},"type":"Feature","geometry":{"type":"Point","coordinates":[-89.400953,43.06822]}},{"properties":{"city":"Madison","zip":"53715","assets":null,"geo_score":1.0,"id":"ahkvisrlw2j9","address":"700 South Park Street","geo_precision":"range","state":"WI"},"type":"Feature","geometry":{"type":"Point","coordinates":[-89.400674,43.059303]}},{"properties":{"city":"Baltimore","zip":"21287","assets":1209918378,"geo_score":0.614,"id":"ahkvisuyodgt","address":"600 N. Wolfe Street","geo_precision":"street","state":"MD"},"type":"Feature","geometry":{"type":"Point","coordinates":[-76.590618,39.294087]}},{"properties":{"city":"Baltimore","zip":"21218","assets":139793242,"geo_score":0.604,"id":"ahkvisuvtxh0","address":"201 E. University Parkway","geo_precision":"street","state":"MD"},"type":"Feature","geometry":{"type":"Point","coordinates":[-76.61281,39.329429]}},{"properties":{"city":"New York","zip":"10029","assets":0,"geo_score":0.916,"id":"ahkvisobms63","address":"1190 5th Avenue","geo_precision":"range","state":"NY"},"type":"Feature","geometry":{"type":"Point","coordinates":[-73.954492,40.789228]}},{"properties":{"city":"New York","zip":"10038","assets":49359991,"geo_score":1.0,"id":"ahkviskwxk1e","address":"170 William Street","geo_precision":"range","state":"NY"},"type":"Feature","geometry":{"type":"Point","coordinates":[-74.005093,40.710755]}},{"properties":{"city":"Los Angeles","zip":"90095-8358","assets":4196481,"geo_score":1.0,"id":"ahkvism3pz8j","address":"757 Westwood Plaza","geo_precision":"range","state":"CA"},"type":"Feature","geometry":{"type":"Point","coordinates":[-118.444988,34.071265]}},{"properties":{"city":"Los Angeles","zip":"90048","assets":1976756055,"geo_score":0.878,"id":"ahkvissshkly","address":"8700 Beverly Boulevard","geo_precision":"range","state":"CA"},"type":"Feature","geometry":{"type":"Point","coordinates":[-118.380921,34.076921]}},{"properties":{"city":"Durham","zip":"27710-4699","assets":2046250326,"geo_score":0.805,"id":"ahkvisvxycbf","address":"2301 Erwin Road","geo_precision":"range","state":"NC"},"type":"Feature","geometry":{"type":"Point","coordinates":[-78.942641,36.008818]}},{"properties":{"city":"Durham","zip":"27704","assets":2046250326,"geo_score":0.857,"id":"ahkvissnyhc5","address":"3643 N. Roxboro Road","geo_precision":"zip","state":"NC"},"type":"Feature","geometry":{"type":"Point","coordinates":[-78.82334,36.036534]}},{"properties":{"city":"Evanston","zip":"60201","assets":1368679587,"geo_score":1.0,"id":"ahkvisizy0ld","address":"2650 Ridge Avenue","geo_precision":"range","state":"IL"},"type":"Feature","geometry":{"type":"Point","coordinates":[-87.683174,42.06577]}},{"properties":{"city":"Chicago","zip":"60640","assets":null,"geo_score":0.61,"id":"ahkvisnj5ux3","address":"4646 N. Marine Drive","geo_precision":"street","state":"IL"},"type":"Feature","geometry":{"type":"Point","coordinates":[-87.649132,41.967366]}},{"properties":{"city":"Aurora","zip":"80045","assets":null,"geo_score":0.339,"id":"ahkvisrniywf","address":"12605 E. 16th Avenue","geo_precision":"street","state":"CO"},"type":"Feature","geometry":{"type":"Point","coordinates":[-104.788592,39.741001]}},{"properties":{"city":"Boulder","zip":"80301-9019","assets":null,"geo_score":0.902,"id":"ahkvisled0ex","address":"1100 Balsam Avenue","geo_precision":"street","state":"CO"},"type":"Feature","geometry":{"type":"Point","coordinates":[-105.283416,40.026723]}},{"properties":{"city":"Ann Arbor","zip":"48109","assets":null,"geo_score":0.594,"id":"ahkvisk1w00u","address":"1500 E. Medical Center Drive","geo_precision":"street","state":"MI"},"type":"Feature","geometry":{"type":"Point","coordinates":[-83.729871,42.281411]}},{"properties":{"city":"Ann Arbor","zip":"48109","assets":251093512,"geo_score":0.594,"id":"ahkvispx6wo6","address":"1500 E. Medical Center Drive","geo_precision":"street","state":"MI"},"type":"Feature","geometry":{"type":"Point","coordinates":[-83.729871,42.281411]}},{"properties":{"city":"Pasadena","zip":"91105","assets":466505,"geo_score":0.597,"id":"ahkvisvspjc5","address":"100 W. California Boulevard","geo_precision":"street","state":"CA"},"type":"Feature","geometry":{"type":"Point","coordinates":[-118.150378,34.135771]}},{"properties":{"city":"Monterey Park","zip":"91754","assets":77507,"geo_score":0.602,"id":"ahkvisjxn2mk","address":"525 N. Garfield Avenue","geo_precision":"street","state":"CA"},"type":"Feature","geometry":{"type":"Point","coordinates":[-118.122813,34.06255]}},{"properties":{"city":"Oakland","zip":"94609","assets":104073053,"geo_score":0.916,"id":"ahkvisj9yemn","address":"747 52nd Street","geo_precision":"range","state":"CA"},"type":"Feature","geometry":{"type":"Point","coordinates":[-122.266966,37.837377]}},{"properties":{"city":"Lincoln","zip":"68510-2462","assets":389455405,"geo_score":0.619,"id":"ahkvisx7buux","address":"555 S. 70th Street","geo_precision":"street","state":"NE"},"type":"Feature","geometry":{"type":"Point","coordinates":[-96.625147,40.813272]}},{"properties":{"city":"Lincoln","zip":"68506","assets":1996782,"geo_score":0.619,"id":"ahkvisjeregy","address":"1600 S. 48th Street","geo_precision":"street","state":"NE"},"type":"Feature","geometry":{"type":"Point","coordinates":[-96.653675,40.797894]}},{"properties":{"city":"Newark","zip":"19718","assets":36420361,"geo_score":0.613,"id":"ahkvisj3ck5j","address":"4755 Ogletown-Stanton Road","geo_precision":"street","state":"DE"},"type":"Feature","geometry":{"type":"Point","coordinates":[-75.654797,39.699936]}},{"properties":{"city":"Wilmington","zip":"19805","assets":-34662889,"geo_score":0.614,"id":"ahkviswt5gsl","address":"7513 N. Clayton Street","geo_precision":"street","state":"DE"},"type":"Feature","geometry":{"type":"Point","coordinates":[-75.575531,39.736802]}},{"properties":{"city":"Birmingham","zip":"35249","assets":null,"geo_score":0.357,"id":"ahkvisvipo7o","address":"1802 6th Avenue, S.","geo_precision":"street","state":"AL"},"type":"Feature","geometry":{"type":"Point","coordinates":[-86.751066,33.613416]}},{"properties":{"city":"Birmingham","zip":"35205","assets":266293027,"geo_score":0.857,"id":"ahkviswcybbn","address":"810 St. Vincent's Drive","geo_precision":"zip","state":"AL"},"type":"Feature","geometry":{"type":"Point","coordinates":[-86.782584,33.569398]}},{"properties":{"city":"Ames","zip":"50010-5792","assets":203936,"geo_score":1.0,"id":"ahkviswl66h4","address":"1111 Duff Avenue","geo_precision":"range","state":"IA"},"type":"Feature","geometry":{"type":"Point","coordinates":[-93.610697,42.033083]}},{"properties":{"city":"Nevada","zip":"50201-2902","assets":null,"geo_score":0.633,"id":"ahkvisp1yc3s","address":"640 S. 19th Street","geo_precision":"street","state":"IA"},"type":"Feature","geometry":{"type":"Point","coordinates":[-93.434905,42.012125]}},{"properties":{"city":"Lebanon","zip":"3756","assets":3345342,"geo_score":0.456,"id":"ahkvisv46vs7","address":"1 Medical Center Drive","geo_precision":"street","state":"NH"},"type":"Feature","geometry":{"type":"Point","coordinates":[-72.344501,43.475539]}},{"properties":{"city":"Baton Rouge","zip":"70806-3842","assets":57180401,"geo_score":1.0,"id":"ahkvishu1z1r","address":"3600 Florida Boulevard","geo_precision":"range","state":"LA"},"type":"Feature","geometry":{"type":"Point","coordinates":[-91.152419,30.450388]}},{"properties":{"city":"Baton Rouge","zip":"70808","assets":777095111,"geo_score":0.902,"id":"ahkvislt58mm","address":"5000 Hennessy Boulevard","geo_precision":"range","state":"LA"},"type":"Feature","geometry":{"type":"Point","coordinates":[-91.109551,30.40362]}},{"properties":{"city":"Albany","zip":"97321","assets":72813030,"geo_score":0.614,"id":"ahkvisrx73bk","address":"1046 6th Avenue, S.W.","geo_precision":"street","state":"OR"},"type":"Feature","geometry":{"type":"Point","coordinates":[-123.105325,44.633355]}},{"properties":{"city":"Honolulu","zip":"96813","assets":387469789,"geo_score":1.0,"id":"ahkvist3k99v","address":"1301 Punchbowl Street","geo_precision":"range","state":"HI"},"type":"Feature","geometry":{"type":"Point","coordinates":[-157.855049,21.307762]}},{"properties":{"city":"Honolulu","zip":"96817","assets":208531,"geo_score":0.607,"id":"ahkvisk5n78e","address":"347 N. Kuakini Street","geo_precision":"street","state":"HI"},"type":"Feature","geometry":{"type":"Point","coordinates":[-157.853359,21.319195]}},{"properties":{"city":"Iowa City","zip":"52245","assets":147306472,"geo_score":0.61,"id":"ahkvisqb5jzh","address":"500 E. Market Street","geo_precision":"street","state":"IA"},"type":"Feature","geometry":{"type":"Point","coordinates":[-91.533059,41.663573]}},{"properties":{"city":"Iowa City","zip":"52242","assets":null,"geo_score":1.0,"id":"ahkviskb1oin","address":"200 Hawkins Drive","geo_precision":"range","state":"IA"},"type":"Feature","geometry":{"type":"Point","coordinates":[-91.54985,41.657227]}},{"properties":{"city":"Knoxville","zip":"37916-2307","assets":112192631,"geo_score":0.607,"id":"ahkvisrjrupf","address":"1901 Clinch Avenue, S.W.","geo_precision":"street","state":"TN"},"type":"Feature","geometry":{"type":"Point","coordinates":[-83.91624,35.964878]}},{"properties":{"city":"Knoxville","zip":"37920","assets":106476317,"geo_score":1.0,"id":"ahkvist1xxyg","address":"1924 Alcoa Highway","geo_precision":"range","state":"TN"},"type":"Feature","geometry":{"type":"Point","coordinates":[-83.953591,35.926193]}},{"properties":{"city":"South Bend","zip":"46601","assets":418130403,"geo_score":0.604,"id":"ahkvisovoyji","address":"615 N. Michigan Street","geo_precision":"street","state":"IN"},"type":"Feature","geometry":{"type":"Point","coordinates":[-86.250329,41.675032]}},{"properties":{"city":"Richmond","zip":"23298","assets":null,"geo_score":0.319,"id":"ahkvissxjatp","address":"1250 E. Marshall Street","geo_precision":"street","state":"VA"},"type":"Feature","geometry":{"type":"Point","coordinates":[-77.438431,37.544882]}},{"properties":{"city":"Richmond","zip":"23225","assets":null,"geo_score":1.0,"id":"ahkvist9o3y4","address":"7101 Jahnke Road","geo_precision":"range","state":"VA"},"type":"Feature","geometry":{"type":"Point","coordinates":[-77.526288,37.516055]}},{"properties":{"city":"Orlando","zip":"32822","assets":null,"geo_score":1.0,"id":"ahkvismgt7l9","address":"7727 Lake Underhill Road","geo_precision":"range","state":"FL"},"type":"Feature","geometry":{"type":"Point","coordinates":[-81.281705,28.539217]}},{"properties":{"city":"Miami","zip":"33136-1005","assets":null,"geo_score":0.614,"id":"ahkvisxu9h5w","address":"1611 N.W. 12th Avenue","geo_precision":"street","state":"FL"},"type":"Feature","geometry":{"type":"Point","coordinates":[-80.197156,25.785963]}},{"properties":{"city":"Gainesville","zip":"32610","assets":196464940,"geo_score":0.571,"id":"ahkvisidedkg","address":"1600 S.W. Archer Road","geo_precision":"street","state":"FL"},"type":"Feature","geometry":{"type":"Point","coordinates":[-82.341847,29.639702]}},{"properties":{"city":"Gainesville","zip":"32605","assets":null,"geo_score":0.663,"id":"ahkvisv9be2q","address":"6500 Newberry Road","geo_precision":"street","state":"FL"},"type":"Feature","geometry":{"type":"Point","coordinates":[-82.418787,29.659657]}},{"properties":{"city":"Lawrence","zip":"66044","assets":6129856,"geo_score":1.0,"id":"ahkvisiibc9k","address":"325 Maine Street","geo_precision":"range","state":"KS"},"type":"Feature","geometry":{"type":"Point","coordinates":[-95.247668,38.977407]}},{"properties":{"city":"Lexington","zip":"40508","assets":null,"geo_score":0.602,"id":"ahkvishwef3l","address":"310 S. Limestone Street","geo_precision":"street","state":"KY"},"type":"Feature","geometry":{"type":"Point","coordinates":[-84.497979,38.045719]}},{"properties":{"city":"Lexington","zip":"40509","assets":393066988,"geo_score":0.598,"id":"ahkvistzbxmv","address":"150 N. Eagle Creek Drive","geo_precision":"street","state":"KY"},"type":"Feature","geometry":{"type":"Point","coordinates":[-84.441362,37.999493]}},{"properties":{"city":"Albuquerque","zip":"87106","assets":null,"geo_score":0.604,"id":"ahkvisttlf99","address":"2211 Lomas Boulevard, N.E.","geo_precision":"street","state":"NM"},"type":"Feature","geometry":{"type":"Point","coordinates":[-106.624053,35.089726]}},{"properties":{"city":"Albuquerque","zip":"87106","assets":19836426,"geo_score":0.602,"id":"ahkvisqlp74j","address":"1100 Central Avenue, S.E.","geo_precision":"street","state":"NM"},"type":"Feature","geometry":{"type":"Point","coordinates":[-106.636256,35.082647]}},{"properties":{"city":"Springfield","zip":"97477","assets":18673592,"geo_score":0.565,"id":"ahkvisxql1io","address":"3333 Riverbend Drive","geo_precision":"street","state":"OR"},"type":"Feature","geometry":{"type":"Point","coordinates":[-123.378039,43.29602]}},{"properties":{"city":"Springfield","zip":"97477","assets":70,"geo_score":1.0,"id":"ahkviswje8t2","address":"1460 G Street","geo_precision":"range","state":"OR"},"type":"Feature","geometry":{"type":"Point","coordinates":[-123.002735,44.052476]}},{"properties":{"city":"Columbia","zip":"29201","assets":null,"geo_score":1.0,"id":"ahkvismfqv13","address":"1301 Taylor Street","geo_precision":"range","state":"SC"},"type":"Feature","geometry":{"type":"Point","coordinates":[-81.032713,34.007633]}},{"properties":{"city":"Columbia","zip":"29203","assets":198119102,"geo_score":1.0,"id":"ahkvisqb6nza","address":"120 Gateway Corporate Blvd","geo_precision":"range","state":"SC"},"type":"Feature","geometry":{"type":"Point","coordinates":[-80.956421,34.104653]}},{"properties":{"city":"Tampa","zip":"33613","assets":null,"geo_score":0.602,"id":"ahkvismqrvff","address":"3100 E. Fletcher Avenue","geo_precision":"street","state":"FL"},"type":"Feature","geometry":{"type":"Point","coordinates":[-82.438633,28.069243]}},{"properties":{"city":"Tampa","zip":"33606-3571","assets":12723467,"geo_score":0.44,"id":"ahkvisx2zwov","address":"1 Tampa General Circle","geo_precision":"street","state":"FL"},"type":"Feature","geometry":{"type":"Point","coordinates":[-82.45813,27.945957]}},{"properties":{"city":"Columbia","zip":"65212","assets":444525988,"geo_score":0.805,"id":"ahkvisqzqtfw","address":"1 Hospital Drive","geo_precision":"range","state":"MO"},"type":"Feature","geometry":{"type":"Point","coordinates":[-92.3283,38.93759]}},{"properties":{"city":"Marrero","zip":"70072","assets":910877,"geo_score":1.0,"id":"ahkvisjp9pvn","address":"1101 Medical Center Boulevard","geo_precision":"range","state":"LA"},"type":"Feature","geometry":{"type":"Point","coordinates":[-90.096183,29.894759]}},{"properties":{"city":"New Orleans","zip":"70112-2600","assets":null,"geo_score":1.0,"id":"ahkvisjs0dsb","address":"1415 Tulane Avenue","geo_precision":"range","state":"LA"},"type":"Feature","geometry":{"type":"Point","coordinates":[-90.076826,29.955679]}},{"properties":{"city":"Metairie","zip":"70006","assets":296613679,"geo_score":1.0,"id":"ahkviskdxgrk","address":"4200 Houma Boulevard","geo_precision":"range","state":"LA"},"type":"Feature","geometry":{"type":"Point","coordinates":[-90.18164,30.015783]}},{"properties":{"city":"New Orleans","zip":"70115-6914","assets":null,"geo_score":1.0,"id":"ahkvisx90236","address":"2700 Napoleon Avenue","geo_precision":"range","state":"LA"},"type":"Feature","geometry":{"type":"Point","coordinates":[-90.103349,29.938081]}},{"properties":{"city":"Fayetteville","zip":"72703-4007","assets":157885328,"geo_score":0.286,"id":"ahkvispw2bmx","address":"3215 N. North Hills Boulevard","geo_precision":"street","state":"AR"},"type":"Feature","geometry":{"type":"Point","coordinates":[-94.177027,35.889097]}},{"properties":{"city":"Springdale","zip":"72764","assets":null,"geo_score":0.571,"id":"ahkvisrhf5ug","address":"609 W. Maple Street","geo_precision":"street","state":"AR"},"type":"Feature","geometry":{"type":"Point","coordinates":[-94.12939,36.181236]}},{"properties":{"city":"Norman","zip":"73071","assets":null,"geo_score":0.607,"id":"ahkvisi6bimx","address":"901 N. Porter Street","geo_precision":"street","state":"OK"},"type":"Feature","geometry":{"type":"Point","coordinates":[-97.439743,35.223656]}},{"properties":{"city":"Bozeman","zip":"59715","assets":207904050,"geo_score":0.585,"id":"ahkviswvmtwa","address":"915 Highland Boulevard","geo_precision":"zip","state":"MT"},"type":"Feature","geometry":{"type":"Point","coordinates":[-111.168212,45.809998]}},{"properties":{"city":"Missoula","zip":"59802-4008","assets":105649204,"geo_score":0.604,"id":"ahkviswf2ee7","address":"500 W. Broadway Street","geo_precision":"street","state":"MT"},"type":"Feature","geometry":{"type":"Point","coordinates":[-113.99696,46.872979]}},{"properties":{"city":"Missoula","zip":"59801-7493","assets":80647636,"geo_score":0.604,"id":"ahkvisu9zi4d","address":"2827 Fort Missoula Road","geo_precision":"street","state":"MT"},"type":"Feature","geometry":{"type":"Point","coordinates":[-114.000156,46.856539]}},{"properties":{"city":"Boca Raton","zip":"33486","assets":198285885,"geo_score":1.0,"id":"ahkvisvm98hu","address":"800 Meadows Road","geo_precision":"range","state":"FL"},"type":"Feature","geometry":{"type":"Point","coordinates":[-80.102758,26.359378]}},{"properties":{"city":"Delray Beach","zip":"33484","assets":null,"geo_score":1.0,"id":"ahkvisu0rnvl","address":"5352 Linton Boulevard","geo_precision":"range","state":"FL"},"type":"Feature","geometry":{"type":"Point","coordinates":[-80.127595,26.439233]}},{"properties":{"city":"Brookings","zip":"57006-2480","assets":null,"geo_score":0.883,"id":"ahkvisu5ojmj","address":"300 22nd Avenue","geo_precision":"range","state":"SD"},"type":"Feature","geometry":{"type":"Point","coordinates":[-96.768209,44.303661]}},{"properties":{"city":"Bangor","zip":"04401-6616","assets":239246866,"geo_score":1.0,"id":"ahkvisv3s9zp","address":"489 State Street","geo_precision":"range","state":"ME"},"type":"Feature","geometry":{"type":"Point","coordinates":[-68.749952,44.809739]}},{"properties":{"city":"Bangor","zip":"04401-3979","assets":23408138,"geo_score":1.0,"id":"ahkvisi0agdi","address":"360 Broadway","geo_precision":"range","state":"ME"},"type":"Feature","geometry":{"type":"Point","coordinates":[-68.771233,44.814228]}},{"properties":{"city":"Las Vegas","zip":"89119-5188","assets":165852629,"geo_score":0.604,"id":"ahkvisv3jcdh","address":"2075 E. Flamingo Road","geo_precision":"street","state":"NV"},"type":"Feature","geometry":{"type":"Point","coordinates":[-115.15399,36.114315]}},{"properties":{"city":"Las Vegas","zip":"89109-2303","assets":null,"geo_score":0.6,"id":"ahkviskkqzkb","address":"3186 S. Maryland Parkway","geo_precision":"street","state":"NV"},"type":"Feature","geometry":{"type":"Point","coordinates":[-115.137007,36.144239]}},{"properties":{"city":"Las Vegas","zip":"89128","assets":5475626,"geo_score":0.607,"id":"ahkvisihpxgg","address":"3100 N. Tenaya Way","geo_precision":"street","state":"NV"},"type":"Feature","geometry":{"type":"Point","coordinates":[-115.250862,36.17429]}},{"properties":{"city":"Las Vegas","zip":"89149-4409","assets":null,"geo_score":0.607,"id":"ahkviswkr9v7","address":"6900 N. Durango Drive","geo_precision":"street","state":"NV"},"type":"Feature","geometry":{"type":"Point","coordinates":[-115.279102,36.250019]}},{"properties":{"city":"Reno","zip":"89503-0108","assets":16415144,"geo_score":0.625,"id":"ahkvisv07sl0","address":"235 W. 6th Street","geo_precision":"street","state":"NV"},"type":"Feature","geometry":{"type":"Point","coordinates":[-119.81634,39.532121]}},{"properties":{"city":"Morgantown","zip":"26505-3494","assets":87107078,"geo_score":0.571,"id":"ahkvisis41mp","address":"1200 J.D. Anderson Drive","geo_precision":"street","state":"WV"},"type":"Feature","geometry":{"type":"Point","coordinates":[-79.954222,39.630279]}},{"properties":{"city":"Morgantown","zip":"26506-1234","assets":null,"geo_score":0.805,"id":"ahkvissh1fen","address":"418 Medical Center Drive","geo_precision":"range","state":"WV"},"type":"Feature","geometry":{"type":"Point","coordinates":[-79.962709,39.651327]}},{"properties":{"city":"Huntsville","zip":"35801","assets":21193463,"geo_score":0.927,"id":"ahkvisraqoyr","address":"101 Sivley Road","geo_precision":"range","state":"AL"},"type":"Feature","geometry":{"type":"Point","coordinates":[-86.581505,34.721218]}},{"properties":{"city":"Huntsville","zip":"35801-3403","assets":null,"geo_score":0.937,"id":"ahkviskakqwy","address":"1 Hospital Drive","geo_precision":"range","state":"AL"},"type":"Feature","geometry":{"type":"Point","coordinates":[-86.57242,34.691217]}},{"properties":{"city":"Fargo","zip":"58122","assets":267003156,"geo_score":0.319,"id":"ahkvislicsan","address":"801 Broadway, N.","geo_precision":"street","state":"ND"},"type":"Feature","geometry":{"type":"Point","coordinates":[-96.787804,46.875227]}},{"properties":{"city":"Louisville","zip":"40217","assets":-154346288,"geo_score":0.963,"id":"ahkvisvf4yy6","address":"1 Audubon Plaza Drive","geo_precision":"range","state":"KY"},"type":"Feature","geometry":{"type":"Point","coordinates":[-85.717806,38.213268]}},{"properties":{"city":"Louisville","zip":"40202-1818","assets":224011899,"geo_score":1.0,"id":"ahkvisp5z6j9","address":"200 Abraham Flexner Way","geo_precision":"range","state":"KY"},"type":"Feature","geometry":{"type":"Point","coordinates":[-85.749039,38.249106]}},{"properties":{"city":"Waco","zip":"76712","assets":45267718,"geo_score":0.526,"id":"ahkvisqofs79","address":"100 Hillcrest Boulevard","geo_precision":"street","state":"TX"},"type":"Feature","geometry":{"type":"Point","coordinates":[-97.178409,31.55696]}},{"properties":{"city":"Waco","zip":"76712","assets":null,"geo_score":0.916,"id":"ahkvisiwngjv","address":"6901 Medical Parkway","geo_precision":"range","state":"TX"},"type":"Feature","geometry":{"type":"Point","coordinates":[-97.197643,31.51547]}},{"properties":{"city":"Dayton","zip":"45409","assets":652177819,"geo_score":1.0,"id":"ahkvisv538t5","address":"1 Wyoming Street","geo_precision":"range","state":"OH"},"type":"Feature","geometry":{"type":"Point","coordinates":[-84.18542,39.744129]}},{"properties":{"city":"Kettering","zip":"45429-1221","assets":398947625,"geo_score":1.0,"id":"ahkvist42fav","address":"3535 Southern Boulevard","geo_precision":"range","state":"OH"},"type":"Feature","geometry":{"type":"Point","coordinates":[-84.190858,39.697064]}},{"properties":{"city":"Winston Salem","zip":"27103","assets":801292625,"geo_score":0.797,"id":"ahkvisnde1w0","address":"3333 Silas Creek Parkway","geo_precision":"street","state":"NC"},"type":"Feature","geometry":{"type":"Point","coordinates":[-80.25202,36.065869]}},{"properties":{"city":"Winston Salem","zip":"27157-0001","assets":0,"geo_score":0.992,"id":"ahkvissq0gji","address":"1 Medical Center Boulevard","geo_precision":"range","state":"NC"},"type":"Feature","geometry":{"type":"Point","coordinates":[-80.271501,36.090261]}},{"properties":{"city":"Johnson City","zip":"37604","assets":219016412,"geo_score":0.61,"id":"ahkvishxgvfx","address":"400 N. State of Franklin Road","geo_precision":"street","state":"TN"},"type":"Feature","geometry":{"type":"Point","coordinates":[-82.354699,36.303466]}},{"properties":{"city":"Johnson City","zip":"37604","assets":null,"geo_score":0.585,"id":"ahkvisnco0u7","address":"300 MedTech Parkway","geo_precision":"zip","state":"TN"},"type":"Feature","geometry":{"type":"Point","coordinates":[-82.387422,36.308229]}},{"properties":{"city":"Terre Haute","zip":"47802-5709","assets":-3554804,"geo_score":0.625,"id":"ahkvisl7drah","address":"3901 S. 7th Street","geo_precision":"street","state":"IN"},"type":"Feature","geometry":{"type":"Point","coordinates":[-87.406949,39.454544]}},{"properties":{"city":"Terre Haute","zip":"47804","assets":127326344,"geo_score":0.625,"id":"ahkvisxw1fig","address":"1606 N. 7th Street","geo_precision":"street","state":"IN"},"type":"Feature","geometry":{"type":"Point","coordinates":[-87.407184,39.484784]}},{"properties":{"city":"Bloomington","zip":"61701","assets":14551087,"geo_score":0.6,"id":"ahkvisoie2x0","address":"2200 E. Washington Street","geo_precision":"street","state":"IL"},"type":"Feature","geometry":{"type":"Point","coordinates":[-88.993651,40.479579]}},{"properties":{"city":"Normal","zip":"61761-2850","assets":0,"geo_score":0.764,"id":"ahkvisnay3l6","address":"1304 Franklin Street","geo_precision":"street","state":"IL"},"type":"Feature","geometry":{"type":"Point","coordinates":[-88.990972,40.499299]}},{"properties":{"city":"Boynton Beach","zip":"33435","assets":null,"geo_score":1.0,"id":"ahkvisu35vlj","address":"2815 S Seacrest Blvd ","geo_precision":"range","state":"fl"},"type":"Feature","geometry":{"type":"Point","coordinates":[-80.070844,26.500586]}}],"is_temporal":false,"author":{"url":"","metadata":null,"contact_name":null,"contact_address":null,"source":null,"contact_phone":null},"source":"","pagination":{"sort":null,"start":0,"total":117,"limit":1000000},"state":"complete","tags":"","published":"2014-08-16T23:50:12-04:00","id":398844}