{"type":"FeatureCollection","data_type":"Dataset","url_type":null,"permissions":[{"permissions":{"download":true,"edit":true,"view":true},"group_id":82047},{"permissions":{"download":true,"view":true},"group_id":"everyone"}],"classification":null,"title":"zambales","count":408,"stream_id":399022,"contributor":{"url":"http://geocommons.com/users/78316","name":"mkmacariola"},"data_attributes":null,"calculation_params":null,"icon_link":null,"link":"http://geocommons.com/overlays/399022.json","extent":[119.883,14.7959,120.432,15.8017],"geometry_types":["point"],"unique_name":null,"name":"zambales","feature_count":408,"description":"","next_feature":null,"is_raster":false,"short_classification":"Y","stats":{"teachers 2013":{"max":81,"mean":9.05144694533762,"variance":75.5263769318536,"stdev":8.69059128781544,"min":0,"median":6},"id":{"max":420572,"mean":213441.573529412,"variance":17144806894.6776,"stdev":130938.179667649,"min":106798,"median":107002},"enrolment 2013":{"max":3763,"mean":339.977941176471,"variance":150362.395089608,"stdev":387.765902432909,"min":3,"median":240},"lat":{"max":15.801669,"mean":15.2018116,"variance":0.0859391927029185,"stdev":0.293153872058546,"min":14.795902,"median":15.075192},"long":{"max":120.431938,"mean":120.075749157895,"variance":0.015122132110631,"stdev":0.122972078581404,"min":119.883156,"median":120.069534}},"features":[{"properties":{"school name":"Bancal ES","region":"Region III","class":"Public","district":"Botolan North","teachers 2013":5,"id":"ahldhr9kp7dz","division":"Zambales","enrolment 2013":145,"barangay":"BANCAL","lat":15.305864,"offering":"Elementary","long":120.004093},"type":"Feature","geometry":{"type":"Point","coordinates":[120.004093,15.305864]}},{"properties":{"school name":"Batonlapoc ES","region":"Region III","class":"Public","district":"Botolan South","teachers 2013":5,"id":"ahldhqwgf9po","division":"Zambales","enrolment 2013":182,"barangay":"BATONLAPOC","lat":15.286528,"offering":"Elementary","long":120.033529},"type":"Feature","geometry":{"type":"Point","coordinates":[120.033529,15.286528]}},{"properties":{"school name":"Bihawo ES","region":"Region III","class":"Public","district":"Botolan North","teachers 2013":6,"id":"ahldhr1ygzj7","division":"Zambales","enrolment 2013":304,"barangay":"MAMBOG","lat":null,"offering":"Elementary","long":null},"type":"Feature","geometry":null},{"properties":{"school name":"Botolan North CS","region":"Region III","class":"Public","district":"Botolan North","teachers 2013":14,"id":"ahldhr74epd7","division":"Zambales","enrolment 2013":408,"barangay":"TAMPO (POB.)","lat":15.289319,"offering":"Elementary","long":120.024773},"type":"Feature","geometry":{"type":"Point","coordinates":[120.024773,15.289319]}},{"properties":{"school name":"Danacbunga ES","region":"Region III","class":"Public","district":"Botolan North","teachers 2013":7,"id":"ahldhr5nt3bb","division":"Zambales","enrolment 2013":281,"barangay":"DANACBUNGA","lat":15.291772,"offering":"Elementary","long":120.004113},"type":"Feature","geometry":{"type":"Point","coordinates":[120.004113,15.291772]}},{"properties":{"school name":"Loob-Bunga I ES","region":"Region III","class":"Public","district":"Botolan North","teachers 2013":8,"id":"ahldhqxxg00h","division":"Zambales","enrolment 2013":312,"barangay":"-","lat":null,"offering":"Elementary","long":null},"type":"Feature","geometry":null},{"properties":{"school name":"Loob-Bunga II ES","region":"Region III","class":"Public","district":"Botolan North","teachers 2013":8,"id":"ahldhqwszohl","division":"Zambales","enrolment 2013":540,"barangay":"-","lat":null,"offering":"Elementary","long":null},"type":"Feature","geometry":null},{"properties":{"school name":"Loob-Bunga III ES","region":"Region III","class":"Public","district":"Botolan North","teachers 2013":6,"id":"ahldhr5vi2xs","division":"Zambales","enrolment 2013":282,"barangay":"BELBEL","lat":null,"offering":"Elementary","long":null},"type":"Feature","geometry":null},{"properties":{"school name":"Mambog ES","region":"Region III","class":"Public","district":"Botolan North","teachers 2013":11,"id":"ahldhqw6jz4t","division":"Zambales","enrolment 2013":406,"barangay":"MAMBOG","lat":null,"offering":"Elementary","long":null},"type":"Feature","geometry":null},{"properties":{"school name":"New Taugtog I ES","region":"Region III","class":"Public","district":"Botolan North","teachers 2013":8,"id":"ahldhr08s52p","division":"Zambales","enrolment 2013":318,"barangay":"TAUGTOG","lat":null,"offering":"Elementary","long":null},"type":"Feature","geometry":null},{"properties":{"school name":"Paitan ES","region":"Region III","class":"Public","district":"Botolan North","teachers 2013":14,"id":"ahldhr20jvb7","division":"Zambales","enrolment 2013":654,"barangay":"TAUGTOG","lat":null,"offering":"Elementary","long":null},"type":"Feature","geometry":null},{"properties":{"school name":"Parel ES","region":"Region III","class":"Public","district":"Botolan North","teachers 2013":2,"id":"ahldhr8jy64z","division":"Zambales","enrolment 2013":118,"barangay":"PAREL","lat":null,"offering":"Elementary","long":null},"type":"Feature","geometry":null},{"properties":{"school name":"Paudpod ES","region":"Region III","class":"Public","district":"Botolan South","teachers 2013":5,"id":"ahldhr9llpeo","division":"Zambales","enrolment 2013":117,"barangay":"PAUDPOD","lat":null,"offering":"Elementary","long":null},"type":"Feature","geometry":null},{"properties":{"school name":"San Isidro ES","region":"Region III","class":"Public","district":"Botolan North","teachers 2013":4,"id":"ahldhr9unwbk","division":"Zambales","enrolment 2013":201,"barangay":"SAN ISIDRO","lat":null,"offering":"Elementary","long":null},"type":"Feature","geometry":null},{"properties":{"school name":"Santiago ES","region":"Region III","class":"Public","district":"Botolan North","teachers 2013":5,"id":"ahldhr76bwc0","division":"Zambales","enrolment 2013":234,"barangay":"SANTIAGO","lat":null,"offering":"Elementary","long":null},"type":"Feature","geometry":null},{"properties":{"school name":"Bangan -Capayawan ES","region":"Region III","class":"Public","district":"Botolan South","teachers 2013":9,"id":"ahldhqz4oiui","division":"Zambales","enrolment 2013":341,"barangay":"CAPAYAWAN","lat":15.275045,"offering":"Elementary","long":120.010783},"type":"Feature","geometry":{"type":"Point","coordinates":[120.010783,15.275045]}},{"properties":{"school name":"Baquilan Resettlement School I","region":"Region III","class":"Public","district":"Botolan South","teachers 2013":14,"id":"ahldhr3h7f84","division":"Zambales","enrolment 2013":706,"barangay":"MALOMBOY","lat":15.281238,"offering":"Elementary","long":120.087418},"type":"Feature","geometry":{"type":"Point","coordinates":[120.087418,15.281238]}},{"properties":{"school name":"Beneg ES","region":"Region III","class":"Public","district":"Botolan South","teachers 2013":5,"id":"ahldhquxyb0v","division":"Zambales","enrolment 2013":164,"barangay":"BENEG","lat":null,"offering":"Elementary","long":null},"type":"Feature","geometry":null},{"properties":{"school name":"Binoclutan ES","region":"Region III","class":"Public","district":"Botolan South","teachers 2013":5,"id":"ahldhr0u4e5c","division":"Zambales","enrolment 2013":179,"barangay":"BINUCLUTAN","lat":15.235357,"offering":"Elementary","long":120.014348},"type":"Feature","geometry":{"type":"Point","coordinates":[120.014348,15.235357]}},{"properties":{"school name":"Botolan South CS","region":"Region III","class":"Public","district":"Botolan South","teachers 2013":16,"id":"ahldhqtmz1va","division":"Zambales","enrolment 2013":632,"barangay":"PACO (POB.)","lat":15.286694,"offering":"Elementary","long":120.023957},"type":"Feature","geometry":{"type":"Point","coordinates":[120.023957,15.286694]}},{"properties":{"school name":"Bucao ES","region":"Region III","class":"Public","district":"Botolan South","teachers 2013":5,"id":"ahldhqzew8d0","division":"Zambales","enrolment 2013":270,"barangay":"PORAC","lat":null,"offering":"Elementary","long":null},"type":"Feature","geometry":null},{"properties":{"school name":"Carael ES","region":"Region III","class":"Public","district":"Botolan South","teachers 2013":6,"id":"ahldhr26sykp","division":"Zambales","enrolment 2013":196,"barangay":"CARAEL","lat":null,"offering":"Elementary","long":null},"type":"Feature","geometry":null},{"properties":{"school name":"Panan ES","region":"Region III","class":"Public","district":"Botolan South","teachers 2013":12,"id":"ahldhr22vnir","division":"Zambales","enrolment 2013":453,"barangay":"PANAN","lat":15.215071,"offering":"Elementary","long":120.026754},"type":"Feature","geometry":{"type":"Point","coordinates":[120.026754,15.215071]}},{"properties":{"school name":"Porac ES","region":"Region III","class":"Public","district":"Botolan South","teachers 2013":5,"id":"ahldhr0pqbrd","division":"Zambales","enrolment 2013":241,"barangay":"PORAC","lat":15.250371,"offering":"Elementary","long":120.018743},"type":"Feature","geometry":{"type":"Point","coordinates":[120.018743,15.250371]}},{"properties":{"school name":"San Juan ES","region":"Region III","class":"Public","district":"Botolan South","teachers 2013":6,"id":"ahldhr2mhxnj","division":"Zambales","enrolment 2013":294,"barangay":"SAN JUAN","lat":null,"offering":"Elementary","long":null},"type":"Feature","geometry":null},{"properties":{"school name":"Anonang ES","region":"Region III","class":"Public","district":"Cabangan","teachers 2013":4,"id":"ahldhr9rbzqq","division":"Zambales","enrolment 2013":121,"barangay":"ANONANG","lat":15.126374,"offering":"Elementary","long":120.057136},"type":"Feature","geometry":{"type":"Point","coordinates":[120.057136,15.126374]}},{"properties":{"school name":"Apo-Apo ES","region":"Region III","class":"Public","district":"Cabangan","teachers 2013":4,"id":"ahldhr6i4pce","division":"Zambales","enrolment 2013":90,"barangay":"APO-APO","lat":15.181501,"offering":"Elementary","long":120.04534},"type":"Feature","geometry":{"type":"Point","coordinates":[120.04534,15.181501]}},{"properties":{"school name":"Arew ES","region":"Region III","class":"Public","district":"Cabangan","teachers 2013":5,"id":"ahldhr85zcaf","division":"Zambales","enrolment 2013":280,"barangay":"AREW","lat":null,"offering":"Elementary","long":null},"type":"Feature","geometry":null},{"properties":{"school name":"Cabangan ES","region":"Region III","class":"Public","district":"Cabangan","teachers 2013":12,"id":"ahldhr1ytfmd","division":"Zambales","enrolment 2013":497,"barangay":"SAN ANTONIO","lat":15.159605,"offering":"Elementary","long":120.055872},"type":"Feature","geometry":{"type":"Point","coordinates":[120.055872,15.159605]}},{"properties":{"school name":"Cadmang ES","region":"Region III","class":"Public","district":"Cabangan","teachers 2013":3,"id":"ahldhr95huk5","division":"Zambales","enrolment 2013":190,"barangay":"CADMANG-RESERVA","lat":null,"offering":"Elementary","long":null},"type":"Feature","geometry":null},{"properties":{"school name":"Camiing ES","region":"Region III","class":"Public","district":"Cabangan","teachers 2013":6,"id":"ahldhqwwt8nf","division":"Zambales","enrolment 2013":346,"barangay":"CAMILING (CAMIING)","lat":15.13556,"offering":"Elementary","long":120.049567},"type":"Feature","geometry":{"type":"Point","coordinates":[120.049567,15.13556]}},{"properties":{"school name":"Casa-Tondo ES","region":"Region III","class":"Public","district":"Cabangan","teachers 2013":6,"id":"ahldhr12sgdw","division":"Zambales","enrolment 2013":212,"barangay":"TONDO","lat":15.129266,"offering":"Elementary","long":120.054351},"type":"Feature","geometry":{"type":"Point","coordinates":[120.054351,15.129266]}},{"properties":{"school name":"Laoag ES","region":"Region III","class":"Public","district":"Cabangan","teachers 2013":5,"id":"ahldhquf6vks","division":"Zambales","enrolment 2013":183,"barangay":"LAOAG","lat":null,"offering":"Elementary","long":null},"type":"Feature","geometry":null},{"properties":{"school name":"Longos ES","region":"Region III","class":"Public","district":"Cabangan","teachers 2013":5,"id":"ahldhr5hb6uu","division":"Zambales","enrolment 2013":132,"barangay":"LONGOS","lat":15.135564,"offering":"Elementary","long":120.057127},"type":"Feature","geometry":{"type":"Point","coordinates":[120.057127,15.135564]}},{"properties":{"school name":"Reserva ES","region":"Region III","class":"Public","district":"Cabangan","teachers 2013":5,"id":"ahldhr6sz8i9","division":"Zambales","enrolment 2013":162,"barangay":"CADMANG-RESERVA","lat":null,"offering":"Elementary","long":null},"type":"Feature","geometry":null},{"properties":{"school name":"San Isidro ES","region":"Region III","class":"Public","district":"Cabangan","teachers 2013":6,"id":"ahldhr9fnlpd","division":"Zambales","enrolment 2013":322,"barangay":"SAN ISIDRO","lat":15.167313,"offering":"Elementary","long":120.046864},"type":"Feature","geometry":{"type":"Point","coordinates":[120.046864,15.167313]}},{"properties":{"school name":"San Juan ES","region":"Region III","class":"Public","district":"Cabangan","teachers 2013":9,"id":"ahldhr77s48x","division":"Zambales","enrolment 2013":395,"barangay":"SAN JUAN (POB.)","lat":15.15415,"offering":"Elementary","long":120.062132},"type":"Feature","geometry":{"type":"Point","coordinates":[120.062132,15.15415]}},{"properties":{"school name":"San Rafael ES","region":"Region III","class":"Public","district":"Cabangan","teachers 2013":4,"id":"ahldhqvw9qdh","division":"Zambales","enrolment 2013":145,"barangay":"SAN RAFAEL","lat":null,"offering":"Elementary","long":null},"type":"Feature","geometry":null},{"properties":{"school name":"Sapangbato ES","region":"Region III","class":"Public","district":"Cabangan","teachers 2013":5,"id":"ahldhr4jedgv","division":"Zambales","enrolment 2013":223,"barangay":"MABANGLIT","lat":null,"offering":"Elementary","long":null},"type":"Feature","geometry":null},{"properties":{"school name":"Sta. Rita ES","region":"Region III","class":"Public","district":"Cabangan","teachers 2013":4,"id":"ahldhqu95o8e","division":"Zambales","enrolment 2013":261,"barangay":"SANTA RITA","lat":15.178759,"offering":"Elementary","long":120.046843},"type":"Feature","geometry":{"type":"Point","coordinates":[120.046843,15.178759]}},{"properties":{"school name":"Sto. Nino PS","region":"Region III","class":"Public","district":"Cabangan","teachers 2013":2,"id":"ahldhqv48ox1","division":"Zambales","enrolment 2013":49,"barangay":"SANTO NINO","lat":15.151143,"offering":"Elementary","long":120.052621},"type":"Feature","geometry":{"type":"Point","coordinates":[120.052621,15.151143]}},{"properties":{"school name":"Babancal ES","region":"Region III","class":"Public","district":"Candelaria","teachers 2013":8,"id":"ahldhqugu7sk","division":"Zambales","enrolment 2013":319,"barangay":"BABANCAL","lat":15.617547,"offering":"Elementary","long":119.948643},"type":"Feature","geometry":{"type":"Point","coordinates":[119.948643,15.617547]}},{"properties":{"school name":"Binabalian ES","region":"Region III","class":"Public","district":"Candelaria","teachers 2013":7,"id":"ahldhr4psf4f","division":"Zambales","enrolment 2013":273,"barangay":"BINABALIAN","lat":15.599603,"offering":"Elementary","long":119.925957},"type":"Feature","geometry":{"type":"Point","coordinates":[119.925957,15.599603]}},{"properties":{"school name":"Candelaria Central","region":"Region III","class":"Public","district":"Candelaria","teachers 2013":13,"id":"ahldhqvn05q3","division":"Zambales","enrolment 2013":493,"barangay":"POBLACION","lat":15.626168,"offering":"Elementary","long":119.931868},"type":"Feature","geometry":{"type":"Point","coordinates":[119.931868,15.626168]}},{"properties":{"school name":"Catol ES","region":"Region III","class":"Public","district":"Candelaria","teachers 2013":5,"id":"ahldhr1c291g","division":"Zambales","enrolment 2013":122,"barangay":"CATOL","lat":null,"offering":"Elementary","long":null},"type":"Feature","geometry":null},{"properties":{"school name":"Dampay ES","region":"Region III","class":"Public","district":"Candelaria","teachers 2013":5,"id":"ahldhr15qxtm","division":"Zambales","enrolment 2013":143,"barangay":"DAMPAY","lat":15.614423,"offering":"Elementary","long":119.91557},"type":"Feature","geometry":{"type":"Point","coordinates":[119.91557,15.614423]}},{"properties":{"school name":"Lauis ES","region":"Region III","class":"Public","district":"Candelaria","teachers 2013":11,"id":"ahldhr80046k","division":"Zambales","enrolment 2013":344,"barangay":"LAUIS","lat":15.598004,"offering":"Elementary","long":119.943498},"type":"Feature","geometry":{"type":"Point","coordinates":[119.943498,15.598004]}},{"properties":{"school name":"Libertador ES","region":"Region III","class":"Public","district":"Candelaria","teachers 2013":5,"id":"ahldhr0xqo3s","division":"Zambales","enrolment 2013":187,"barangay":"LIBERTADOR","lat":null,"offering":"Elementary","long":null},"type":"Feature","geometry":null},{"properties":{"school name":"Malimanga ES","region":"Region III","class":"Public","district":"Candelaria","teachers 2013":6,"id":"ahldhr4dw7br","division":"Zambales","enrolment 2013":157,"barangay":"MALIMANGA","lat":15.645651,"offering":"Elementary","long":119.933927},"type":"Feature","geometry":{"type":"Point","coordinates":[119.933927,15.645651]}},{"properties":{"school name":"Pamibian IS","region":"Region III","class":"Public","district":"Candelaria","teachers 2013":5,"id":"ahldhr1ak1wd","division":"Zambales","enrolment 2013":159,"barangay":"PAMIBIAN","lat":null,"offering":"Elementary","long":null},"type":"Feature","geometry":null},{"properties":{"school name":"Pinagrealan ES","region":"Region III","class":"Public","district":"Candelaria","teachers 2013":6,"id":"ahldhr9v08ml","division":"Zambales","enrolment 2013":210,"barangay":"PINAGREALAN","lat":null,"offering":"Elementary","long":null},"type":"Feature","geometry":null},{"properties":{"school name":"San Roque ES","region":"Region III","class":"Public","district":"Candelaria","teachers 2013":8,"id":"ahldhr72cfv8","division":"Zambales","enrolment 2013":297,"barangay":"MALABON (SAN ROQUE)","lat":15.636736,"offering":"Elementary","long":119.936389},"type":"Feature","geometry":{"type":"Point","coordinates":[119.936389,15.636736]}},{"properties":{"school name":"Sinabacan ES","region":"Region III","class":"Public","district":"Candelaria","teachers 2013":13,"id":"ahldhqudono4","division":"Zambales","enrolment 2013":555,"barangay":"SINABACAN","lat":null,"offering":"Elementary","long":null},"type":"Feature","geometry":null},{"properties":{"school name":"Taposo ES","region":"Region III","class":"Public","district":"Candelaria","teachers 2013":6,"id":"ahldhr55ea98","division":"Zambales","enrolment 2013":170,"barangay":"TAPOSO","lat":null,"offering":"Elementary","long":null},"type":"Feature","geometry":null},{"properties":{"school name":"Uacon IS","region":"Region III","class":"Public","district":"Candelaria","teachers 2013":14,"id":"ahldhr9n3bzj","division":"Zambales","enrolment 2013":590,"barangay":"UACON","lat":null,"offering":"Elementary","long":null},"type":"Feature","geometry":null},{"properties":{"school name":"Yamot ES","region":"Region III","class":"Public","district":"Candelaria","teachers 2013":5,"id":"ahldhr6l03pl","division":"Zambales","enrolment 2013":165,"barangay":"YAMOT","lat":null,"offering":"Elementary","long":null},"type":"Feature","geometry":null},{"properties":{"school name":"Balaybay ES","region":"Region III","class":"Public","district":"Castillejos","teachers 2013":13,"id":"ahldhqz3ulp8","division":"Zambales","enrolment 2013":653,"barangay":"BALAYBAY","lat":14.909491,"offering":"Elementary","long":120.198715},"type":"Feature","geometry":{"type":"Point","coordinates":[120.198715,14.909491]}},{"properties":{"school name":"Balaybay Resett. ES","region":"Region III","class":"Public","district":"Castillejos","teachers 2013":12,"id":"ahldhqzqtuy1","division":"Zambales","enrolment 2013":766,"barangay":"BALAYBAY","lat":14.893597,"offering":"Elementary","long":120.20108},"type":"Feature","geometry":{"type":"Point","coordinates":[120.20108,14.893597]}},{"properties":{"school name":"Castillejos ES","region":"Region III","class":"Public","district":"Castillejos","teachers 2013":20,"id":"ahldhr3u1k7p","division":"Zambales","enrolment 2013":1003,"barangay":"SAN JUAN (POB.)","lat":14.931558,"offering":"Elementary","long":120.200401},"type":"Feature","geometry":{"type":"Point","coordinates":[120.200401,14.931558]}},{"properties":{"school name":"Del Pilar ES","region":"Region III","class":"Public","district":"Castillejos","teachers 2013":11,"id":"ahldhqvgty9b","division":"Zambales","enrolment 2013":549,"barangay":"DEL PILAR","lat":14.92597,"offering":"Elementary","long":120.214592},"type":"Feature","geometry":{"type":"Point","coordinates":[120.214592,14.92597]}},{"properties":{"school name":"Kanaynayan Community School","region":"Region III","class":"Public","district":"Castillejos","teachers 2013":2,"id":"ahldhr4hku1r","division":"Zambales","enrolment 2013":178,"barangay":"SAN PABLO (POB.)","lat":14.96039,"offering":"Elementary","long":120.252617},"type":"Feature","geometry":{"type":"Point","coordinates":[120.252617,14.96039]}},{"properties":{"school name":"Looc ES","region":"Region III","class":"Public","district":"Castillejos","teachers 2013":5,"id":"ahldhqu325wp","division":"Zambales","enrolment 2013":231,"barangay":"LOOC","lat":14.905313,"offering":"Elementary","long":120.162041},"type":"Feature","geometry":{"type":"Point","coordinates":[120.162041,14.905313]}},{"properties":{"school name":"Magsaysay ES","region":"Region III","class":"Public","district":"Castillejos","teachers 2013":8,"id":"ahldhr97udm9","division":"Zambales","enrolment 2013":426,"barangay":"MAGSAYSAY","lat":14.941976,"offering":"Elementary","long":120.188744},"type":"Feature","geometry":{"type":"Point","coordinates":[120.188744,14.941976]}},{"properties":{"school name":"Nagbayan ES","region":"Region III","class":"Public","district":"Castillejos","teachers 2013":5,"id":"ahldhr6ul6ty","division":"Zambales","enrolment 2013":242,"barangay":"NAGBAYAN","lat":14.936124,"offering":"Elementary","long":120.16568},"type":"Feature","geometry":{"type":"Point","coordinates":[120.16568,14.936124]}},{"properties":{"school name":"Pres. Ramon F. Magsaysay ES","region":"Region III","class":"Public","district":"Castillejos","teachers 2013":11,"id":"ahldhqywo65i","division":"Zambales","enrolment 2013":570,"barangay":"SAN JUAN (POB.)","lat":14.932475,"offering":"Elementary","long":120.200897},"type":"Feature","geometry":{"type":"Point","coordinates":[120.200897,14.932475]}},{"properties":{"school name":"San Agustin ES","region":"Region III","class":"Public","district":"Castillejos","teachers 2013":15,"id":"ahldhr3n98h8","division":"Zambales","enrolment 2013":828,"barangay":"SAN AGUSTIN","lat":null,"offering":"Elementary","long":null},"type":"Feature","geometry":null},{"properties":{"school name":"San Isidro ES","region":"Region III","class":"Public","district":"Castillejos","teachers 2013":9,"id":"ahldhqujngbi","division":"Zambales","enrolment 2013":556,"barangay":"SAN PABLO (POB.)","lat":14.945137,"offering":"Elementary","long":120.214035},"type":"Feature","geometry":{"type":"Point","coordinates":[120.214035,14.945137]}},{"properties":{"school name":"San Nicolas PS","region":"Region III","class":"Public","district":"Castillejos","teachers 2013":2,"id":"ahldhr3dzgei","division":"Zambales","enrolment 2013":159,"barangay":"SAN NICOLAS","lat":14.925731,"offering":"Elementary","long":120.201721},"type":"Feature","geometry":{"type":"Point","coordinates":[120.201721,14.925731]}},{"properties":{"school name":"Sta. Maria ES","region":"Region III","class":"Public","district":"Castillejos","teachers 2013":10,"id":"ahldhr6app3j","division":"Zambales","enrolment 2013":665,"barangay":"SAN JOSE (POB.)","lat":14.937347,"offering":"Elementary","long":120.19828},"type":"Feature","geometry":{"type":"Point","coordinates":[120.19828,14.937347]}},{"properties":{"school name":"V. Gallardo ES","region":"Region III","class":"Public","district":"Castillejos","teachers 2013":4,"id":"ahldhr3vbci3","division":"Zambales","enrolment 2013":230,"barangay":"NAGBUNGA","lat":14.951743,"offering":"Elementary","long":120.176064},"type":"Feature","geometry":{"type":"Point","coordinates":[120.176064,14.951743]}},{"properties":{"school name":"Villaflor ES","region":"Region III","class":"Public","district":"Castillejos","teachers 2013":11,"id":"ahldhr6c0hzz","division":"Zambales","enrolment 2013":766,"barangay":"SAN ROQUE","lat":14.929417,"offering":"Elementary","long":120.204803},"type":"Feature","geometry":{"type":"Point","coordinates":[120.204803,14.929417]}},{"properties":{"school name":"Amungan ES","region":"Region III","class":"Public","district":"Iba","teachers 2013":17,"id":"ahldhr5cxw7s","division":"Zambales","enrolment 2013":738,"barangay":"AMUNGAN","lat":15.3608,"offering":"Elementary","long":119.959841},"type":"Feature","geometry":{"type":"Point","coordinates":[119.959841,15.3608]}},{"properties":{"school name":"Bangantalinga ES","region":"Region III","class":"Public","district":"Iba","teachers 2013":11,"id":"ahldhr1xbcg9","division":"Zambales","enrolment 2013":519,"barangay":"BANGANTALINGA","lat":null,"offering":"Elementary","long":null},"type":"Feature","geometry":null},{"properties":{"school name":"Dampay ES","region":"Region III","class":"Public","district":"Iba","teachers 2013":11,"id":"ahldhr4isytj","division":"Zambales","enrolment 2013":441,"barangay":"AMUNGAN","lat":null,"offering":"Elementary","long":null},"type":"Feature","geometry":null},{"properties":{"school name":"Dirita-Baloguen ES","region":"Region III","class":"Public","district":"Iba","teachers 2013":5,"id":"ahldhr0hy7d8","division":"Zambales","enrolment 2013":255,"barangay":"DIRITA-BALOGUEN","lat":null,"offering":"Elementary","long":null},"type":"Feature","geometry":null},{"properties":{"school name":"Iba ES","region":"Region III","class":"Public","district":"Iba","teachers 2013":32,"id":"ahldhqts8hco","division":"Zambales","enrolment 2013":1238,"barangay":"ZONE 6 POB. (BAYTAN)","lat":15.323513,"offering":"Elementary","long":119.982183},"type":"Feature","geometry":{"type":"Point","coordinates":[119.982183,15.323513]}},{"properties":{"school name":"Lawak ES","region":"Region III","class":"Public","district":"Iba","teachers 2013":6,"id":"ahldhr4rge57","division":"Zambales","enrolment 2013":296,"barangay":"AMUNGAN","lat":null,"offering":"Elementary","long":null},"type":"Feature","geometry":null},{"properties":{"school name":"Libaba ES","region":"Region III","class":"Public","district":"Iba","teachers 2013":9,"id":"ahldhqxswn64","division":"Zambales","enrolment 2013":413,"barangay":"ZONE 1 POB. (LIBABA)","lat":null,"offering":"Elementary","long":null},"type":"Feature","geometry":null},{"properties":{"school name":"Lipay-Dingin ES","region":"Region III","class":"Public","district":"Iba","teachers 2013":9,"id":"ahldhqwzxm9a","division":"Zambales","enrolment 2013":388,"barangay":"LIPAY-DINGIN-PANIBUATAN","lat":null,"offering":"Elementary","long":null},"type":"Feature","geometry":null},{"properties":{"school name":"Little Baguio ES","region":"Region III","class":"Public","district":"Iba","teachers 2013":5,"id":"ahldhquia3tp","division":"Zambales","enrolment 2013":219,"barangay":"BANGANTALINGA","lat":null,"offering":"Elementary","long":null},"type":"Feature","geometry":null},{"properties":{"school name":"Lupang Pangako Resettlement ES","region":"Region III","class":"Public","district":"Iba","teachers 2013":5,"id":"ahldhqz5sq55","division":"Zambales","enrolment 2013":172,"barangay":"SAN AGUSTIN","lat":null,"offering":"Elementary","long":null},"type":"Feature","geometry":null},{"properties":{"school name":"Paulo Abastillas Sr. Mem. School","region":"Region III","class":"Public","district":"Iba","teachers 2013":19,"id":"ahldhqzn8pjo","division":"Zambales","enrolment 2013":999,"barangay":"PALANGINAN (PALANGUINAN-TAMBAK)","lat":15.315631,"offering":"Elementary","long":119.993029},"type":"Feature","geometry":{"type":"Point","coordinates":[119.993029,15.315631]}},{"properties":{"school name":"San Agustin ES","region":"Region III","class":"Public","district":"Iba","teachers 2013":13,"id":"ahldhqz1lxfy","division":"Zambales","enrolment 2013":595,"barangay":"SAN AGUSTIN","lat":null,"offering":"Elementary","long":null},"type":"Feature","geometry":null},{"properties":{"school name":"Sta. Barbara ES","region":"Region III","class":"Public","district":"Iba","teachers 2013":11,"id":"ahldhr6nzbqn","division":"Zambales","enrolment 2013":638,"barangay":"SANTA BARBARA","lat":15.332009,"offering":"Elementary","long":119.998898},"type":"Feature","geometry":{"type":"Point","coordinates":[119.998898,15.332009]}},{"properties":{"school name":"Sto. Rosario ES","region":"Region III","class":"Public","district":"Iba","teachers 2013":10,"id":"ahldhqzhljvj","division":"Zambales","enrolment 2013":555,"barangay":"SANTO ROSARIO","lat":15.329585,"offering":"Elementary","long":119.966884},"type":"Feature","geometry":{"type":"Point","coordinates":[119.966884,15.329585]}},{"properties":{"school name":"Marciano Abela ES","region":"Region III","class":"Public","district":"Iba","teachers 2013":6,"id":"ahldhr4jekrw","division":"Zambales","enrolment 2013":213,"barangay":"PALANGINAN (PALANGUINAN-TAMBAK)","lat":14.932221,"offering":"Elementary","long":120.185036},"type":"Feature","geometry":{"type":"Point","coordinates":[120.185036,14.932221]}},{"properties":{"school name":"Felipe E. Estella ES (Baloganon ES)","region":"Region III","class":"Public","district":"Masinloc","teachers 2013":25,"id":"ahldhr80qntj","division":"Zambales","enrolment 2013":1003,"barangay":"BALOGANON","lat":null,"offering":"Elementary","long":null},"type":"Feature","geometry":null},{"properties":{"school name":"Bamban ES","region":"Region III","class":"Public","district":"Masinloc","teachers 2013":8,"id":"ahldhqytgyzf","division":"Zambales","enrolment 2013":386,"barangay":"BAMBAN","lat":null,"offering":"Elementary","long":null},"type":"Feature","geometry":null},{"properties":{"school name":"Bani ES","region":"Region III","class":"Public","district":"Masinloc","teachers 2013":13,"id":"ahldhqz8v0xs","division":"Zambales","enrolment 2013":589,"barangay":"BANI","lat":null,"offering":"Elementary","long":null},"type":"Feature","geometry":null},{"properties":{"school name":"Bani Relocation ES","region":"Region III","class":"Public","district":"Masinloc","teachers 2013":5,"id":"ahldhr563od6","division":"Zambales","enrolment 2013":199,"barangay":"TALTAL","lat":null,"offering":"Elementary","long":null},"type":"Feature","geometry":null},{"properties":{"school name":"Bunga ES","region":"Region III","class":"Public","district":"Masinloc","teachers 2013":3,"id":"ahldhr7j65j5","division":"Zambales","enrolment 2013":55,"barangay":"SANTA RITA","lat":15.533597,"offering":"Elementary","long":119.949857},"type":"Feature","geometry":{"type":"Point","coordinates":[119.949857,15.533597]}},{"properties":{"school name":"Collat ES","region":"Region III","class":"Public","district":"Masinloc","teachers 2013":11,"id":"ahldhr9gcc9d","division":"Zambales","enrolment 2013":516,"barangay":"COLLAT","lat":15.540811,"offering":"Elementary","long":119.954422},"type":"Feature","geometry":{"type":"Point","coordinates":[119.954422,15.540811]}},{"properties":{"school name":"Coto ES","region":"Region III","class":"Public","district":"Masinloc","teachers 2013":2,"id":"ahldhqxwucb2","division":"Zambales","enrolment 2013":88,"barangay":"TALTAL","lat":null,"offering":"Elementary","long":null},"type":"Feature","geometry":null},{"properties":{"school name":"Inhobol ES","region":"Region III","class":"Public","district":"Masinloc","teachers 2013":19,"id":"ahldhqyd4vgm","division":"Zambales","enrolment 2013":1042,"barangay":"INHOBOL","lat":null,"offering":"Elementary","long":null},"type":"Feature","geometry":null},{"properties":{"school name":"Mandaloy ES","region":"Region III","class":"Public","district":"Masinloc","teachers 2013":5,"id":"ahldhr9anqrf","division":"Zambales","enrolment 2013":105,"barangay":"TALTAL","lat":null,"offering":"Elementary","long":null},"type":"Feature","geometry":null},{"properties":{"school name":"Masinloc Central","region":"Region III","class":"Public","district":"Masinloc","teachers 2013":29,"id":"ahldhqz3ipai","division":"Zambales","enrolment 2013":1170,"barangay":"SOUTH POBLACION","lat":15.532787,"offering":"Elementary","long":119.951661},"type":"Feature","geometry":{"type":"Point","coordinates":[119.951661,15.532787]}},{"properties":{"school name":"Panglit ES","region":"Region III","class":"Public","district":"Masinloc","teachers 2013":4,"id":"ahldhqw1t13s","division":"Zambales","enrolment 2013":94,"barangay":"SAN LORENZO","lat":null,"offering":"Elementary","long":null},"type":"Feature","geometry":null},{"properties":{"school name":"San Lorenzo ES","region":"Region III","class":"Public","district":"Masinloc","teachers 2013":8,"id":"ahldhr4k7ol1","division":"Zambales","enrolment 2013":536,"barangay":"SAN LORENZO","lat":15.483333,"offering":"Elementary","long":119.962003},"type":"Feature","geometry":{"type":"Point","coordinates":[119.962003,15.483333]}},{"properties":{"school name":"San Salvador ES","region":"Region III","class":"Public","district":"Masinloc","teachers 2013":7,"id":"ahldhqtxkvel","division":"Zambales","enrolment 2013":375,"barangay":"SAN SALVADOR","lat":null,"offering":"Elementary","long":null},"type":"Feature","geometry":null},{"properties":{"school name":"Sta. Rita ES","region":"Region III","class":"Public","district":"Masinloc","teachers 2013":11,"id":"ahldhr42biuh","division":"Zambales","enrolment 2013":570,"barangay":"SANTA RITA","lat":15.057731,"offering":"Elementary","long":120.066872},"type":"Feature","geometry":{"type":"Point","coordinates":[120.066872,15.057731]}},{"properties":{"school name":"Sto. Rosario ES","region":"Region III","class":"Public","district":"Masinloc","teachers 2013":8,"id":"ahldhqx1r9tl","division":"Zambales","enrolment 2013":329,"barangay":"SANTO ROSARIO","lat":15.489815,"offering":"Elementary","long":119.963203},"type":"Feature","geometry":{"type":"Point","coordinates":[119.963203,15.489815]}},{"properties":{"school name":"Taltal ES","region":"Region III","class":"Public","district":"Masinloc","teachers 2013":8,"id":"ahldhquprnlk","division":"Zambales","enrolment 2013":372,"barangay":"TALTAL","lat":15.58718,"offering":"Elementary","long":119.947378},"type":"Feature","geometry":{"type":"Point","coordinates":[119.947378,15.58718]}},{"properties":{"school name":"Tapuac ES","region":"Region III","class":"Public","district":"Masinloc","teachers 2013":9,"id":"ahldhqyhfgbn","division":"Zambales","enrolment 2013":355,"barangay":"TAPUAC","lat":null,"offering":"Elementary","long":null},"type":"Feature","geometry":null},{"properties":{"school name":"Ubat ES","region":"Region III","class":"Public","district":"Masinloc","teachers 2013":2,"id":"ahldhqx83zpp","division":"Zambales","enrolment 2013":152,"barangay":"BALOGANON","lat":null,"offering":"Elementary","long":null},"type":"Feature","geometry":null},{"properties":{"school name":"A.P. Decano Memorial ES","region":"Region III","class":"Public","district":"Palauig","teachers 2013":8,"id":"ahldhqxdbyqh","division":"Zambales","enrolment 2013":281,"barangay":"GARRETA","lat":15.434894,"offering":"Elementary","long":119.903307},"type":"Feature","geometry":{"type":"Point","coordinates":[119.903307,15.434894]}},{"properties":{"school name":"Alwa ES","region":"Region III","class":"Public","district":"Palauig","teachers 2013":2,"id":"ahldhr9wpmum","division":"Zambales","enrolment 2013":85,"barangay":"ALWA","lat":15.415782,"offering":"Elementary","long":119.913341},"type":"Feature","geometry":{"type":"Point","coordinates":[119.913341,15.415782]}},{"properties":{"school name":"Bato ES","region":"Region III","class":"Public","district":"Palauig","teachers 2013":13,"id":"ahldhr6hj6c8","division":"Zambales","enrolment 2013":562,"barangay":"BATO","lat":15.411813,"offering":"Elementary","long":119.91734},"type":"Feature","geometry":{"type":"Point","coordinates":[119.91734,15.411813]}},{"properties":{"school name":"Bulawen ES","region":"Region III","class":"Public","district":"Palauig","teachers 2013":15,"id":"ahldhr1clx8a","division":"Zambales","enrolment 2013":877,"barangay":"BULAWEN","lat":15.416042,"offering":"Elementary","long":119.955096},"type":"Feature","geometry":{"type":"Point","coordinates":[119.955096,15.416042]}},{"properties":{"school name":"Cauyan ES","region":"Region III","class":"Public","district":"Palauig","teachers 2013":6,"id":"ahldhqvsvlh5","division":"Zambales","enrolment 2013":171,"barangay":"CAUYAN","lat":15.444174,"offering":"Elementary","long":119.931068},"type":"Feature","geometry":{"type":"Point","coordinates":[119.931068,15.444174]}},{"properties":{"school name":"Dampay ES","region":"Region III","class":"Public","district":"Palauig","teachers 2013":5,"id":"ahldhqwp5b9x","division":"Zambales","enrolment 2013":209,"barangay":"SALAZA","lat":null,"offering":"Elementary","long":null},"type":"Feature","geometry":null},{"properties":{"school name":"Dapla ES","region":"Region III","class":"Public","district":"Palauig","teachers 2013":4,"id":"ahldhr248uq2","division":"Zambales","enrolment 2013":166,"barangay":"SALAZA","lat":null,"offering":"Elementary","long":null},"type":"Feature","geometry":null},{"properties":{"school name":"Emiliano M. Aragon Mem. ES","region":"Region III","class":"Public","district":"Palauig","teachers 2013":5,"id":"ahldhr748bcz","division":"Zambales","enrolment 2013":197,"barangay":"SAN JUAN","lat":15.441373,"offering":"Elementary","long":119.920228},"type":"Feature","geometry":{"type":"Point","coordinates":[119.920228,15.441373]}},{"properties":{"school name":"Liozon ES","region":"Region III","class":"Public","district":"Palauig","teachers 2013":11,"id":"ahldhqz3o5fk","division":"Zambales","enrolment 2013":481,"barangay":"LIOZON","lat":15.397468,"offering":"Elementary","long":119.934157},"type":"Feature","geometry":{"type":"Point","coordinates":[119.934157,15.397468]}},{"properties":{"school name":"Lipay ES","region":"Region III","class":"Public","district":"Palauig","teachers 2013":6,"id":"ahldhqvaohrp","division":"Zambales","enrolment 2013":257,"barangay":"LIPAY","lat":15.747747,"offering":"Elementary","long":119.910478},"type":"Feature","geometry":{"type":"Point","coordinates":[119.910478,15.747747]}},{"properties":{"school name":"Locloc ES","region":"Region III","class":"Public","district":"Palauig","teachers 2013":5,"id":"ahldhr9rn3vo","division":"Zambales","enrolment 2013":257,"barangay":"LOCLOC","lat":15.397567,"offering":"Elementary","long":119.920143},"type":"Feature","geometry":{"type":"Point","coordinates":[119.920143,15.397567]}},{"properties":{"school name":"Luan ES","region":"Region III","class":"Public","district":"Palauig","teachers 2013":5,"id":"ahldhr3s0a4e","division":"Zambales","enrolment 2013":169,"barangay":"LIPAY","lat":null,"offering":"Elementary","long":null},"type":"Feature","geometry":null},{"properties":{"school name":"Magalawa ES","region":"Region III","class":"Public","district":"Palauig","teachers 2013":2,"id":"ahldhqvqh79s","division":"Zambales","enrolment 2013":58,"barangay":"MAGALAWA","lat":null,"offering":"Elementary","long":null},"type":"Feature","geometry":null},{"properties":{"school name":"Manggahan ES","region":"Region III","class":"Public","district":"Palauig","teachers 2013":2,"id":"ahldhqu2t7hr","division":"Zambales","enrolment 2013":72,"barangay":"SALAZA","lat":null,"offering":"Elementary","long":null},"type":"Feature","geometry":null},{"properties":{"school name":"Palauig Central School","region":"Region III","class":"Public","district":"Palauig","teachers 2013":19,"id":"ahldhr0s68l8","division":"Zambales","enrolment 2013":607,"barangay":"WEST POBLACION","lat":15.43269,"offering":"Elementary","long":119.906214},"type":"Feature","geometry":{"type":"Point","coordinates":[119.906214,15.43269]}},{"properties":{"school name":"Pangolingan ES","region":"Region III","class":"Public","district":"Palauig","teachers 2013":6,"id":"ahldhqyk1orx","division":"Zambales","enrolment 2013":267,"barangay":"PANGOLINGAN","lat":15.465248,"offering":"Elementary","long":119.96769},"type":"Feature","geometry":{"type":"Point","coordinates":[119.96769,15.465248]}},{"properties":{"school name":"Zacarias L. Antiller ES","region":"Region III","class":"Public","district":"Palauig","teachers 2013":12,"id":"ahldhr4dessk","division":"Zambales","enrolment 2013":410,"barangay":"SALAZA","lat":15.453472,"offering":"Elementary","long":119.955514},"type":"Feature","geometry":{"type":"Point","coordinates":[119.955514,15.453472]}},{"properties":{"school name":"San Vicente ES","region":"Region III","class":"Public","district":"Palauig","teachers 2013":6,"id":"ahldhqymtqag","division":"Zambales","enrolment 2013":195,"barangay":"TITION (SAN VICENTE)","lat":15.452571,"offering":"Elementary","long":119.942199},"type":"Feature","geometry":{"type":"Point","coordinates":[119.942199,15.452571]}},{"properties":{"school name":"Angel C. Manglicmot Mem. ES","region":"Region III","class":"Public","district":"San Antonio","teachers 2013":8,"id":"ahldhqz0r878","division":"Zambales","enrolment 2013":321,"barangay":"ANGELES","lat":null,"offering":"Elementary","long":null},"type":"Feature","geometry":null},{"properties":{"school name":"Dirita ES","region":"Region III","class":"Public","district":"San Antonio","teachers 2013":12,"id":"ahldhr1nfiok","division":"Zambales","enrolment 2013":500,"barangay":"EAST DIRITA","lat":null,"offering":"Elementary","long":null},"type":"Feature","geometry":null},{"properties":{"school name":"Pundakit ES","region":"Region III","class":"Public","district":"San Antonio","teachers 2013":11,"id":"ahldhqys5fan","division":"Zambales","enrolment 2013":430,"barangay":"PUNDAQUIT","lat":null,"offering":"Elementary","long":null},"type":"Feature","geometry":null},{"properties":{"school name":"San Antonio CS","region":"Region III","class":"Public","district":"San Antonio","teachers 2013":13,"id":"ahldhr5tlhzt","division":"Zambales","enrolment 2013":574,"barangay":"RIZAL","lat":14.947649,"offering":"Elementary","long":120.089581},"type":"Feature","geometry":{"type":"Point","coordinates":[120.089581,14.947649]}},{"properties":{"school name":"San Esteban ES","region":"Region III","class":"Public","district":"San Antonio","teachers 2013":6,"id":"ahldhr2698kt","division":"Zambales","enrolment 2013":175,"barangay":"SAN ESTEBAN","lat":14.945713,"offering":"Elementary","long":120.157996},"type":"Feature","geometry":{"type":"Point","coordinates":[120.157996,14.945713]}},{"properties":{"school name":"San Gregorio ES","region":"Region III","class":"Public","district":"San Antonio","teachers 2013":14,"id":"ahldhr5x6629","division":"Zambales","enrolment 2013":524,"barangay":"SAN GREGORIO (POB.)","lat":14.950025,"offering":"Elementary","long":120.08984},"type":"Feature","geometry":{"type":"Point","coordinates":[120.08984,14.950025]}},{"properties":{"school name":"San Juan ES","region":"Region III","class":"Public","district":"San Antonio","teachers 2013":7,"id":"ahldhr1kz3bs","division":"Zambales","enrolment 2013":353,"barangay":"SAN JUAN (POB.)","lat":14.943363,"offering":"Elementary","long":120.088793},"type":"Feature","geometry":{"type":"Point","coordinates":[120.088793,14.943363]}},{"properties":{"school name":"San Miguel ES","region":"Region III","class":"Public","district":"San Antonio","teachers 2013":9,"id":"ahldhqx0jg4w","division":"Zambales","enrolment 2013":410,"barangay":"SAN MIGUEL","lat":14.950786,"offering":"Elementary","long":120.06526},"type":"Feature","geometry":{"type":"Point","coordinates":[120.06526,14.950786]}},{"properties":{"school name":"San Nicolas ES","region":"Region III","class":"Public","district":"San Antonio","teachers 2013":10,"id":"ahldhqvzihn2","division":"Zambales","enrolment 2013":383,"barangay":"SAN NICOLAS (POB.)","lat":14.947537,"offering":"Elementary","long":120.080888},"type":"Feature","geometry":{"type":"Point","coordinates":[120.080888,14.947537]}},{"properties":{"school name":"T.R.Yangco Memorial School","region":"Region III","class":"Public","district":"San Antonio","teachers 2013":16,"id":"ahldhr7bwz8i","division":"Zambales","enrolment 2013":640,"barangay":"BURGOS (POB.)","lat":14.946391,"offering":"Elementary","long":120.09212},"type":"Feature","geometry":{"type":"Point","coordinates":[120.09212,14.946391]}},{"properties":{"school name":"West Dirita ES","region":"Region III","class":"Public","district":"San Antonio","teachers 2013":9,"id":"ahldhqyacacj","division":"Zambales","enrolment 2013":423,"barangay":"WEST DIRITA","lat":14.961123,"offering":"Elementary","long":120.074558},"type":"Feature","geometry":{"type":"Point","coordinates":[120.074558,14.961123]}},{"properties":{"school name":"Balincaguing ES","region":"Region III","class":"Public","district":"San Felipe","teachers 2013":4,"id":"ahldhr4wutrv","division":"Zambales","enrolment 2013":147,"barangay":"BALINCAGUING","lat":15.046478,"offering":"Elementary","long":120.126818},"type":"Feature","geometry":{"type":"Point","coordinates":[120.126818,15.046478]}},{"properties":{"school name":"Bobulon ES","region":"Region III","class":"Public","district":"San Felipe","teachers 2013":8,"id":"ahldhr7miyfd","division":"Zambales","enrolment 2013":283,"barangay":"MANGLICMOT (POB.)","lat":15.055605,"offering":"Elementary","long":120.070947},"type":"Feature","geometry":{"type":"Point","coordinates":[120.070947,15.055605]}},{"properties":{"school name":"Laoag ES","region":"Region III","class":"Public","district":"San Felipe","teachers 2013":5,"id":"ahldhr94wl3o","division":"Zambales","enrolment 2013":90,"barangay":"MALOMA","lat":null,"offering":"Elementary","long":null},"type":"Feature","geometry":null},{"properties":{"school name":"Maloma Community ES","region":"Region III","class":"Public","district":"San Felipe","teachers 2013":13,"id":"ahldhqwkr5ku","division":"Zambales","enrolment 2013":523,"barangay":"MALOMA","lat":15.113214,"offering":"Elementary","long":120.064967},"type":"Feature","geometry":{"type":"Point","coordinates":[120.064967,15.113214]}},{"properties":{"school name":"Sagpat ES","region":"Region III","class":"Public","district":"San Felipe","teachers 2013":5,"id":"ahldhr3omx48","division":"Zambales","enrolment 2013":206,"barangay":"MALOMA","lat":null,"offering":"Elementary","long":null},"type":"Feature","geometry":null},{"properties":{"school name":"San Felipe ES (East)","region":"Region III","class":"Public","district":"San Felipe","teachers 2013":9,"id":"ahldhr36oybi","division":"Zambales","enrolment 2013":354,"barangay":"FERIA (POB.)","lat":15.05876,"offering":"Elementary","long":120.072735},"type":"Feature","geometry":{"type":"Point","coordinates":[120.072735,15.05876]}},{"properties":{"school name":"San Felipe ES (West)","region":"Region III","class":"Public","district":"San Felipe","teachers 2013":15,"id":"ahldhr773a8i","division":"Zambales","enrolment 2013":475,"barangay":"FERIA (POB.)","lat":15.060125,"offering":"Elementary","long":120.070948},"type":"Feature","geometry":{"type":"Point","coordinates":[120.070948,15.060125]}},{"properties":{"school name":"San Rafael ES","region":"Region III","class":"Public","district":"San Felipe","teachers 2013":5,"id":"ahldhr41qikv","division":"Zambales","enrolment 2013":178,"barangay":"SAN RAFAEL","lat":null,"offering":"Elementary","long":null},"type":"Feature","geometry":null},{"properties":{"school name":"Sindol ES","region":"Region III","class":"Public","district":"San Felipe","teachers 2013":6,"id":"ahldhquzfo1m","division":"Zambales","enrolment 2013":319,"barangay":"SINDOL","lat":15.075192,"offering":"Elementary","long":120.067879},"type":"Feature","geometry":{"type":"Point","coordinates":[120.067879,15.075192]}},{"properties":{"school name":"Sto. Nino ES","region":"Region III","class":"Public","district":"San Felipe","teachers 2013":12,"id":"ahldhqy1bnf2","division":"Zambales","enrolment 2013":451,"barangay":"SANTO NINO","lat":15.057744,"offering":"Elementary","long":120.065675},"type":"Feature","geometry":{"type":"Point","coordinates":[120.065675,15.057744]}},{"properties":{"school name":"Sto. Tomas ES","region":"Region III","class":"Public","district":"San Felipe","teachers 2013":6,"id":"ahldhr4hyhgy","division":"Zambales","enrolment 2013":202,"barangay":"FARAÑAL (POB.)","lat":15.065883,"offering":"Elementary","long":120.070863},"type":"Feature","geometry":{"type":"Point","coordinates":[120.070863,15.065883]}},{"properties":{"school name":"Aglao ES","region":"Region III","class":"Public","district":"San Marcelino","teachers 2013":7,"id":"ahldhqzrfiar","division":"Zambales","enrolment 2013":185,"barangay":"AGLAO","lat":14.979143,"offering":"Elementary","long":120.283592},"type":"Feature","geometry":{"type":"Point","coordinates":[120.283592,14.979143]}},{"properties":{"school name":"Baliwet ES","region":"Region III","class":"Public","district":"San Marcelino","teachers 2013":3,"id":"ahldhr4a373v","division":"Zambales","enrolment 2013":84,"barangay":"SANTA FE","lat":null,"offering":"Elementary","long":null},"type":"Feature","geometry":null},{"properties":{"school name":"United Nation Women Aeta School (Banaba ES)","region":"Region III","class":"Public","district":"San Marcelino","teachers 2013":3,"id":"ahldhr6q7nyd","division":"Zambales","enrolment 2013":78,"barangay":"SANTA FE","lat":null,"offering":"Elementary","long":null},"type":"Feature","geometry":null},{"properties":{"school name":"Buhawen ES","region":"Region III","class":"Public","district":"San Marcelino","teachers 2013":5,"id":"ahldhqtmlbue","division":"Zambales","enrolment 2013":139,"barangay":"BUHAWEN","lat":14.96506,"offering":"Elementary","long":120.312981},"type":"Feature","geometry":{"type":"Point","coordinates":[120.312981,14.96506]}},{"properties":{"school name":"Dalanawan ES","region":"Region III","class":"Public","district":"San Marcelino","teachers 2013":5,"id":"ahldhqwbetvd","division":"Zambales","enrolment 2013":126,"barangay":"AGLAO","lat":14.975764,"offering":"Elementary","long":120.26947},"type":"Feature","geometry":{"type":"Point","coordinates":[120.26947,14.975764]}},{"properties":{"school name":"Laoag ES","region":"Region III","class":"Public","district":"San Marcelino","teachers 2013":10,"id":"ahldhr57831i","division":"Zambales","enrolment 2013":411,"barangay":"LAOAG","lat":null,"offering":"Elementary","long":null},"type":"Feature","geometry":null},{"properties":{"school name":"Lawin ES","region":"Region III","class":"Public","district":"San Marcelino","teachers 2013":5,"id":"ahldhqxfv58u","division":"Zambales","enrolment 2013":152,"barangay":"SAN RAFAEL","lat":14.976663,"offering":"Elementary","long":120.223404},"type":"Feature","geometry":{"type":"Point","coordinates":[120.223404,14.976663]}},{"properties":{"school name":"Linasin ES","region":"Region III","class":"Public","district":"San Marcelino","teachers 2013":11,"id":"ahldhqubujto","division":"Zambales","enrolment 2013":433,"barangay":"LINASIN","lat":null,"offering":"Elementary","long":null},"type":"Feature","geometry":null},{"properties":{"school name":"Linusungan ES","region":"Region III","class":"Public","district":"San Marcelino","teachers 2013":5,"id":"ahldhra3nmyg","division":"Zambales","enrolment 2013":176,"barangay":"LINUSUNGAN","lat":14.952238,"offering":"Elementary","long":120.162834},"type":"Feature","geometry":{"type":"Point","coordinates":[120.162834,14.952238]}},{"properties":{"school name":"Nagbunga ES","region":"Region III","class":"Public","district":"San Marcelino","teachers 2013":9,"id":"ahldhr7rkd57","division":"Zambales","enrolment 2013":318,"barangay":"NAGBUNGA","lat":null,"offering":"Elementary","long":null},"type":"Feature","geometry":null},{"properties":{"school name":"Pili ES","region":"Region III","class":"Public","district":"San Marcelino","teachers 2013":7,"id":"ahldhqu328oc","division":"Zambales","enrolment 2013":277,"barangay":"BUHAWEN","lat":14.965384,"offering":"Elementary","long":120.300957},"type":"Feature","geometry":{"type":"Point","coordinates":[120.300957,14.965384]}},{"properties":{"school name":"Rabanes ES","region":"Region III","class":"Public","district":"San Marcelino","teachers 2013":6,"id":"ahldhqy4vsaw","division":"Zambales","enrolment 2013":268,"barangay":"RABANES","lat":null,"offering":"Elementary","long":null},"type":"Feature","geometry":null},{"properties":{"school name":"San Guillermo ES","region":"Region III","class":"Public","district":"San Marcelino","teachers 2013":8,"id":"ahldhqx1qomy","division":"Zambales","enrolment 2013":385,"barangay":"SAN GUILLERMO (POB.)","lat":14.971324,"offering":"Elementary","long":120.15866},"type":"Feature","geometry":{"type":"Point","coordinates":[120.15866,14.971324]}},{"properties":{"school name":"San Marcelino Elementary School","region":"Region III","class":"Public","district":"San Marcelino","teachers 2013":24,"id":"ahldhr1vu1l3","division":"Zambales","enrolment 2013":1060,"barangay":"BURGOS (POB.)","lat":14.977433,"offering":"Elementary","long":120.156158},"type":"Feature","geometry":{"type":"Point","coordinates":[120.156158,14.977433]}},{"properties":{"school name":"San Rafael ES","region":"Region III","class":"Public","district":"San Marcelino","teachers 2013":10,"id":"ahldhqyamx9b","division":"Zambales","enrolment 2013":300,"barangay":"SAN RAFAEL","lat":14.973927,"offering":"Elementary","long":120.211281},"type":"Feature","geometry":{"type":"Point","coordinates":[120.211281,14.973927]}},{"properties":{"school name":"Sta. Fe (0-It) ES","region":"Region III","class":"Public","district":"San Marcelino","teachers 2013":3,"id":"ahldhr880p1p","division":"Zambales","enrolment 2013":76,"barangay":"SANTA FE","lat":15.012342,"offering":"Elementary","long":120.204353},"type":"Feature","geometry":{"type":"Point","coordinates":[120.204353,15.012342]}},{"properties":{"school name":"Sta. Fe ES","region":"Region III","class":"Public","district":"San Marcelino","teachers 2013":5,"id":"ahldhr6kpj32","division":"Zambales","enrolment 2013":151,"barangay":"SANTA FE","lat":15.015231,"offering":"Elementary","long":120.216537},"type":"Feature","geometry":{"type":"Point","coordinates":[120.216537,15.015231]}},{"properties":{"school name":"Alusiis ES","region":"Region III","class":"Public","district":"San Narciso","teachers 2013":6,"id":"ahldhqx2uweh","division":"Zambales","enrolment 2013":143,"barangay":"ALUSIIS","lat":15.024546,"offering":"Elementary","long":120.079251},"type":"Feature","geometry":{"type":"Point","coordinates":[120.079251,15.024546]}},{"properties":{"school name":"Beddeng-Mabangcal ES","region":"Region III","class":"Public","district":"San Narciso","teachers 2013":12,"id":"ahldhquexz08","division":"Zambales","enrolment 2013":445,"barangay":"BEDDENG","lat":14.987178,"offering":"Elementary","long":120.083042},"type":"Feature","geometry":{"type":"Point","coordinates":[120.083042,14.987178]}},{"properties":{"school name":"Consuelo ES","region":"Region III","class":"Public","district":"San Narciso","teachers 2013":2,"id":"ahldhr008sry","division":"Zambales","enrolment 2013":49,"barangay":"-","lat":14.985366,"offering":"Elementary","long":120.141331},"type":"Feature","geometry":{"type":"Point","coordinates":[120.141331,14.985366]}},{"properties":{"school name":"Dallipawen ES","region":"Region III","class":"Public","district":"San Narciso","teachers 2013":6,"id":"ahldhqu6mbz2","division":"Zambales","enrolment 2013":127,"barangay":"DALLIPAWEN","lat":14.994612,"offering":"Elementary","long":120.128655},"type":"Feature","geometry":{"type":"Point","coordinates":[120.128655,14.994612]}},{"properties":{"school name":"Doce-Martires ES","region":"Region III","class":"Public","district":"San Narciso","teachers 2013":7,"id":"ahldhr5nfto2","division":"Zambales","enrolment 2013":284,"barangay":"GRULLO","lat":15.013193,"offering":"Elementary","long":120.094054},"type":"Feature","geometry":{"type":"Point","coordinates":[120.094054,15.013193]}},{"properties":{"school name":"La Paz ES","region":"Region III","class":"Public","district":"San Narciso","teachers 2013":13,"id":"ahldhr8smwps","division":"Zambales","enrolment 2013":406,"barangay":"LA PAZ","lat":15.012015,"offering":"Elementary","long":120.069783},"type":"Feature","geometry":{"type":"Point","coordinates":[120.069783,15.012015]}},{"properties":{"school name":"Namatacan ES","region":"Region III","class":"Public","district":"San Narciso","teachers 2013":6,"id":"ahldhr5b5s8t","division":"Zambales","enrolment 2013":233,"barangay":"NAMATACAN","lat":15.005431,"offering":"Elementary","long":120.135735},"type":"Feature","geometry":{"type":"Point","coordinates":[120.135735,15.005431]}},{"properties":{"school name":"Omaya ES","region":"Region III","class":"Public","district":"San Narciso","teachers 2013":3,"id":"ahldhqznckwb","division":"Zambales","enrolment 2013":56,"barangay":"OMAYA","lat":null,"offering":"Elementary","long":null},"type":"Feature","geometry":null},{"properties":{"school name":"Paite-Balincaguing ES","region":"Region III","class":"Public","district":"San Felipe","teachers 2013":6,"id":"ahldhqvx8uch","division":"Zambales","enrolment 2013":151,"barangay":"BALINCAGUING","lat":null,"offering":"Elementary","long":null},"type":"Feature","geometry":null},{"properties":{"school name":"San Jose-Patrocinio ES","region":"Region III","class":"Public","district":"San Narciso","teachers 2013":11,"id":"ahldhqxwer3e","division":"Zambales","enrolment 2013":360,"barangay":"PATROCINIO (POB.)","lat":15.009561,"offering":"Elementary","long":120.083463},"type":"Feature","geometry":{"type":"Point","coordinates":[120.083463,15.009561]}},{"properties":{"school name":"San Juan-Candelaria ES","region":"Region III","class":"Public","district":"San Narciso","teachers 2013":7,"id":"ahldhr7dl5tv","division":"Zambales","enrolment 2013":256,"barangay":"CANDELARIA (POB.)","lat":15.012156,"offering":"Elementary","long":120.086523},"type":"Feature","geometry":{"type":"Point","coordinates":[120.086523,15.012156]}},{"properties":{"school name":"San Narciso Elementary School","region":"Region III","class":"Public","district":"San Narciso","teachers 2013":12,"id":"ahldhr9u4y2e","division":"Zambales","enrolment 2013":520,"barangay":"SAN RAFAEL (POB.)","lat":15.015935,"offering":"Elementary","long":120.080105},"type":"Feature","geometry":{"type":"Point","coordinates":[120.080105,15.015935]}},{"properties":{"school name":"San Pascual ES","region":"Region III","class":"Public","district":"San Narciso","teachers 2013":6,"id":"ahldhr9jdyu8","division":"Zambales","enrolment 2013":166,"barangay":"SAN PASCUAL (POB.)","lat":15.016276,"offering":"Elementary","long":120.084075},"type":"Feature","geometry":{"type":"Point","coordinates":[120.084075,15.016276]}},{"properties":{"school name":"San Rafael-Natividad ES","region":"Region III","class":"Public","district":"San Narciso","teachers 2013":4,"id":"ahldhqx7qleg","division":"Zambales","enrolment 2013":211,"barangay":"SAN RAFAEL (POB.)","lat":15.013217,"offering":"Elementary","long":120.07592},"type":"Feature","geometry":{"type":"Point","coordinates":[120.07592,15.013217]}},{"properties":{"school name":"Simminublan ES","region":"Region III","class":"Public","district":"San Narciso","teachers 2013":4,"id":"ahldhr9hw0cu","division":"Zambales","enrolment 2013":202,"barangay":"SIMINUBLAN","lat":null,"offering":"Elementary","long":null},"type":"Feature","geometry":null},{"properties":{"school name":"Almasin ES","region":"Region III","class":"Public","district":"Sta. Cruz North","teachers 2013":6,"id":"ahldhqxkloaj","division":"Zambales","enrolment 2013":178,"barangay":"LOMBOY","lat":null,"offering":"Elementary","long":null},"type":"Feature","geometry":null},{"properties":{"school name":"Babuyan ES","region":"Region III","class":"Public","district":"Sta. Cruz North","teachers 2013":6,"id":"ahldhr0j5kf3","division":"Zambales","enrolment 2013":130,"barangay":"BABUYAN","lat":null,"offering":"Elementary","long":null},"type":"Feature","geometry":null},{"properties":{"school name":"Bangcol ES","region":"Region III","class":"Public","district":"Sta. Cruz North","teachers 2013":5,"id":"ahldhqx8xqo3","division":"Zambales","enrolment 2013":117,"barangay":"BANGCOL","lat":null,"offering":"Elementary","long":null},"type":"Feature","geometry":null},{"properties":{"school name":"Bulawon ES","region":"Region III","class":"Public","district":"Sta. Cruz North","teachers 2013":3,"id":"ahldhqto9r1f","division":"Zambales","enrolment 2013":91,"barangay":"BULAWON","lat":null,"offering":"Elementary","long":null},"type":"Feature","geometry":null},{"properties":{"school name":"Canaynayan ES","region":"Region III","class":"Public","district":"Sta. Cruz North","teachers 2013":9,"id":"ahldhr6kx99g","division":"Zambales","enrolment 2013":274,"barangay":"CANAYNAYAN","lat":15.793317,"offering":"Elementary","long":119.947475},"type":"Feature","geometry":{"type":"Point","coordinates":[119.947475,15.793317]}},{"properties":{"school name":"Don Marcelo C. Marty ES","region":"Region III","class":"Public","district":"Sta. Cruz North","teachers 2013":19,"id":"ahldhr2lyyfv","division":"Zambales","enrolment 2013":854,"barangay":"POBLACION NORTH","lat":15.767503,"offering":"Elementary","long":119.910582},"type":"Feature","geometry":{"type":"Point","coordinates":[119.910582,15.767503]}},{"properties":{"school name":"Gama ES","region":"Region III","class":"Public","district":"Sta. Cruz North","teachers 2013":10,"id":"ahldhqu0gi8s","division":"Zambales","enrolment 2013":289,"barangay":"GAMA","lat":null,"offering":"Elementary","long":null},"type":"Feature","geometry":null},{"properties":{"school name":"Guinabon ES","region":"Region III","class":"Public","district":"Sta. Cruz North","teachers 2013":9,"id":"ahldhqx7zju1","division":"Zambales","enrolment 2013":317,"barangay":"GUINABON","lat":null,"offering":"Elementary","long":null},"type":"Feature","geometry":null},{"properties":{"school name":"Guisguis ES","region":"Region III","class":"Public","district":"Sta. Cruz North","teachers 2013":13,"id":"ahldhr441b1o","division":"Zambales","enrolment 2013":494,"barangay":"GUISGUIS","lat":null,"offering":"Elementary","long":null},"type":"Feature","geometry":null},{"properties":{"school name":"Malabago ES","region":"Region III","class":"Public","district":"Sta. Cruz North","teachers 2013":11,"id":"ahldhqvvj1bu","division":"Zambales","enrolment 2013":413,"barangay":"MALABAGO","lat":null,"offering":"Elementary","long":null},"type":"Feature","geometry":null},{"properties":{"school name":"Pagatpat ES","region":"Region III","class":"Public","district":"Sta. Cruz North","teachers 2013":10,"id":"ahldhr5c8ej5","division":"Zambales","enrolment 2013":401,"barangay":"PAGATPAT","lat":15.779824,"offering":"Elementary","long":119.90199},"type":"Feature","geometry":{"type":"Point","coordinates":[119.90199,15.779824]}},{"properties":{"school name":"Pamonoran ES","region":"Region III","class":"Public","district":"Sta. Cruz North","teachers 2013":6,"id":"ahldhqxhe27e","division":"Zambales","enrolment 2013":176,"barangay":"PAMONORAN","lat":15.790935,"offering":"Elementary","long":119.927545},"type":"Feature","geometry":{"type":"Point","coordinates":[119.927545,15.790935]}},{"properties":{"school name":"Sta. Cruz North CS","region":"Region III","class":"Public","district":"Sta. Cruz North","teachers 2013":28,"id":"ahldhr5dhdoy","division":"Zambales","enrolment 2013":1093,"barangay":"POBLACION SOUTH","lat":15.759826,"offering":"Elementary","long":119.91199},"type":"Feature","geometry":{"type":"Point","coordinates":[119.91199,15.759826]}},{"properties":{"school name":"Tabalong ES","region":"Region III","class":"Public","district":"Sta. Cruz North","teachers 2013":2,"id":"ahldhr5gkcaz","division":"Zambales","enrolment 2013":96,"barangay":"TABALONG","lat":15.767082,"offering":"Elementary","long":119.908593},"type":"Feature","geometry":{"type":"Point","coordinates":[119.908593,15.767082]}},{"properties":{"school name":"Acoje ES","region":"Region III","class":"Public","district":"Sta. Cruz South","teachers 2013":7,"id":"ahldhr7i5bfx","division":"Zambales","enrolment 2013":124,"barangay":"LUCAPON SOUTH","lat":null,"offering":"Elementary","long":null},"type":"Feature","geometry":null},{"properties":{"school name":"Bayto ES (Biay ES)","region":"Region III","class":"Public","district":"Sta. Cruz South","teachers 2013":12,"id":"ahldhr8q2kmv","division":"Zambales","enrolment 2013":560,"barangay":"BAYTO","lat":15.727502,"offering":"Elementary","long":119.909668},"type":"Feature","geometry":{"type":"Point","coordinates":[119.909668,15.727502]}},{"properties":{"school name":"Bolitoc Elementary School Main","region":"Region III","class":"Public","district":"Sta. Cruz South","teachers 2013":7,"id":"ahldhr26d7p6","division":"Zambales","enrolment 2013":336,"barangay":"BOLITOC","lat":null,"offering":"Elementary","long":null},"type":"Feature","geometry":null},{"properties":{"school name":"Bolitoc ES - Annex","region":"Region III","class":"Public","district":"Sta. Cruz South","teachers 2013":6,"id":"ahldhqut7lya","division":"Zambales","enrolment 2013":219,"barangay":"BOLITOC","lat":null,"offering":"Elementary","long":null},"type":"Feature","geometry":null},{"properties":{"school name":"Don Brigido Miraflor ES","region":"Region III","class":"Public","district":"Sta. Cruz South","teachers 2013":12,"id":"ahldhr5nyvqy","division":"Zambales","enrolment 2013":472,"barangay":"LUCAPON NORTH","lat":15.700701,"offering":"Elementary","long":119.927834},"type":"Feature","geometry":{"type":"Point","coordinates":[119.927834,15.700701]}},{"properties":{"school name":"Lucapon South ES","region":"Region III","class":"Public","district":"Sta. Cruz South","teachers 2013":12,"id":"ahldhquc8m8a","division":"Zambales","enrolment 2013":471,"barangay":"LUCAPON SOUTH","lat":null,"offering":"Elementary","long":null},"type":"Feature","geometry":null},{"properties":{"school name":"Lupa ES","region":"Region III","class":"Public","district":"Sta. Cruz South","teachers 2013":9,"id":"ahldhr09eql0","division":"Zambales","enrolment 2013":317,"barangay":"TUBOTUBO NORTH","lat":null,"offering":"Elementary","long":null},"type":"Feature","geometry":null},{"properties":{"school name":"Naulo ES","region":"Region III","class":"Public","district":"Sta. Cruz South","teachers 2013":5,"id":"ahldhr1ubb1f","division":"Zambales","enrolment 2013":267,"barangay":"NAULO","lat":null,"offering":"Elementary","long":null},"type":"Feature","geometry":null},{"properties":{"school name":"Pecson Mem. ES","region":"Region III","class":"Public","district":"Sta. Cruz South","teachers 2013":6,"id":"ahldhqytnngb","division":"Zambales","enrolment 2013":266,"barangay":"BIAY","lat":15.738994,"offering":"Elementary","long":119.910323},"type":"Feature","geometry":{"type":"Point","coordinates":[119.910323,15.738994]}},{"properties":{"school name":"Sabang ES","region":"Region III","class":"Public","district":"Sta. Cruz South","teachers 2013":5,"id":"ahldhqtulfn2","division":"Zambales","enrolment 2013":194,"barangay":"SABANG","lat":15.725195,"offering":"Elementary","long":119.884865},"type":"Feature","geometry":{"type":"Point","coordinates":[119.884865,15.725195]}},{"properties":{"school name":"San Fernando ES","region":"Region III","class":"Public","district":"Sta. Cruz South","teachers 2013":7,"id":"ahldhr0cutzw","division":"Zambales","enrolment 2013":288,"barangay":"SAN FERNANDO","lat":null,"offering":"Elementary","long":null},"type":"Feature","geometry":null},{"properties":{"school name":"Sta. Cruz South CS","region":"Region III","class":"Public","district":"Sta. Cruz South","teachers 2013":18,"id":"ahldhqyk4h74","division":"Zambales","enrolment 2013":727,"barangay":"LIPAY","lat":null,"offering":"Elementary","long":null},"type":"Feature","geometry":null},{"properties":{"school name":"Tubotubo ES","region":"Region III","class":"Public","district":"Sta. Cruz South","teachers 2013":9,"id":"ahldhqzfo493","division":"Zambales","enrolment 2013":315,"barangay":"TUBOTUBO SOUTH","lat":15.739802,"offering":"Elementary","long":119.928642},"type":"Feature","geometry":{"type":"Point","coordinates":[119.928642,15.739802]}},{"properties":{"school name":"Agusuhin Elementary School","region":"Region III","class":"Public","district":"Subic","teachers 2013":4,"id":"ahldhr281cqr","division":"Zambales","enrolment 2013":133,"barangay":"CAWAG","lat":14.8968,"offering":"Elementary","long":120.237},"type":"Feature","geometry":{"type":"Point","coordinates":[120.237,14.8968]}},{"properties":{"school name":"Aningway-Sacatihan ES","region":"Region III","class":"Public","district":"Subic","teachers 2013":12,"id":"ahldhqv9z4x3","division":"Zambales","enrolment 2013":570,"barangay":"ANINGWAY SACATIHAN","lat":14.917921,"offering":"Elementary","long":120.227176},"type":"Feature","geometry":{"type":"Point","coordinates":[120.227176,14.917921]}},{"properties":{"school name":"Batiawan-I Integrated School","region":"Region III","class":"Public","district":"Subic","teachers 2013":3,"id":"ahldhr802wji","division":"Zambales","enrolment 2013":202,"barangay":"BATIAWAN","lat":null,"offering":"Elementary","long":null},"type":"Feature","geometry":null},{"properties":{"school name":"Batiawan ES Annex","region":"Region III","class":"Public","district":"Subic","teachers 2013":5,"id":"ahldhqxvft0t","division":"Zambales","enrolment 2013":170,"barangay":"BATIAWAN","lat":null,"offering":"Elementary","long":null},"type":"Feature","geometry":null},{"properties":{"school name":"Cabitaugan IS","region":"Region III","class":"Public","district":"Subic","teachers 2013":5,"id":"ahldhr0n29s6","division":"Zambales","enrolment 2013":202,"barangay":"CAWAG","lat":null,"offering":"Elementary","long":null},"type":"Feature","geometry":null},{"properties":{"school name":"Calapacuan ES","region":"Region III","class":"Public","district":"Subic","teachers 2013":31,"id":"ahldhr268sr3","division":"Zambales","enrolment 2013":1698,"barangay":"CALAPACUAN","lat":14.862449,"offering":"Elementary","long":120.241415},"type":"Feature","geometry":{"type":"Point","coordinates":[120.241415,14.862449]}},{"properties":{"school name":"Calapandayan ES","region":"Region III","class":"Public","district":"Subic","teachers 2013":22,"id":"ahldhqzuqdk2","division":"Zambales","enrolment 2013":1435,"barangay":"CALAPANDAYAN (POB.)","lat":14.872301,"offering":"Elementary","long":120.236987},"type":"Feature","geometry":{"type":"Point","coordinates":[120.236987,14.872301]}},{"properties":{"school name":"Cawag ES","region":"Region III","class":"Public","district":"Subic","teachers 2013":2,"id":"ahldhqw120z1","division":"Zambales","enrolment 2013":155,"barangay":"CAWAG","lat":null,"offering":"Elementary","long":null},"type":"Feature","geometry":null},{"properties":{"school name":"Cawag Resettlement ES","region":"Region III","class":"Public","district":"Subic","teachers 2013":4,"id":"ahldhr0yoft2","division":"Zambales","enrolment 2013":222,"barangay":"CAWAG","lat":null,"offering":"Elementary","long":null},"type":"Feature","geometry":null},{"properties":{"school name":"Ilwas ES","region":"Region III","class":"Public","district":"Subic","teachers 2013":14,"id":"ahldhr0fhbuv","division":"Zambales","enrolment 2013":956,"barangay":"ILWAS (POB.)","lat":null,"offering":"Elementary","long":null},"type":"Feature","geometry":null},{"properties":{"school name":"Kinabuksan ES","region":"Region III","class":"Public","district":"Subic","teachers 2013":4,"id":"ahldhqwn44is","division":"Zambales","enrolment 2013":346,"barangay":"CAWAG","lat":null,"offering":"Elementary","long":null},"type":"Feature","geometry":null},{"properties":{"school name":"Manggahan ES","region":"Region III","class":"Public","district":"Subic","teachers 2013":11,"id":"ahldhr2ausie","division":"Zambales","enrolment 2013":779,"barangay":"MANGAN-VACA","lat":14.888585,"offering":"Elementary","long":120.242085},"type":"Feature","geometry":{"type":"Point","coordinates":[120.242085,14.888585]}},{"properties":{"school name":"Mapanao ES","region":"Region III","class":"Public","district":"Subic","teachers 2013":5,"id":"ahldhr4j2ur2","division":"Zambales","enrolment 2013":468,"barangay":"ASINAN PROPER","lat":14.893736,"offering":"Elementary","long":120.229253},"type":"Feature","geometry":{"type":"Point","coordinates":[120.229253,14.893736]}},{"properties":{"school name":"Matain ES","region":"Region III","class":"Public","district":"Subic","teachers 2013":41,"id":"ahldhr16zzq0","division":"Zambales","enrolment 2013":2093,"barangay":"MATAIN","lat":14.852029,"offering":"Elementary","long":120.246672},"type":"Feature","geometry":{"type":"Point","coordinates":[120.246672,14.852029]}},{"properties":{"school name":"Nagyantok ES","region":"Region III","class":"Public","district":"Subic","teachers 2013":10,"id":"ahldhr18lb79","division":"Zambales","enrolment 2013":722,"barangay":"CAWAG","lat":null,"offering":"Elementary","long":null},"type":"Feature","geometry":null},{"properties":{"school name":"Naugsol IS","region":"Region III","class":"Public","district":"Subic","teachers 2013":7,"id":"ahldhr0hwg8v","division":"Zambales","enrolment 2013":390,"barangay":"NAUGSOL","lat":14.878622,"offering":"Elementary","long":120.265172},"type":"Feature","geometry":{"type":"Point","coordinates":[120.265172,14.878622]}},{"properties":{"school name":"Pamatawan IS","region":"Region III","class":"Public","district":"Subic","teachers 2013":10,"id":"ahldhqynkul6","division":"Zambales","enrolment 2013":492,"barangay":"PAMATAWAN","lat":14.923897,"offering":"Elementary","long":120.219032},"type":"Feature","geometry":{"type":"Point","coordinates":[120.219032,14.923897]}},{"properties":{"school name":"San Isidro ES","region":"Region III","class":"Public","district":"Subic","teachers 2013":15,"id":"ahldhr3e464y","division":"Zambales","enrolment 2013":1044,"barangay":"SAN ISIDRO","lat":14.862876,"offering":"Elementary","long":120.258873},"type":"Feature","geometry":{"type":"Point","coordinates":[120.258873,14.862876]}},{"properties":{"school name":"Sto. Tomas ES","region":"Region III","class":"Public","district":"Subic","teachers 2013":11,"id":"ahldhr972s3h","division":"Zambales","enrolment 2013":746,"barangay":"SANTO TOMAS","lat":null,"offering":"Elementary","long":null},"type":"Feature","geometry":null},{"properties":{"school name":"Subic CS","region":"Region III","class":"Public","district":"Subic","teachers 2013":49,"id":"ahldhr808d43","division":"Zambales","enrolment 2013":2572,"barangay":"BARACA-CAMACHILE (POB.)","lat":14.877329,"offering":"Elementary","long":120.234918},"type":"Feature","geometry":{"type":"Point","coordinates":[120.234918,14.877329]}},{"properties":{"school name":"Tibag ES","region":"Region III","class":"Public","district":"Subic","teachers 2013":1,"id":"ahldhqyxws0c","division":"Zambales","enrolment 2013":37,"barangay":"NAUGSOL","lat":null,"offering":"Elementary","long":null},"type":"Feature","geometry":null},{"properties":{"school name":"Judd Hendricks Mem. Aeta School","region":"Region III","class":"Public","district":"San Marcelino","teachers 2013":5,"id":"ahldhr6sgx6b","division":"Zambales","enrolment 2013":169,"barangay":"BUHAWEN","lat":14.986027,"offering":"Elementary","long":120.300339},"type":"Feature","geometry":{"type":"Point","coordinates":[120.300339,14.986027]}},{"properties":{"school name":"ADBSA Aeta School (Jesmag Iba)","region":"Region III","class":"Public","district":"Iba","teachers 2013":5,"id":"ahldhqzue4gg","division":"Zambales","enrolment 2013":110,"barangay":"PALANGINAN (PALANGUINAN-TAMBAK)","lat":null,"offering":"Elementary","long":null},"type":"Feature","geometry":null},{"properties":{"school name":"Chiang Chio Te Mem. Aeta School (Ibad PS)","region":"Region III","class":"Public","district":"San Marcelino","teachers 2013":3,"id":"ahldhqzgvpuu","division":"Zambales","enrolment 2013":145,"barangay":"AGLAO","lat":null,"offering":"Elementary","long":null},"type":"Feature","geometry":null},{"properties":{"school name":"Cabatuan ES","region":"Region III","class":"Public","district":"Botolan North","teachers 2013":2,"id":"ahldhqxkchw1","division":"Zambales","enrolment 2013":126,"barangay":"CABATUAN","lat":null,"offering":"Elementary","long":null},"type":"Feature","geometry":null},{"properties":{"school name":"Anthony Arana Guatlo ES","region":"Region III","class":"Public","district":"Palauig","teachers 2013":5,"id":"ahldhqz153hq","division":"Zambales","enrolment 2013":273,"barangay":"SANTO NINO","lat":15.434162,"offering":"Elementary","long":119.922702},"type":"Feature","geometry":{"type":"Point","coordinates":[119.922702,15.434162]}},{"properties":{"school name":"Aningway-Sacatihan Elem - Annex","region":"Region III","class":"Public","district":"Subic","teachers 2013":1,"id":"ahldhr4qdwbv","division":"Zambales","enrolment 2013":130,"barangay":"ANINGWAY SACATIHAN","lat":null,"offering":"Elementary","long":null},"type":"Feature","geometry":null},{"properties":{"school name":"Buenavista ES","region":"Region III","class":"Public","district":"Castillejos","teachers 2013":4,"id":"ahldhr992021","division":"Zambales","enrolment 2013":96,"barangay":"BUENAVISTA","lat":14.947198,"offering":"Elementary","long":120.162788},"type":"Feature","geometry":{"type":"Point","coordinates":[120.162788,14.947198]}},{"properties":{"school name":"Mabato ES","region":"Region III","class":"Public","district":"San Narciso","teachers 2013":2,"id":"ahldhqugjc3c","division":"Zambales","enrolment 2013":77,"barangay":"PAITE","lat":null,"offering":"Elementary","long":null},"type":"Feature","geometry":null},{"properties":{"school name":"San Juan ES Annex","region":"Region III","class":"Public","district":"Cabangan","teachers 2013":2,"id":"ahldhr6t64tz","division":"Zambales","enrolment 2013":166,"barangay":"NEW SAN JUAN","lat":null,"offering":"Elementary","long":null},"type":"Feature","geometry":null},{"properties":{"school name":"Nacolcol ES","region":"Region III","class":"Public","district":"Botolan North","teachers 2013":1,"id":"ahldhqx2i399","division":"Zambales","enrolment 2013":82,"barangay":"NACOLCOL","lat":null,"offering":"Elementary","long":null},"type":"Feature","geometry":null},{"properties":{"school name":"Manggahan ES Annex","region":"Region III","class":"Public","district":"Subic","teachers 2013":5,"id":"ahldhqz7vsh6","division":"Zambales","enrolment 2013":354,"barangay":"MANGAN-VACA","lat":null,"offering":"Elementary","long":null},"type":"Feature","geometry":null},{"properties":{"school name":"Mapalad ES","region":"Region III","class":"Public","district":"Sta. Cruz South","teachers 2013":3,"id":"ahldhr4dqcp1","division":"Zambales","enrolment 2013":61,"barangay":"LUCAPON SOUTH","lat":null,"offering":"Elementary","long":null},"type":"Feature","geometry":null},{"properties":{"school name":"Josephine F. Khonghun Special Education Center","region":"Region III","class":"Public","district":"Subic","teachers 2013":5,"id":"ahldhquwyvdu","division":"Zambales","enrolment 2013":249,"barangay":"WAWANDUE (POB.)","lat":null,"offering":"Elementary","long":null},"type":"Feature","geometry":null},{"properties":{"school name":"Baquilan Resettlement School II","region":"Region III","class":"Public","district":"Botolan South","teachers 2013":6,"id":"ahldhqu5fr8w","division":"Zambales","enrolment 2013":295,"barangay":"MALOMBOY","lat":15.280382,"offering":"Elementary","long":120.086159},"type":"Feature","geometry":{"type":"Point","coordinates":[120.086159,15.280382]}},{"properties":{"school name":"Villar ES","region":"Region III","class":"Public","district":"Botolan South","teachers 2013":2,"id":"ahldhr7fi20o","division":"Zambales","enrolment 2013":129,"barangay":"VILLAR","lat":null,"offering":"Elementary","long":null},"type":"Feature","geometry":null},{"properties":{"school name":"Agusuhin ES - Annex","region":"Region III","class":"Public","district":"Subic","teachers 2013":3,"id":"ahldhqxsiy2n","division":"Zambales","enrolment 2013":299,"barangay":"CAWAG","lat":null,"offering":"Elementary","long":null},"type":"Feature","geometry":null},{"properties":{"school name":"New Taugtog ES II","region":"Region III","class":"Public","district":"Botolan North","teachers 2013":5,"id":"ahldhra2p3ng","division":"Zambales","enrolment 2013":278,"barangay":"TAUGTOG","lat":null,"offering":"Elementary","long":null},"type":"Feature","geometry":null},{"properties":{"school name":"DONA LUISA OBIETA ELEMENTARY SCHOOL","region":"Region III","class":"Public","district":"Iba","teachers 2013":3,"id":"ahldhqws9lvn","division":"Zambales","enrolment 2013":76,"barangay":"AMUNGAN","lat":null,"offering":"Elementary","long":null},"type":"Feature","geometry":null},{"properties":{"school name":"Banawen PS","region":"Region III","class":"Public","district":"San Felipe","teachers 2013":1,"id":"ahldhqu1tb8o","division":"Zambales","enrolment 2013":51,"barangay":"MALOMA","lat":null,"offering":"Elementary","long":null},"type":"Feature","geometry":null},{"properties":{"school name":"Maguisguis ES","region":"Region III","class":"Public","district":"Botolan North","teachers 2013":4,"id":"ahldhr1rnpev","division":"Zambales","enrolment 2013":168,"barangay":"MAGUISGUIS","lat":null,"offering":"Elementary","long":null},"type":"Feature","geometry":null},{"properties":{"school name":"San Roque ES Annex","region":"Region III","class":"Public","district":"Candelaria","teachers 2013":3,"id":"ahldhr55zbjp","division":"Zambales","enrolment 2013":95,"barangay":"MALABON (SAN ROQUE)","lat":null,"offering":"Elementary","long":null},"type":"Feature","geometry":null},{"properties":{"school name":"Burgos ES","region":"Region III","class":"Public","district":"Botolan South","teachers 2013":0,"id":"ahldhr8ptw1p","division":"Zambales","enrolment 2013":122,"barangay":"BURGOS","lat":null,"offering":"Elementary","long":null},"type":"Feature","geometry":null},{"properties":{"school name":"Dojoc Balite ES","region":"Region III","class":"Public","district":"Botolan South","teachers 2013":0,"id":"ahldhr3vwbf5","division":"Zambales","enrolment 2013":70,"barangay":"SAN JUAN","lat":null,"offering":"Elementary","long":null},"type":"Feature","geometry":null},{"properties":{"school name":"Acoje NHS","region":"Region III","class":"Public","district":"Sta. Cruz South","teachers 2013":5,"id":"ahldhr4gfdgl","division":"Zambales","enrolment 2013":54,"barangay":"LUCAPON SOUTH","lat":15.703715,"offering":"Secondary","long":120.067848},"type":"Feature","geometry":{"type":"Point","coordinates":[120.067848,15.703715]}},{"properties":{"school name":"Amungan NHS","region":"Region III","class":"Public","district":"Iba","teachers 2013":16,"id":"ahldhr2x3w5n","division":"Zambales","enrolment 2013":732,"barangay":"AMUNGAN","lat":15.362293,"offering":"Secondary","long":119.958122},"type":"Feature","geometry":{"type":"Point","coordinates":[119.958122,15.362293]}},{"properties":{"school name":"Bani NHS","region":"Region III","class":"Public","district":"Masinloc","teachers 2013":10,"id":"ahldhqw4lwri","division":"Zambales","enrolment 2013":405,"barangay":"BANI","lat":15.582736,"offering":"Secondary","long":119.929855},"type":"Feature","geometry":{"type":"Point","coordinates":[119.929855,15.582736]}},{"properties":{"school name":"Bani NHS - Annex","region":"Region III","class":"Public","district":"Masinloc","teachers 2013":26,"id":"ahldhr4lnmwc","division":"Zambales","enrolment 2013":1060,"barangay":"TALTAL","lat":15.5898,"offering":"Secondary","long":119.946045},"type":"Feature","geometry":{"type":"Point","coordinates":[119.946045,15.5898]}},{"properties":{"school name":"BANI NHS - COTO ANNEX","region":"Region III","class":"Public","district":"Masinloc","teachers 2013":5,"id":"ahldhqxbjeu8","division":"Zambales","enrolment 2013":111,"barangay":"TALTAL","lat":15.5702,"offering":"Secondary","long":120.08709},"type":"Feature","geometry":{"type":"Point","coordinates":[120.08709,15.5702]}},{"properties":{"school name":"Baquilan Resettlement High School","region":"Region III","class":"Public","district":"Botolan South","teachers 2013":7,"id":"ahldhr7c1l4g","division":"Zambales","enrolment 2013":274,"barangay":"MALOMBOY","lat":15.281111,"offering":"Secondary","long":120.087769},"type":"Feature","geometry":{"type":"Point","coordinates":[120.087769,15.281111]}},{"properties":{"school name":"Beneg NHS","region":"Region III","class":"Public","district":"Botolan North","teachers 2013":7,"id":"ahldhquu6zzp","division":"Zambales","enrolment 2013":240,"barangay":"BENEG","lat":15.284511,"offering":"Secondary","long":120.004974},"type":"Feature","geometry":{"type":"Point","coordinates":[120.004974,15.284511]}},{"properties":{"school name":"Cabangan National High School","region":"Region III","class":"Public","district":"Cabangan","teachers 2013":20,"id":"ahldhr9jxj8t","division":"Zambales","enrolment 2013":1057,"barangay":"SANTA RITA","lat":15.177642,"offering":"Secondary","long":120.050067},"type":"Feature","geometry":{"type":"Point","coordinates":[120.050067,15.177642]}},{"properties":{"school name":"Candelaria School of Fisheries","region":"Region III","class":"Public","district":"Candelaria","teachers 2013":25,"id":"ahldhr6splfb","division":"Zambales","enrolment 2013":417,"barangay":"SINABACAN","lat":15.651669,"offering":"Secondary","long":119.926491},"type":"Feature","geometry":{"type":"Point","coordinates":[119.926491,15.651669]}},{"properties":{"school name":"Cawag HS (Resettlement School)","region":"Region III","class":"Public","district":"Subic","teachers 2013":6,"id":"ahldhqujorlx","division":"Zambales","enrolment 2013":121,"barangay":"CAWAG","lat":14.877217,"offering":"Secondary","long":120.169785},"type":"Feature","geometry":{"type":"Point","coordinates":[120.169785,14.877217]}},{"properties":{"school name":"Agusuhin HS","region":"Region III","class":"Public","district":"Subic","teachers 2013":6,"id":"ahldhquya196","division":"Zambales","enrolment 2013":171,"barangay":"CAWAG","lat":14.865243,"offering":"Secondary","long":120.184998},"type":"Feature","geometry":{"type":"Point","coordinates":[120.184998,14.865243]}},{"properties":{"school name":"Guisguis NHS","region":"Region III","class":"Public","district":"Sta. Cruz North","teachers 2013":11,"id":"ahldhr8xynvm","division":"Zambales","enrolment 2013":633,"barangay":"GUISGUIS","lat":15.801669,"offering":"Secondary","long":119.967873},"type":"Feature","geometry":{"type":"Point","coordinates":[119.967873,15.801669]}},{"properties":{"school name":"Castillejos National High School","region":"Region III","class":"Public","district":"Castillejos","teachers 2013":40,"id":"ahldhr5xo6w2","division":"Zambales","enrolment 2013":2090,"barangay":"SAN ROQUE","lat":14.928268,"offering":"Secondary","long":120.207166},"type":"Feature","geometry":{"type":"Point","coordinates":[120.207166,14.928268]}},{"properties":{"school name":"Castillejos Resettlement HS","region":"Region III","class":"Public","district":"Castillejos","teachers 2013":8,"id":"ahldhqwx1h49","division":"Zambales","enrolment 2013":312,"barangay":"BALAYBAY","lat":14.89651,"offering":"Secondary","long":120.208618},"type":"Feature","geometry":{"type":"Point","coordinates":[120.208618,14.89651]}},{"properties":{"school name":"La Paz NHS","region":"Region III","class":"Public","district":"San Narciso","teachers 2013":16,"id":"ahldhqtupxt5","division":"Zambales","enrolment 2013":658,"barangay":"LA PAZ","lat":15.015904,"offering":"Secondary","long":120.071274},"type":"Feature","geometry":{"type":"Point","coordinates":[120.071274,15.015904]}},{"properties":{"school name":"Paite-Balincaguing National High School","region":"Region III","class":"Public","district":"San Felipe","teachers 2013":5,"id":"ahldhqzgceto","division":"Zambales","enrolment 2013":119,"barangay":"BALINCAGUING","lat":15.039664,"offering":"Secondary","long":120.128197},"type":"Feature","geometry":{"type":"Point","coordinates":[120.128197,15.039664]}},{"properties":{"school name":"Lauis National High School","region":"Region III","class":"Public","district":"Candelaria","teachers 2013":20,"id":"ahldhqylfumw","division":"Zambales","enrolment 2013":653,"barangay":"LAUIS","lat":15.598395,"offering":"Secondary","long":119.942703},"type":"Feature","geometry":{"type":"Point","coordinates":[119.942703,15.598395]}},{"properties":{"school name":"Loob Bunga HS (Resettlement School)","region":"Region III","class":"Public","district":"Botolan North","teachers 2013":10,"id":"ahldhr9q338j","division":"Zambales","enrolment 2013":480,"barangay":"MAGUISGUIS","lat":15.315761,"offering":"Secondary","long":120.061737},"type":"Feature","geometry":{"type":"Point","coordinates":[120.061737,15.315761]}},{"properties":{"school name":"Gov Manuel Barretto National High School","region":"Region III","class":"Public","district":"San Felipe","teachers 2013":16,"id":"ahldhr97lkx6","division":"Zambales","enrolment 2013":546,"barangay":"MALOMA","lat":15.109286,"offering":"Secondary","long":120.064627},"type":"Feature","geometry":{"type":"Point","coordinates":[120.064627,15.109286]}},{"properties":{"school name":"Mena Mem. NHS (Bolitoc NHS)","region":"Region III","class":"Public","district":"Sta. Cruz North","teachers 2013":8,"id":"ahldhqwyjh5o","division":"Zambales","enrolment 2013":316,"barangay":"BOLITOC","lat":15.742362,"offering":"Secondary","long":119.883156},"type":"Feature","geometry":{"type":"Point","coordinates":[119.883156,15.742362]}},{"properties":{"school name":"Namatacan NHS","region":"Region III","class":"Public","district":"San Narciso","teachers 2013":6,"id":"ahldhr5zy9c1","division":"Zambales","enrolment 2013":128,"barangay":"NAMATACAN","lat":15.006674,"offering":"Secondary","long":120.136353},"type":"Feature","geometry":{"type":"Point","coordinates":[120.136353,15.006674]}},{"properties":{"school name":"Panan National High School","region":"Region III","class":"Public","district":"Botolan North","teachers 2013":8,"id":"ahldhr1wfrfw","division":"Zambales","enrolment 2013":268,"barangay":"PANAN","lat":15.213723,"offering":"Secondary","long":120.027199},"type":"Feature","geometry":{"type":"Point","coordinates":[120.027199,15.213723]}},{"properties":{"school name":"Botolan National High School","region":"Region III","class":"Public","district":"Botolan North","teachers 2013":34,"id":"ahldhqtyg362","division":"Zambales","enrolment 2013":1461,"barangay":"BATONLAPOC","lat":15.287838,"offering":"Secondary","long":120.026764},"type":"Feature","geometry":{"type":"Point","coordinates":[120.026764,15.287838]}},{"properties":{"school name":"New Taugtog National High School","region":"Region III","class":"Public","district":"Botolan North","teachers 2013":12,"id":"ahldhr8tmi92","division":"Zambales","enrolment 2013":625,"barangay":"TAUGTOG","lat":15.307211,"offering":"Secondary","long":120.045569},"type":"Feature","geometry":{"type":"Point","coordinates":[120.045569,15.307211]}},{"properties":{"school name":"Rofulo M. Landa HS (Salaza NHS)","region":"Region III","class":"Public","district":"Palauig","teachers 2013":20,"id":"ahldhr4nnig2","division":"Zambales","enrolment 2013":1091,"barangay":"SALAZA","lat":15.484931,"offering":"Secondary","long":119.960548},"type":"Feature","geometry":{"type":"Point","coordinates":[119.960548,15.484931]}},{"properties":{"school name":"Locloc National High School","region":"Region III","class":"Public","district":"Palauig","teachers 2013":15,"id":"ahldhqx5go2b","division":"Zambales","enrolment 2013":629,"barangay":"LOCLOC","lat":15.402604,"offering":"Secondary","long":119.920808},"type":"Feature","geometry":{"type":"Point","coordinates":[119.920808,15.402604]}},{"properties":{"school name":"San Guillermo NHS","region":"Region III","class":"Public","district":"San Marcelino","teachers 2013":29,"id":"ahldhr2u1973","division":"Zambales","enrolment 2013":1340,"barangay":"BURGOS (POB.)","lat":14.978845,"offering":"Secondary","long":120.153839},"type":"Feature","geometry":{"type":"Point","coordinates":[120.153839,14.978845]}},{"properties":{"school name":"San Marcelino National HS","region":"Region III","class":"Public","district":"San Marcelino","teachers 2013":6,"id":"ahldhqydf0td","division":"Zambales","enrolment 2013":118,"barangay":"AGLAO","lat":14.976103,"offering":"Secondary","long":120.279686},"type":"Feature","geometry":{"type":"Point","coordinates":[120.279686,14.976103]}},{"properties":{"school name":"Buhawen National High School","region":"Region III","class":"Public","district":"San Marcelino","teachers 2013":3,"id":"ahldhqvv6yvd","division":"Zambales","enrolment 2013":113,"barangay":"BUHAWEN","lat":14.965863,"offering":"Secondary","long":120.301437},"type":"Feature","geometry":{"type":"Point","coordinates":[120.301437,14.965863]}},{"properties":{"school name":"San Miguel NHS","region":"Region III","class":"Public","district":"San Antonio","teachers 2013":14,"id":"ahldhr9chdyn","division":"Zambales","enrolment 2013":490,"barangay":"SAN NICOLAS (POB.)","lat":14.948541,"offering":"Secondary","long":120.081305},"type":"Feature","geometry":{"type":"Point","coordinates":[120.081305,14.948541]}},{"properties":{"school name":"Sta. Cruz NHS","region":"Region III","class":"Public","district":"Sta. Cruz North","teachers 2013":19,"id":"ahldhr3ex2q5","division":"Zambales","enrolment 2013":582,"barangay":"MALABAGO","lat":15.786183,"offering":"Secondary","long":119.901222},"type":"Feature","geometry":{"type":"Point","coordinates":[119.901222,15.786183]}},{"properties":{"school name":"Sta. Cruz NHS - Lipay HS","region":"Region III","class":"Public","district":"Sta. Cruz South","teachers 2013":9,"id":"ahldhqxui0fy","division":"Zambales","enrolment 2013":885,"barangay":"POBLACION SOUTH","lat":15.761403,"offering":"Secondary","long":119.907898},"type":"Feature","geometry":{"type":"Point","coordinates":[119.907898,15.761403]}},{"properties":{"school name":"Sta. Fe NHS","region":"Region III","class":"Public","district":"San Marcelino","teachers 2013":6,"id":"ahldhr0v7hol","division":"Zambales","enrolment 2013":115,"barangay":"SANTA FE","lat":15.011293,"offering":"Secondary","long":120.212173},"type":"Feature","geometry":{"type":"Point","coordinates":[120.212173,15.011293]}},{"properties":{"school name":"Subic National High School","region":"Region III","class":"Public","district":"Subic","teachers 2013":72,"id":"ahldhr29nwbk","division":"Zambales","enrolment 2013":3763,"barangay":"MANGAN-VACA","lat":14.874957,"offering":"Secondary","long":120.233608},"type":"Feature","geometry":{"type":"Point","coordinates":[120.233608,14.874957]}},{"properties":{"school name":"Zambales NHS","region":"Region III","class":"Public","district":"Iba","teachers 2013":81,"id":"ahldhqxzol8a","division":"Zambales","enrolment 2013":3229,"barangay":"ZONE 6 POB. (BAYTAN)","lat":15.321978,"offering":"Secondary","long":119.984138},"type":"Feature","geometry":{"type":"Point","coordinates":[119.984138,15.321978]}},{"properties":{"school name":"Zambales NHS - Jesus F. Magsaysay HS Annex","region":"Region III","class":"Public","district":"Iba","teachers 2013":15,"id":"ahldhr1rccrl","division":"Zambales","enrolment 2013":507,"barangay":"BANGANTALINGA","lat":15.350597,"offering":"Secondary","long":119.966347},"type":"Feature","geometry":{"type":"Point","coordinates":[119.966347,15.350597]}},{"properties":{"school name":"Sta. Cruz NHS - Jesus F. Magsaysay HS Annex","region":"Region III","class":"Public","district":"Sta. Cruz North","teachers 2013":14,"id":"ahldhr4ilaj7","division":"Zambales","enrolment 2013":643,"barangay":"LUCAPON NORTH","lat":15.700598,"offering":"Secondary","long":119.928429},"type":"Feature","geometry":{"type":"Point","coordinates":[119.928429,15.700598]}},{"properties":{"school name":"San Salvador HS","region":"Region III","class":"Public","district":"Masinloc","teachers 2013":5,"id":"ahldhr469ugk","division":"Zambales","enrolment 2013":255,"barangay":"SAN SALVADOR","lat":15.523493,"offering":"Secondary","long":119.92868},"type":"Feature","geometry":{"type":"Point","coordinates":[119.92868,15.523493]}},{"properties":{"school name":"San Rafael Technical Vocational High School","region":"Region III","class":"Public","district":"San Felipe","teachers 2013":15,"id":"ahldhr0jmhcs","division":"Zambales","enrolment 2013":474,"barangay":"SAN RAFAEL","lat":15.057498,"offering":"Secondary","long":120.066818},"type":"Feature","geometry":{"type":"Point","coordinates":[120.066818,15.057498]}},{"properties":{"school name":"JESUS F. MAGSAYSAY TECHNICAL-VOCATIONAL HIGH SCHOOL","region":"Region III","class":"Public","district":"Castillejos","teachers 2013":11,"id":"ahldhqu1e8cb","division":"Zambales","enrolment 2013":344,"barangay":"SAN JOSE (POB.)","lat":14.93758,"offering":"Secondary","long":120.198524},"type":"Feature","geometry":{"type":"Point","coordinates":[120.198524,14.93758]}},{"properties":{"school name":"San Antonio National High School","region":"Region III","class":"Public","district":"San Antonio","teachers 2013":24,"id":"ahldhqxwdnow","division":"Zambales","enrolment 2013":925,"barangay":"SAN GREGORIO (POB.)","lat":14.951761,"offering":"Secondary","long":120.08847},"type":"Feature","geometry":{"type":"Point","coordinates":[120.08847,14.951761]}},{"properties":{"school name":"Sto Tomas HS","region":"Region III","class":"Public","district":"Subic","teachers 2013":7,"id":"ahldhqxsr2bw","division":"Zambales","enrolment 2013":353,"barangay":"SANTO TOMAS","lat":14.856478,"offering":"Secondary","long":120.256226},"type":"Feature","geometry":{"type":"Point","coordinates":[120.256226,14.856478]}},{"properties":{"school name":"Batiawan-I Integrated School","region":"Region III","class":"Public","district":"Subic","teachers 2013":1,"id":"ahldhqwehhmp","division":"Zambales","enrolment 2013":35,"barangay":"BATIAWAN","lat":14.978155,"offering":"Secondary","long":120.430748},"type":"Feature","geometry":{"type":"Point","coordinates":[120.430748,14.978155]}},{"properties":{"school name":"Batiawan Integrated School Annex","region":"Region III","class":"Public","district":"Subic","teachers 2013":0,"id":"ahldhr3wa9do","division":"Zambales","enrolment 2013":50,"barangay":"BATIAWAN","lat":14.977394,"offering":"Secondary","long":120.431938},"type":"Feature","geometry":{"type":"Point","coordinates":[120.431938,14.977394]}},{"properties":{"school name":"Josephine F. Khonghun Special Education Center","region":"Region III","class":"Public","district":"Subic","teachers 2013":6,"id":"ahldhr9dd4sx","division":"Zambales","enrolment 2013":133,"barangay":"WAWANDUE (POB.)","lat":14.877691,"offering":"Secondary","long":120.231384},"type":"Feature","geometry":{"type":"Point","coordinates":[120.231384,14.877691]}},{"properties":{"school name":"Nagyantok HS","region":"Region III","class":"Public","district":"Subic","teachers 2013":4,"id":"ahldhqvnsgoa","division":"Zambales","enrolment 2013":254,"barangay":"CAWAG","lat":14.866736,"offering":"Secondary","long":120.185966},"type":"Feature","geometry":{"type":"Point","coordinates":[120.185966,14.866736]}},{"properties":{"school name":"Sagpat HS","region":"Region III","class":"Public","district":"San Felipe","teachers 2013":5,"id":"ahldhr4ddap1","division":"Zambales","enrolment 2013":69,"barangay":"MALOMA","lat":15.101341,"offering":"Secondary","long":120.098656},"type":"Feature","geometry":{"type":"Point","coordinates":[120.098656,15.101341]}},{"properties":{"school name":"Sta. Cruz South High School","region":"Region III","class":"Public","district":"Sta. Cruz South","teachers 2013":13,"id":"ahldhr3dcwmn","division":"Zambales","enrolment 2013":447,"barangay":"LIPAY","lat":15.748847,"offering":"Secondary","long":119.908775},"type":"Feature","geometry":{"type":"Point","coordinates":[119.908775,15.748847]}},{"properties":{"school name":"Mena Mem. NHS - San Fernando HS","region":"Region III","class":"Public","district":"Sta. Cruz North","teachers 2013":3,"id":"ahldhqwexake","division":"Zambales","enrolment 2013":190,"barangay":"SAN FERNANDO","lat":15.757459,"offering":"Secondary","long":119.916458},"type":"Feature","geometry":{"type":"Point","coordinates":[119.916458,15.757459]}},{"properties":{"school name":"Sta. Cruz NHS - Don Marcelo C. Marty HS","region":"Region III","class":"Public","district":"Sta. Cruz South","teachers 2013":10,"id":"ahldhquo4de4","division":"Zambales","enrolment 2013":439,"barangay":"POBLACION NORTH","lat":null,"offering":"Secondary","long":null},"type":"Feature","geometry":null},{"properties":{"school name":"Pundakit HS","region":"Region III","class":"Public","district":"San Antonio","teachers 2013":2,"id":"ahldhqvoyf4n","division":"Zambales","enrolment 2013":162,"barangay":"PUNDAQUIT","lat":14.920208,"offering":"Secondary","long":120.063225},"type":"Feature","geometry":{"type":"Point","coordinates":[120.063225,14.920208]}},{"properties":{"school name":"San Agustin HS","region":"Region III","class":"Public","district":"Castillejos","teachers 2013":7,"id":"ahldhqzz4t2k","division":"Zambales","enrolment 2013":374,"barangay":"SAN AGUSTIN","lat":14.932376,"offering":"Secondary","long":120.18486},"type":"Feature","geometry":{"type":"Point","coordinates":[120.18486,14.932376]}},{"properties":{"school name":"Cawag Resettlement Annex III - Kinabuksan HS","region":"Region III","class":"Public","district":"Subic","teachers 2013":1,"id":"ahldhr2g3ri6","division":"Zambales","enrolment 2013":106,"barangay":"CAWAG","lat":14.795902,"offering":"Secondary","long":120.200691},"type":"Feature","geometry":{"type":"Point","coordinates":[120.200691,14.795902]}},{"properties":{"school name":"Pamibian IS","region":"Region III","class":"Public","district":"Candelaria","teachers 2013":16,"id":"ahldhr5y9tex","division":"Zambales","enrolment 2013":662,"barangay":"PAMIBIAN","lat":15.597679,"offering":"Secondary","long":119.945572},"type":"Feature","geometry":{"type":"Point","coordinates":[119.945572,15.597679]}},{"properties":{"school name":"Don Getulio F. Arendaeng HS","region":"Region III","class":"Public","district":"San Felipe","teachers 2013":7,"id":"ahldhqulae7g","division":"Zambales","enrolment 2013":244,"barangay":"FARAÑAL (POB.)","lat":15.067513,"offering":"Secondary","long":120.069534},"type":"Feature","geometry":{"type":"Point","coordinates":[120.069534,15.067513]}},{"properties":{"school name":"San Rafael HS","region":"Region III","class":"Public","district":"San Marcelino","teachers 2013":4,"id":"ahldhqtumrsh","division":"Zambales","enrolment 2013":138,"barangay":"SAN RAFAEL","lat":14.973237,"offering":"Secondary","long":120.211365},"type":"Feature","geometry":{"type":"Point","coordinates":[120.211365,14.973237]}},{"properties":{"school name":"Angel C. Manglicmot High School","region":"Region III","class":"Public","district":"San Antonio","teachers 2013":3,"id":"ahldhr11wo5e","division":"Zambales","enrolment 2013":238,"barangay":"ANGELES","lat":null,"offering":"Secondary","long":null},"type":"Feature","geometry":null},{"properties":{"school name":"Subic NHS Annex IV - San Isidro HS","region":"Region III","class":"Public","district":"Subic","teachers 2013":6,"id":"ahldhr5srlk7","division":"Zambales","enrolment 2013":376,"barangay":"SAN ISIDRO","lat":14.86383,"offering":"Secondary","long":120.257141},"type":"Feature","geometry":{"type":"Point","coordinates":[120.257141,14.86383]}},{"properties":{"school name":"Subic NHS Annex V-Ilwas HS","region":"Region III","class":"Public","district":"Subic","teachers 2013":3,"id":"ahldhr22z9kw","division":"Zambales","enrolment 2013":390,"barangay":"ILWAS (POB.)","lat":14.881738,"offering":"Secondary","long":120.234596},"type":"Feature","geometry":{"type":"Point","coordinates":[120.234596,14.881738]}},{"properties":{"school name":"Subic NHS Annex VI-Aningway-Sacatihan HS","region":"Region III","class":"Public","district":"Subic","teachers 2013":1,"id":"ahldhr5ohnji","division":"Zambales","enrolment 2013":37,"barangay":"ANINGWAY SACATIHAN","lat":14.928663,"offering":"Secondary","long":120.244957},"type":"Feature","geometry":{"type":"Point","coordinates":[120.244957,14.928663]}},{"properties":{"school name":"Naugsol Integrated School","region":"Region III","class":"Public","district":"Subic","teachers 2013":0,"id":"ahldhqwv57u7","division":"Zambales","enrolment 2013":119,"barangay":"NAUGSOL","lat":null,"offering":"Secondary","long":null},"type":"Feature","geometry":null},{"properties":{"school name":"Pamatawan IS","region":"Region III","class":"Public","district":"Subic","teachers 2013":0,"id":"ahldhr239mqn","division":"Zambales","enrolment 2013":24,"barangay":"PAMATAWAN","lat":null,"offering":"Secondary","long":null},"type":"Feature","geometry":null},{"properties":{"school name":"Cabitaugan IS","region":"Region III","class":"Public","district":"Subic","teachers 2013":0,"id":"ahldhr4skq18","division":"Zambales","enrolment 2013":49,"barangay":"CAWAG","lat":null,"offering":"Secondary","long":null},"type":"Feature","geometry":null},{"properties":{"school name":"Uacon IS","region":"Region III","class":"Public","district":"Candelaria","teachers 2013":0,"id":"ahldhr7mhfka","division":"Zambales","enrolment 2013":167,"barangay":"UACON","lat":null,"offering":"Secondary","long":null},"type":"Feature","geometry":null},{"properties":{"school name":"Sta. Monica Parochial Institute","region":"Region III","class":"Private","district":null,"teachers 2013":null,"id":"ahldhr8peeel","division":"Zambales","enrolment 2013":121,"barangay":null,"lat":null,"offering":"Elementary","long":null},"type":"Feature","geometry":null},{"properties":{"school name":"Sta. Monica Parochial Institute","region":"Region III","class":"Private","district":null,"teachers 2013":null,"id":"ahldhr05onyk","division":"Zambales","enrolment 2013":226,"barangay":null,"lat":null,"offering":"Secondary","long":null},"type":"Feature","geometry":null},{"properties":{"school name":"Immaculate Conception Academy","region":"Region III","class":"Private","district":null,"teachers 2013":null,"id":"ahldhr6myfwx","division":"Zambales","enrolment 2013":426,"barangay":null,"lat":null,"offering":"Secondary","long":null},"type":"Feature","geometry":null},{"properties":{"school name":"St. Vincent's Academy","region":"Region III","class":"Private","district":null,"teachers 2013":null,"id":"ahldhr0qbhn0","division":"Zambales","enrolment 2013":11,"barangay":null,"lat":null,"offering":"Elementary","long":null},"type":"Feature","geometry":null},{"properties":{"school name":"St. Vincent's Academy","region":"Region III","class":"Private","district":null,"teachers 2013":null,"id":"ahldhr5qymkk","division":"Zambales","enrolment 2013":238,"barangay":null,"lat":null,"offering":"Secondary","long":null},"type":"Feature","geometry":null},{"properties":{"school name":"St. Nicholas Academy of Castillejos, Inc.","region":"Region III","class":"Private","district":null,"teachers 2013":null,"id":"ahldhr0xoox0","division":"Zambales","enrolment 2013":580,"barangay":null,"lat":null,"offering":"Secondary","long":null},"type":"Feature","geometry":null},{"properties":{"school name":"Virgen delos Remedios College,Inc","region":"Region III","class":"Private","district":null,"teachers 2013":null,"id":"ahldhqx8c1gl","division":"Zambales","enrolment 2013":23,"barangay":null,"lat":null,"offering":"Elementary","long":null},"type":"Feature","geometry":null},{"properties":{"school name":"Virgen delos Remedios College","region":"Region III","class":"Private","district":null,"teachers 2013":null,"id":"ahldhqx52hty","division":"Zambales","enrolment 2013":18,"barangay":null,"lat":null,"offering":"Secondary","long":null},"type":"Feature","geometry":null},{"properties":{"school name":"Lucio Abrigo Memorial Learning Center, Inc.","region":"Region III","class":"Private","district":null,"teachers 2013":null,"id":"ahldhr24a2rt","division":"Zambales","enrolment 2013":159,"barangay":null,"lat":null,"offering":"Elementary","long":null},"type":"Feature","geometry":null},{"properties":{"school name":"Lucio Abrigo Memorial Learning Center, Inc.","region":"Region III","class":"Private","district":null,"teachers 2013":null,"id":"ahldhqvpwwhm","division":"Zambales","enrolment 2013":10,"barangay":null,"lat":null,"offering":"Secondary","long":null},"type":"Feature","geometry":null},{"properties":{"school name":"Precious Heritage School of Zambales, Inc.","region":"Region III","class":"Private","district":null,"teachers 2013":null,"id":"ahldhr3970bp","division":"Zambales","enrolment 2013":35,"barangay":null,"lat":null,"offering":"Secondary","long":null},"type":"Feature","geometry":null},{"properties":{"school name":"St. Augustine's School","region":"Region III","class":"Private","district":null,"teachers 2013":null,"id":"ahldhr90n1yh","division":"Zambales","enrolment 2013":275,"barangay":null,"lat":null,"offering":"Elementary","long":null},"type":"Feature","geometry":null},{"properties":{"school name":"St. Augustine's School","region":"Region III","class":"Private","district":null,"teachers 2013":null,"id":"ahldhr87w58p","division":"Zambales","enrolment 2013":268,"barangay":null,"lat":null,"offering":"Secondary","long":null},"type":"Feature","geometry":null},{"properties":{"school name":"Northern Zambales College","region":"Region III","class":"Private","district":null,"teachers 2013":null,"id":"ahldhqujqyjm","division":"Zambales","enrolment 2013":101,"barangay":null,"lat":null,"offering":"Elementary","long":null},"type":"Feature","geometry":null},{"properties":{"school name":"Northern Zambales College","region":"Region III","class":"Private","district":null,"teachers 2013":null,"id":"ahldhr4090x5","division":"Zambales","enrolment 2013":1004,"barangay":null,"lat":null,"offering":"Secondary","long":null},"type":"Feature","geometry":null},{"properties":{"school name":"San Andres School of Masinloc","region":"Region III","class":"Private","district":null,"teachers 2013":null,"id":"ahldhr5yr86b","division":"Zambales","enrolment 2013":193,"barangay":null,"lat":null,"offering":"Elementary","long":null},"type":"Feature","geometry":null},{"properties":{"school name":"San Andres School of Masinloc","region":"Region III","class":"Private","district":null,"teachers 2013":null,"id":"ahldhr1llx4g","division":"Zambales","enrolment 2013":776,"barangay":null,"lat":null,"offering":"Secondary","long":null},"type":"Feature","geometry":null},{"properties":{"school name":"Carmel Academy","region":"Region III","class":"Private","district":null,"teachers 2013":null,"id":"ahldhqznryrk","division":"Zambales","enrolment 2013":563,"barangay":null,"lat":null,"offering":"Secondary","long":null},"type":"Feature","geometry":null},{"properties":{"school name":"Palawig Academy Educational Foundation","region":"Region III","class":"Private","district":null,"teachers 2013":null,"id":"ahldhqxplere","division":"Zambales","enrolment 2013":408,"barangay":null,"lat":null,"offering":"Secondary","long":null},"type":"Feature","geometry":null},{"properties":{"school name":"Luzon Technical Institute","region":"Region III","class":"Private","district":null,"teachers 2013":null,"id":"ahldhqu1878p","division":"Zambales","enrolment 2013":331,"barangay":null,"lat":null,"offering":"Secondary","long":null},"type":"Feature","geometry":null},{"properties":{"school name":"Teodoro R. Yangco Catholic Educational Institute","region":"Region III","class":"Private","district":null,"teachers 2013":null,"id":"ahldhr9vtzf9","division":"Zambales","enrolment 2013":182,"barangay":null,"lat":null,"offering":"Elementary","long":null},"type":"Feature","geometry":null},{"properties":{"school name":"Teodoro R. Yangco Catholic Educational Institute","region":"Region III","class":"Private","district":null,"teachers 2013":null,"id":"ahldhqu0q15p","division":"Zambales","enrolment 2013":431,"barangay":null,"lat":null,"offering":"Secondary","long":null},"type":"Feature","geometry":null},{"properties":{"school name":"St. Columban's Montessori School","region":"Region III","class":"Private","district":null,"teachers 2013":null,"id":"ahldhr9se140","division":"Zambales","enrolment 2013":82,"barangay":null,"lat":null,"offering":"Elementary","long":null},"type":"Feature","geometry":null},{"properties":{"school name":"St. Columban's Montessori School","region":"Region III","class":"Private","district":null,"teachers 2013":null,"id":"ahldhqxsytei","division":"Zambales","enrolment 2013":247,"barangay":null,"lat":null,"offering":"Secondary","long":null},"type":"Feature","geometry":null},{"properties":{"school name":"Zambales Central Institute","region":"Region III","class":"Private","district":null,"teachers 2013":null,"id":"ahldhr9w9aaf","division":"Zambales","enrolment 2013":328,"barangay":null,"lat":null,"offering":"Secondary","long":null},"type":"Feature","geometry":null},{"properties":{"school name":"St. William's School","region":"Region III","class":"Private","district":null,"teachers 2013":null,"id":"ahldhr94vmbn","division":"Zambales","enrolment 2013":268,"barangay":null,"lat":null,"offering":"Elementary","long":null},"type":"Feature","geometry":null},{"properties":{"school name":"St. William's School","region":"Region III","class":"Private","district":null,"teachers 2013":null,"id":"ahldhr7ij4fx","division":"Zambales","enrolment 2013":388,"barangay":null,"lat":null,"offering":"Secondary","long":null},"type":"Feature","geometry":null},{"properties":{"school name":"Magsaysay Memorial College of Zambales, Inc.","region":"Region III","class":"Private","district":null,"teachers 2013":null,"id":"ahldhr25pg8p","division":"Zambales","enrolment 2013":130,"barangay":null,"lat":null,"offering":"Elementary","long":null},"type":"Feature","geometry":null},{"properties":{"school name":"Magsaysay Memorial College of Zambales, Inc.","region":"Region III","class":"Private","district":null,"teachers 2013":null,"id":"ahldhr7kzm5e","division":"Zambales","enrolment 2013":487,"barangay":null,"lat":null,"offering":"Secondary","long":null},"type":"Feature","geometry":null},{"properties":{"school name":"Zambales Academy","region":"Region III","class":"Private","district":null,"teachers 2013":null,"id":"ahldhr3l4jg2","division":"Zambales","enrolment 2013":313,"barangay":null,"lat":null,"offering":"Secondary","long":null},"type":"Feature","geometry":null},{"properties":{"school name":"St. Michael School of Sta. Cruz, Inc.","region":"Region III","class":"Private","district":null,"teachers 2013":null,"id":"ahldhr7hywno","division":"Zambales","enrolment 2013":281,"barangay":null,"lat":null,"offering":"Elementary","long":null},"type":"Feature","geometry":null},{"properties":{"school name":"St. Michael School of Sta. Cruz, Inc.","region":"Region III","class":"Private","district":null,"teachers 2013":null,"id":"ahldhr0abaf9","division":"Zambales","enrolment 2013":101,"barangay":null,"lat":null,"offering":"Secondary","long":null},"type":"Feature","geometry":null},{"properties":{"school name":"Sta. Cruz Academy","region":"Region III","class":"Private","district":null,"teachers 2013":null,"id":"ahldhqz3af6d","division":"Zambales","enrolment 2013":779,"barangay":null,"lat":null,"offering":"Secondary","long":null},"type":"Feature","geometry":null},{"properties":{"school name":"St. Anne School of Subic","region":"Region III","class":"Private","district":null,"teachers 2013":null,"id":"ahldhr31mik1","division":"Zambales","enrolment 2013":64,"barangay":null,"lat":null,"offering":"Elementary","long":null},"type":"Feature","geometry":null},{"properties":{"school name":"St. Anne School of Subic","region":"Region III","class":"Private","district":null,"teachers 2013":null,"id":"ahldhr06vc00","division":"Zambales","enrolment 2013":42,"barangay":null,"lat":null,"offering":"Secondary","long":null},"type":"Feature","geometry":null},{"properties":{"school name":"St. Anthony's School of Matain, Inc.","region":"Region III","class":"Private","district":null,"teachers 2013":null,"id":"ahldhqzd41qv","division":"Zambales","enrolment 2013":120,"barangay":null,"lat":null,"offering":"Elementary","long":null},"type":"Feature","geometry":null},{"properties":{"school name":"St. Anthony's School of Matain, Inc.","region":"Region III","class":"Private","district":null,"teachers 2013":null,"id":"ahldhr9brd4t","division":"Zambales","enrolment 2013":510,"barangay":null,"lat":null,"offering":"Secondary","long":null},"type":"Feature","geometry":null},{"properties":{"school name":"St. James School","region":"Region III","class":"Private","district":null,"teachers 2013":null,"id":"ahldhqukx58x","division":"Zambales","enrolment 2013":260,"barangay":null,"lat":null,"offering":"Elementary","long":null},"type":"Feature","geometry":null},{"properties":{"school name":"St. James School","region":"Region III","class":"Private","district":null,"teachers 2013":null,"id":"ahldhqx708vc","division":"Zambales","enrolment 2013":748,"barangay":null,"lat":null,"offering":"Secondary","long":null},"type":"Feature","geometry":null},{"properties":{"school name":"College of Subic Montessori - Zambales, Inc.","region":"Region III","class":"Private","district":null,"teachers 2013":null,"id":"ahldhr6momfr","division":"Zambales","enrolment 2013":46,"barangay":null,"lat":null,"offering":"Elementary","long":null},"type":"Feature","geometry":null},{"properties":{"school name":"College of Subic Montessori - Zambales, Inc.","region":"Region III","class":"Private","district":null,"teachers 2013":null,"id":"ahldhr0x39d5","division":"Zambales","enrolment 2013":19,"barangay":null,"lat":null,"offering":"Secondary","long":null},"type":"Feature","geometry":null},{"properties":{"school name":"Children of Zion Montessori School, Inc.","region":"Region III","class":"Private","district":null,"teachers 2013":null,"id":"ahldhqy31srh","division":"Zambales","enrolment 2013":152,"barangay":null,"lat":null,"offering":"Elementary","long":null},"type":"Feature","geometry":null},{"properties":{"school name":"Living Hope Zambales Christian Academy","region":"Region III","class":"Private","district":null,"teachers 2013":null,"id":"ahldhqw8fpbq","division":"Zambales","enrolment 2013":103,"barangay":null,"lat":null,"offering":"Elementary","long":null},"type":"Feature","geometry":null},{"properties":{"school name":"Smartkids Montessori Inc.","region":"Region III","class":"Private","district":null,"teachers 2013":null,"id":"ahldhr8pg8tz","division":"Zambales","enrolment 2013":84,"barangay":null,"lat":null,"offering":"Elementary","long":null},"type":"Feature","geometry":null},{"properties":{"school name":"Amado Barrera Educational Center","region":"Region III","class":"Private","district":null,"teachers 2013":null,"id":"ahldhquc1mph","division":"Zambales","enrolment 2013":177,"barangay":null,"lat":null,"offering":"Elementary","long":null},"type":"Feature","geometry":null},{"properties":{"school name":"Amado Barrera Educational Center","region":"Region III","class":"Private","district":null,"teachers 2013":null,"id":"ahldhqtui5oy","division":"Zambales","enrolment 2013":53,"barangay":null,"lat":null,"offering":"Secondary","long":null},"type":"Feature","geometry":null},{"properties":{"school name":"Guardian Angel Child Development Center","region":"Region III","class":"Private","district":null,"teachers 2013":null,"id":"ahldhr70hbmp","division":"Zambales","enrolment 2013":22,"barangay":null,"lat":null,"offering":"Elementary","long":null},"type":"Feature","geometry":null},{"properties":{"school name":"Pedro M. Arce Ecumenical School, Inc.","region":"Region III","class":"Private","district":null,"teachers 2013":null,"id":"ahldhr7vw5eq","division":"Zambales","enrolment 2013":138,"barangay":null,"lat":null,"offering":"Elementary","long":null},"type":"Feature","geometry":null},{"properties":{"school name":"P.O.C. Christian Academy","region":"Region III","class":"Private","district":null,"teachers 2013":null,"id":"ahldhqzvi18h","division":"Zambales","enrolment 2013":112,"barangay":null,"lat":null,"offering":"Elementary","long":null},"type":"Feature","geometry":null},{"properties":{"school name":"Geronimo Ballesteros Cayaban Ecumenical Learning Center","region":"Region III","class":"Private","district":null,"teachers 2013":null,"id":"ahldhr70qjc0","division":"Zambales","enrolment 2013":78,"barangay":null,"lat":null,"offering":"Elementary","long":null},"type":"Feature","geometry":null},{"properties":{"school name":"Hanniel Christian Academy, Inc.","region":"Region III","class":"Private","district":null,"teachers 2013":null,"id":"ahldhqveabso","division":"Zambales","enrolment 2013":109,"barangay":null,"lat":null,"offering":"Elementary","long":null},"type":"Feature","geometry":null},{"properties":{"school name":"Hanniel Christian Academy, Inc.","region":"Region III","class":"Private","district":null,"teachers 2013":null,"id":"ahldhqw0wp4f","division":"Zambales","enrolment 2013":18,"barangay":null,"lat":null,"offering":"Secondary","long":null},"type":"Feature","geometry":null},{"properties":{"school name":"Precious Child Montessori of Zambales, Inc. \"Annex\"","region":"Region III","class":"Private","district":null,"teachers 2013":null,"id":"ahldhqv4kmkk","division":"Zambales","enrolment 2013":57,"barangay":null,"lat":null,"offering":"Elementary","long":null},"type":"Feature","geometry":null},{"properties":{"school name":"To God Be The Glory Christian Academy","region":"Region III","class":"Private","district":null,"teachers 2013":null,"id":"ahldhr4pwut0","division":"Zambales","enrolment 2013":51,"barangay":null,"lat":null,"offering":"Elementary","long":null},"type":"Feature","geometry":null},{"properties":{"school name":"To God Be The Glory Christian Academy","region":"Region III","class":"Private","district":null,"teachers 2013":null,"id":"ahldhr2lidxn","division":"Zambales","enrolment 2013":15,"barangay":null,"lat":null,"offering":"Secondary","long":null},"type":"Feature","geometry":null},{"properties":{"school name":"Challenger Montessori School","region":"Region III","class":"Private","district":null,"teachers 2013":null,"id":"ahldhqwohmmu","division":"Zambales","enrolment 2013":18,"barangay":null,"lat":null,"offering":"Elementary","long":null},"type":"Feature","geometry":null},{"properties":{"school name":"Challenger Montessori School","region":"Region III","class":"Private","district":null,"teachers 2013":null,"id":"ahldhqxjpgmp","division":"Zambales","enrolment 2013":14,"barangay":null,"lat":null,"offering":"Secondary","long":null},"type":"Feature","geometry":null},{"properties":{"school name":"Iba Christian Academy,Inc.","region":"Region III","class":"Private","district":null,"teachers 2013":null,"id":"ahldhr0kubkm","division":"Zambales","enrolment 2013":128,"barangay":null,"lat":null,"offering":"Elementary","long":null},"type":"Feature","geometry":null},{"properties":{"school name":"Masinloc Christian Academy","region":"Region III","class":"Private","district":null,"teachers 2013":null,"id":"ahldhqzjlra9","division":"Zambales","enrolment 2013":120,"barangay":null,"lat":null,"offering":"Elementary","long":null},"type":"Feature","geometry":null},{"properties":{"school name":"Good Shepherd Ecumenucal Learning Center","region":"Region III","class":"Private","district":null,"teachers 2013":null,"id":"ahldhr2kb761","division":"Zambales","enrolment 2013":161,"barangay":null,"lat":null,"offering":"Elementary","long":null},"type":"Feature","geometry":null},{"properties":{"school name":"Rivers of Joy Christian School","region":"Region III","class":"Private","district":null,"teachers 2013":null,"id":"ahldhr4vqxzk","division":"Zambales","enrolment 2013":68,"barangay":null,"lat":null,"offering":"Elementary","long":null},"type":"Feature","geometry":null},{"properties":{"school name":"Casa Mambog Learning Center, Inc.","region":"Region III","class":"Private","district":null,"teachers 2013":null,"id":"ahldhqz6jpcn","division":"Zambales","enrolment 2013":27,"barangay":null,"lat":null,"offering":"Elementary","long":null},"type":"Feature","geometry":null},{"properties":{"school name":"Hope Ecumenical Learning Center, Inc.","region":"Region III","class":"Private","district":null,"teachers 2013":null,"id":"ahldhr82qadz","division":"Zambales","enrolment 2013":111,"barangay":null,"lat":null,"offering":"Elementary","long":null},"type":"Feature","geometry":null},{"properties":{"school name":"Precious Jewels Bible Baptist Academy, Inc.","region":"Region III","class":"Private","district":null,"teachers 2013":null,"id":"ahldhqy0euc0","division":"Zambales","enrolment 2013":80,"barangay":null,"lat":null,"offering":"Elementary","long":null},"type":"Feature","geometry":null},{"properties":{"school name":"Precious Jewels Bible Baptist Academy","region":"Region III","class":"Private","district":null,"teachers 2013":null,"id":"ahldhqu1zuvu","division":"Zambales","enrolment 2013":18,"barangay":null,"lat":null,"offering":"Secondary","long":null},"type":"Feature","geometry":null},{"properties":{"school name":"Valiant Educational Institute","region":"Region III","class":"Private","district":null,"teachers 2013":null,"id":"ahldhr1flgbv","division":"Zambales","enrolment 2013":48,"barangay":null,"lat":null,"offering":"Elementary","long":null},"type":"Feature","geometry":null},{"properties":{"school name":"Valiant Educational Institute","region":"Region III","class":"Private","district":null,"teachers 2013":null,"id":"ahldhqvwj5s7","division":"Zambales","enrolment 2013":93,"barangay":null,"lat":null,"offering":"Secondary","long":null},"type":"Feature","geometry":null},{"properties":{"school name":"Luke 19:4 Child Development Center, Inc.","region":"Region III","class":"Private","district":null,"teachers 2013":null,"id":"ahldhqyom9kz","division":"Zambales","enrolment 2013":121,"barangay":null,"lat":null,"offering":"Elementary","long":null},"type":"Feature","geometry":null},{"properties":{"school name":"Holy Family Academy of Zambales, Inc.","region":"Region III","class":"Private","district":null,"teachers 2013":null,"id":"ahldhqwikmq4","division":"Zambales","enrolment 2013":100,"barangay":null,"lat":null,"offering":"Elementary","long":null},"type":"Feature","geometry":null},{"properties":{"school name":"Escuela Royale De Montessori, Inc.","region":"Region III","class":"Private","district":null,"teachers 2013":null,"id":"ahldhr11n5de","division":"Zambales","enrolment 2013":60,"barangay":null,"lat":null,"offering":"Elementary","long":null},"type":"Feature","geometry":null},{"properties":{"school name":"Escuela Royale De Montessori, Inc.","region":"Region III","class":"Private","district":null,"teachers 2013":null,"id":"ahldhr0ga9i2","division":"Zambales","enrolment 2013":18,"barangay":null,"lat":null,"offering":"Secondary","long":null},"type":"Feature","geometry":null},{"properties":{"school name":"Little Voices Christian Elementary Academy, Inc.","region":"Region III","class":"Private","district":null,"teachers 2013":null,"id":"ahldhqwejvdz","division":"Zambales","enrolment 2013":159,"barangay":null,"lat":null,"offering":"Elementary","long":null},"type":"Feature","geometry":null},{"properties":{"school name":"Subic Ecumenical Learning Center","region":"Region III","class":"Private","district":null,"teachers 2013":null,"id":"ahldhqu7r2nu","division":"Zambales","enrolment 2013":149,"barangay":null,"lat":null,"offering":"Elementary","long":null},"type":"Feature","geometry":null},{"properties":{"school name":"Best Child Learning Center, Inc.","region":"Region III","class":"Private","district":null,"teachers 2013":null,"id":"ahldhr5yxxoh","division":"Zambales","enrolment 2013":72,"barangay":null,"lat":null,"offering":"Elementary","long":null},"type":"Feature","geometry":null},{"properties":{"school name":"Castillejos Aldergate Learning Center, Inc.","region":"Region III","class":"Private","district":null,"teachers 2013":null,"id":"ahldhr9xtk7b","division":"Zambales","enrolment 2013":303,"barangay":null,"lat":null,"offering":"Elementary","long":null},"type":"Feature","geometry":null},{"properties":{"school name":"Cabangan Learning Development Center Inc.","region":"Region III","class":"Private","district":null,"teachers 2013":null,"id":"ahldhr64fpow","division":"Zambales","enrolment 2013":77,"barangay":null,"lat":null,"offering":"Elementary","long":null},"type":"Feature","geometry":null},{"properties":{"school name":"Iba Kiddieland Montessori School","region":"Region III","class":"Private","district":null,"teachers 2013":null,"id":"ahldhqv5sm9w","division":"Zambales","enrolment 2013":136,"barangay":null,"lat":null,"offering":"Elementary","long":null},"type":"Feature","geometry":null},{"properties":{"school name":"Modesta A. Ragadio Ecumenical Learning Center Inc.","region":"Region III","class":"Private","district":null,"teachers 2013":null,"id":"ahldhr59g080","division":"Zambales","enrolment 2013":55,"barangay":null,"lat":null,"offering":"Elementary","long":null},"type":"Feature","geometry":null},{"properties":{"school name":"Dreamkids Learning Center, Inc.","region":"Region III","class":"Private","district":null,"teachers 2013":null,"id":"ahldhr69b6vf","division":"Zambales","enrolment 2013":59,"barangay":null,"lat":null,"offering":"Elementary","long":null},"type":"Feature","geometry":null},{"properties":{"school name":"Saint Therese Academy of Subic, Inc.","region":"Region III","class":"Private","district":null,"teachers 2013":null,"id":"ahldhr19lv32","division":"Zambales","enrolment 2013":78,"barangay":null,"lat":null,"offering":"Elementary","long":null},"type":"Feature","geometry":null},{"properties":{"school name":"Precious Child Montessori of Zambales, Inc. \"Main\"","region":"Region III","class":"Private","district":null,"teachers 2013":null,"id":"ahldhr762tcj","division":"Zambales","enrolment 2013":109,"barangay":null,"lat":null,"offering":"Elementary","long":null},"type":"Feature","geometry":null},{"properties":{"school name":"Hildegarde Von Bingen Science and Arts High School","region":"Region III","class":"Private","district":null,"teachers 2013":null,"id":"ahldhr1yacng","division":"Zambales","enrolment 2013":38,"barangay":null,"lat":null,"offering":"Elementary","long":null},"type":"Feature","geometry":null},{"properties":{"school name":"Hildegarde Von Bingen Science and Arts High School","region":"Region III","class":"Private","district":null,"teachers 2013":null,"id":"ahldhr5xy1dg","division":"Zambales","enrolment 2013":16,"barangay":null,"lat":null,"offering":"Secondary","long":null},"type":"Feature","geometry":null},{"properties":{"school name":"Shepherd of the Hills Center for Music, Arts and Sports","region":"Region III","class":"Private","district":null,"teachers 2013":null,"id":"ahldhr40luva","division":"Zambales","enrolment 2013":41,"barangay":null,"lat":null,"offering":"Elementary","long":null},"type":"Feature","geometry":null},{"properties":{"school name":"St. Anthony Montessori of Zambales","region":"Region III","class":"Private","district":null,"teachers 2013":null,"id":"ahldhr8lzs55","division":"Zambales","enrolment 2013":13,"barangay":null,"lat":null,"offering":"Elementary","long":null},"type":"Feature","geometry":null},{"properties":{"school name":"Remedios Gonzales Chenoweth Academy (R.G.C.C.A.)","region":"Region III","class":"Private","district":null,"teachers 2013":null,"id":"ahldhqtohghn","division":"Zambales","enrolment 2013":74,"barangay":null,"lat":null,"offering":"Elementary","long":null},"type":"Feature","geometry":null},{"properties":{"school name":"Iba Ecumenical Learning Center","region":"Region III","class":"Private","district":null,"teachers 2013":null,"id":"ahldhr6mopif","division":"Zambales","enrolment 2013":66,"barangay":null,"lat":null,"offering":"Elementary","long":null},"type":"Feature","geometry":null},{"properties":{"school name":"Fountain of Blessings Development Center, Inc","region":"Region III","class":"Private","district":null,"teachers 2013":null,"id":"ahldhqxag5a8","division":"Zambales","enrolment 2013":73,"barangay":null,"lat":null,"offering":"Elementary","long":null},"type":"Feature","geometry":null},{"properties":{"school name":"Pag-asa New Light Christian School","region":"Region III","class":"Private","district":null,"teachers 2013":null,"id":"ahldhr7rrw8r","division":"Zambales","enrolment 2013":97,"barangay":null,"lat":null,"offering":"Elementary","long":null},"type":"Feature","geometry":null},{"properties":{"school name":"Saint Francis Learning Center Foundation Inc.","region":"Region III","class":"Private","district":null,"teachers 2013":null,"id":"ahldhr8swtta","division":"Zambales","enrolment 2013":177,"barangay":null,"lat":null,"offering":"Elementary","long":null},"type":"Feature","geometry":null},{"properties":{"school name":"Saint Francis Learning Center Foundation Inc.","region":"Region III","class":"Private","district":null,"teachers 2013":null,"id":"ahldhqymru0a","division":"Zambales","enrolment 2013":29,"barangay":null,"lat":null,"offering":"Secondary","long":null},"type":"Feature","geometry":null},{"properties":{"school name":"Smart Achievers Academy-Subic Inc.","region":"Region III","class":"Private","district":null,"teachers 2013":null,"id":"ahldhr3xfagd","division":"Zambales","enrolment 2013":37,"barangay":null,"lat":null,"offering":"Secondary","long":null},"type":"Feature","geometry":null},{"properties":{"school name":"Brightleaves High School Inc","region":"Region III","class":"Private","district":null,"teachers 2013":null,"id":"ahldhra3i2xq","division":"Zambales","enrolment 2013":12,"barangay":null,"lat":null,"offering":"Secondary","long":null},"type":"Feature","geometry":null},{"properties":{"school name":"Holy Child Wells of Wisdom Learning School Inc","region":"Region III","class":"Private","district":null,"teachers 2013":null,"id":"ahldhqylv0sn","division":"Zambales","enrolment 2013":28,"barangay":null,"lat":null,"offering":"Elementary","long":null},"type":"Feature","geometry":null},{"properties":{"school name":"Saint Francis Learning Center Foundation Inc. Annex","region":"Region III","class":"Private","district":null,"teachers 2013":null,"id":"ahldhqzc3fgo","division":"Zambales","enrolment 2013":66,"barangay":null,"lat":null,"offering":"Elementary","long":null},"type":"Feature","geometry":null},{"properties":{"school name":"Stoneville Montessori School, Inc","region":"Region III","class":"Private","district":null,"teachers 2013":null,"id":"ahldhra016jv","division":"Zambales","enrolment 2013":3,"barangay":null,"lat":null,"offering":"Elementary","long":null},"type":"Feature","geometry":null},{"properties":{"school name":"Holy Child Jesus Kindergarten School of San Antonio, Zambales, Inc.","region":"Region III","class":"Private","district":null,"teachers 2013":null,"id":"ahldhqwuxplu","division":"Zambales","enrolment 2013":59,"barangay":null,"lat":null,"offering":"Elementary","long":null},"type":"Feature","geometry":null}],"is_temporal":false,"author":{"url":"","metadata":"","contact_name":"","contact_address":"","source":"","contact_phone":""},"source":"","pagination":{"sort":null,"start":0,"total":408,"limit":1000000},"state":"complete","tags":"","published":"2014-08-16T23:59:03-04:00","id":399022}