{"type":"FeatureCollection","data_type":"Dataset","url_type":null,"permissions":[{"permissions":{"download":true,"view":true},"group_id":"everyone"}],"classification":null,"title":"NOAA, Highwinds reported in parts of US during severe weather event, 22-23 April, 2010, USA","count":73,"stream_id":40802,"contributor":{"url":"http://geocommons.com/users/4","name":"aark"},"data_attributes":null,"calculation_params":null,"icon_link":null,"link":"http://geocommons.com/overlays/40802.json","extent":[-104.07,29.32,-70.95,42.03],"geometry_types":["point"],"unique_name":null,"name":"NOAA, Highwinds reported in parts of US during severe weather event, 22-23 April, 2010, USA","feature_count":73,"description":"The point shapefile shows locations of highwind reported over the last 48 hours due to a severe weather system affecting parts of Colorado, Kansas, Texas, Oklahoma, Alabama, Arkansas and Georgia. Look elsewhere on Finder! for more up-to-date reports as well data for tornadoes and highwinds. Use key words: &quot;Severe weather&quot;, Hail, Highwind, tornado.","next_feature":null,"is_raster":false,"short_classification":"Y","stats":{"Lon":{"max":-70.95,"mean":-95.5057534246575,"variance":32.0022775494673,"stdev":5.65705555474465,"min":-104.07,"median":-96.44},"Time":{"max":2335.0,"mean":882.616438356164,"variance":484353.823059361,"stdev":695.955331224182,"min":1.0,"median":715.0},"Lat":{"max":42.03,"mean":34.3756164383562,"variance":9.03681385083714,"stdev":3.0061293802558,"min":29.32,"median":33.16}},"features":[{"properties":{"Lon":-101.17,"Speed":"UNK","Time":1.0,"County":"CROSBY","Location":"4 E CROSBYTON","State":"TX","Type":"HighWind","id":"a62fnz7i4vsi","Comments":"COTTON TRAILER FLIPPED OVER AND POLE BARN PUSHED OVER FROM NORTH TO SOUTH IN THE VICINITY OF SILVER FALLS ROADSIDE PARK (LUB)","Lat":33.64,"Date_":"22Apr10"},"type":"Feature","geometry":{"type":"Point","coordinates":[-101.17,33.64]}},{"properties":{"Lon":-100.73,"Speed":"60","Time":5.0,"County":"GRAY","Location":"ALANREED","State":"TX","Type":"HighWind","id":"a62fnz62lz0d","Comments":"(AMA)","Lat":35.21,"Date_":"22Apr10"},"type":"Feature","geometry":{"type":"Point","coordinates":[-100.73,35.21]}},{"properties":{"Lon":-100.93,"Speed":"82","Time":10.0,"County":"SCOTT","Location":"1 WNW SHALLOW WATER","State":"KS","Type":"HighWind","id":"a62fnzdboa9m","Comments":"FROM APRS WXNET. (DDC)","Lat":38.37,"Date_":"22Apr10"},"type":"Feature","geometry":{"type":"Point","coordinates":[-100.93,38.37]}},{"properties":{"Lon":-94.15,"Speed":"UNK","Time":45.0,"County":"CASS","Location":"2 NNE ATLANTA","State":"TX","Type":"HighWind","id":"a62fnyxgflo2","Comments":"SEVERAL TREES WERE REPORTED DOWN IN QUEEN CITY TEXAS. (SHV)","Lat":33.14,"Date_":"23Apr10"},"type":"Feature","geometry":{"type":"Point","coordinates":[-94.15,33.14]}},{"properties":{"Lon":-95.58,"Speed":"UNK","Time":46.0,"County":"ANDERSON","Location":"2 N ELKHART","State":"TX","Type":"HighWind","id":"a62fnz1a2q7b","Comments":"TREES DOWN (FWD)","Lat":31.65,"Date_":"23Apr10"},"type":"Feature","geometry":{"type":"Point","coordinates":[-95.58,31.65]}},{"properties":{"Lon":-100.99,"Speed":"65","Time":55.0,"County":"HASKELL","Location":"9 N SATANTA","State":"KS","Type":"HighWind","id":"a62fnz564f3h","Comments":"(DDC)","Lat":37.57,"Date_":"22Apr10"},"type":"Feature","geometry":{"type":"Point","coordinates":[-100.99,37.57]}},{"properties":{"Lon":-93.89,"Speed":"UNK","Time":111.0,"County":"MILLER","Location":"FOUKE","State":"AR","Type":"HighWind","id":"a62fnz99z9we","Comments":"A POWERLINE WAS REPORTED DOWN IN THE COMMUNITY OF FOUKE. (SHV)","Lat":33.26,"Date_":"23Apr10"},"type":"Feature","geometry":{"type":"Point","coordinates":[-93.89,33.26]}},{"properties":{"Lon":-100.94,"Speed":"60","Time":131.0,"County":"FINNEY","Location":"4 W GARDEN CITY","State":"KS","Type":"HighWind","id":"a62fnzbm4x5j","Comments":"(DDC)","Lat":37.97,"Date_":"22Apr10"},"type":"Feature","geometry":{"type":"Point","coordinates":[-100.94,37.97]}},{"properties":{"Lon":-100.3,"Speed":"UNK","Time":150.0,"County":"COTTLE","Location":"2 N PADUCAH","State":"TX","Type":"HighWind","id":"a62fnz9rgjr1","Comments":"HOME DAMAGED. LARGE TREES AND FIVE UTILITY POLES BLOWN DOWN ALONG U.S. HWY 62 83. TIME IS ESTIMATED. (LUB)","Lat":34.04,"Date_":"22Apr10"},"type":"Feature","geometry":{"type":"Point","coordinates":[-100.3,34.04]}},{"properties":{"Lon":-96.44,"Speed":"60","Time":204.0,"County":"SAUNDERS","Location":"3 SW YUTAN","State":"NE","Type":"HighWind","id":"a62fnyzqzqjj","Comments":"(OAX)","Lat":41.21,"Date_":"23Apr10"},"type":"Feature","geometry":{"type":"Point","coordinates":[-96.44,41.21]}},{"properties":{"Lon":-96.94,"Speed":"UNK","Time":235.0,"County":"BUTLER","Location":"4 E DOUGLASS","State":"KS","Type":"HighWind","id":"a62fnyze3f5k","Comments":"TREES BLOWN DOWN. (ICT)","Lat":37.52,"Date_":"23Apr10"},"type":"Feature","geometry":{"type":"Point","coordinates":[-96.94,37.52]}},{"properties":{"Lon":-96.87,"Speed":"60","Time":239.0,"County":"COWLEY","Location":"8 NE WINFIELD","State":"KS","Type":"HighWind","id":"a62fnz225tjt","Comments":"DOWNED TREE LIMBS. (ICT)","Lat":37.35,"Date_":"23Apr10"},"type":"Feature","geometry":{"type":"Point","coordinates":[-96.87,37.35]}},{"properties":{"Lon":-94.49,"Speed":"UNK","Time":310.0,"County":"MARION","Location":"8 W JEFFERSON","State":"TX","Type":"HighWind","id":"a62fnz4y972g","Comments":"TREES REPORTED DOWN ALONG HWY 726 JUST EAST OF LAKE O THE PINES. (SHV)","Lat":32.76,"Date_":"23Apr10"},"type":"Feature","geometry":{"type":"Point","coordinates":[-94.49,32.76]}},{"properties":{"Lon":-98.0,"Speed":"60","Time":425.0,"County":"LAMPASAS","Location":"KEMPNER","State":"TX","Type":"HighWind","id":"a62fnz5y6bqj","Comments":"ESTIMATED 60 MPH WIND GUST IN KEMPNER (FWD)","Lat":31.08,"Date_":"23Apr10"},"type":"Feature","geometry":{"type":"Point","coordinates":[-98.0,31.08]}},{"properties":{"Lon":-97.9,"Speed":"67","Time":429.0,"County":"CORYELL","Location":"1 E COPPERAS COVE","State":"TX","Type":"HighWind","id":"a62fnz48iioo","Comments":"MEASURED 67 MPH WIND GUST JUST EAST OF COPPERAS COVE (FWD)","Lat":31.13,"Date_":"23Apr10"},"type":"Feature","geometry":{"type":"Point","coordinates":[-97.9,31.13]}},{"properties":{"Lon":-97.7,"Speed":"62","Time":435.0,"County":"BELL","Location":"FORT HOOD","State":"TX","Type":"HighWind","id":"a62fnz3ow98w","Comments":"MEASURED 62 MPH WIND GUST AT FORT HOOD (FWD)","Lat":31.1,"Date_":"23Apr10"},"type":"Feature","geometry":{"type":"Point","coordinates":[-97.7,31.1]}},{"properties":{"Lon":-97.42,"Speed":"UNK","Time":508.0,"County":"MCLENNAN","Location":"MCGREGOR","State":"TX","Type":"HighWind","id":"a62fnyz5fd7y","Comments":"12-14 INCH DIAMATER TREE LIMBS DOWN IN MCGREGOR. (FWD)","Lat":31.43,"Date_":"23Apr10"},"type":"Feature","geometry":{"type":"Point","coordinates":[-97.42,31.43]}},{"properties":{"Lon":-99.47,"Speed":"UNK","Time":510.0,"County":"UVALDE","Location":"SABINAL","State":"TX","Type":"HighWind","id":"a62fnz4r5o1n","Comments":"NUMEROUS TREEE LIMBS 5-6 INCH DIAMETER BLOWN AND TWISTED FROM TREES MAINLY EAST SIDE OF TOWN (EWX)","Lat":29.32,"Date_":"23Apr10"},"type":"Feature","geometry":{"type":"Point","coordinates":[-99.47,29.32]}},{"properties":{"Lon":-97.35,"Speed":"72","Time":510.0,"County":"BELL","Location":"2 N TEMPLE","State":"TX","Type":"HighWind","id":"a62fnz5k2kw8","Comments":"MEASURED 72 MPH WIND GUST JUST NORTH OF TEMPLE (FWD)","Lat":31.13,"Date_":"23Apr10"},"type":"Feature","geometry":{"type":"Point","coordinates":[-97.35,31.13]}},{"properties":{"Lon":-99.75,"Speed":"60","Time":515.0,"County":"ROGER MILLS","Location":"6 SW CHEYENNE","State":"OK","Type":"HighWind","id":"a62fnyxyxrde","Comments":"(OUN)","Lat":35.55,"Date_":"22Apr10"},"type":"Feature","geometry":{"type":"Point","coordinates":[-99.75,35.55]}},{"properties":{"Lon":-97.32,"Speed":"65","Time":521.0,"County":"MCLENNAN","Location":"CHINA SPRING","State":"TX","Type":"HighWind","id":"a62fnyy0uaa6","Comments":"IN CHINA SPRINGS (FWD)","Lat":31.65,"Date_":"23Apr10"},"type":"Feature","geometry":{"type":"Point","coordinates":[-97.32,31.65]}},{"properties":{"Lon":-97.32,"Speed":"UNK","Time":521.0,"County":"MCLENNAN","Location":"CHINA SPRING","State":"TX","Type":"HighWind","id":"a62fnz9l4rz9","Comments":"A RETIRED NWS MET REPORTED A 14\" DIAMETER TREE KNOCKED DOWN AND SEVERAL 4-6\" DEAD TREE LIMBS DOWN. (FWD)","Lat":31.65,"Date_":"23Apr10"},"type":"Feature","geometry":{"type":"Point","coordinates":[-97.32,31.65]}},{"properties":{"Lon":-97.14,"Speed":"73","Time":523.0,"County":"MCLENNAN","Location":"2 SSE WACO","State":"TX","Type":"HighWind","id":"a62fnz1wteuz","Comments":"REPORTED AT HWY 6 AND IMPERIAL DR. (FWD)","Lat":31.52,"Date_":"23Apr10"},"type":"Feature","geometry":{"type":"Point","coordinates":[-97.14,31.52]}},{"properties":{"Lon":-97.01,"Speed":"UNK","Time":547.0,"County":"MCLENNAN","Location":"3 SW AXTELL","State":"TX","Type":"HighWind","id":"a62fnz5ok8xc","Comments":"HWY 84 NEAR AXTELL. TREES UPROOTED AND A REFRIGERATOR BLOWN OFF A BACK PORCH. (FWD)","Lat":31.64,"Date_":"23Apr10"},"type":"Feature","geometry":{"type":"Point","coordinates":[-97.01,31.64]}},{"properties":{"Lon":-96.93,"Speed":"UNK","Time":550.0,"County":"HILL","Location":"PENELOPE","State":"TX","Type":"HighWind","id":"a62fnz4nr188","Comments":"SEVERAL REPORTS OF TREES/POWER POLES ACROSS SE CORNER OF COUNTY. (FWD)","Lat":31.85,"Date_":"23Apr10"},"type":"Feature","geometry":{"type":"Point","coordinates":[-96.93,31.85]}},{"properties":{"Lon":-96.67,"Speed":"UNK","Time":559.0,"County":"LIMESTONE","Location":"2 N COOLIDGE","State":"TX","Type":"HighWind","id":"a62fnz616311","Comments":"ROOF OFF AND DAMAGE TO TWO UNOCCUPIED MOBILE HOMES. OTHER SIDING/ROOF DAMAGE CR120. (FWD)","Lat":31.78,"Date_":"23Apr10"},"type":"Feature","geometry":{"type":"Point","coordinates":[-96.67,31.78]}},{"properties":{"Lon":-99.29,"Speed":"69","Time":614.0,"County":"JACKSON","Location":"ALTUS AIR FORCE BASE","State":"OK","Type":"HighWind","id":"a62fnyzeg2iy","Comments":"(OUN)","Lat":34.66,"Date_":"22Apr10"},"type":"Feature","geometry":{"type":"Point","coordinates":[-99.29,34.66]}},{"properties":{"Lon":-96.47,"Speed":"87","Time":619.0,"County":"NAVARRO","Location":"CORSICANA","State":"TX","Type":"HighWind","id":"a62fnyxdkvdc","Comments":"87 MPH WIND GUST RECORDED AT THE CORSICANA ASOS (FWD)","Lat":32.1,"Date_":"23Apr10"},"type":"Feature","geometry":{"type":"Point","coordinates":[-96.47,32.1]}},{"properties":{"Lon":-96.47,"Speed":"UNK","Time":630.0,"County":"NAVARRO","Location":"CORSICANA","State":"TX","Type":"HighWind","id":"a62fnz1ap9r7","Comments":"ROOF LIFTED OFF AN APARTMENT BUILDING IN SOUTHWEST CORSICANA. (FWD)","Lat":32.1,"Date_":"23Apr10"},"type":"Feature","geometry":{"type":"Point","coordinates":[-96.47,32.1]}},{"properties":{"Lon":-96.14,"Speed":"UNK","Time":635.0,"County":"HENDERSON","Location":"GUN BARREL CITY","State":"TX","Type":"HighWind","id":"a62fnyz7nq2x","Comments":"THE ROOF COLLAPSED AT A BUSINESS IN A STRIP MALL IN GUN BARREL CITY. OTHER DEBRIS AND DAMAGE TO ROAD SIGNS WAS ALSO REPORTED. (FWD)","Lat":32.33,"Date_":"23Apr10"},"type":"Feature","geometry":{"type":"Point","coordinates":[-96.14,32.33]}},{"properties":{"Lon":-96.02,"Speed":"UNK","Time":635.0,"County":"HENDERSON","Location":"2 E STAR HARBOR","State":"TX","Type":"HighWind","id":"a62fnzb2ulod","Comments":"A LARGE BOATHOUSE HAD HALF OF ITS ROOF BLOWN OFF EAST OF STAR HARBOR. (FWD)","Lat":32.19,"Date_":"23Apr10"},"type":"Feature","geometry":{"type":"Point","coordinates":[-96.02,32.19]}},{"properties":{"Lon":-96.0,"Speed":"78","Time":638.0,"County":"HENDERSON","Location":"5 SE STAR HARBOR","State":"TX","Type":"HighWind","id":"a62fnza4utp0","Comments":"MEASURED IN MALAKOFF (FWD)","Lat":32.14,"Date_":"23Apr10"},"type":"Feature","geometry":{"type":"Point","coordinates":[-96.0,32.14]}},{"properties":{"Lon":-96.1,"Speed":"UNK","Time":642.0,"County":"KAUFMAN","Location":"MABANK","State":"TX","Type":"HighWind","id":"a62fnzc3nngx","Comments":"SEVERAL BUILDINGS WITH SIGNIFICANT DAMAGE IN ONE CITY BLOCK. (FWD)","Lat":32.37,"Date_":"23Apr10"},"type":"Feature","geometry":{"type":"Point","coordinates":[-96.1,32.37]}},{"properties":{"Lon":-96.72,"Speed":"UNK","Time":644.0,"County":"NAVARRO","Location":"DAWSON","State":"TX","Type":"HighWind","id":"a62fnz6kw6j3","Comments":"NUMEROUS LARGE TREES DOWN ALONG A DAWSON-PURSLEY-MILDRED-2 SE OF KERENS LINE FROM DAMAGING WINDS. (FWD)","Lat":31.88,"Date_":"23Apr10"},"type":"Feature","geometry":{"type":"Point","coordinates":[-96.72,31.88]}},{"properties":{"Lon":-96.47,"Speed":"UNK","Time":645.0,"County":"NAVARRO","Location":"CORSICANA","State":"TX","Type":"HighWind","id":"a62fnz3u8vlo","Comments":"BROOKSHIRE GROCERY STORE LOST APPROX 30% OF THE ROOF AND SOME TRUSSES WERE BENT. (FWD)","Lat":32.1,"Date_":"23Apr10"},"type":"Feature","geometry":{"type":"Point","coordinates":[-96.47,32.1]}},{"properties":{"Lon":-95.68,"Speed":"UNK","Time":704.0,"County":"VAN ZANDT","Location":"2 W VAN","State":"TX","Type":"HighWind","id":"a62fnz79te8l","Comments":"NUMEROUS MEDIUM SIZE TREES DOWN 2 MILES WEST OF VAN (FWD)","Lat":32.52,"Date_":"23Apr10"},"type":"Feature","geometry":{"type":"Point","coordinates":[-95.68,32.52]}},{"properties":{"Lon":-95.75,"Speed":"UNK","Time":715.0,"County":"RAINS","Location":"EMORY","State":"TX","Type":"HighWind","id":"a62fnz35vaw5","Comments":"SEVERAL TREES DOWN ON ROADS ACROSS COUNTY (FWD)","Lat":32.87,"Date_":"23Apr10"},"type":"Feature","geometry":{"type":"Point","coordinates":[-95.75,32.87]}},{"properties":{"Lon":-95.49,"Speed":"UNK","Time":715.0,"County":"SMITH","Location":"5 W LINDALE","State":"TX","Type":"HighWind","id":"a62fnyy0mtni","Comments":"TREE AND POWERLINE DOWN IN HIDEAWAY LAKE COMMUNITY (SHV)","Lat":32.51,"Date_":"23Apr10"},"type":"Feature","geometry":{"type":"Point","coordinates":[-95.49,32.51]}},{"properties":{"Lon":-95.5,"Speed":"UNK","Time":722.0,"County":"ANDERSON","Location":"FRANKSTON","State":"TX","Type":"HighWind","id":"a62fnzbp33k5","Comments":"TREES DOWN (FWD)","Lat":32.05,"Date_":"23Apr10"},"type":"Feature","geometry":{"type":"Point","coordinates":[-95.5,32.05]}},{"properties":{"Lon":-95.98,"Speed":"UNK","Time":725.0,"County":"VAN ZANDT","Location":"9 SW CANTON","State":"TX","Type":"HighWind","id":"a62fnzckgb4u","Comments":"DPS TROOP REPORTED POSSIBLE TORNADO NEAR PURTIS CREEK PARK...2SE OF ODEM. (FWD)","Lat":32.46,"Date_":"23Apr10"},"type":"Feature","geometry":{"type":"Point","coordinates":[-95.98,32.46]}},{"properties":{"Lon":-98.56,"Speed":"UNK","Time":730.0,"County":"CADDO","Location":"2 E CARNEGIE","State":"OK","Type":"HighWind","id":"a62fnyze54b1","Comments":"ROOF WAS TAKEN OFF A BARN (OUN)","Lat":35.1,"Date_":"22Apr10"},"type":"Feature","geometry":{"type":"Point","coordinates":[-98.56,35.1]}},{"properties":{"Lon":-95.3,"Speed":"UNK","Time":730.0,"County":"SMITH","Location":"TYLER","State":"TX","Type":"HighWind","id":"a62fnz4d5o2j","Comments":"SEVERAL TREES AND POWERLINES DOWN IN TYLER. ALSO TREE AND POWERLINES DOWN JUST NORTH OF TYLER ON FM 14. (SHV)","Lat":32.33,"Date_":"23Apr10"},"type":"Feature","geometry":{"type":"Point","coordinates":[-95.3,32.33]}},{"properties":{"Lon":-95.44,"Speed":"UNK","Time":730.0,"County":"WOOD","Location":"1 N QUITMAN","State":"TX","Type":"HighWind","id":"a62fnz61er70","Comments":"SEVERAL TREES DOWN (SHV)","Lat":32.81,"Date_":"23Apr10"},"type":"Feature","geometry":{"type":"Point","coordinates":[-95.44,32.81]}},{"properties":{"Lon":-98.11,"Speed":"61","Time":740.0,"County":"MAJOR","Location":"1 WSW LAHOMA","State":"OK","Type":"HighWind","id":"a62fnz3b6flw","Comments":"(OUN)","Lat":36.38,"Date_":"22Apr10"},"type":"Feature","geometry":{"type":"Point","coordinates":[-98.11,36.38]}},{"properties":{"Lon":-95.29,"Speed":"UNK","Time":742.0,"County":"WOOD","Location":"WINNSBORO","State":"TX","Type":"HighWind","id":"a62fnz7dub2l","Comments":"NUMEROUS TREES AND POWERLINES DOWN (SHV)","Lat":32.96,"Date_":"23Apr10"},"type":"Feature","geometry":{"type":"Point","coordinates":[-95.29,32.96]}},{"properties":{"Lon":-94.06,"Speed":"UNK","Time":744.0,"County":"DAVIESS","Location":"5 W GALLATIN","State":"MO","Type":"HighWind","id":"a62fnz77me3e","Comments":"VEHICLE BLOWN OFF THE INTERSTATE 35 MILE MARKER 68.4. WIND ESTIMATED BETWEEN 50 AND 60 MPH. (EAX)","Lat":39.91,"Date_":"23Apr10"},"type":"Feature","geometry":{"type":"Point","coordinates":[-94.06,39.91]}},{"properties":{"Lon":-95.22,"Speed":"UNK","Time":745.0,"County":"FRANKLIN","Location":"1 S MOUNT VERNON","State":"TX","Type":"HighWind","id":"a62fnz13anlx","Comments":"NUMEROUS TREES AND POWERLINES DOWNED IN THE SOUTHERN PART OF THE COUNTY (SHV)","Lat":33.16,"Date_":"23Apr10"},"type":"Feature","geometry":{"type":"Point","coordinates":[-95.22,33.16]}},{"properties":{"Lon":-95.22,"Speed":"67","Time":752.0,"County":"FRANKLIN","Location":"MOUNT VERNON","State":"TX","Type":"HighWind","id":"a62fnz7y6ut4","Comments":"MEASURED AT A KLTV WXNET SITE IN MOUNT VERNON. (SHV)","Lat":33.17,"Date_":"23Apr10"},"type":"Feature","geometry":{"type":"Point","coordinates":[-95.22,33.17]}},{"properties":{"Lon":-97.88,"Speed":"88","Time":755.0,"County":"GARFIELD","Location":"ENID","State":"OK","Type":"HighWind","id":"a62fnz9ihtrs","Comments":"MEASURED BY EQUIPMENT ON KNOX BLDG IN DOWNTOWN (OUN)","Lat":36.4,"Date_":"22Apr10"},"type":"Feature","geometry":{"type":"Point","coordinates":[-97.88,36.4]}},{"properties":{"Lon":-94.91,"Speed":"UNK","Time":800.0,"County":"UPSHUR","Location":"2 E GILMER","State":"TX","Type":"HighWind","id":"a62fnz54pupr","Comments":"TREES DOWN AT FM 154 AND FM 555 JUST EAST OF GILMER. (SHV)","Lat":32.73,"Date_":"23Apr10"},"type":"Feature","geometry":{"type":"Point","coordinates":[-94.91,32.73]}},{"properties":{"Lon":-97.88,"Speed":"UNK","Time":800.0,"County":"GARFIELD","Location":"ENID","State":"OK","Type":"HighWind","id":"a62fnz70cxmj","Comments":"TREE LIMBS BROKEN AT VARIOUS LOCATIONS WITHIN ENID. TIME ESTIMATED. (OUN)","Lat":36.4,"Date_":"22Apr10"},"type":"Feature","geometry":{"type":"Point","coordinates":[-97.88,36.4]}},{"properties":{"Lon":-94.97,"Speed":"UNK","Time":800.0,"County":"CAMP","Location":"PITTSBURG","State":"TX","Type":"HighWind","id":"a62fnz1x07mc","Comments":"DOWNED TREE ON POWERLINE CAUSING POWER OUTAGE (SHV)","Lat":33.0,"Date_":"23Apr10"},"type":"Feature","geometry":{"type":"Point","coordinates":[-94.97,33.0]}},{"properties":{"Lon":-95.14,"Speed":"UNK","Time":805.0,"County":"UPSHUR","Location":"12 SE WINNSBORO","State":"TX","Type":"HighWind","id":"a62fnzae31e1","Comments":"TREE DOWN AT FM 852 AND OCELOT RD. (SHV)","Lat":32.83,"Date_":"23Apr10"},"type":"Feature","geometry":{"type":"Point","coordinates":[-95.14,32.83]}},{"properties":{"Lon":-95.13,"Speed":"UNK","Time":820.0,"County":"RED RIVER","Location":"5 E BOGATA","State":"TX","Type":"HighWind","id":"a62fnz4x9uuo","Comments":"TWO TREES DOWNED (SHV)","Lat":33.47,"Date_":"23Apr10"},"type":"Feature","geometry":{"type":"Point","coordinates":[-95.13,33.47]}},{"properties":{"Lon":-96.47,"Speed":"UNK","Time":824.0,"County":"NAVARRO","Location":"CORSICANA","State":"TX","Type":"HighWind","id":"a62fnyykrcrc","Comments":"BROOKSHIRE STORE IN CORSICANA LOST PART OF ITS ROOF WITH BENT TRUSSES. (FWD)","Lat":32.1,"Date_":"23Apr10"},"type":"Feature","geometry":{"type":"Point","coordinates":[-96.47,32.1]}},{"properties":{"Lon":-91.44,"Speed":"60","Time":1130.0,"County":"CHICOT","Location":"DERMOTT","State":"AR","Type":"HighWind","id":"a62fnz4qr5mn","Comments":"(JAN)","Lat":33.53,"Date_":"23Apr10"},"type":"Feature","geometry":{"type":"Point","coordinates":[-91.44,33.53]}},{"properties":{"Lon":-91.67,"Speed":"UNK","Time":1144.0,"County":"WHITE","Location":"1 S KENSETT","State":"AR","Type":"HighWind","id":"a62fnzdcrh1o","Comments":"FOUR HOUSES SUSTAINED ROOF DAMAGE. A PORCH WAS BLOWN OFF OF A HOUSE...AND TREES WERE BLOWN DOWN. (LZK)","Lat":35.22,"Date_":"23Apr10"},"type":"Feature","geometry":{"type":"Point","coordinates":[-91.67,35.22]}},{"properties":{"Lon":-89.55,"Speed":"60","Time":1145.0,"County":"LAMAR","Location":"SUMRALL","State":"MS","Type":"HighWind","id":"a62fnzbhyu3n","Comments":"(JAN)","Lat":31.42,"Date_":"23Apr10"},"type":"Feature","geometry":{"type":"Point","coordinates":[-89.55,31.42]}},{"properties":{"Lon":-96.79,"Speed":"UNK","Time":1820.0,"County":"BUTLER","Location":"EL DORADO LAKE","State":"KS","Type":"HighWind","id":"a62fnyzddcac","Comments":"5 TO 7 INCH BRANCHES KNOCKED DOWN AT BLUESTEM POINT. (ICT)","Lat":37.86,"Date_":"22Apr10"},"type":"Feature","geometry":{"type":"Point","coordinates":[-96.79,37.86]}},{"properties":{"Lon":-92.76,"Speed":"UNK","Time":1950.0,"County":"CONWAY","Location":"1 SE OPPELO","State":"AR","Type":"HighWind","id":"a62fnyxuiwic","Comments":"TWO AGRICULTURAL IRRIGATION PIVOTS WERE OVERTURNED BETWEEN OPPELO AND THE ARKANSAS RIVER. (LZK)","Lat":35.09,"Date_":"23Apr10"},"type":"Feature","geometry":{"type":"Point","coordinates":[-92.76,35.09]}},{"properties":{"Lon":-70.95,"Speed":"UNK","Time":1954.0,"County":"PLYMOUTH","Location":"EAST BRIDGEWATER","State":"MA","Type":"HighWind","id":"a62fnz6wg5dy","Comments":"WIRES DOWN ON PARK AVE AND RTE 106 (BOX)","Lat":42.03,"Date_":"22Apr10"},"type":"Feature","geometry":{"type":"Point","coordinates":[-70.95,42.03]}},{"properties":{"Lon":-92.74,"Speed":"UNK","Time":2005.0,"County":"CONWAY","Location":"MORRILTON","State":"AR","Type":"HighWind","id":"a62fnz4jeu81","Comments":"SIGNS AND BARRELS BLOWN OVER NEAR HWY 9 AND HWY 113. (LZK)","Lat":35.16,"Date_":"23Apr10"},"type":"Feature","geometry":{"type":"Point","coordinates":[-92.74,35.16]}},{"properties":{"Lon":-73.04,"Speed":"UNK","Time":2013.0,"County":"NEW HAVEN","Location":"BEACON FALLS","State":"CT","Type":"HighWind","id":"a62fnz4m4bi8","Comments":"PORTION OF ROOF RIPPED OFF TRAILER HOME ON DONNA STREET. ADJACENT HOUSE ALSO HAD SIDING RIPPED OFF. (OKX)","Lat":41.44,"Date_":"22Apr10"},"type":"Feature","geometry":{"type":"Point","coordinates":[-73.04,41.44]}},{"properties":{"Lon":-73.04,"Speed":"58","Time":2013.0,"County":"NEW HAVEN","Location":"BEACON FALLS","State":"CT","Type":"HighWind","id":"a62fnzar2rk7","Comments":"DAMAGE-BASED ESTIMATE OF 50 KNOT WIND GUST. (OKX)","Lat":41.44,"Date_":"22Apr10"},"type":"Feature","geometry":{"type":"Point","coordinates":[-73.04,41.44]}},{"properties":{"Lon":-104.07,"Speed":"75","Time":2138.0,"County":"MORGAN","Location":"HOYT","State":"CO","Type":"HighWind","id":"a62fnz9e9tro","Comments":"(BOU)","Lat":40.02,"Date_":"22Apr10"},"type":"Feature","geometry":{"type":"Point","coordinates":[-104.07,40.02]}},{"properties":{"Lon":-101.64,"Speed":"UNK","Time":2155.0,"County":"MORTON","Location":"8 ESE RICHFIELD","State":"KS","Type":"HighWind","id":"a62fnz08jtrp","Comments":"DAMAGE TO TIN ROOF AND SIDES ON BARN AND ROOF ON HOUSE. (DDC)","Lat":37.24,"Date_":"22Apr10"},"type":"Feature","geometry":{"type":"Point","coordinates":[-101.64,37.24]}},{"properties":{"Lon":-91.35,"Speed":"UNK","Time":2240.0,"County":"INDEPENDENCE","Location":"CORD","State":"AR","Type":"HighWind","id":"a62fnzd9ggd9","Comments":"TREE DOWN ON HIGHWAY 25 NEAR CORD. (LZK)","Lat":35.82,"Date_":"23Apr10"},"type":"Feature","geometry":{"type":"Point","coordinates":[-91.35,35.82]}},{"properties":{"Lon":-101.87,"Speed":"UNK","Time":2245.0,"County":"POTTER","Location":"3 W AMARILLO","State":"TX","Type":"HighWind","id":"a62fnz2ikz7g","Comments":"LARGE TREE KNOCKED OVER BY THE THUNDERSTORM WINDS. (AMA)","Lat":35.2,"Date_":"22Apr10"},"type":"Feature","geometry":{"type":"Point","coordinates":[-101.87,35.2]}},{"properties":{"Lon":-91.13,"Speed":"UNK","Time":2300.0,"County":"JACKSON","Location":"1 N SWIFTON","State":"AR","Type":"HighWind","id":"a62fnyylbgky","Comments":"A HAY BARN WAS BLOWN OVER 1 MILE NORTH OF SWIFTON JUST OFF HIGHWAY 67. (LZK)","Lat":35.84,"Date_":"23Apr10"},"type":"Feature","geometry":{"type":"Point","coordinates":[-91.13,35.84]}},{"properties":{"Lon":-93.23,"Speed":"UNK","Time":2312.0,"County":"HICKORY","Location":"CROSS TIMBERS","State":"MO","Type":"HighWind","id":"a62fnz5zgctr","Comments":"TREE DOWN IN TOWN (SGF)","Lat":38.02,"Date_":"23Apr10"},"type":"Feature","geometry":{"type":"Point","coordinates":[-93.23,38.02]}},{"properties":{"Lon":-90.94,"Speed":"UNK","Time":2315.0,"County":"LAWRENCE","Location":"COLLEGE CITY","State":"AR","Type":"HighWind","id":"a62fnz69zw43","Comments":"TREES 12-14 INCHES IN DIAMETER DOWN. MEASURED WIND GUST OF 67 MPH. 4-6 INCHES OF WATER ON ROADWAYS. (MEG)","Lat":36.13,"Date_":"23Apr10"},"type":"Feature","geometry":{"type":"Point","coordinates":[-90.94,36.13]}},{"properties":{"Lon":-90.93,"Speed":"UNK","Time":2322.0,"County":"CRAIGHEAD","Location":"CASH","State":"AR","Type":"HighWind","id":"a62fnz3uacip","Comments":"POWER OUT IN EGYPT. DAMAGE SOUTH OF EGYPT NEAR CASH ON HIGHWAY 18. (MEG)","Lat":35.8,"Date_":"23Apr10"},"type":"Feature","geometry":{"type":"Point","coordinates":[-90.93,35.8]}},{"properties":{"Lon":-103.72,"Speed":"65","Time":2335.0,"County":"WELD","Location":"2 W STONEHAM","State":"CO","Type":"HighWind","id":"a62fnz02br1x","Comments":"(BOU)","Lat":40.61,"Date_":"22Apr10"},"type":"Feature","geometry":{"type":"Point","coordinates":[-103.72,40.61]}}],"is_temporal":false,"author":{"url":"http://www.spc.noaa.gov","metadata":"http://www.spc.noaa.gov","contact_name":"","contact_address":"","source":"NOAA's Storm Prediction Center website","contact_phone":""},"source":"http://www.spc.noaa.gov","pagination":{"sort":null,"start":0,"total":73,"limit":1000000},"state":"complete","tags":"hail,highwind,storm,tornado,weather","published":"2010-04-24T16:00:00Z","id":40802}