{"type":"FeatureCollection","data_type":"Dataset","url_type":null,"permissions":[{"permissions":{"download":true,"view":true},"group_id":"everyone"}],"classification":null,"title":"NOAA, Tornadoes reported in parts of U.S. during severe weather event, 22-24 April 2010, USA","count":92,"stream_id":41389,"contributor":{"url":"http://geocommons.com/users/4","name":"aark"},"data_attributes":null,"calculation_params":null,"icon_link":null,"link":"http://geocommons.com/overlays/41389.json","extent":[-104.16,32.22,-87.36,40.44],"geometry_types":["point"],"unique_name":null,"name":"NOAA, Tornadoes reported in parts of U.S. during severe weather event, 22-24 April 2010, USA","feature_count":92,"description":"The point shapefile shows locations of high windsl reported over the last 72 hours due to a severe weather system affecting parts of Colorado, Texas, Oklahoma, Alabama, Arkansas,Georgia, Kentucky, Tennessee, Illinois.\n\nLook elsewhere on Finder! for more up-to-date reports as well data for tornadoes and highwinds. Use key words: &quot;Severe weather&quot;, Hail, Highwind, tornado \n\n","next_feature":null,"is_raster":false,"short_classification":"Y","stats":{"Lon":{"max":-87.36,"mean":-95.2670652173913,"variance":36.0639374462494,"stdev":6.00532575688025,"min":-104.16,"median":-91.19},"Time":{"max":2352.0,"mean":1706.5652173913,"variance":456977.149546106,"stdev":676.000850255461,"min":5.0,"median":1845.0},"Lat":{"max":40.44,"mean":35.7445652173913,"variance":7.01649761108457,"stdev":2.64886723168311,"min":32.22,"median":35.51}},"features":[{"properties":{"Lon":-102.46,"Time":5.0,"County":"CHEYENNE","Location":"14 NNE FIRSTVIEW","State":"CO","Type":"Tornado","id":"a6259spn5yqv","Comments":"TORNADO WAS ON THE GROUND 4 TO 5 MINUTES THEN ROPED OUT. (GLD)","Lat":39.02,"F_Scale":"UNK","Date_":"22Apr10"},"type":"Feature","geometry":{"type":"Point","coordinates":[-102.46,39.02]}},{"properties":{"Lon":-100.91,"Time":10.0,"County":"SCOTT","Location":"4 S SCOTT CITY","State":"KS","Type":"Tornado","id":"a6259sqdukis","Comments":"GRAIN BINS DAMAGED WITH TWO TOTALLY DESTROYED. BARN PARTIALLY COLLAPSED WITH PART OF ROOF TORN OFF. TREES AND POWERLINES DOWN TO THE RESIDENCE. (DDC)","Lat":38.42,"F_Scale":"UNK","Date_":"22Apr10"},"type":"Feature","geometry":{"type":"Point","coordinates":[-100.91,38.42]}},{"properties":{"Lon":-91.19,"Time":25.0,"County":"WARREN","Location":"7 NNW WARRENTON","State":"MO","Type":"Tornado","id":"a6259ste3mwf","Comments":"LAW ENFORCEMENT REPORTED TORNADO BETWEEN WARRENTON AND TRUXTON...LOCATION ESTIMATED. (LSX)","Lat":38.91,"F_Scale":"UNK","Date_":"23Apr10"},"type":"Feature","geometry":{"type":"Point","coordinates":[-91.19,38.91]}},{"properties":{"Lon":-91.07,"Time":29.0,"County":"LINCOLN","Location":"4 E HAWK POINT","State":"MO","Type":"Tornado","id":"a6259swispt7","Comments":"SMALL TORNADO ON THE GROUND WITH HEAVY ROTATION AND A LARGE WALL CLOUD...ONE MILE WEST OF THIS LOCATION. (LSX)","Lat":38.97,"F_Scale":"UNK","Date_":"23Apr10"},"type":"Feature","geometry":{"type":"Point","coordinates":[-91.07,38.97]}},{"properties":{"Lon":-100.54,"Time":38.0,"County":"MOTLEY","Location":"8 SW CEE VEE","State":"TX","Type":"Tornado","id":"a6259szcvgxs","Comments":"NUMEROUS REPORTS OF LARGE RAIN WRAPPED TORNADO - MOVING EAST AT 15 MPH (LUB)","Lat":34.15,"F_Scale":"UNK","Date_":"22Apr10"},"type":"Feature","geometry":{"type":"Point","coordinates":[-100.54,34.15]}},{"properties":{"Lon":-91.1,"Time":48.0,"County":"LINCOLN","Location":"3 SW SILEX","State":"MO","Type":"Tornado","id":"a6259srayvcf","Comments":"TORNADO SPOTTED BY CHASER NORTH OF TROY ON HIGHWAY 61. REPORT RELAYED BY WGEM (LSX)","Lat":39.1,"F_Scale":"UNK","Date_":"23Apr10"},"type":"Feature","geometry":{"type":"Point","coordinates":[-91.1,39.1]}},{"properties":{"Lon":-90.99,"Time":114.0,"County":"LINCOLN","Location":"5 NE SILEX","State":"MO","Type":"Tornado","id":"a6259sqzniiy","Comments":"SPOTTER WAS ON US 61 ABOUT 5 MILES NORTHEAST OF SILEX...LOOKING AT ROPE TORNADO TO HIS WEST...ABOUT TWO MILES NORTH OF SILEX. (LSX)","Lat":39.18,"F_Scale":"UNK","Date_":"23Apr10"},"type":"Feature","geometry":{"type":"Point","coordinates":[-90.99,39.18]}},{"properties":{"Lon":-100.41,"Time":133.0,"County":"COTTLE","Location":"4 SSE CEE VEE","State":"TX","Type":"Tornado","id":"a6259sv1t4f0","Comments":"SPOTTER REPORTS LARGE WEDGE TORNADO. SPOTTER IS 2 MILES WEST WNW OF CEE VEE (LUB)","Lat":34.18,"F_Scale":"UNK","Date_":"22Apr10"},"type":"Feature","geometry":{"type":"Point","coordinates":[-100.41,34.18]}},{"properties":{"Lon":-100.25,"Time":205.0,"County":"COTTLE","Location":"6 W SWEARINGEN","State":"TX","Type":"Tornado","id":"a6259so4t1ke","Comments":"STARTED AT 905 PM. LIFTED BRIEFLY. BUT STILL ON THE GROUND AT 911 PM. (LUB)","Lat":34.15,"F_Scale":"UNK","Date_":"22Apr10"},"type":"Feature","geometry":{"type":"Point","coordinates":[-100.25,34.15]}},{"properties":{"Lon":-100.33,"Time":221.0,"County":"GOVE","Location":"13 SE GOVE","State":"KS","Type":"Tornado","id":"a6259sxip3qe","Comments":"SHERRIFF REPORTED BRIEF TORNADO 2 MILES SOUTH OF INTERSECTION OF COUNTY ROAD I AND COUNTY ROAD 62. (GLD)","Lat":38.82,"F_Scale":"UNK","Date_":"22Apr10"},"type":"Feature","geometry":{"type":"Point","coordinates":[-100.33,38.82]}},{"properties":{"Lon":-100.17,"Time":225.0,"County":"COTTLE","Location":"2 NW SWEARINGEN","State":"TX","Type":"Tornado","id":"a6259snq3lsv","Comments":"(LUB)","Lat":34.17,"F_Scale":"UNK","Date_":"22Apr10"},"type":"Feature","geometry":{"type":"Point","coordinates":[-100.17,34.17]}},{"properties":{"Lon":-100.15,"Time":235.0,"County":"COTTLE","Location":"1 N SWEARINGEN","State":"TX","Type":"Tornado","id":"a6259sxp18tp","Comments":"REPORTED BY PADUCAH FIRE DEPARTMENT. (LUB)","Lat":34.16,"F_Scale":"UNK","Date_":"22Apr10"},"type":"Feature","geometry":{"type":"Point","coordinates":[-100.15,34.16]}},{"properties":{"Lon":-88.97,"Time":1434.0,"County":"JASPER","Location":"5 NNE ROSE HILL","State":"MS","Type":"Tornado","id":"a6259steceku","Comments":"NUMEROUS TREES ACROSS COUNTY ROAD 2422...FIRE CREWS HAVING TO CUT THEIR WAY THROUGH...LIKELY TORNADO BASED ON RADAR (JAN)","Lat":32.22,"F_Scale":"UNK","Date_":"24Apr10"},"type":"Feature","geometry":{"type":"Point","coordinates":[-88.97,32.22]}},{"properties":{"Lon":-88.87,"Time":1445.0,"County":"LAUDERDALE","Location":"MEEHAN","State":"MS","Type":"Tornado","id":"a6259smu9gkl","Comments":"MAJOR STRUCTURAL DAMAGE TO A CHURCH ON POINT WANITA ROAD. REPORTED BY WTOK. POSSIBLE TORNADO. (JAN)","Lat":32.33,"F_Scale":"UNK","Date_":"24Apr10"},"type":"Feature","geometry":{"type":"Point","coordinates":[-88.87,32.33]}},{"properties":{"Lon":-88.71,"Time":1445.0,"County":"LAUDERDALE","Location":"MERIDIAN","State":"MS","Type":"Tornado","id":"a6259sl0q8ab","Comments":"NUMEROUS TREES ON MANY HOUSES IN MERIDIAN. STRUCTURAL DAMAGE TO SEVERAL HOMES. REPORTED BY WTOK. POSSIBLE TORNADO. (JAN)","Lat":32.38,"F_Scale":"UNK","Date_":"24Apr10"},"type":"Feature","geometry":{"type":"Point","coordinates":[-88.71,32.38]}},{"properties":{"Lon":-88.87,"Time":1450.0,"County":"LAUDERDALE","Location":"9 W MERIDIAN","State":"MS","Type":"Tornado","id":"a6259so0i3cj","Comments":"MULTIPLE TREES DOWN ACROSS HWY 80 IN THE TOWN OF MEEHAN (JAN)","Lat":32.38,"F_Scale":"UNK","Date_":"24Apr10"},"type":"Feature","geometry":{"type":"Point","coordinates":[-88.87,32.38]}},{"properties":{"Lon":-88.73,"Time":1452.0,"County":"LAUDERDALE","Location":"3 SSW MERIDIAN","State":"MS","Type":"Tornado","id":"a6259ssoro5n","Comments":"TREES DOWN NEAR INTERSECTION OF ARUNDLE ROAD AND HIGHWAY 11. POSSIBLE TORNADO. (JAN)","Lat":32.34,"F_Scale":"UNK","Date_":"24Apr10"},"type":"Feature","geometry":{"type":"Point","coordinates":[-88.73,32.34]}},{"properties":{"Lon":-88.75,"Time":1500.0,"County":"LAUDERDALE","Location":"3 SW MERIDIAN","State":"MS","Type":"Tornado","id":"a6259so5aidj","Comments":"NUMEROUS TREES DOWN AT THE I-20 AND I-59 INTERCHANGE (JAN)","Lat":32.35,"F_Scale":"UNK","Date_":"24Apr10"},"type":"Feature","geometry":{"type":"Point","coordinates":[-88.75,32.35]}},{"properties":{"Lon":-88.28,"Time":1544.0,"County":"SUMTER","Location":"WARD","State":"AL","Type":"Tornado","id":"a6259svtl7vz","Comments":"FIRE OFFICIALS HAVE CONFIRMED A TORNADO TOUCHDOWN NEAR WARD. THE TORNADO WAS OBSERVED WITH A PATH OF TREE DAMAGE. (BMX)","Lat":32.36,"F_Scale":"UNK","Date_":"24Apr10"},"type":"Feature","geometry":{"type":"Point","coordinates":[-88.28,32.36]}},{"properties":{"Lon":-89.17,"Time":1602.0,"County":"PONTOTOC","Location":"THAXTON","State":"MS","Type":"Tornado","id":"a6259svy419r","Comments":"LAW ENFORCEMENT REPORTING TORNADO ON THE GROUND NEAR THAXTON. (MEG)","Lat":34.31,"F_Scale":"UNK","Date_":"24Apr10"},"type":"Feature","geometry":{"type":"Point","coordinates":[-89.17,34.31]}},{"properties":{"Lon":-91.24,"Time":1614.0,"County":"MADISON","Location":"4 NW TALLULAH","State":"LA","Type":"Tornado","id":"a6259slp1xwm","Comments":"PRELIMINARY REPORTS OF SIGNIFICANT DAMAGE FROM MADISON PARISH WITH HOMES DESTROYED. LARGE TORNADO WAS VISUALLY SITED. (JAN)","Lat":32.45,"F_Scale":"UNK","Date_":"24Apr10"},"type":"Feature","geometry":{"type":"Point","coordinates":[-91.24,32.45]}},{"properties":{"Lon":-91.24,"Time":1623.0,"County":"MADISON","Location":"4 NW TALLULAH","State":"LA","Type":"Tornado","id":"a6259spvrkmp","Comments":"BEAR LAKE COMMUNITY","Lat":32.45,"F_Scale":"UNK","Date_":"24Apr10"},"type":"Feature","geometry":{"type":"Point","coordinates":[-91.24,32.45]}},{"properties":{"Lon":-91.14,"Time":1623.0,"County":"MADISON","Location":"OMEGA","State":"LA","Type":"Tornado","id":"a6259sxqcs1t","Comments":"TORNADO REPORTEDLY CAUSED SIGNIFICANT DAMAGE TO A INDUSTRIAL PLANT. INJURIES REPORTED WITH PEOPLE TRAPPED. (JAN)","Lat":32.52,"F_Scale":"UNK","Date_":"24Apr10"},"type":"Feature","geometry":{"type":"Point","coordinates":[-91.14,32.52]}},{"properties":{"Lon":-90.87,"Time":1635.0,"County":"ISSAQUENA","Location":"VALLEY PARK","State":"MS","Type":"Tornado","id":"a6259spge0ns","Comments":"NUMEROUS TREES DOWN. ONE BUILDING DESTROYED. ONE BUILDING IS HEAVILY DAMAGED. (JAN)","Lat":32.63,"F_Scale":"UNK","Date_":"24Apr10"},"type":"Feature","geometry":{"type":"Point","coordinates":[-90.87,32.63]}},{"properties":{"Lon":-90.87,"Time":1641.0,"County":"ISSAQUENA","Location":"1 S VALLEY PARK","State":"MS","Type":"Tornado","id":"a6259t0sfesu","Comments":"STORM CHASER REPORTS LARGE WEDGE TORNADO CROSSING US HIGHWAY 61 NEAR VALLEY PARK (JAN)","Lat":32.62,"F_Scale":"UNK","Date_":"24Apr10"},"type":"Feature","geometry":{"type":"Point","coordinates":[-90.87,32.62]}},{"properties":{"Lon":-91.01,"Time":1655.0,"County":"MADISON","Location":"EAGLE BEND","State":"MS","Type":"Tornado","id":"a6259sooirfm","Comments":"30 HOUSES FLATTENED REPORTED BY 911 (JAN)","Lat":32.52,"F_Scale":"UNK","Date_":"24Apr10"},"type":"Feature","geometry":{"type":"Point","coordinates":[-91.01,32.52]}},{"properties":{"Lon":-91.01,"Time":1655.0,"County":"WARREN","Location":"1 N EAGLE BEND","State":"MS","Type":"Tornado","id":"a6259ssmyycw","Comments":"30 HOUSES FLATTENED REPORTED BY 911 (JAN)","Lat":32.53,"F_Scale":"UNK","Date_":"24Apr10"},"type":"Feature","geometry":{"type":"Point","coordinates":[-91.01,32.53]}},{"properties":{"Lon":-90.54,"Time":1710.0,"County":"YAZOO","Location":"3 N SATARTIA","State":"MS","Type":"Tornado","id":"a6259soojfz2","Comments":"HOME DESTROYED 3 MILES NORTH OF SATARTIA. PEOPLE TRAPPED INSIDE. (JAN)","Lat":32.71,"F_Scale":"UNK","Date_":"24Apr10"},"type":"Feature","geometry":{"type":"Point","coordinates":[-90.54,32.71]}},{"properties":{"Lon":-90.41,"Time":1715.0,"County":"YAZOO","Location":"1 S YAZOO CITY","State":"MS","Type":"Tornado","id":"a6259swga9pe","Comments":"NUMEROUS BUILDINGS LEVELED AT HIGHWAY 16 ON THE SOUTH SIDE OF YAZOO CITY (JAN)","Lat":32.85,"F_Scale":"UNK","Date_":"24Apr10"},"type":"Feature","geometry":{"type":"Point","coordinates":[-90.41,32.85]}},{"properties":{"Lon":-90.48,"Time":1716.0,"County":"YAZOO","Location":"6 SW YAZOO CITY","State":"MS","Type":"Tornado","id":"a6259snvggye","Comments":"WIDESPREAD TREES DOWN WITH HOMES DAMAGED IN TOWN OF CRUPP. (JAN)","Lat":32.8,"F_Scale":"UNK","Date_":"24Apr10"},"type":"Feature","geometry":{"type":"Point","coordinates":[-90.48,32.8]}},{"properties":{"Lon":-103.42,"Time":1717.0,"County":"LINCOLN","Location":"6 NE GENOA","State":"CO","Type":"Tornado","id":"a6259sta6538","Comments":"(BOU)","Lat":39.34,"F_Scale":"UNK","Date_":"23Apr10"},"type":"Feature","geometry":{"type":"Point","coordinates":[-103.42,39.34]}},{"properties":{"Lon":-90.41,"Time":1720.0,"County":"YAZOO","Location":"1 S YAZOO CITY","State":"MS","Type":"Tornado","id":"a6259sne7byn","Comments":"CHURCH DESTROYED AT CORNER OF HIGHWAY 16 AND HIGHWAY 49. NUMEROUS TREES AND POWER LINES DOWN ALSO. (JAN)","Lat":32.85,"F_Scale":"UNK","Date_":"24Apr10"},"type":"Feature","geometry":{"type":"Point","coordinates":[-90.41,32.85]}},{"properties":{"Lon":-90.41,"Time":1725.0,"County":"YAZOO","Location":"YAZOO CITY","State":"MS","Type":"Tornado","id":"a6259t0xao36","Comments":"NUMEROUS HOMES AND BUSINESSES DAMAGED ALONG WITH WIDESPREAD TREES DOWN IN CITY LIMITS. (JAN)","Lat":32.86,"F_Scale":"UNK","Date_":"24Apr10"},"type":"Feature","geometry":{"type":"Point","coordinates":[-90.41,32.86]}},{"properties":{"Lon":-90.09,"Time":1730.0,"County":"HOLMES","Location":"EBENEZER","State":"MS","Type":"Tornado","id":"a6259sot3ewm","Comments":"*** 1 FATAL *** NUMEROUS HOMES SUSTAINED STRUCTURAL DAMAGE. WIDESPREAD TREE DAMAGE. UPDATE...MEMA CONFIRMING 1 FATALITY IN HOLMES COUNTY. (JAN)","Lat":32.97,"F_Scale":"UNK","Date_":"24Apr10"},"type":"Feature","geometry":{"type":"Point","coordinates":[-90.09,32.97]}},{"properties":{"Lon":-94.9,"Time":1737.0,"County":"NODAWAY","Location":"2 NW MARYVILLE","State":"MO","Type":"Tornado","id":"a6259sv1bpl8","Comments":"REPORTS OF TREE LIMBS DOWN. (EAX)","Lat":40.36,"F_Scale":"UNK","Date_":"24Apr10"},"type":"Feature","geometry":{"type":"Point","coordinates":[-94.9,40.36]}},{"properties":{"Lon":-94.84,"Time":1740.0,"County":"NODAWAY","Location":"1 S PICKERING","State":"MO","Type":"Tornado","id":"a6259st9wgg4","Comments":"(EAX)","Lat":40.44,"F_Scale":"UNK","Date_":"24Apr10"},"type":"Feature","geometry":{"type":"Point","coordinates":[-94.84,40.44]}},{"properties":{"Lon":-89.87,"Time":1745.0,"County":"HOLMES","Location":"1 W DURANT","State":"MS","Type":"Tornado","id":"a6259sr6hikk","Comments":"MAJOR DAMAGE ALONG INTERSTATE 55. CARS BLOWN OFF THE ROAD","Lat":33.08,"F_Scale":"UNK","Date_":"24Apr10"},"type":"Feature","geometry":{"type":"Point","coordinates":[-89.87,33.08]}},{"properties":{"Lon":-88.63,"Time":1750.0,"County":"LEE","Location":"BALDWYN","State":"MS","Type":"Tornado","id":"a6259sl00ifg","Comments":"TORNADO REPORTED BY PUBLIC NEAR HIGHWAY 45. (MEG)","Lat":34.5,"F_Scale":"UNK","Date_":"24Apr10"},"type":"Feature","geometry":{"type":"Point","coordinates":[-88.63,34.5]}},{"properties":{"Lon":-89.87,"Time":1750.0,"County":"HOLMES","Location":"1 W DURANT","State":"MS","Type":"Tornado","id":"a6259sysby9l","Comments":"*** 1 INJ *** MULITPLE CARS BLOWN OFF INTERSTATE 55. UNKNOWN NUMBER OF INJURIES. REPORT RELAYED VIA ATTALA COUNTY EMA. (JAN)","Lat":33.08,"F_Scale":"UNK","Date_":"24Apr10"},"type":"Feature","geometry":{"type":"Point","coordinates":[-89.87,33.08]}},{"properties":{"Lon":-89.82,"Time":1755.0,"County":"ATTALA","Location":"2 E DURANT","State":"MS","Type":"Tornado","id":"a6259sqypwku","Comments":"NUMEROUS TREES DOWN AND STRUCTURES DAMAGED ON COUNTY ROAD 4101 ON EITHER SIDE OF HIGHWAY 12. (JAN)","Lat":33.08,"F_Scale":"UNK","Date_":"24Apr10"},"type":"Feature","geometry":{"type":"Point","coordinates":[-89.82,33.08]}},{"properties":{"Lon":-89.86,"Time":1755.0,"County":"HOLMES","Location":"1 S DURANT","State":"MS","Type":"Tornado","id":"a6259sm9lz5q","Comments":"NUMEROUS TREES DOWN BLOCKING HIGHWAY 51. SHEDS HEAVILY DAMAGED. MINOR DAMAGE TO HOMES. (JAN)","Lat":33.07,"F_Scale":"UNK","Date_":"24Apr10"},"type":"Feature","geometry":{"type":"Point","coordinates":[-89.86,33.07]}},{"properties":{"Lon":-89.65,"Time":1815.0,"County":"ATTALA","Location":"5 NW KOSCIUSKO","State":"MS","Type":"Tornado","id":"a6259t0d5ndc","Comments":"ROOF BLOWN OFF OF STRUCTURE NEAR STATE ROAD 440. (JAN)","Lat":33.11,"F_Scale":"UNK","Date_":"24Apr10"},"type":"Feature","geometry":{"type":"Point","coordinates":[-89.65,33.11]}},{"properties":{"Lon":-89.59,"Time":1820.0,"County":"ATTALA","Location":"10 N KOSCIUSKO","State":"MS","Type":"Tornado","id":"a6259suks79n","Comments":"TREES DOWN ACROSS HIGHWAY 43. (JAN)","Lat":33.2,"F_Scale":"UNK","Date_":"24Apr10"},"type":"Feature","geometry":{"type":"Point","coordinates":[-89.59,33.2]}},{"properties":{"Lon":-89.41,"Time":1825.0,"County":"ATTALA","Location":"1 SW FRENCH CAMP","State":"MS","Type":"Tornado","id":"a6259sqduzdu","Comments":"NUMEROUS TREES DOWN AND SOME STRUCTURES DAMAGED ALONG THE NATCHEZ TRACE AND ATTALA ROAD 3122. (JAN)","Lat":33.28,"F_Scale":"UNK","Date_":"24Apr10"},"type":"Feature","geometry":{"type":"Point","coordinates":[-89.41,33.28]}},{"properties":{"Lon":-89.89,"Time":1825.0,"County":"HOLMES","Location":"2 WNW DURANT","State":"MS","Type":"Tornado","id":"a6259sy7mda8","Comments":"CARS BLOWN OFF INTERSTATE 55 AT MILE MARKER 151. SEVERAL INJURIES REPORTED. REPORT FROM WLBT-TV. (JAN)","Lat":33.09,"F_Scale":"UNK","Date_":"24Apr10"},"type":"Feature","geometry":{"type":"Point","coordinates":[-89.89,33.09]}},{"properties":{"Lon":-89.4,"Time":1830.0,"County":"CHOCTAW","Location":"2 N FRENCH CAMP","State":"MS","Type":"Tornado","id":"a6259skx2mo9","Comments":"*** 3 FATAL *** EMERGENCY MANAGER REPORTS EXTENSIVE DAMAGE IN THE COUNTY. UPDATE...MEMA CONFIRMS 3 FATALITIES IN CHOCTAW COUNTY. (JAN)","Lat":33.32,"F_Scale":"UNK","Date_":"24Apr10"},"type":"Feature","geometry":{"type":"Point","coordinates":[-89.4,33.32]}},{"properties":{"Lon":-89.24,"Time":1845.0,"County":"CHOCTAW","Location":"CHESTER","State":"MS","Type":"Tornado","id":"a6259t05irha","Comments":"NUMEROUS TREES DOWN AND TIN ROOF OFF HOME IN CHESTER COMMUNITY (JAN)","Lat":33.36,"F_Scale":"UNK","Date_":"24Apr10"},"type":"Feature","geometry":{"type":"Point","coordinates":[-89.24,33.36]}},{"properties":{"Lon":-90.22,"Time":1905.0,"County":"MISSISSIPPI","Location":"5 SW MANILA","State":"AR","Type":"Tornado","id":"a6259sv91naq","Comments":"TRAINED SPOTTER REPORTED TORNADO ON GROUND AT BIG LAKE. (MEG)","Lat":35.83,"F_Scale":"UNK","Date_":"24Apr10"},"type":"Feature","geometry":{"type":"Point","coordinates":[-90.22,35.83]}},{"properties":{"Lon":-90.12,"Time":1905.0,"County":"MISSISSIPPI","Location":"3 SE MANILA","State":"AR","Type":"Tornado","id":"a6259susvfse","Comments":"TRAINED SPOTTER REPORTED TORNADO ON GROUND AT BIG LAKE. MINOR DAMAGE REPORTED BY TRAINED SPOTTER ON COUNTY RD. 305. ON THE GROUND FOR ABOUT 5 MINUTES. (MEG)","Lat":35.85,"F_Scale":"UNK","Date_":"24Apr10"},"type":"Feature","geometry":{"type":"Point","coordinates":[-90.12,35.85]}},{"properties":{"Lon":-88.82,"Time":1906.0,"County":"OKTIBBEHA","Location":"5 N STARKVILLE","State":"MS","Type":"Tornado","id":"a6259slc540v","Comments":"TRAILER HOME OVERTURNED...POWERLINES DOWN...TREES DOWN ACROSS HWY 389 AND HWY 50 (JAN)","Lat":33.53,"F_Scale":"UNK","Date_":"24Apr10"},"type":"Feature","geometry":{"type":"Point","coordinates":[-88.82,33.53]}},{"properties":{"Lon":-103.15,"Time":1908.0,"County":"BENT","Location":"6 SE LAS ANIMAS","State":"CO","Type":"Tornado","id":"a6259sqkugf5","Comments":"CORRECTED TIME OF TOUCHDOWN 108 PM MDT. (PUB)","Lat":38.01,"F_Scale":"UNK","Date_":"22Apr10"},"type":"Feature","geometry":{"type":"Point","coordinates":[-103.15,38.01]}},{"properties":{"Lon":-103.16,"Time":1910.0,"County":"BENT","Location":"4 ENE LAS ANIMAS","State":"CO","Type":"Tornado","id":"a6259su8xik4","Comments":"CONDENSATION CONE ON GROUND. (PUB)","Lat":38.09,"F_Scale":"UNK","Date_":"22Apr10"},"type":"Feature","geometry":{"type":"Point","coordinates":[-103.16,38.09]}},{"properties":{"Lon":-103.15,"Time":1913.0,"County":"BENT","Location":"6 SE LAS ANIMAS","State":"CO","Type":"Tornado","id":"a6259ss7jvsd","Comments":"(PUB)","Lat":38.01,"F_Scale":"UNK","Date_":"22Apr10"},"type":"Feature","geometry":{"type":"Point","coordinates":[-103.15,38.01]}},{"properties":{"Lon":-103.3,"Time":1915.0,"County":"BENT","Location":"5 WSW LAS ANIMAS","State":"CO","Type":"Tornado","id":"a6259sypstic","Comments":"(PUB)","Lat":38.03,"F_Scale":"UNK","Date_":"22Apr10"},"type":"Feature","geometry":{"type":"Point","coordinates":[-103.3,38.03]}},{"properties":{"Lon":-88.55,"Time":1928.0,"County":"CLAY","Location":"6 ENE WEST POINT","State":"MS","Type":"Tornado","id":"a6259sx2iw4l","Comments":"POWER LINES REPORTED DOWN ON BARTON FERRY ROAD. LIKELY TORNADO BASED ON RADAR. (JAN)","Lat":33.64,"F_Scale":"UNK","Date_":"24Apr10"},"type":"Feature","geometry":{"type":"Point","coordinates":[-88.55,33.64]}},{"properties":{"Lon":-102.99,"Time":1948.0,"County":"BENT","Location":"7 NNW HASTY","State":"CO","Type":"Tornado","id":"a6259srna5ri","Comments":"(PUB)","Lat":38.21,"F_Scale":"UNK","Date_":"22Apr10"},"type":"Feature","geometry":{"type":"Point","coordinates":[-102.99,38.21]}},{"properties":{"Lon":-102.88,"Time":2032.0,"County":"KIOWA","Location":"7 W SWEETWATER RESERVOI","State":"CO","Type":"Tornado","id":"a6259stnl30a","Comments":"(PUB)","Lat":38.36,"F_Scale":"UNK","Date_":"22Apr10"},"type":"Feature","geometry":{"type":"Point","coordinates":[-102.88,38.36]}},{"properties":{"Lon":-102.85,"Time":2047.0,"County":"KIOWA","Location":"5 SW EADS","State":"CO","Type":"Tornado","id":"a6259stqqyn2","Comments":"(PUB)","Lat":38.44,"F_Scale":"UNK","Date_":"22Apr10"},"type":"Feature","geometry":{"type":"Point","coordinates":[-102.85,38.44]}},{"properties":{"Lon":-102.82,"Time":2054.0,"County":"KIOWA","Location":"2 W EADS","State":"CO","Type":"Tornado","id":"a6259swq21uk","Comments":"NEAR COUNTY ROAD 36 CROSSING HIGHWAY 96 MOVING NORTH NORTHEAST. (PUB)","Lat":38.48,"F_Scale":"UNK","Date_":"22Apr10"},"type":"Feature","geometry":{"type":"Point","coordinates":[-102.82,38.48]}},{"properties":{"Lon":-90.43,"Time":2055.0,"County":"LEFLORE","Location":"SWIFTOWN","State":"MS","Type":"Tornado","id":"a6259srjrvvo","Comments":"POSSIBLE BRIEF TORNADO TOUCHDOWN. NO DAMAGE REPORTED. (JAN)","Lat":33.31,"F_Scale":"UNK","Date_":"23Apr10"},"type":"Feature","geometry":{"type":"Point","coordinates":[-90.43,33.31]}},{"properties":{"Lon":-90.45,"Time":2120.0,"County":"ST. LOUIS","Location":"DES PERES","State":"MO","Type":"Tornado","id":"a6259szqfshh","Comments":"TORNADO TOUCHED DOWN AT WEST COUNTY MALL...WITH DAMAGE BEING REPORTED. (LSX)","Lat":38.6,"F_Scale":"UNK","Date_":"24Apr10"},"type":"Feature","geometry":{"type":"Point","coordinates":[-90.45,38.6]}},{"properties":{"Lon":-87.36,"Time":2126.0,"County":"CHRISTIAN","Location":"PEMBROKE","State":"KY","Type":"Tornado","id":"a6259spm88xg","Comments":"UNCONFIRMED. (PAH)","Lat":36.77,"F_Scale":"UNK","Date_":"24Apr10"},"type":"Feature","geometry":{"type":"Point","coordinates":[-87.36,36.77]}},{"properties":{"Lon":-90.45,"Time":2128.0,"County":"ST. LOUIS","Location":"DES PERES","State":"MO","Type":"Tornado","id":"a6259st3wrly","Comments":"ON NORTH BALLAS ROAD JUST SOUTH OF MANCHESTER ROAD ... TREES AND 14 LIMBS DOWNED BY TORNADO ... TIME ESTIMATED BY RADAR (LSX)","Lat":38.6,"F_Scale":"UNK","Date_":"24Apr10"},"type":"Feature","geometry":{"type":"Point","coordinates":[-90.45,38.6]}},{"properties":{"Lon":-104.16,"Time":2128.0,"County":"ELBERT","Location":"9 SW DEER TRAIL","State":"CO","Type":"Tornado","id":"a6259stkior8","Comments":"(BOU)","Lat":39.52,"F_Scale":"UNK","Date_":"22Apr10"},"type":"Feature","geometry":{"type":"Point","coordinates":[-104.16,39.52]}},{"properties":{"Lon":-88.12,"Time":2133.0,"County":"DECATUR","Location":"3 N PARSONS","State":"TN","Type":"Tornado","id":"a6259smkf3xk","Comments":"TORNADO REPORTED ON HIGHWAY 641 ABOUT 3 MILES NORTH OF PARSONS. (MEG)","Lat":35.7,"F_Scale":"UNK","Date_":"24Apr10"},"type":"Feature","geometry":{"type":"Point","coordinates":[-88.12,35.7]}},{"properties":{"Lon":-104.08,"Time":2138.0,"County":"ADAMS","Location":"1 W LEADER","State":"CO","Type":"Tornado","id":"a6259srx66l6","Comments":"(BOU)","Lat":39.9,"F_Scale":"UNK","Date_":"22Apr10"},"type":"Feature","geometry":{"type":"Point","coordinates":[-104.08,39.9]}},{"properties":{"Lon":-88.08,"Time":2140.0,"County":"DECATUR","Location":"6 NNE PARSONS","State":"TN","Type":"Tornado","id":"a6259sn2breo","Comments":"SEVERAL HOUSES DAMAGED ON BROADYS LANDING ROAD. (MEG)","Lat":35.73,"F_Scale":"UNK","Date_":"24Apr10"},"type":"Feature","geometry":{"type":"Point","coordinates":[-88.08,35.73]}},{"properties":{"Lon":-101.42,"Time":2140.0,"County":"KEARNY","Location":"7 ESE KENDALL","State":"KS","Type":"Tornado","id":"a6259spnbpuf","Comments":"THE PUBLIC REPORTED TORNADO WAS 1 MILE WIDE. (DDC)","Lat":37.91,"F_Scale":"UNK","Date_":"22Apr10"},"type":"Feature","geometry":{"type":"Point","coordinates":[-101.42,37.91]}},{"properties":{"Lon":-101.12,"Time":2159.0,"County":"ARMSTRONG","Location":"5 NE GOODNIGHT","State":"TX","Type":"Tornado","id":"a6259swq4fb1","Comments":"ON THE THE GROUND FOR 3 MINUTES (AMA)","Lat":35.09,"F_Scale":"UNK","Date_":"22Apr10"},"type":"Feature","geometry":{"type":"Point","coordinates":[-101.12,35.09]}},{"properties":{"Lon":-87.98,"Time":2202.0,"County":"HUMPHREYS","Location":"15 SW WAVERLY","State":"TN","Type":"Tornado","id":"a6259skxgiwh","Comments":"CONFIRMED TORNADO TOUCHDOWN WAS REPORTED TWO MILES SOUTH OF INTERSTATE 40. MULTIPLE TREES WERE REPORTED DOWNED ACROSS THIS AREA ALSO. (OHX)","Lat":35.94,"F_Scale":"UNK","Date_":"24Apr10"},"type":"Feature","geometry":{"type":"Point","coordinates":[-87.98,35.94]}},{"properties":{"Lon":-100.98,"Time":2210.0,"County":"DONLEY","Location":"8 ESE GROOM","State":"TX","Type":"Tornado","id":"a6259spi93hb","Comments":"TORNADO BEGAN 4 MILES SE OF GROOM AND ENDED ABOUT 2 MILES ESE OF JERICHO (AMA)","Lat":35.16,"F_Scale":"UNK","Date_":"22Apr10"},"type":"Feature","geometry":{"type":"Point","coordinates":[-100.98,35.16]}},{"properties":{"Lon":-101.28,"Time":2210.0,"County":"KEARNY","Location":"2 SW LAKIN","State":"KS","Type":"Tornado","id":"a6259syf604l","Comments":"(DDC)","Lat":37.92,"F_Scale":"UNK","Date_":"22Apr10"},"type":"Feature","geometry":{"type":"Point","coordinates":[-101.28,37.92]}},{"properties":{"Lon":-101.15,"Time":2220.0,"County":"ARMSTRONG","Location":"3 NE GOODNIGHT","State":"TX","Type":"Tornado","id":"a6259sykpt2j","Comments":"TORNADO BEGAN 3 MILES S OF GOODNIGHT AND ENDED ABOUT 8 MILES NE OF GOODNIGHT. TORNADO REPORTED BY MULTIPLE SOURCES. (AMA)","Lat":35.07,"F_Scale":"UNK","Date_":"22Apr10"},"type":"Feature","geometry":{"type":"Point","coordinates":[-101.15,35.07]}},{"properties":{"Lon":-102.73,"Time":2224.0,"County":"CHEYENNE","Location":"5 NE KIT CARSON","State":"CO","Type":"Tornado","id":"a6259sy3459l","Comments":"PUBLIC REPORTED TORNADO ON THE GROUND LASTED 3 TO 4 MINUTES. TORNADO ROPING OUT. (GLD)","Lat":38.81,"F_Scale":"UNK","Date_":"22Apr10"},"type":"Feature","geometry":{"type":"Point","coordinates":[-102.73,38.81]}},{"properties":{"Lon":-100.85,"Time":2238.0,"County":"GRAY","Location":"1 E LAKE MCCLELLAN","State":"TX","Type":"Tornado","id":"a6259ss9wncy","Comments":"TORNADO BEGAN 1 MILE E OF LAKE MECCLELLAN AND MOVED NE FOR APPROXIMATELY ONE HALF MILE. (AMA)","Lat":35.22,"F_Scale":"UNK","Date_":"22Apr10"},"type":"Feature","geometry":{"type":"Point","coordinates":[-100.85,35.22]}},{"properties":{"Lon":-101.21,"Time":2239.0,"County":"KEARNY","Location":"6 NW DEERFIELD","State":"KS","Type":"Tornado","id":"a6259svwhaao","Comments":"(DDC)","Lat":38.04,"F_Scale":"UNK","Date_":"22Apr10"},"type":"Feature","geometry":{"type":"Point","coordinates":[-101.21,38.04]}},{"properties":{"Lon":-102.82,"Time":2240.0,"County":"CHEYENNE","Location":"2 SW KIT CARSON","State":"CO","Type":"Tornado","id":"a6259snvnjqu","Comments":"LASTED 5 MINUTES (GLD)","Lat":38.74,"F_Scale":"UNK","Date_":"22Apr10"},"type":"Feature","geometry":{"type":"Point","coordinates":[-102.82,38.74]}},{"properties":{"Lon":-100.82,"Time":2251.0,"County":"BEAVER","Location":"8 S BRYANS CORNER","State":"OK","Type":"Tornado","id":"a6259sqycshf","Comments":"TORNADO BEGAN 8 MILES S OF BRYANS CORNER AND REMAINED NEARLY STATIONARY. TORNADO LASTED APPROXIMATELY ONE MINUTE. (AMA)","Lat":36.5,"F_Scale":"UNK","Date_":"22Apr10"},"type":"Feature","geometry":{"type":"Point","coordinates":[-100.82,36.5]}},{"properties":{"Lon":-102.83,"Time":2253.0,"County":"CHEYENNE","Location":"2 W KIT CARSON","State":"CO","Type":"Tornado","id":"a6259stu4s13","Comments":"LASTED 3 MINUTES (GLD)","Lat":38.76,"F_Scale":"UNK","Date_":"22Apr10"},"type":"Feature","geometry":{"type":"Point","coordinates":[-102.83,38.76]}},{"properties":{"Lon":-100.98,"Time":2307.0,"County":"DONLEY","Location":"8 ESE GROOM","State":"TX","Type":"Tornado","id":"a6259srkn5ea","Comments":"TORNADO BAGAN 8 MILES ESE OF GROOM AND MOVED NE FOR APPROXIMATELY ONE HALF MILE. (AMA)","Lat":35.16,"F_Scale":"UNK","Date_":"22Apr10"},"type":"Feature","geometry":{"type":"Point","coordinates":[-100.98,35.16]}},{"properties":{"Lon":-102.68,"Time":2309.0,"County":"CHEYENNE","Location":"8 WNW FIRSTVIEW","State":"CO","Type":"Tornado","id":"a6259sp0nlh7","Comments":"RAIN WRAPPED (GLD)","Lat":38.86,"F_Scale":"UNK","Date_":"22Apr10"},"type":"Feature","geometry":{"type":"Point","coordinates":[-102.68,38.86]}},{"properties":{"Lon":-101.09,"Time":2311.0,"County":"FINNEY","Location":"10 WSW FRIEND","State":"KS","Type":"Tornado","id":"a6259swax9pf","Comments":"(DDC)","Lat":38.22,"F_Scale":"UNK","Date_":"22Apr10"},"type":"Feature","geometry":{"type":"Point","coordinates":[-101.09,38.22]}},{"properties":{"Lon":-100.99,"Time":2313.0,"County":"FINNEY","Location":"9 SSW FRIEND","State":"KS","Type":"Tornado","id":"a6259slje3al","Comments":"STOVEPIPE TORNADO. (DDC)","Lat":38.14,"F_Scale":"UNK","Date_":"22Apr10"},"type":"Feature","geometry":{"type":"Point","coordinates":[-100.99,38.14]}},{"properties":{"Lon":-90.95,"Time":2322.0,"County":"CRAIGHEAD","Location":"1 W CASH","State":"AR","Type":"Tornado","id":"a6259t0l01v0","Comments":"TORNADO REPORTED TO HAVE TOUCHED DOWN A COUPLE TIMES. (MEG)","Lat":35.8,"F_Scale":"UNK","Date_":"23Apr10"},"type":"Feature","geometry":{"type":"Point","coordinates":[-90.95,35.8]}},{"properties":{"Lon":-101.06,"Time":2322.0,"County":"FINNEY","Location":"8 W FRIEND","State":"KS","Type":"Tornado","id":"a6259szsxym4","Comments":"LARGE TORNADO WITH POSSIBLE SATELLITE TORNADO. (DDC)","Lat":38.24,"F_Scale":"UNK","Date_":"22Apr10"},"type":"Feature","geometry":{"type":"Point","coordinates":[-101.06,38.24]}},{"properties":{"Lon":-101.02,"Time":2326.0,"County":"SCOTT","Location":"6 W FRIEND","State":"KS","Type":"Tornado","id":"a6259swyqsoh","Comments":"WEDGE TORNADO. (DDC)","Lat":38.26,"F_Scale":"UNK","Date_":"22Apr10"},"type":"Feature","geometry":{"type":"Point","coordinates":[-101.02,38.26]}},{"properties":{"Lon":-100.8,"Time":2330.0,"County":"GRAY","Location":"5 NW ALANREED","State":"TX","Type":"Tornado","id":"a6259slmmd7o","Comments":"LARGE INTENSE CIRCULATION... APPROXIMATELY ONE QUARTER OF A MILE WIDE... WITH SEVERAL BRIEF MULTI VORTEX STYLE TOUCHDOWNS. TORNADO BEGAN 1 MILE NORTH OF LAKE MCCLELLAN (AMA)","Lat":35.26,"F_Scale":"UNK","Date_":"22Apr10"},"type":"Feature","geometry":{"type":"Point","coordinates":[-100.8,35.26]}},{"properties":{"Lon":-101.04,"Time":2332.0,"County":"SCOTT","Location":"8 WSW SHALLOW WATER","State":"KS","Type":"Tornado","id":"a6259t119etq","Comments":"STORM CHASER REPORTED RAIN WRAPPED WEDGE TORNADO. (DDC)","Lat":38.31,"F_Scale":"UNK","Date_":"22Apr10"},"type":"Feature","geometry":{"type":"Point","coordinates":[-101.04,38.31]}},{"properties":{"Lon":-100.59,"Time":2340.0,"County":"GRAY","Location":"13 ENE LEFORS","State":"TX","Type":"Tornado","id":"a6259sprf55o","Comments":"TORNADO BEGAN 11 MILES ENE OF LEFORS AND ENDED APPROXIMATELY 7 MILES WSW OF MOBEETIE. (AMA)","Lat":35.51,"F_Scale":"UNK","Date_":"22Apr10"},"type":"Feature","geometry":{"type":"Point","coordinates":[-100.59,35.51]}},{"properties":{"Lon":-91.19,"Time":2340.0,"County":"WARREN","Location":"4 NW WARRENTON","State":"MO","Type":"Tornado","id":"a6259st08dvh","Comments":"BRIEF TORNADO TOUCHDOWN OBSERVED 4 MILES NORTHWEST OF WARRENTON (LSX)","Lat":38.86,"F_Scale":"UNK","Date_":"23Apr10"},"type":"Feature","geometry":{"type":"Point","coordinates":[-91.19,38.86]}},{"properties":{"Lon":-101.28,"Time":2344.0,"County":"KEARNY","Location":"14 NW DEERFIELD","State":"KS","Type":"Tornado","id":"a6259sw7qnnd","Comments":"STOVEPIPE TORNADO. (DDC)","Lat":38.14,"F_Scale":"UNK","Date_":"22Apr10"},"type":"Feature","geometry":{"type":"Point","coordinates":[-101.28,38.14]}},{"properties":{"Lon":-102.54,"Time":2352.0,"County":"CHEYENNE","Location":"12 N FIRSTVIEW","State":"CO","Type":"Tornado","id":"a6259sqis7do","Comments":"TORNADO ON NORTH SIDE OFINTERSECTIO OF COUNTY ROAD DD AND COUNTY ROAD 34 MOVING TO THE NORTHEAST. (GLD)","Lat":39.0,"F_Scale":"UNK","Date_":"22Apr10"},"type":"Feature","geometry":{"type":"Point","coordinates":[-102.54,39.0]}}],"is_temporal":false,"author":{"url":"http://www.spc.noaa.gov/","metadata":"http://www.spc.noaa.gov/","contact_name":"","contact_address":"","source":"NOAA's Storm Prediction Center website","contact_phone":""},"source":"http://www.spc.noaa.gov/","pagination":{"sort":null,"start":0,"total":92,"limit":1000000},"state":"complete","tags":"hail,highwind,storm,tornado,weather","published":"2010-04-25T01:27:59Z","id":41389}