{"type":"FeatureCollection","data_type":"Dataset","url_type":null,"permissions":[{"permissions":{"download":true,"view":true},"group_id":"everyone"}],"classification":null,"title":"FEMA HAZUS, Houston-Galveston schools affected by Ike's storm surge, USA, Sep 13 2008   ","count":60,"stream_id":4466,"contributor":{"url":"http://geocommons.com/users/4","name":"aark"},"data_attributes":null,"calculation_params":null,"icon_link":null,"link":"http://geocommons.com/overlays/4466.json","extent":[-95.3709,28.9463,-93.8829,29.9632],"geometry_types":["point"],"unique_name":null,"name":"FEMA HAZUS, Houston-Galveston schools affected by Ike's storm surge, USA, Sep 13 2008   ","feature_count":60,"description":"The point shapefile shows locations of schools that may be affected by Hurricane Ike's storm surge at land-fall on Sep 13 2008. The data was extracted from FEMA's HAZUS-MH software.\n\n\n\n\n\n","next_feature":null,"is_raster":false,"short_classification":"Y","stats":{"Zipcode":{"max":null,"min":null,"median":null},"NumStudent":{"max":2166,"mean":513.766666666667,"variance":194537.809039548,"stdev":441.064404638992,"min":0,"median":487},"Longitude":{"max":-93.8829,"mean":-94.566369,"variance":0.264273366151526,"stdev":0.514075253393436,"min":-95.37089,"median":-94.78863},"Latitude":{"max":29.96321,"mean":29.5348183333333,"variance":0.105247190722599,"stdev":0.324418234263425,"min":28.94631,"median":29.41321},"Tract":{"max":null,"min":null,"median":null}},"features":[{"properties":{"City":"PORT ARTHUR","Name":"ST CATHERINE ELEM SCHOOL","NumStudent":242,"Zipcode":"77642","Longitude":-93.93484,"Latitude":29.9266,"District":"","id":"a66pl2fxicef","Statea":"TX","Address":"3840 WOODROW DRIVE","Tract":"48245007002"},"type":"Feature","geometry":{"type":"Point","coordinates":[-93.9348399999999,29.9266000000007]}},{"properties":{"City":"PORT ARTHUR","Name":"SR THEA BOWMAN ACADEMY","NumStudent":92,"Zipcode":"77642","Longitude":-93.92126,"Latitude":29.90724,"District":"","id":"a66pl2lmmns6","Statea":"TX","Address":"3617 GULFWAY DRIVE","Tract":"48245006400"},"type":"Feature","geometry":{"type":"Point","coordinates":[-93.9212599999992,29.9072400000005]}},{"properties":{"City":"TEXAS CITY","Name":"OUR LADY OF FATIMA CATHOLIC SC","NumStudent":93,"Zipcode":"77590","Longitude":-94.91915,"Latitude":29.39342,"District":"","id":"a66pl2h4eh7w","Statea":"TX","Address":"1600 9TH AVE N","Tract":"48167722300"},"type":"Feature","geometry":{"type":"Point","coordinates":[-94.9191499999997,29.3934200000003]}},{"properties":{"City":"GALVESTON","Name":"GALVESTON CATHOLIC SCHOOLS","NumStudent":345,"Zipcode":"77550","Longitude":-94.78206,"Latitude":29.30907,"District":"","id":"a66pl2bdi5pz","Statea":"TX","Address":"2601 URSULINE","Tract":"48167724300"},"type":"Feature","geometry":{"type":"Point","coordinates":[-94.7820599999995,29.3090699999993]}},{"properties":{"City":"GALVESTON","Name":"TRINITY EPISCOPAL SCHOOL","NumStudent":255,"Zipcode":"77550","Longitude":-94.78206,"Latitude":29.30907,"District":"","id":"a66pl2eg0in9","Statea":"TX","Address":"720 TREMONT STREET","Tract":"48167724300"},"type":"Feature","geometry":{"type":"Point","coordinates":[-94.7820599999995,29.3090699999993]}},{"properties":{"City":"GALVESTON","Name":"OCONNELL HIGH SCHOOL","NumStudent":128,"Zipcode":"77550","Longitude":-94.7908,"Latitude":29.2972,"District":"","id":"a66pl2kqnd9c","Statea":"TX","Address":"1320 TREMONT","Tract":"48167724400"},"type":"Feature","geometry":{"type":"Point","coordinates":[-94.7908000000007,29.2972000000009]}},{"properties":{"City":"TEXAS CITY","Name":"TRINITY BAPTIST CHRISTIAN SCHO","NumStudent":29,"Zipcode":"77590","Longitude":-94.9371,"Latitude":29.40596,"District":"","id":"a66pl2j0jxlw","Statea":"TX","Address":"2220 29TH ST N","Tract":"48167722000"},"type":"Feature","geometry":{"type":"Point","coordinates":[-94.9370999999992,29.4059600000001]}},{"properties":{"City":"PORT ARTHUR","Name":"UNITED CHRISTIAN ACADEMY","NumStudent":111,"Zipcode":"77640","Longitude":-93.93801,"Latitude":29.9031,"District":"","id":"a66pl2m9c54a","Statea":"TX","Address":"2700 25TH ST","Tract":"48245006700"},"type":"Feature","geometry":{"type":"Point","coordinates":[-93.9380099999998,29.9030999999995]}},{"properties":{"City":"NEDERLAND","Name":"SCHOOL OF MONTESSORI","NumStudent":33,"Zipcode":"77627","Longitude":-93.98023,"Latitude":29.96321,"District":"","id":"a66pl2neis4u","Statea":"TX","Address":"1503 S 16TH STREET","Tract":"48245011002"},"type":"Feature","geometry":{"type":"Point","coordinates":[-93.9802299999992,29.9632099999999]}},{"properties":{"City":"GALVESTON","Name":"EAST END PRESCHOOL","NumStudent":57,"Zipcode":"77550","Longitude":-94.78863,"Latitude":29.30487,"District":"","id":"a66pl2jytr39","Statea":"TX","Address":"1903 CHURCH ST","Tract":"48167724500"},"type":"Feature","geometry":{"type":"Point","coordinates":[-94.7886299999991,29.3048699999999]}},{"properties":{"City":"TEXAS CITY","Name":"MAINLAND CHRISTIAN SCHOOL","NumStudent":57,"Zipcode":"77591","Longitude":-94.98109,"Latitude":29.41321,"District":"","id":"a66pl2hraboj","Statea":"TX","Address":"2600 I-45N","Tract":"48167721900"},"type":"Feature","geometry":{"type":"Point","coordinates":[-94.9810899999993,29.4132100000006]}},{"properties":{"City":"DICKINSON","Name":"PINE DRIVE CHRISTIAN","NumStudent":350,"Zipcode":"77539","Longitude":-95.07191,"Latitude":29.4521,"District":"","id":"a66pl2i2mldi","Statea":"TX","Address":"705 PINE DRIVE","Tract":"48167720900"},"type":"Feature","geometry":{"type":"Point","coordinates":[-95.0719100000006,29.4521000000004]}},{"properties":{"City":"GALVESTON","Name":"ODYSSEY ACADEMY INC","NumStudent":173,"Zipcode":"77550","Longitude":-94.78081,"Latitude":29.30402,"District":"","id":"a66pl2bgtmr3","Statea":"TX","Address":"901 13TH","Tract":"48167724300"},"type":"Feature","geometry":{"type":"Point","coordinates":[-94.7808100000002,29.3040199999996]}},{"properties":{"City":"PORT ARTHUR","Name":"TEKOA ACADEMY","NumStudent":157,"Zipcode":"77640","Longitude":-93.94346,"Latitude":29.87532,"District":"","id":"a66pl2ee8e3a","Statea":"TX","Address":"326 THOMAS BLVD","Tract":"48245006100"},"type":"Feature","geometry":{"type":"Point","coordinates":[-93.9434600000004,29.8753199999992]}},{"properties":{"City":"FREEPORT","Name":"BRAZOSPORT H S","NumStudent":1051,"Zipcode":"775411926","Longitude":-95.37089,"Latitude":28.95718,"District":"","id":"a66pl2bfqhux","Statea":"TX","Address":"1800 WEST SECOND ST","Tract":"48039664300"},"type":"Feature","geometry":{"type":"Point","coordinates":[-95.3708900000001,28.9571799999994]}},{"properties":{"City":"FREEPORT","Name":"O A FLEMING EL","NumStudent":373,"Zipcode":"775411926","Longitude":-95.35152,"Latitude":28.94965,"District":"","id":"a66pl2d94t1h","Statea":"TX","Address":"431 WEST FOURTH ST","Tract":"48039664400"},"type":"Feature","geometry":{"type":"Point","coordinates":[-95.3515200000002,28.9496500000005]}},{"properties":{"City":"FREEPORT","Name":"FREEPORT INT","NumStudent":567,"Zipcode":"775411926","Longitude":-95.3499,"Latitude":28.94922,"District":"","id":"a66pl2izsp60","Statea":"TX","Address":"311 WEST FOURTH ST","Tract":"48039664400"},"type":"Feature","geometry":{"type":"Point","coordinates":[-95.3498999999993,28.9492200000004]}},{"properties":{"City":"FREEPORT","Name":"JANE LONG EL","NumStudent":639,"Zipcode":"775411926","Longitude":-95.36372,"Latitude":28.94631,"District":"","id":"a66pl2n3kgvg","Statea":"TX","Address":"1200 WEST ELEVENTH ST","Tract":"48039664400"},"type":"Feature","geometry":{"type":"Point","coordinates":[-95.3637199999994,28.9463099999994]}},{"properties":{"City":"FREEPORT","Name":"VELASCO EL","NumStudent":680,"Zipcode":"775411926","Longitude":-95.33376,"Latitude":29.02155,"District":"","id":"a66pl2btsky9","Statea":"TX","Address":"500 AVENUE B","Tract":"48039664200"},"type":"Feature","geometry":{"type":"Point","coordinates":[-95.3337599999995,29.0215499999995]}},{"properties":{"City":"FREEPORT","Name":"O'HARA LANIER MIDDLE","NumStudent":460,"Zipcode":"775414224","Longitude":-95.36604,"Latitude":28.96313,"District":"","id":"a66pl27nifmb","Statea":"TX","Address":"522 NORTH AVE B","Tract":"48039664300"},"type":"Feature","geometry":{"type":"Point","coordinates":[-95.3660400000008,28.9631300000001]}},{"properties":{"City":"SEABROOK","Name":"BAY EL","NumStudent":763,"Zipcode":"775683525","Longitude":-95.02538,"Latitude":29.56056,"District":"","id":"a66pl2886zcm","Statea":"TX","Address":"1502 BAYPORT","Tract":"48201341600"},"type":"Feature","geometry":{"type":"Point","coordinates":[-95.0253799999991,29.5605599999999]}},{"properties":{"City":"FRIENDSWOOD","Name":"BROOKSIDE INT","NumStudent":1065,"Zipcode":"775469999","Longitude":-95.1903,"Latitude":29.5178,"District":"","id":"a66pl2dtxkyv","Statea":"TX","Address":"3535 EAST PARKWOOD","Tract":"48167720200"},"type":"Feature","geometry":{"type":"Point","coordinates":[-95.1903000000002,29.5177999999996]}},{"properties":{"City":"GALVESTON","Name":"ALAMO EL","NumStudent":533,"Zipcode":"775504799","Longitude":-94.7888,"Latitude":29.2987,"District":"","id":"a66pl2eif15n","Statea":"TX","Address":"5200 AVE N","Tract":"48167724400"},"type":"Feature","geometry":{"type":"Point","coordinates":[-94.7888000000003,29.2986999999994]}},{"properties":{"City":"PORT BOLIVAR","Name":"BOLIVAR EL","NumStudent":208,"Zipcode":"776509999","Longitude":-94.6622,"Latitude":29.4386,"District":"","id":"a66pl2n2ga6h","Statea":"TX","Address":"921 MADISON AVE","Tract":"48167723900"},"type":"Feature","geometry":{"type":"Point","coordinates":[-94.6622000000007,29.4385999999995]}},{"properties":{"City":"GALVESTON","Name":"CENTRAL MIDDLE","NumStudent":624,"Zipcode":"775504296","Longitude":-94.8005,"Latitude":29.2989,"District":"","id":"a66pl2d9jvk7","Statea":"TX","Address":"3014 AVE I","Tract":"48167724600"},"type":"Feature","geometry":{"type":"Point","coordinates":[-94.8004999999994,29.2988999999998]}},{"properties":{"City":"GALVESTON","Name":"MORGAN ACAD OF FINE ARTS","NumStudent":531,"Zipcode":"775504160","Longitude":-94.80669,"Latitude":29.29222,"District":"","id":"a66pl29osqoo","Statea":"TX","Address":"1410 37TH ST","Tract":"48167724700"},"type":"Feature","geometry":{"type":"Point","coordinates":[-94.8066899999994,29.2922199999994]}},{"properties":{"City":"GALVESTON","Name":"PARKER EL","NumStudent":613,"Zipcode":"775511899","Longitude":-94.8384,"Latitude":29.2726,"District":"","id":"a66pl2ikrcxd","Statea":"TX","Address":"6802 JONES DR","Tract":"48167725800"},"type":"Feature","geometry":{"type":"Point","coordinates":[-94.8384000000005,29.2726000000002]}},{"properties":{"City":"GALVESTON","Name":"ROSENBERG EL","NumStudent":518,"Zipcode":"775505196","Longitude":-94.77798,"Latitude":29.30652,"District":"","id":"a66pl2gcnk1l","Statea":"TX","Address":"721 10TH ST","Tract":"48167724300"},"type":"Feature","geometry":{"type":"Point","coordinates":[-94.7779800000008,29.3065200000001]}},{"properties":{"City":"GALVESTON","Name":"SAN JACINTO EL","NumStudent":512,"Zipcode":"775504695","Longitude":-94.7891,"Latitude":29.2996,"District":"","id":"a66pl2hqg8e4","Statea":"TX","Address":"1110 MOODY AVE","Tract":"48167724400"},"type":"Feature","geometry":{"type":"Point","coordinates":[-94.7891,29.2996000000003]}},{"properties":{"City":"GALVESTON","Name":"OPPE EL","NumStudent":630,"Zipcode":"775541901","Longitude":-94.86092,"Latitude":29.28562,"District":"","id":"a66pl2b2zo7p","Statea":"TX","Address":"2915 81ST ST","Tract":"48167724000"},"type":"Feature","geometry":{"type":"Point","coordinates":[-94.8609199999992,29.2856200000006]}},{"properties":{"City":"GALVESTON","Name":"WEIS MIDDLE","NumStudent":766,"Zipcode":"775517199","Longitude":-94.83606,"Latitude":29.26653,"District":"","id":"a66pl2gr9c5k","Statea":"TX","Address":"7100 STEWART RD","Tract":"48167725600"},"type":"Feature","geometry":{"type":"Point","coordinates":[-94.8360599999996,29.2665300000008]}},{"properties":{"City":"GALVESTON","Name":"ALTER SCH","NumStudent":37,"Zipcode":"775506999","Longitude":-94.81337,"Latitude":29.28957,"District":"","id":"a66pl2f48c92","Statea":"TX","Address":"1503 43RD ST","Tract":"48167725300"},"type":"Feature","geometry":{"type":"Point","coordinates":[-94.8133699999998,29.2895700000008]}},{"properties":{"City":"GALVESTON","Name":"STUDENT ALTER INSTR LRN SCHOOL","NumStudent":5,"Zipcode":"775506999","Longitude":-94.81337,"Latitude":29.28957,"District":"","id":"a66pl2iamewx","Statea":"TX","Address":"1503  43RD ST","Tract":"48167725300"},"type":"Feature","geometry":{"type":"Point","coordinates":[-94.8133699999998,29.2895700000008]}},{"properties":{"City":"GALVESTON","Name":"ST JOHN PRE-KINDERGARTEN EARLY","NumStudent":178,"Zipcode":"77550","Longitude":-94.78206,"Latitude":29.30907,"District":"","id":"a66pl280vvfj","Statea":"TX","Address":"3920 AVENUE L","Tract":"48167724300"},"type":"Feature","geometry":{"type":"Point","coordinates":[-94.7820599999995,29.3090699999993]}},{"properties":{"City":"BAYTOWN","Name":"CEDAR BAYOU J H","NumStudent":807,"Zipcode":"775203813","Longitude":-94.9306,"Latitude":29.7547,"District":"","id":"a66pl29yuhfo","Statea":"TX","Address":"2610 CEDAR BAYOU RD","Tract":"48201253900"},"type":"Feature","geometry":{"type":"Point","coordinates":[-94.9305999999997,29.7546999999995]}},{"properties":{"City":"BAYTOWN","Name":"LEE H S","NumStudent":2166,"Zipcode":"775206598","Longitude":-94.98828,"Latitude":29.7321,"District":"","id":"a66pl2etqgb4","Statea":"TX","Address":"1809 MARKET ST","Tract":"48201254600"},"type":"Feature","geometry":{"type":"Point","coordinates":[-94.9882799999996,29.7320999999993]}},{"properties":{"City":"GALVESTON","Name":"SEABORNE CONSERVATION CORPS","NumStudent":0,"Zipcode":"775531675","Longitude":-94.7954,"Latitude":29.3031,"District":"","id":"a66pl2ab69nc","Statea":"TX","Address":"SCHOOL IS LOCATED ON A BARGE-G","Tract":"48167724500"},"type":"Feature","geometry":{"type":"Point","coordinates":[-94.7954000000009,29.3030999999992]}},{"properties":{"City":"BEAUMONT","Name":"JEFFERSON CO YOUTH ACAD","NumStudent":2,"Zipcode":"777057720","Longitude":-94.2251,"Latitude":29.8569,"District":"","id":"a66pl2izb227","Statea":"TX","Address":"HWY 69","Tract":"48245011301"},"type":"Feature","geometry":{"type":"Point","coordinates":[-94.2250999999997,29.8569000000007]}},{"properties":{"City":"PORT ARTHUR","Name":"AUSTIN H S","NumStudent":589,"Zipcode":"776406999","Longitude":-94.01817,"Latitude":29.89947,"District":"","id":"a66pl2azdxh8","Statea":"TX","Address":"2441 61ST ST","Tract":"48245007100"},"type":"Feature","geometry":{"type":"Point","coordinates":[-94.0181699999994,29.8994700000003]}},{"properties":{"City":"PORT ARTHUR","Name":"DEQUEEN EL","NumStudent":487,"Zipcode":"776406205","Longitude":-93.9232,"Latitude":29.88975,"District":"","id":"a66pl2aals6c","Statea":"TX","Address":"740 DEQUEEN BLVD","Tract":"48245005400"},"type":"Feature","geometry":{"type":"Point","coordinates":[-93.9231999999993,29.8897500000003]}},{"properties":{"City":"PORT ARTHUR","Name":"DOWLING EL","NumStudent":286,"Zipcode":"776401256","Longitude":-94.03728,"Latitude":29.90185,"District":"","id":"a66pl2kn7z5k","Statea":"TX","Address":"6301 PAT AVE","Tract":"48245007100"},"type":"Feature","geometry":{"type":"Point","coordinates":[-94.0372800000005,29.9018500000002]}},{"properties":{"City":"PORT ARTHUR","Name":"EDISON MIDDLE","NumStudent":1194,"Zipcode":"776423521","Longitude":-93.9189,"Latitude":29.9033,"District":"","id":"a66pl2kalepq","Statea":"TX","Address":"3501 12TH AVE","Tract":"48245006400"},"type":"Feature","geometry":{"type":"Point","coordinates":[-93.9189000000006,29.9032999999999]}},{"properties":{"City":"PORT ARTHUR","Name":"FRANKLIN EL","NumStudent":946,"Zipcode":"776405458","Longitude":-93.93661,"Latitude":29.8794,"District":"","id":"a66pl2ipitbi","Statea":"TX","Address":"1000 10TH ST","Tract":"48245006100"},"type":"Feature","geometry":{"type":"Point","coordinates":[-93.9366100000007,29.8793999999998]}},{"properties":{"City":"PORT ARTHUR","Name":"HOUSTON EL","NumStudent":779,"Zipcode":"776424528","Longitude":-93.9418,"Latitude":29.9162,"District":"","id":"a66pl2bntbb7","Statea":"TX","Address":"3245 36TH ST","Tract":"48245006800"},"type":"Feature","geometry":{"type":"Point","coordinates":[-93.9418000000005,29.9161999999997]}},{"properties":{"City":"PORT ARTHUR","Name":"HUGHEN SCH","NumStudent":22,"Zipcode":"776423999","Longitude":-93.93064,"Latitude":29.91528,"District":"","id":"a66pl2k4vpzy","Statea":"TX","Address":"2849 9TH AVE","Tract":"48245010300"},"type":"Feature","geometry":{"type":"Point","coordinates":[-93.9306400000005,29.9152799999993]}},{"properties":{"City":"PORT ARTHUR","Name":"JEFFERSON H S","NumStudent":1533,"Zipcode":"776421895","Longitude":-93.91399,"Latitude":29.92224,"District":"","id":"a66pl2lqwhrt","Statea":"TX","Address":"2200 JEFFERSON DR","Tract":"48245006600"},"type":"Feature","geometry":{"type":"Point","coordinates":[-93.9139899999991,29.9222399999999]}},{"properties":{"City":"PORT ARTHUR","Name":"LEE EL","NumStudent":1019,"Zipcode":"776423099","Longitude":-93.9095,"Latitude":29.9076,"District":"","id":"a66pl27tds3c","Statea":"TX","Address":"3939 DELAWARE DR","Tract":"48245005600"},"type":"Feature","geometry":{"type":"Point","coordinates":[-93.9094999999998,29.9076000000005]}},{"properties":{"City":"PORT ARTHUR","Name":"LINCOLN H S","NumStudent":1018,"Zipcode":"776409999","Longitude":-93.98814,"Latitude":29.89222,"District":"","id":"a66pl2a3b826","Statea":"TX","Address":"1023 LINCOLN LANE","Tract":"48245006900"},"type":"Feature","geometry":{"type":"Point","coordinates":[-93.9881399999995,29.8922199999997]}},{"properties":{"City":"PORT ARTHUR","Name":"PEASE EL","NumStudent":243,"Zipcode":"776401020","Longitude":-94.03173,"Latitude":29.8916,"District":"","id":"a66pl2gpnmff","Statea":"TX","Address":"5924 JADE AVE","Tract":"48245007100"},"type":"Feature","geometry":{"type":"Point","coordinates":[-94.0317300000006,29.8916000000008]}},{"properties":{"City":"PORT ARTHUR","Name":"TRAVIS EL","NumStudent":720,"Zipcode":"776420601","Longitude":-93.90277,"Latitude":29.91826,"District":"","id":"a66pl2jepvwm","Statea":"TX","Address":"1115 LAKEVIEW AVE","Tract":"48245006600"},"type":"Feature","geometry":{"type":"Point","coordinates":[-93.9027700000006,29.9182600000004]}},{"properties":{"City":"PORT ARTHUR","Name":"WASHINGTON EL","NumStudent":442,"Zipcode":"776404025","Longitude":-93.94858,"Latitude":29.87176,"District":"","id":"a66pl2fkakyv","Statea":"TX","Address":"401 W 12TH ST","Tract":"48245005900"},"type":"Feature","geometry":{"type":"Point","coordinates":[-93.9485800000002,29.87176]}},{"properties":{"City":"PORT ARTHUR","Name":"WHEATLEY EL","NumStudent":325,"Zipcode":"776409999","Longitude":-93.92157,"Latitude":29.89255,"District":"","id":"a66pl2le4m9a","Statea":"TX","Address":"800 EL VISTA RD","Tract":"48245005400"},"type":"Feature","geometry":{"type":"Point","coordinates":[-93.9215700000004,29.8925500000005]}},{"properties":{"City":"PORT ARTHUR","Name":"WILSON MIDDLE","NumStudent":995,"Zipcode":"776406611","Longitude":-93.92642,"Latitude":29.87884,"District":"","id":"a66pl2m25bx3","Statea":"TX","Address":"1500 LAKESHORE DR","Tract":"48245005300"},"type":"Feature","geometry":{"type":"Point","coordinates":[-93.9264199999998,29.8788399999994]}},{"properties":{"City":"PORT ARTHUR","Name":"TAFT EL","NumStudent":379,"Zipcode":"776424942","Longitude":-93.8829,"Latitude":29.9555,"District":"","id":"a66pl2duw1tn","Statea":"TX","Address":"2500 TAFT AVE","Tract":"48245006600"},"type":"Feature","geometry":{"type":"Point","coordinates":[-93.8829000000005,29.9555]}},{"properties":{"City":"SABINE PASS","Name":"SABINE PASS SCHOOL","NumStudent":162,"Zipcode":"776551148","Longitude":-93.8948,"Latitude":29.7324,"District":"","id":"a66pl2ltrwzr","Statea":"TX","Address":"5641 S GULFWAY DRIVE","Tract":"48245011600"},"type":"Feature","geometry":{"type":"Point","coordinates":[-93.8948,29.7324000000008]}},{"properties":{"City":"TEXAS CITY","Name":"ALTERNATIVE LEARNING CENTER","NumStudent":60,"Zipcode":"775911150","Longitude":-94.89802,"Latitude":29.39823,"District":"","id":"a66pl2nfmjkt","Statea":"TX","Address":"300 14TH AVE N","Tract":"48167722100"},"type":"Feature","geometry":{"type":"Point","coordinates":[-94.8980200000005,29.3982300000007]}},{"properties":{"City":"TEXAS CITY","Name":"BLOCKER MIDDLE","NumStudent":891,"Zipcode":"775916200","Longitude":-94.90116,"Latitude":29.39821,"District":"","id":"a66pl2ffvmw1","Statea":"TX","Address":"500 14TH AVE N","Tract":"48167722100"},"type":"Feature","geometry":{"type":"Point","coordinates":[-94.9011599999994,29.3982099999994]}},{"properties":{"City":"TEXAS CITY","Name":"NORTHSIDE EL","NumStudent":713,"Zipcode":"775915299","Longitude":-94.92506,"Latitude":29.4068,"District":"","id":"a66pl2eibmus","Statea":"TX","Address":"2300 21ST ST N","Tract":"48167722100"},"type":"Feature","geometry":{"type":"Point","coordinates":[-94.9250599999996,29.4068000000007]}},{"properties":{"City":"TEXAS CITY","Name":"ROOSEVELT-WILSON EL","NumStudent":592,"Zipcode":"775916232","Longitude":-94.89838,"Latitude":29.40014,"District":"","id":"a66pl2esy5m3","Statea":"TX","Address":"301 16TH AVE N","Tract":"48167722100"},"type":"Feature","geometry":{"type":"Point","coordinates":[-94.8983800000005,29.4001399999997]}},{"properties":{"City":"TEXAS CITY","Name":"TEXAS CITY H S","NumStudent":1581,"Zipcode":"775915498","Longitude":-94.92077,"Latitude":29.39341,"District":"","id":"a66pl2nb3yus","Statea":"TX","Address":"1800 NINTH AVE N","Tract":"48167722300"},"type":"Feature","geometry":{"type":"Point","coordinates":[-94.9207700000006,29.3934100000006]}}],"is_temporal":false,"author":{"url":"http:// http://www.fema.gov/plan/prevent/hazus/","metadata":"http://www.fema.gov/plan/prevent/hazus/index.shtm","contact_name":"","contact_address":"","source":"FEMA's HAZUS software 1.2 and data DVD #3 ","contact_phone":""},"source":"http:// http://www.fema.gov/plan/prevent/hazus/","pagination":{"sort":null,"start":0,"total":60,"limit":1000000},"state":"complete","tags":"hurricane,ike,schools,storm,surge","published":"2008-09-13T12:00:00Z","id":4466}