{"type":"FeatureCollection","data_type":"Dataset","url_type":null,"permissions":[{"permissions":{"download":true,"view":true},"group_id":"everyone"}],"classification":null,"title":"Connecticut Dept of Corrections, Connecticut State Adult Correctional Institutions, Connecticut, 3.2008 ","count":17,"stream_id":454,"contributor":{"url":"http://geocommons.com/users/2","name":"data"},"data_attributes":null,"calculation_params":null,"icon_link":null,"link":"http://geocommons.com/overlays/454.json","extent":[-73.2721,41.1903,-71.9543,42.0193],"geometry_types":["point"],"unique_name":null,"name":"Connecticut Dept of Corrections, Connecticut State Adult Correctional Institutions, Connecticut, 3.2008 ","feature_count":17,"description":"This dataset displays the locations of all the Adult Correctional Facilities in the state of Connecticut as of 3.2008. This includes both female and male institutions.\n","next_feature":null,"is_raster":false,"short_classification":"Y","stats":{"lon":{"max":-71.954319,"mean":-72.5816604117647,"variance":0.135211408036008,"stdev":0.367711038773665,"min":-73.272112,"median":-72.516299},"zip":{"max":6604,"mean":6271.17647058824,"variance":33196.7794117647,"stdev":182.199833731441,"min":6071,"median":6268},"lat":{"max":42.01929,"mean":41.6761957058824,"variance":0.0926218364178454,"stdev":0.304338358439822,"min":41.190323,"median":41.784547}},"features":[{"properties":{"city":"Storrs","lon":-72.297244,"zip":6268,"facility":"Bergin Correctional Institution","id":"a644prpah8sx","address":"251 Middle Turnpike","lat":41.81294,"state":"CT"},"type":"Feature","geometry":{"type":"Point","coordinates":[-72.297244,41.81294]}},{"properties":{"city":"Bridgeport","lon":-73.200459,"zip":6604,"facility":"Bridgeport Correctional Center","id":"a644prfmcsoh","address":"1106 North Avenue","lat":41.190323,"state":"CT"},"type":"Feature","geometry":{"type":"Point","coordinates":[-73.200459,41.190323]}},{"properties":{"city":"Brooklyn","lon":-71.954319,"zip":6234,"facility":"Brooklyn Correctional Institution","id":"a644prf92uzx","address":"59 Hartford Road","lat":41.784547,"state":"CT"},"type":"Feature","geometry":{"type":"Point","coordinates":[-71.954319,41.784547]}},{"properties":{"city":"Cheshire","lon":-72.902045,"zip":6410,"facility":"Cheshire Correctional Institution","id":"a644prdh7rud","address":"900 Highland Avenue","lat":41.521285,"state":"CT"},"type":"Feature","geometry":{"type":"Point","coordinates":[-72.902045,41.521285]}},{"properties":{"city":"Uncasville","lon":-72.110122,"zip":6382,"facility":"Corrigan-Radgowski Correctional Center","id":"a644prl9j5yw","address":"986 Norwich-New London Turnpike","lat":41.452457,"state":"CT"},"type":"Feature","geometry":{"type":"Point","coordinates":[-72.110122,41.452457]}},{"properties":{"city":"Enfield","lon":-72.511551,"zip":6082,"facility":"Enfield Correctional Institution","id":"a644prjwc7w4","address":"289 Shaker Road","lat":42.01929,"state":"CT"},"type":"Feature","geometry":{"type":"Point","coordinates":[-72.511551,42.01929]}},{"properties":{"city":"Newtown","lon":-73.272112,"zip":6470,"facility":"Garner Correctional Institution","id":"a644pri4ddq4","address":"50 Nunnawauk Road","lat":41.400139,"state":"CT"},"type":"Feature","geometry":{"type":"Point","coordinates":[-73.272112,41.400139]}},{"properties":{"city":"Niantic","lon":-72.237235,"zip":6357,"facility":"Gates Correctional Institution","id":"a644prouhwzs","address":"131 North Bridebrook Road","lat":41.332731,"state":"CT"},"type":"Feature","geometry":{"type":"Point","coordinates":[-72.237235,41.332731]}},{"properties":{"city":"Hartford","lon":-72.661245,"zip":6120,"facility":"Hartford Correctional Center","id":"a644prkbvajg","address":"177 Weston Street","lat":41.793754,"state":"CT"},"type":"Feature","geometry":{"type":"Point","coordinates":[-72.661245,41.793754]}},{"properties":{"city":"Suffield","lon":-72.637683,"zip":6080,"facility":"MacDougall-Walker Correctional Institution","id":"a644prjdat0y","address":"1153 East Street, South","lat":41.950159,"state":"CT"},"type":"Feature","geometry":{"type":"Point","coordinates":[-72.637683,41.950159]}},{"properties":{"city":"New Haven","lon":-72.940774,"zip":6530,"facility":"New Haven Correctional Center","id":"a644prddnhi4","address":"245 Whalley Avenue","lat":41.316487,"state":"CT"},"type":"Feature","geometry":{"type":"Point","coordinates":[-72.940774,41.316487]}},{"properties":{"city":"Somers","lon":-72.497235,"zip":6071,"facility":"Northern Correctional Institution","id":"a644prf3vdoe","address":"287 Bilton Road","lat":42.0165,"state":"CT"},"type":"Feature","geometry":{"type":"Point","coordinates":[-72.497235,42.0165]}},{"properties":{"city":"Somers","lon":-72.516381,"zip":6071,"facility":"Osborn Correctional Institution","id":"a644prne4sic","address":"335 Bilton Road","lat":42.017749,"state":"CT"},"type":"Feature","geometry":{"type":"Point","coordinates":[-72.516381,42.017749]}},{"properties":{"city":"Enfield","lon":-72.496952,"zip":6082,"facility":"Robinson Correctional Institution","id":"a644prmw1tk8","address":"285 Shaker Road","lat":42.016802,"state":"CT"},"type":"Feature","geometry":{"type":"Point","coordinates":[-72.496952,42.016802]}},{"properties":{"city":"Cheshire","lon":-72.899291,"zip":6410,"facility":"Webster Correctional Institution","id":"a644prdbg7bc","address":"111 Jarvis Street","lat":41.529652,"state":"CT"},"type":"Feature","geometry":{"type":"Point","coordinates":[-72.899291,41.529652]}},{"properties":{"city":"Enfield","lon":-72.516299,"zip":6082,"facility":"Willard-Cybulski Correctional Institution","id":"a644prkaq0ou","address":"391 Shaker Road","lat":42.017533,"state":"CT"},"type":"Feature","geometry":{"type":"Point","coordinates":[-72.516299,42.017533]}},{"properties":{"city":"Niantic","lon":-72.23728,"zip":6357,"facility":"York Correctional Institution","id":"a644prtfqocf","address":"201 West Main Street","lat":41.322979,"state":"CT"},"type":"Feature","geometry":{"type":"Point","coordinates":[-72.23728,41.322979]}}],"is_temporal":false,"author":{"url":"http://www.ct.gov/doc/site/default.asp","metadata":"","contact_name":"","contact_address":"","source":"Connecticut Dept of Corrections","contact_phone":""},"source":"http://www.ct.gov/doc/site/default.asp","pagination":{"sort":null,"start":0,"total":17,"limit":1000000},"state":"complete","tags":"connecticut,correctional,corrections,enforcement,institution,law,prisons","published":"2008-05-07T12:00:00Z","id":454}