{"type":"FeatureCollection","data_type":"Dataset","url_type":null,"permissions":[{"permissions":{"download":true,"view":true},"group_id":"everyone"}],"classification":null,"title":"Illinois Dept of Corrections, Illinois State Adult Correctional Institutions, Illinois, 3.2008 ","count":29,"stream_id":460,"contributor":{"url":"http://geocommons.com/users/2","name":"data"},"data_attributes":null,"calculation_params":null,"icon_link":null,"link":"http://geocommons.com/overlays/460.json","extent":[-90.7537,37.2494,-87.5364,41.9725],"geometry_types":["point"],"unique_name":null,"name":"Illinois Dept of Corrections, Illinois State Adult Correctional Institutions, Illinois, 3.2008 ","feature_count":29,"description":"This dataset displays the locations of all the Adult Correctional Facilities in the state of Illinois as of 3.2008. This includes both female and male institutions.\n","next_feature":null,"is_raster":false,"short_classification":"Y","stats":{"lon":{"max":-87.536408,"mean":-89.2823911724138,"variance":0.649927556822719,"stdev":0.806180846226651,"min":-90.753724,"median":-89.283152},"zip":{"max":62995,"mean":62092.3448275862,"variance":630461.162561576,"stdev":794.015845283692,"min":60420,"median":62353},"lat":{"max":41.972475,"mean":39.5875562758621,"variance":2.17068481528985,"stdev":1.47332440938507,"min":37.249413,"median":39.726685}},"features":[{"properties":{"city":"Ina","lon":-88.907314,"zip":62846,"facility":"Big Muddy River Correctional Center","id":"a63ixk47tkna","address":"251 N. Illinois Highway 37","lat":38.130306,"state":"IL"},"type":"Feature","geometry":{"type":"Point","coordinates":[-88.907314,38.130306]}},{"properties":{"city":"Centralia","lon":-89.191964,"zip":62801,"facility":"Centralia Correctional Center","id":"a63ixk50wdt2","address":"9330 Shattuc Road","lat":38.553936,"state":"IL"},"type":"Feature","geometry":{"type":"Point","coordinates":[-89.191964,38.553936]}},{"properties":{"city":"Danville","lon":-87.536408,"zip":61834,"facility":"Danville Correctional Center","id":"a63ixjwc2gus","address":"3820 East Main Street","lat":40.129697,"state":"IL"},"type":"Feature","geometry":{"type":"Point","coordinates":[-87.536408,40.129697]}},{"properties":{"city":"Decatur","lon":-88.926933,"zip":62524,"facility":"Decatur Correctional Center","id":"a63ixk70mvkt","address":"2310 East Mound Road","lat":39.894254,"state":"IL"},"type":"Feature","geometry":{"type":"Point","coordinates":[-88.926933,39.894254]}},{"properties":{"city":"Dixon","lon":-89.478379,"zip":61021,"facility":"Dixon Correctional Center","id":"a63ixk1syav3","address":"2600 N. Brinton Ave.","lat":41.873599,"state":"IL"},"type":"Feature","geometry":{"type":"Point","coordinates":[-89.478379,41.873599]}},{"properties":{"city":"Dwight","lon":-88.475345,"zip":60420,"facility":"Dwight Correctional Center","id":"a63ixk7pi5uj","address":"23813 E. 3200 North Road","lat":41.097225,"state":"IL"},"type":"Feature","geometry":{"type":"Point","coordinates":[-88.475345,41.097225]}},{"properties":{"city":"East Moline","lon":-90.419872,"zip":61244,"facility":"East Moline Correctional Center","id":"a63ixk6b4q78","address":"100 Hillcrest Road","lat":41.533619,"state":"IL"},"type":"Feature","geometry":{"type":"Point","coordinates":[-90.419872,41.533619]}},{"properties":{"city":"Hillsboro","lon":-89.474527,"zip":62049,"facility":"Graham Correctional Center","id":"a63ixk3upqzn","address":"R.R. #1, Highway 185","lat":39.126496,"state":"IL"},"type":"Feature","geometry":{"type":"Point","coordinates":[-89.474527,39.126496]}},{"properties":{"city":"Galesburg","lon":-90.406016,"zip":61402,"facility":"Hill Correctional Center","id":"a63ixjyp26gj","address":"600 South Linwood Road","lat":40.939769,"state":"IL"},"type":"Feature","geometry":{"type":"Point","coordinates":[-90.406016,40.939769]}},{"properties":{"city":"Canton","lon":-90.082281,"zip":61520,"facility":"Illinois River Correctional Center","id":"a63ixk6oh0lw","address":"Route 9 West","lat":40.557255,"state":"IL"},"type":"Feature","geometry":{"type":"Point","coordinates":[-90.082281,40.557255]}},{"properties":{"city":"Jacksonville","lon":-90.175434,"zip":62650,"facility":"Jacksonville Correctional Center","id":"a63ixjyor471","address":"2268 East Morton Avenue","lat":39.726685,"state":"IL"},"type":"Feature","geometry":{"type":"Point","coordinates":[-90.175434,39.726685]}},{"properties":{"city":"Sumner","lon":-90.175434,"zip":62466,"facility":"Lawrence Correctional Center","id":"a63ixk2xz6zh","address":"Rural Route 2","lat":38.728172,"state":"IL"},"type":"Feature","geometry":{"type":"Point","coordinates":[-90.175434,38.728172]}},{"properties":{"city":"Lincoln","lon":-89.388658,"zip":62656,"facility":"Lincoln Correctional Center","id":"a63ixk2rtktc","address":"1098 1350th Street","lat":40.117705,"state":"IL"},"type":"Feature","geometry":{"type":"Point","coordinates":[-89.388658,40.117705]}},{"properties":{"city":"Lincoln","lon":-89.388487,"zip":62656,"facility":"Logan Correctional Center","id":"a63ixk25w8cp","address":"1096 1350th Street","lat":40.112102,"state":"IL"},"type":"Feature","geometry":{"type":"Point","coordinates":[-89.388487,40.112102]}},{"properties":{"city":"Menard","lon":-89.842615,"zip":62259,"facility":"Menard Correctional Center","id":"a63ixjsxtn6w","address":"711 Kaskaskia Street","lat":37.91195,"state":"IL"},"type":"Feature","geometry":{"type":"Point","coordinates":[-89.842615,37.91195]}},{"properties":{"city":"Pinckneyville","lon":-89.327209,"zip":62274,"facility":"Pinckneyville Correctional Center","id":"a63ixk346w1a","address":"5835 State Route 154","lat":38.086182,"state":"IL"},"type":"Feature","geometry":{"type":"Point","coordinates":[-89.327209,38.086182]}},{"properties":{"city":"Pontiac","lon":-88.636382,"zip":61764,"facility":"Pontiac Correctional Center","id":"a63ixjwd49ch","address":"700 West Lincoln Street","lat":40.868587,"state":"IL"},"type":"Feature","geometry":{"type":"Point","coordinates":[-88.636382,40.868587]}},{"properties":{"city":"Robinson","lon":-87.697001,"zip":62454,"facility":"Robinson Correctional Center","id":"a63ixjwda65g","address":"13423 East 1150th Avenue","lat":39.020063,"state":"IL"},"type":"Feature","geometry":{"type":"Point","coordinates":[-87.697001,39.020063]}},{"properties":{"city":"Vienna","lon":-88.775398,"zip":62995,"facility":"Shawnee Correctional Center","id":"a63ixjt6fv5h","address":"6665 Route 146 East","lat":37.400285,"state":"IL"},"type":"Feature","geometry":{"type":"Point","coordinates":[-88.775398,37.400285]}},{"properties":{"city":"Sheridan","lon":-88.684202,"zip":60551,"facility":"Sheridan Correctional Center","id":"a63ixk6zmrpi","address":"4017 E. 2603 Road","lat":41.516451,"state":"IL"},"type":"Feature","geometry":{"type":"Point","coordinates":[-88.684202,41.516451]}},{"properties":{"city":"East St. Louis","lon":-90.091122,"zip":62203,"facility":"Southwestern Illinois Correctional Center","id":"a63ixk6i9beb","address":"950 Kingshighway Street","lat":38.617285,"state":"IL"},"type":"Feature","geometry":{"type":"Point","coordinates":[-90.091122,38.617285]}},{"properties":{"city":"Joliet","lon":-88.094206,"zip":60434,"facility":"Stateville Correctional Center","id":"a63ixk2ep6m2","address":"Route 53","lat":41.578707,"state":"IL"},"type":"Feature","geometry":{"type":"Point","coordinates":[-88.094206,41.578707]}},{"properties":{"city":"Tamms","lon":-89.283152,"zip":62988,"facility":"Tamms Correctional Center","id":"a63ixjth6wpw","address":"200 East Supermax Road","lat":37.249413,"state":"IL"},"type":"Feature","geometry":{"type":"Point","coordinates":[-89.283152,37.249413]}},{"properties":{"city":"Taylorville","lon":-89.227093,"zip":62568,"facility":"Taylorville Correctional Center","id":"a63ixk0o8s13","address":"Route 29 South","lat":39.515013,"state":"IL"},"type":"Feature","geometry":{"type":"Point","coordinates":[-89.227093,39.515013]}},{"properties":{"city":"Thomson","lon":-90.109471,"zip":61285,"facility":"Thomson Correctional Center","id":"a63ixjx2ki1g","address":"1100 One Mile Road","lat":41.972475,"state":"IL"},"type":"Feature","geometry":{"type":"Point","coordinates":[-90.109471,41.972475]}},{"properties":{"city":"Vandalia","lon":-89.095261,"zip":62471,"facility":"Vandalia Correctional Center","id":"a63ixjzs0wy7","address":"Route 51 North","lat":39.013205,"state":"IL"},"type":"Feature","geometry":{"type":"Point","coordinates":[-89.095261,39.013205]}},{"properties":{"city":"Vienna","lon":-88.770264,"zip":62995,"facility":"Vienna Correctional Center","id":"a63ixjvm3jil","address":"6695 State Route 146 East","lat":37.405546,"state":"IL"},"type":"Feature","geometry":{"type":"Point","coordinates":[-88.770264,37.405546]}},{"properties":{"city":"Vienna","lon":-88.775192,"zip":62995,"facility":"Vienna Correctional Center/IIP","id":"a63ixk8m91fk","address":"6695 State Route #146 East","lat":37.400348,"state":"IL"},"type":"Feature","geometry":{"type":"Point","coordinates":[-88.775192,37.400348]}},{"properties":{"city":"Mount Sterling","lon":-90.753724,"zip":62353,"facility":"Western Illinois Correctional Center","id":"a63ixk85axws","address":"2500 Rt. 99 South","lat":39.962802,"state":"IL"},"type":"Feature","geometry":{"type":"Point","coordinates":[-90.753724,39.962802]}}],"is_temporal":false,"author":{"url":"http://www.idoc.state.il.us/","metadata":"","contact_name":"","contact_address":"","source":"Illinois Dept of Corrections","contact_phone":""},"source":"http://www.idoc.state.il.us/","pagination":{"sort":null,"start":0,"total":29,"limit":1000000},"state":"complete","tags":"correctional,corrections,enforcement,illinois,institution,law,prisons","published":"2008-05-07T12:00:00Z","id":460}