{"type":"FeatureCollection","data_type":"Dataset","url_type":null,"permissions":[{"permissions":{"download":true,"view":true},"group_id":"everyone"}],"classification":null,"title":"Michigan Dept of Corrections, Michigan State Adult Correctional Institutions, Michigan, 3.2008 ","count":41,"stream_id":469,"contributor":{"url":"http://geocommons.com/users/2","name":"data"},"data_attributes":null,"calculation_params":null,"icon_link":null,"link":"http://geocommons.com/overlays/469.json","extent":[-89.7065,41.8839,-82.7637,46.7623],"geometry_types":["point"],"unique_name":null,"name":"Michigan Dept of Corrections, Michigan State Adult Correctional Institutions, Michigan, 3.2008 ","feature_count":41,"description":"This dataset displays the locations of all the Adult Correctional Facilities in the state of Michigan as of 3.2008. This includes both female and male institutions.\n","next_feature":null,"is_raster":false,"short_classification":"Y","stats":{"lon":{"max":-82.76366,"mean":-84.9174784878049,"variance":1.91755493131011,"stdev":1.38475807681707,"min":-89.706545,"median":-84.591928},"zip":{"max":49947,"mean":49092.5609756098,"variance":317534.352439024,"stdev":563.501865515124,"min":48048,"median":49036},"lat":{"max":46.762286,"mean":43.6312951463415,"variance":2.52484214923328,"stdev":1.58897518836301,"min":41.883861,"median":43.160436}},"features":[{"properties":{"city":"Munising","lon":-86.639604,"zip":49862,"facility":"Alger Maximum Correctional Facility","id":"a635tz36wqf6","address":"Industrial Park Drive","lat":46.378364,"state":"MI"},"type":"Feature","geometry":{"type":"Point","coordinates":[-86.639604,46.378364]}},{"properties":{"city":"Baraga","lon":-88.511555,"zip":49908,"facility":"Baraga Maximum Correctional Facility","id":"a635tz2xec0t","address":"13924 Wadaga Road","lat":46.762286,"state":"MI"},"type":"Feature","geometry":{"type":"Point","coordinates":[-88.511555,46.762286]}},{"properties":{"city":"Ionia","lon":-85.105725,"zip":48846,"facility":"Bellamy Creek Correctional Facility","id":"a635tz789ao6","address":"1727 West Bluewater Highway","lat":42.977397,"state":"MI"},"type":"Feature","geometry":{"type":"Point","coordinates":[-85.105725,42.977397]}},{"properties":{"city":"Carson City","lon":-84.87278,"zip":48811,"facility":"Boyer Road Correctional Facility","id":"a635tz1cmew8","address":"10274 Boyer Road","lat":43.16053,"state":"MI"},"type":"Feature","geometry":{"type":"Point","coordinates":[-84.87278,43.16053]}},{"properties":{"city":"Carson City","lon":-84.86803,"zip":48811,"facility":"Carson City Correctional Facility","id":"a635tyymppcn","address":"10522 Boyer Road","lat":43.160436,"state":"MI"},"type":"Feature","geometry":{"type":"Point","coordinates":[-84.86803,43.160436]}},{"properties":{"city":"Jackson","lon":-84.389998,"zip":49201,"facility":"Charles Egeler Correctional Facility","id":"a635tzcgzsgf","address":"3855 Cooper St.","lat":42.29971,"state":"MI"},"type":"Feature","geometry":{"type":"Point","coordinates":[-84.389998,42.29971]}},{"properties":{"city":"Kincheloe","lon":-84.454525,"zip":49784,"facility":"Chippewa Correctional Facility","id":"a635tz71iqli","address":"4269 W. M-80","lat":46.249087,"state":"MI"},"type":"Feature","geometry":{"type":"Point","coordinates":[-84.454525,46.249087]}},{"properties":{"city":"Jackson","lon":-84.397,"zip":49201,"facility":"Cooper Street Correctional Facility","id":"a635tza68ql3","address":"3100 Cooper St.","lat":42.295839,"state":"MI"},"type":"Feature","geometry":{"type":"Point","coordinates":[-84.397,42.295839]}},{"properties":{"city":"Ionia","lon":-85.091104,"zip":48846,"facility":"Deerfield Correctional Facility","id":"a635tz05guyb","address":"1755 Harwood Road","lat":42.960696,"state":"MI"},"type":"Feature","geometry":{"type":"Point","coordinates":[-85.091104,42.960696]}},{"properties":{"city":"Muskegon Heights","lon":-86.172482,"zip":49444,"facility":"Earnest G. Brooks Correctional Facility","id":"a635tz4ow8r1","address":"2500 S. Sheridan Drive","lat":43.209839,"state":"MI"},"type":"Feature","geometry":{"type":"Point","coordinates":[-86.172482,43.209839]}},{"properties":{"city":"Coldwater","lon":-84.991702,"zip":49036,"facility":"Florence Crane Correctional Facility","id":"a635tza8oru6","address":"38 Fourth Street","lat":41.957444,"state":"MI"},"type":"Feature","geometry":{"type":"Point","coordinates":[-84.991702,41.957444]}},{"properties":{"city":"Jackson","lon":-84.389325,"zip":49201,"facility":"G. Robert Cotton Correctional Facility","id":"a635tyynp6z4","address":"3500 N. Elm Road","lat":42.2881,"state":"MI"},"type":"Feature","geometry":{"type":"Point","coordinates":[-84.389325,42.2881]}},{"properties":{"city":"Adrian","lon":-84.007258,"zip":49221,"facility":"Gus Harrison Correctional Facility","id":"a635tyz4n34b","address":"2727 East Beecher St.","lat":41.887369,"state":"MI"},"type":"Feature","geometry":{"type":"Point","coordinates":[-84.007258,41.887369]}},{"properties":{"city":"Kincheloe","lon":-84.471425,"zip":49786,"facility":"Hiawatha Correctional Facility","id":"a635tz8na8mm","address":"4533 W. Industrial Park Drive","lat":46.263962,"state":"MI"},"type":"Feature","geometry":{"type":"Point","coordinates":[-84.471425,46.263962]}},{"properties":{"city":"Ypsilanti","lon":-83.694546,"zip":48197,"facility":"Huron Valley Complex - Men's","id":"a635tzalpf0q","address":"3201 Bemis Road","lat":42.174094,"state":"MI"},"type":"Feature","geometry":{"type":"Point","coordinates":[-83.694546,42.174094]}},{"properties":{"city":"Ypsilanti","lon":-83.693027,"zip":48197,"facility":"Huron Valley Complex - Women's","id":"a635tzbbb60c","address":"3511 Bemis Road","lat":42.169757,"state":"MI"},"type":"Feature","geometry":{"type":"Point","coordinates":[-83.693027,42.169757]}},{"properties":{"city":"Ionia","lon":-85.101304,"zip":48846,"facility":"Ionia Maximum Correctional Facility","id":"a635tz7nw28v","address":"1576 W. Bluewater Highway","lat":42.984063,"state":"MI"},"type":"Feature","geometry":{"type":"Point","coordinates":[-85.101304,42.984063]}},{"properties":{"city":"Kincheloe","lon":-84.466123,"zip":49788,"facility":"Kinross Correctional Facility","id":"a635tz1nlqj0","address":"16770 S. Watertower Drive","lat":46.261544,"state":"MI"},"type":"Feature","geometry":{"type":"Point","coordinates":[-84.466123,46.261544]}},{"properties":{"city":"Coldwater","lon":-84.995764,"zip":49036,"facility":"Lakeland Correctional Facility","id":"a635tzbcxdt2","address":"141 First St.","lat":41.965334,"state":"MI"},"type":"Feature","geometry":{"type":"Point","coordinates":[-84.995764,41.965334]}},{"properties":{"city":"New Haven","lon":-82.76366,"zip":48048,"facility":"Macomb Correctional Facility","id":"a635tz8daai7","address":"34625 26 Mile Rd.","lat":42.72426,"state":"MI"},"type":"Feature","geometry":{"type":"Point","coordinates":[-82.76366,42.72426]}},{"properties":{"city":"Marquette","lon":-87.381198,"zip":49855,"facility":"Marquette Branch Prison","id":"a635tz7nggbi","address":"1960 U.S. Hwy. 41 South","lat":46.510462,"state":"MI"},"type":"Feature","geometry":{"type":"Point","coordinates":[-87.381198,46.510462]}},{"properties":{"city":"Ionia","lon":-85.093778,"zip":48846,"facility":"Michigan Reformatory","id":"a635tz1nu5nu","address":"1342 W. Main","lat":42.975831,"state":"MI"},"type":"Feature","geometry":{"type":"Point","coordinates":[-85.093778,42.975831]}},{"properties":{"city":"St. Louis","lon":-84.590575,"zip":48880,"facility":"Mid-Michigan Correctional Facility","id":"a635tz26s5ok","address":"8201 N. Croswell Road","lat":43.413232,"state":"MI"},"type":"Feature","geometry":{"type":"Point","coordinates":[-84.590575,43.413232]}},{"properties":{"city":"Detroit","lon":-83.046077,"zip":48212,"facility":"Mound Correctional Facility","id":"a635tz21by9s","address":"17601 Mound Road","lat":42.423849,"state":"MI"},"type":"Feature","geometry":{"type":"Point","coordinates":[-83.046077,42.423849]}},{"properties":{"city":"Muskegon","lon":-86.179416,"zip":49442,"facility":"Muskegon Correctional Facility","id":"a635tzcn8vtx","address":"2400 S. Sheridan Drive","lat":43.21027,"state":"MI"},"type":"Feature","geometry":{"type":"Point","coordinates":[-86.179416,43.21027]}},{"properties":{"city":"Newberry","lon":-85.507347,"zip":49868,"facility":"Newberry Correctional Facility","id":"a635tz80ugvc","address":"3001 Newberry Avenue","lat":46.330938,"state":"MI"},"type":"Feature","geometry":{"type":"Point","coordinates":[-85.507347,46.330938]}},{"properties":{"city":"Manistee","lon":-86.271604,"zip":49660,"facility":"Oaks Correctional Facility","id":"a635tyym5b1q","address":"1500 Caberfae Highway","lat":44.245695,"state":"MI"},"type":"Feature","geometry":{"type":"Point","coordinates":[-86.271604,44.245695]}},{"properties":{"city":"Marenisco","lon":-89.706545,"zip":49947,"facility":"Ojibway Correctional Facility","id":"a635tz0ryc98","address":"N5705 Ojibway Road","lat":46.305534,"state":"MI"},"type":"Feature","geometry":{"type":"Point","coordinates":[-89.706545,46.305534]}},{"properties":{"city":"Jackson","lon":-84.389493,"zip":49201,"facility":"Parnall Correctional Facility","id":"a635tz2uzu6p","address":"1780 E. Parnall","lat":42.293095,"state":"MI"},"type":"Feature","geometry":{"type":"Point","coordinates":[-84.389493,42.293095]}},{"properties":{"city":"Adrian","lon":-84.007139,"zip":49221,"facility":"Parr Highway Correctional Facility","id":"a635tzaptter","address":"2727 East Beecher St.","lat":41.883861,"state":"MI"},"type":"Feature","geometry":{"type":"Point","coordinates":[-84.007139,41.883861]}},{"properties":{"city":"St. Louis","lon":-84.594654,"zip":48880,"facility":"Pine River Correctional Facility","id":"a635tz0p2vtt","address":"320 N. Hubbard","lat":43.413194,"state":"MI"},"type":"Feature","geometry":{"type":"Point","coordinates":[-84.594654,43.413194]}},{"properties":{"city":"Kingsley","lon":-85.427047,"zip":49649,"facility":"Pugsley Correctional Facility","id":"a635tz97xb0o","address":"7401 East Walton Road","lat":44.542944,"state":"MI"},"type":"Feature","geometry":{"type":"Point","coordinates":[-85.427047,44.542944]}},{"properties":{"city":"Ionia","lon":-85.106361,"zip":48846,"facility":"Richard A. Handlon Correctional Facility","id":"a635tz52je41","address":"1728 Bluewater Highway","lat":42.983025,"state":"MI"},"type":"Feature","geometry":{"type":"Point","coordinates":[-85.106361,42.983025]}},{"properties":{"city":"Plymouth","lon":-83.513278,"zip":48170,"facility":"Robert Scott Correctional Facility","id":"a635tz87att8","address":"47500 Five Mile Road","lat":42.395842,"state":"MI"},"type":"Feature","geometry":{"type":"Point","coordinates":[-83.513278,42.395842]}},{"properties":{"city":"Detroit","lon":-83.059423,"zip":48212,"facility":"Ryan Correctional Facility","id":"a635tz03urar","address":"17600 Ryan Road","lat":42.423572,"state":"MI"},"type":"Feature","geometry":{"type":"Point","coordinates":[-83.059423,42.423572]}},{"properties":{"city":"Freeland","lon":-84.103046,"zip":48623,"facility":"Saginaw Correctional Facility","id":"a635tz86j1ww","address":"9625 Pierce Rd.","lat":43.507126,"state":"MI"},"type":"Feature","geometry":{"type":"Point","coordinates":[-84.103046,43.507126]}},{"properties":{"city":"St. Louis","lon":-84.591928,"zip":48880,"facility":"St. Louis Correctional Facility","id":"a635tz3fn1au","address":"8585 N. Croswell Road","lat":43.416693,"state":"MI"},"type":"Feature","geometry":{"type":"Point","coordinates":[-84.591928,43.416693]}},{"properties":{"city":"Standish","lon":-83.994543,"zip":48658,"facility":"Standish Maximum Correctional Facility","id":"a635tyyma0ej","address":"4713 West M-61","lat":43.979674,"state":"MI"},"type":"Feature","geometry":{"type":"Point","coordinates":[-83.994543,43.979674]}},{"properties":{"city":"Kincheloe","lon":-84.454862,"zip":49785,"facility":"Straits Correctional Facility","id":"a635tz2jnef8","address":"4387 W. M-80","lat":46.257475,"state":"MI"},"type":"Feature","geometry":{"type":"Point","coordinates":[-84.454862,46.257475]}},{"properties":{"city":"Lapeer","lon":-83.348855,"zip":48446,"facility":"Thumb Correctional Facility","id":"a635tz8zwtsc","address":"3225 John Conley Drive","lat":43.035083,"state":"MI"},"type":"Feature","geometry":{"type":"Point","coordinates":[-83.348855,43.035083]}},{"properties":{"city":"Muskegon Heights","lon":-86.172512,"zip":49444,"facility":"West Shoreline Correctional Facility","id":"a635tz3mko8w","address":"2500 S. Sheridan Drive","lat":43.205595,"state":"MI"},"type":"Feature","geometry":{"type":"Point","coordinates":[-86.172512,43.205595]}}],"is_temporal":false,"author":{"url":"http://www.michigan.gov/corrections","metadata":"","contact_name":"","contact_address":"","source":"Michigan Dept of Corrections","contact_phone":""},"source":"http://www.michigan.gov/corrections","pagination":{"sort":null,"start":0,"total":41,"limit":1000000},"state":"complete","tags":"correctional,corrections,enforcement,institution,law,michigan,prisons","published":"2008-05-07T12:00:00Z","id":469}