{"type":"FeatureCollection","data_type":"Dataset","url_type":null,"permissions":[{"permissions":{"download":true,"view":true},"group_id":"everyone"}],"classification":null,"title":"MHParks_NiagaraCo_NY","count":21,"stream_id":470186,"contributor":{"url":"http://geocommons.com/users/37170","name":"lfuentes"},"data_attributes":null,"calculation_params":null,"icon_link":null,"link":"http://geocommons.com/overlays/470186.json","extent":[-79.0376,42.9917,-78.4799,43.3489],"geometry_types":["point"],"unique_name":null,"name":"MHParks_NiagaraCo_NY","feature_count":21,"description":"","next_feature":null,"is_raster":false,"short_classification":"Y","stats":{"number":{"max":9414,"variance":7146720.09047619,"mean":4280.09523809524,"stdev":2673.33501276518,"min":1,"median":3635},"# lots":{"max":1047,"variance":52166.3571428571,"mean":135.571428571429,"stdev":228.399555916506,"min":11,"median":70}},"features":[{"properties":{"city":"Niagara Falls","zip":"14304","community name":"Tusccrora Village","number":4012,"county":"Niagara","geo_score":0.558,"phone #":"716-297-6980","street":"Seneca Pkwy","id":"ana1re6opi26","# lots":70,"geo_precision":"street","state":"NY"},"type":"Feature","geometry":{"type":"Point","coordinates":[-79.037624,43.111163]}},{"properties":{"city":"Youngstown","zip":"14174","community name":"Youngstown Estates","number":999,"county":"Niagara","geo_score":1.0,"phone #":"716-648-3789","street":"Balmer Road","id":"ana1rdsdk8t0","# lots":68,"geo_precision":"street","state":"NY"},"type":"Feature","geometry":{"type":"Point","coordinates":[-79.016723,43.231056]}},{"properties":{"city":"Lockport","zip":"14094","community name":"The Woodlands","number":6237,"county":"Niagara","geo_score":1.0,"phone #":"716-625-6000","street":"Transit Road","id":"ana1rdvo8eom","# lots":1047,"geo_precision":"street","state":"NY"},"type":"Feature","geometry":{"type":"Point","coordinates":[-78.69684,43.185016]}},{"properties":{"city":"Lockport","zip":"14094","community name":"Village MFH Community","number":6035,"county":"Niagara","geo_score":0.929,"phone #":"716-434-6241","street":"Transit Road South","id":"ana1re04ewxs","# lots":400,"geo_precision":"street","state":"NY"},"type":"Feature","geometry":{"type":"Point","coordinates":[-78.69684,43.185016]}},{"properties":{"city":"Lockport","zip":"14094","community name":"Suburban Acres","number":6763,"county":"Niagara","geo_score":0.586,"phone #":"716-481-9524","street":"Minnick Road","id":"ana1rdt9ykgx","# lots":123,"geo_precision":"street","state":"NY"},"type":"Feature","geometry":{"type":"Point","coordinates":[-78.963326,42.991741]}},{"properties":{"city":"Wheatfield","zip":"14304","community name":"River Road MH Park","number":2013,"county":"Niagara","geo_score":0.783,"phone #":"716-990-6741","street":"River Road","id":"ana1rdxut93w","# lots":12,"geo_precision":"street","state":"NY"},"type":"Feature","geometry":{"type":"Point","coordinates":[-78.945022,43.073185]}},{"properties":{"city":"Ransomville","zip":"14131","community name":"Rainbow MH Park","number":3256,"county":"Niagara","geo_score":1.0,"phone #":"716-751-9602","street":"Youngstown Lockport Road","id":"ana1re3bgltg","# lots":93,"geo_precision":"street","state":"NY"},"type":"Feature","geometry":{"type":"Point","coordinates":[-78.953332,43.248744]}},{"properties":{"city":"Lockport","zip":"14094","community name":"Rapids Estates","number":6773,"county":"Niagara","geo_score":1.0,"phone #":"716-481-9524","street":"Rapids Road","id":"ana1re7bmwie","# lots":86,"geo_precision":"street","state":"NY"},"type":"Feature","geometry":{"type":"Point","coordinates":[-78.69475,43.113544]}},{"properties":{"city":"Middleport","zip":"14105","community name":"Old Mill MH Park","number":1,"county":"Niagara","geo_score":1.0,"phone #":null,"street":"Sherman Road","id":"ana1rdw9h3gd","# lots":27,"geo_precision":"street","state":"NY"},"type":"Feature","geometry":{"type":"Point","coordinates":[-78.479873,43.216101]}},{"properties":{"city":"Lockport","zip":"14094","community name":"Olcott Retirement Community","number":1645,"county":"Niagara","geo_score":0.738,"phone #":"518-848-2477","street":"Lockport Olcott Road","id":"ana1rdxoezbf","# lots":18,"geo_precision":"street","state":"NY"},"type":"Feature","geometry":{"type":"Point","coordinates":[-78.688532,43.179361]}},{"properties":{"city":"Lockport","zip":"14108","community name":"Niagara MH Park","number":2329,"county":"Niagara","geo_score":0.857,"phone #":"716-812-5479","street":"Lockport Olcott Road","id":"ana1re23wpsl","# lots":40,"geo_precision":"zip","state":"NY"},"type":"Feature","geometry":{"type":"Point","coordinates":[-78.724806,43.271156]}},{"properties":{"city":"Newfane","zip":"14108","community name":"Newfane &amp; Olcott Retirement Village","number":6023,"county":"Niagara","geo_score":0.844,"phone #":"716-778-5334","street":"Ketchum","id":"ana1rdueswub","# lots":28,"geo_precision":"street","state":"NY"},"type":"Feature","geometry":{"type":"Point","coordinates":[-78.709959,43.286576]}},{"properties":{"city":"Niagara Falls","zip":"14304","community name":"Maple Estates","number":8119,"county":"Niagara","geo_score":1.0,"phone #":"716-297-3854","street":"Niagara Falls Blvd","id":"ana1rds8960r","# lots":11,"geo_precision":"street","state":"NY"},"type":"Feature","geometry":{"type":"Point","coordinates":[-78.943987,43.098829]}},{"properties":{"city":"Wheatfield","zip":"14304","community name":"Lynch Park on the River","number":2080,"county":"Niagara","geo_score":0.783,"phone #":"716-283-1990","street":"River Road","id":"ana1rdy0t22c","# lots":90,"geo_precision":"street","state":"NY"},"type":"Feature","geometry":{"type":"Point","coordinates":[-78.945022,43.073185]}},{"properties":{"city":"Wheatfield","zip":"14304","community name":"Lowmans MH Park","number":2141,"county":"Niagara","geo_score":0.783,"phone #":"716-297-3854","street":"River Road","id":"ana1re5ugl6t","# lots":18,"geo_precision":"street","state":"NY"},"type":"Feature","geometry":{"type":"Point","coordinates":[-78.945022,43.073185]}},{"properties":{"city":"Barker","zip":"14012","community name":"Lake Breeze MH Park","number":8706,"county":"Niagara","geo_score":1.0,"phone #":"716-795-3502","street":"Lake Road","id":"ana1re3fmuu1","# lots":25,"geo_precision":"street","state":"NY"},"type":"Feature","geometry":{"type":"Point","coordinates":[-78.603979,43.34889]}},{"properties":{"city":"Niagara Falls","zip":"14304","community name":"Expressway Village","number":2740,"county":"Niagara","geo_score":0.829,"phone #":"716-297-2201","street":"Service Road","id":"ana1re6j6r12","# lots":120,"geo_precision":"street","state":"NY"},"type":"Feature","geometry":{"type":"Point","coordinates":[-78.993974,43.107759]}},{"properties":{"city":"Ransomville","zip":"14131","community name":"Dogwood Park","number":3635,"county":"Niagara","geo_score":1.0,"phone #":"716-998-4173","street":"New Road","id":"ana1re0hvtgt","# lots":218,"geo_precision":"street","state":"NY"},"type":"Feature","geometry":{"type":"Point","coordinates":[-78.906841,43.24207]}},{"properties":{"city":"Lockport","zip":"14108","community name":"Ridgeview Homes Inc.","number":3902,"county":"Niagara","geo_score":0.857,"phone #":"585-729-6445","street":"Lockport Olcott Road","id":"ana1rdt0xn6b","# lots":128,"geo_precision":"zip","state":"NY"},"type":"Feature","geometry":{"type":"Point","coordinates":[-78.724806,43.271156]}},{"properties":{"city":"Newfane","zip":"14108","community name":"Countryside MH Park","number":3059,"county":"Niagara","geo_score":0.325,"phone #":"716-778-5201","street":"Bixler Riad","id":"ana1re3n1wav","# lots":202,"geo_precision":"street","state":"NY"},"type":"Feature","geometry":{"type":"Point","coordinates":[-78.860633,43.030765]}},{"properties":{"city":"Niagara Falls","zip":"14304","community name":"Cayuga Drive MH Park","number":9414,"county":"Niagara","geo_score":1.0,"phone #":"716-297-3854","street":"Cayuga Drive","id":"ana1re07q5bd","# lots":23,"geo_precision":"street","state":"NY"},"type":"Feature","geometry":{"type":"Point","coordinates":[-78.961208,43.07854]}}],"is_temporal":false,"author":{"url":"","metadata":null,"contact_name":null,"contact_address":null,"source":null,"contact_phone":null},"source":"","pagination":{"sort":null,"start":0,"total":21,"limit":1000000},"state":"complete","tags":"","published":"2014-08-17T22:50:12-04:00","id":470186}