{"type":"FeatureCollection","data_type":"Dataset","url_type":null,"permissions":[{"permissions":{"download":true,"view":true},"group_id":"everyone"}],"classification":null,"title":"Top 200 NY Cities for Schools","count":200,"stream_id":480631,"contributor":{"url":"http://geocommons.com/users/38281","name":"briantalbot"},"data_attributes":null,"calculation_params":null,"icon_link":null,"link":"http://geocommons.com/overlays/480631.json","extent":[-79.4453,40.6353,-72.6371,44.2278],"geometry_types":["point"],"unique_name":null,"name":"Top 200 NY Cities for Schools","feature_count":200,"description":"","next_feature":null,"is_raster":false,"short_classification":"Y","stats":{"rank score*":{"max":0.993,"variance":0.00431646168341709,"mean":0.860524999999999,"stdev":0.0656997845005376,"min":0.758,"median":0.853},"rank (of 753)":{"max":200,"variance":3345.8511557789,"mean":100.41,"stdev":57.8433328550395,"min":1,"median":101}},"features":[{"properties":{"city":"Quogue","rank score*":0.993,"# ranked high schools":"-","geo_score":0.714,"# ranked middle schools":"-","# alt. schools":"-","# private schools":"-","# ranked elementary schools":"1","id":"aogl9rbryn98","rank (of 753)":1,"geo_precision":"city","state":"NY"},"type":"Feature","geometry":{"type":"Point","coordinates":[-72.637078,40.922326]}},{"properties":{"city":"Briarcliff Manor","rank score*":0.983,"# ranked high schools":"1","geo_score":0.714,"# ranked middle schools":"1","# alt. schools":"-","# private schools":"2","# ranked elementary schools":"1","id":"aogl9rihgs27","rank (of 753)":2,"geo_precision":"city","state":"NY"},"type":"Feature","geometry":{"type":"Point","coordinates":[-74.316824,41.343092]}},{"properties":{"city":"Cold Spring Harbor","rank score*":0.981,"# ranked high schools":"1","geo_score":0.714,"# ranked middle schools":"-","# alt. schools":"-","# private schools":"-","# ranked elementary schools":"1","id":"aogl9rer4b9h","rank (of 753)":3,"geo_precision":"city","state":"NY"},"type":"Feature","geometry":{"type":"Point","coordinates":[-73.755926,40.664542]}},{"properties":{"city":"Jericho","rank score*":0.978,"# ranked high schools":"1","geo_score":0.714,"# ranked middle schools":"1","# alt. schools":"-","# private schools":"1","# ranked elementary schools":"3","id":"aogl9rks00p1","rank (of 753)":4,"geo_precision":"city","state":"NY"},"type":"Feature","geometry":{"type":"Point","coordinates":[-73.601772,40.754757]}},{"properties":{"city":"Rye Brook","rank score*":0.976,"# ranked high schools":"1","geo_score":0.714,"# ranked middle schools":"1","# alt. schools":"-","# private schools":"-","# ranked elementary schools":"1","id":"aogl9r988icm","rank (of 753)":5,"geo_precision":"city","state":"NY"},"type":"Feature","geometry":{"type":"Point","coordinates":[-73.744725,40.955237]}},{"properties":{"city":"Chappaqua","rank score*":0.976,"# ranked high schools":"1","geo_score":0.714,"# ranked middle schools":"2","# alt. schools":"-","# private schools":"1","# ranked elementary schools":"3","id":"aogl9rkqtjfv","rank (of 753)":6,"geo_precision":"city","state":"NY"},"type":"Feature","geometry":{"type":"Point","coordinates":[-73.775547,41.078957]}},{"properties":{"city":"Garden City","rank score*":0.975,"# ranked high schools":"1","geo_score":0.714,"# ranked middle schools":"1","# alt. schools":"-","# private schools":"3","# ranked elementary schools":"5","id":"aogl9rjhtuky","rank (of 753)":7,"geo_precision":"city","state":"NY"},"type":"Feature","geometry":{"type":"Point","coordinates":[-76.28521,42.61507]}},{"properties":{"city":"Larchmont","rank score*":0.97,"# ranked high schools":"-","geo_score":0.714,"# ranked middle schools":"1","# alt. schools":"-","# private schools":"2","# ranked elementary schools":"3","id":"aogl9r6ai9xr","rank (of 753)":8,"geo_precision":"city","state":"NY"},"type":"Feature","geometry":{"type":"Point","coordinates":[-73.755284,41.090197]}},{"properties":{"city":"South Salem","rank score*":0.969,"# ranked high schools":"-","geo_score":0.714,"# ranked middle schools":"-","# alt. schools":"-","# private schools":"1","# ranked elementary schools":"2","id":"aogl9rklxn7w","rank (of 753)":9,"geo_precision":"city","state":"NY"},"type":"Feature","geometry":{"type":"Point","coordinates":[-73.348736,43.225966]}},{"properties":{"city":"Sea Cliff","rank score*":0.968,"# ranked high schools":"-","geo_score":0.714,"# ranked middle schools":"-","# alt. schools":"-","# private schools":"-","# ranked elementary schools":"1","id":"aogl9rizlpb2","rank (of 753)":10,"geo_precision":"city","state":"NY"},"type":"Feature","geometry":{"type":"Point","coordinates":[-73.601772,40.754757]}},{"properties":{"city":"Manhasset","rank score*":0.968,"# ranked high schools":"1","geo_score":0.714,"# ranked middle schools":"1","# alt. schools":"-","# private schools":"3","# ranked elementary schools":"2","id":"aogl9rfqdj7r","rank (of 753)":11,"geo_precision":"city","state":"NY"},"type":"Feature","geometry":{"type":"Point","coordinates":[-73.601772,40.754757]}},{"properties":{"city":"Greenvale","rank score*":0.967,"# ranked high schools":"-","geo_score":0.714,"# ranked middle schools":"-","# alt. schools":"-","# private schools":"-","# ranked elementary schools":"1","id":"aogl9rhu7ywx","rank (of 753)":12,"geo_precision":"city","state":"NY"},"type":"Feature","geometry":{"type":"Point","coordinates":[-73.906293,43.181214]}},{"properties":{"city":"Manlius","rank score*":0.967,"# ranked high schools":"1","geo_score":0.714,"# ranked middle schools":"1","# alt. schools":"-","# private schools":"-","# ranked elementary schools":"1","id":"aogl9rdzmvuh","rank (of 753)":13,"geo_precision":"city","state":"NY"},"type":"Feature","geometry":{"type":"Point","coordinates":[-75.96654,42.955618]}},{"properties":{"city":"Bronxville","rank score*":0.966,"# ranked high schools":"1","geo_score":0.0,"# ranked middle schools":"1","# alt. schools":"-","# private schools":"3","# ranked elementary schools":"1","id":"aogl9r8r68ed","rank (of 753)":14,"geo_precision":"unmatched","state":"NY"},"type":"Feature","geometry":null},{"properties":{"city":"Scarsdale","rank score*":0.964,"# ranked high schools":"2","geo_score":0.714,"# ranked middle schools":"1","# alt. schools":"-","# private schools":"3","# ranked elementary schools":"8","id":"aogl9rczmqi1","rank (of 753)":15,"geo_precision":"city","state":"NY"},"type":"Feature","geometry":{"type":"Point","coordinates":[-73.793188,40.983431]}},{"properties":{"city":"Williston Park","rank score*":0.963,"# ranked high schools":"-","geo_score":0.714,"# ranked middle schools":"-","# alt. schools":"-","# private schools":"1","# ranked elementary schools":"1","id":"aogl9rgmfxoj","rank (of 753)":16,"geo_precision":"city","state":"NY"},"type":"Feature","geometry":{"type":"Point","coordinates":[-78.516412,42.82756]}},{"properties":{"city":"Hastings on Hudson","rank score*":0.963,"# ranked high schools":"2","geo_score":0.714,"# ranked middle schools":"1","# alt. schools":"1","# private schools":"-","# ranked elementary schools":"1","id":"aogl9rlk1mfn","rank (of 753)":17,"geo_precision":"city","state":"NY"},"type":"Feature","geometry":{"type":"Point","coordinates":[-73.862969,40.987797]}},{"properties":{"city":"Albertson","rank score*":0.962,"# ranked high schools":"-","geo_score":0.714,"# ranked middle schools":"1","# alt. schools":"-","# private schools":"1","# ranked elementary schools":"2","id":"aogl9r6ag8d7","rank (of 753)":18,"geo_precision":"city","state":"NY"},"type":"Feature","geometry":{"type":"Point","coordinates":[-73.601772,40.754757]}},{"properties":{"city":"Cross River","rank score*":0.962,"# ranked high schools":"1","geo_score":0.714,"# ranked middle schools":"1","# alt. schools":"-","# private schools":"-","# ranked elementary schools":"-","id":"aogl9ri8vfej","rank (of 753)":19,"geo_precision":"city","state":"NY"},"type":"Feature","geometry":{"type":"Point","coordinates":[-73.612074,41.269896]}},{"properties":{"city":"Pittsford","rank score*":0.959,"# ranked high schools":"2","geo_score":0.714,"# ranked middle schools":"2","# alt. schools":"-","# private schools":"1","# ranked elementary schools":"4","id":"aogl9rc6csmg","rank (of 753)":20,"geo_precision":"city","state":"NY"},"type":"Feature","geometry":{"type":"Point","coordinates":[-77.520692,43.060229]}},{"properties":{"city":"Katonah","rank score*":0.959,"# ranked high schools":"-","geo_score":0.714,"# ranked middle schools":"-","# alt. schools":"-","# private schools":"1","# ranked elementary schools":"1","id":"aogl9rc4arcq","rank (of 753)":21,"geo_precision":"city","state":"NY"},"type":"Feature","geometry":{"type":"Point","coordinates":[-76.207149,43.272569]}},{"properties":{"city":"Pleasantville","rank score*":0.956,"# ranked high schools":"1","geo_score":0.714,"# ranked middle schools":"1","# alt. schools":"2","# private schools":"-","# ranked elementary schools":"1","id":"aogl9r9ppbfb","rank (of 753)":22,"geo_precision":"city","state":"NY"},"type":"Feature","geometry":{"type":"Point","coordinates":[-73.783655,41.825708]}},{"properties":{"city":"Syosset","rank score*":0.956,"# ranked high schools":"1","geo_score":0.714,"# ranked middle schools":"2","# alt. schools":"1","# private schools":"4","# ranked elementary schools":"6","id":"aogl9rd5j6us","rank (of 753)":23,"geo_precision":"city","state":"NY"},"type":"Feature","geometry":{"type":"Point","coordinates":[-73.601772,40.754757]}},{"properties":{"city":"Armonk","rank score*":0.956,"# ranked high schools":"1","geo_score":0.714,"# ranked middle schools":"1","# alt. schools":"-","# private schools":"1","# ranked elementary schools":"2","id":"aogl9rbcf5ej","rank (of 753)":24,"geo_precision":"city","state":"NY"},"type":"Feature","geometry":{"type":"Point","coordinates":[-73.761247,41.075185]}},{"properties":{"city":"Rye","rank score*":0.955,"# ranked high schools":"1","geo_score":0.714,"# ranked middle schools":"1","# alt. schools":"-","# private schools":"4","# ranked elementary schools":"3","id":"aogl9r9cn5c2","rank (of 753)":25,"geo_precision":"city","state":"NY"},"type":"Feature","geometry":{"type":"Point","coordinates":[-73.744725,40.955237]}},{"properties":{"city":"Douglaston","rank score*":0.955,"# ranked high schools":"-","geo_score":0.714,"# ranked middle schools":"-","# alt. schools":"-","# private schools":"1","# ranked elementary schools":"1","id":"aogl9rb1y0ck","rank (of 753)":26,"geo_precision":"city","state":"NY"},"type":"Feature","geometry":{"type":"Point","coordinates":[-73.747077,40.768713]}},{"properties":{"city":"Old Bethpage","rank score*":0.955,"# ranked high schools":"-","geo_score":0.714,"# ranked middle schools":"-","# alt. schools":"-","# private schools":"-","# ranked elementary schools":"1","id":"aogl9r8n694g","rank (of 753)":26,"geo_precision":"city","state":"NY"},"type":"Feature","geometry":{"type":"Point","coordinates":[-73.495369,40.728449]}},{"properties":{"city":"Penfield","rank score*":0.954,"# ranked high schools":"1","geo_score":0.714,"# ranked middle schools":"1","# alt. schools":"-","# private schools":"4","# ranked elementary schools":"3","id":"aogl9rkcyjwn","rank (of 753)":28,"geo_precision":"city","state":"NY"},"type":"Feature","geometry":{"type":"Point","coordinates":[-77.454446,43.145813]}},{"properties":{"city":"Irvington","rank score*":0.952,"# ranked high schools":"1","geo_score":0.714,"# ranked middle schools":"2","# alt. schools":"-","# private schools":"1","# ranked elementary schools":"1","id":"aogl9rb6jaxk","rank (of 753)":29,"geo_precision":"city","state":"NY"},"type":"Feature","geometry":{"type":"Point","coordinates":[-73.856051,41.079553]}},{"properties":{"city":"Clarence","rank score*":0.952,"# ranked high schools":"1","geo_score":0.714,"# ranked middle schools":"1","# alt. schools":"-","# private schools":"-","# ranked elementary schools":"1","id":"aogl9rlfm2xj","rank (of 753)":30,"geo_precision":"city","state":"NY"},"type":"Feature","geometry":{"type":"Point","coordinates":[-78.593381,42.937314]}},{"properties":{"city":"Woodbury","rank score*":0.949,"# ranked high schools":"-","geo_score":0.714,"# ranked middle schools":"-","# alt. schools":"-","# private schools":"1","# ranked elementary schools":"1","id":"aogl9rf58gbd","rank (of 753)":31,"geo_precision":"city","state":"NY"},"type":"Feature","geometry":{"type":"Point","coordinates":[-73.601772,40.754757]}},{"properties":{"city":"Ardsley","rank score*":0.949,"# ranked high schools":"1","geo_score":0.714,"# ranked middle schools":"1","# alt. schools":"-","# private schools":"1","# ranked elementary schools":"1","id":"aogl9r7den1y","rank (of 753)":32,"geo_precision":"city","state":"NY"},"type":"Feature","geometry":{"type":"Point","coordinates":[-73.841478,41.015096]}},{"properties":{"city":"Cazenovia","rank score*":0.944,"# ranked high schools":"1","geo_score":0.714,"# ranked middle schools":"1","# alt. schools":"-","# private schools":"-","# ranked elementary schools":"1","id":"aogl9res489s","rank (of 753)":33,"geo_precision":"city","state":"NY"},"type":"Feature","geometry":{"type":"Point","coordinates":[-75.775568,42.939422]}},{"properties":{"city":"Glen Head","rank score*":0.94,"# ranked high schools":"1","geo_score":0.714,"# ranked middle schools":"1","# alt. schools":"-","# private schools":"3","# ranked elementary schools":"2","id":"aogl9rcl4p4x","rank (of 753)":34,"geo_precision":"city","state":"NY"},"type":"Feature","geometry":{"type":"Point","coordinates":[-73.601772,40.754757]}},{"properties":{"city":"Purchase","rank score*":0.938,"# ranked high schools":"-","geo_score":0.714,"# ranked middle schools":"-","# alt. schools":"-","# private schools":"1","# ranked elementary schools":"1","id":"aogl9rilveko","rank (of 753)":35,"geo_precision":"city","state":"NY"},"type":"Feature","geometry":{"type":"Point","coordinates":[-73.751025,41.002757]}},{"properties":{"city":"Fayetteville","rank score*":0.937,"# ranked high schools":"-","geo_score":0.714,"# ranked middle schools":"1","# alt. schools":"-","# private schools":"1","# ranked elementary schools":"2","id":"aogl9raq6anz","rank (of 753)":36,"geo_precision":"city","state":"NY"},"type":"Feature","geometry":{"type":"Point","coordinates":[-75.995518,42.947789]}},{"properties":{"city":"Plainview","rank score*":0.934,"# ranked high schools":"1","geo_score":0.714,"# ranked middle schools":"2","# alt. schools":"-","# private schools":"1","# ranked elementary schools":"6","id":"aogl9rjv209i","rank (of 753)":37,"geo_precision":"city","state":"NY"},"type":"Feature","geometry":{"type":"Point","coordinates":[-73.601772,40.754757]}},{"properties":{"city":"East Williston","rank score*":0.931,"# ranked high schools":"-","geo_score":0.714,"# ranked middle schools":"-","# alt. schools":"-","# private schools":"-","# ranked elementary schools":"1","id":"aogl9rm0wpux","rank (of 753)":38,"geo_precision":"city","state":"NY"},"type":"Feature","geometry":{"type":"Point","coordinates":[-74.157646,41.558705]}},{"properties":{"city":"Elma","rank score*":0.929,"# ranked high schools":"1","geo_score":0.714,"# ranked middle schools":"2","# alt. schools":"-","# private schools":"1","# ranked elementary schools":"1","id":"aogl9rf3z0c4","rank (of 753)":39,"geo_precision":"city","state":"NY"},"type":"Feature","geometry":{"type":"Point","coordinates":[-78.628966,42.828309]}},{"properties":{"city":"Great Neck","rank score*":0.929,"# ranked high schools":"3","geo_score":0.714,"# ranked middle schools":"2","# alt. schools":"-","# private schools":"4","# ranked elementary schools":"4","id":"aogl9rl3ssnx","rank (of 753)":40,"geo_precision":"city","state":"NY"},"type":"Feature","geometry":{"type":"Point","coordinates":[-73.72652,40.786768]}},{"properties":{"city":"New Hyde Park","rank score*":0.929,"# ranked high schools":"2","geo_score":0.714,"# ranked middle schools":"-","# alt. schools":"-","# private schools":"1","# ranked elementary schools":"5","id":"aogl9r7o72qb","rank (of 753)":41,"geo_precision":"city","state":"NY"},"type":"Feature","geometry":{"type":"Point","coordinates":[-73.814913,41.813468]}},{"properties":{"city":"Broad Channel","rank score*":0.928,"# ranked high schools":"-","geo_score":0.714,"# ranked middle schools":"-","# alt. schools":"-","# private schools":"-","# ranked elementary schools":"1","id":"aogl9rb666ei","rank (of 753)":42,"geo_precision":"city","state":"NY"},"type":"Feature","geometry":{"type":"Point","coordinates":[-78.544468,42.366175]}},{"properties":{"city":"Lincolndale","rank score*":0.928,"# ranked high schools":"1","geo_score":0.714,"# ranked middle schools":"-","# alt. schools":"-","# private schools":"1","# ranked elementary schools":"1","id":"aogl9rd6izi1","rank (of 753)":43,"geo_precision":"city","state":"NY"},"type":"Feature","geometry":{"type":"Point","coordinates":[-77.344434,43.183397]}},{"properties":{"city":"Pelham","rank score*":0.923,"# ranked high schools":"1","geo_score":0.714,"# ranked middle schools":"1","# alt. schools":"-","# private schools":"2","# ranked elementary schools":"4","id":"aogl9ris6e62","rank (of 753)":44,"geo_precision":"city","state":"NY"},"type":"Feature","geometry":{"type":"Point","coordinates":[-73.806277,40.904538]}},{"properties":{"city":"Little Neck","rank score*":0.923,"# ranked high schools":"-","geo_score":0.714,"# ranked middle schools":"1","# alt. schools":"1","# private schools":"-","# ranked elementary schools":"2","id":"aogl9rcq4nhd","rank (of 753)":45,"geo_precision":"city","state":"NY"},"type":"Feature","geometry":{"type":"Point","coordinates":[-73.735759,40.758364]}},{"properties":{"city":"Wantagh","rank score*":0.922,"# ranked high schools":"1","geo_score":0.0,"# ranked middle schools":"1","# alt. schools":"-","# private schools":"2","# ranked elementary schools":"4","id":"aogl9rht95rs","rank (of 753)":46,"geo_precision":"unmatched","state":"NY"},"type":"Feature","geometry":null},{"properties":{"city":"Goldens Bridge","rank score*":0.92,"# ranked high schools":"-","geo_score":0.714,"# ranked middle schools":"-","# alt. schools":"-","# private schools":"-","# ranked elementary schools":"1","id":"aogl9rm60v8a","rank (of 753)":47,"geo_precision":"city","state":"NY"},"type":"Feature","geometry":{"type":"Point","coordinates":[-73.647891,41.300361]}},{"properties":{"city":"Roslyn Heights","rank score*":0.92,"# ranked high schools":"1","geo_score":0.714,"# ranked middle schools":"2","# alt. schools":"-","# private schools":"-","# ranked elementary schools":"2","id":"aogl9ricf40b","rank (of 753)":48,"geo_precision":"city","state":"NY"},"type":"Feature","geometry":{"type":"Point","coordinates":[-73.637073,40.816489]}},{"properties":{"city":"West Nyack","rank score*":0.915,"# ranked high schools":"1","geo_score":0.714,"# ranked middle schools":"3","# alt. schools":"1","# private schools":"1","# ranked elementary schools":"2","id":"aogl9rbwdkm5","rank (of 753)":49,"geo_precision":"city","state":"NY"},"type":"Feature","geometry":{"type":"Point","coordinates":[-73.970482,41.100622]}},{"properties":{"city":"Williamsville","rank score*":0.915,"# ranked high schools":"2","geo_score":0.714,"# ranked middle schools":"2","# alt. schools":"-","# private schools":"6","# ranked elementary schools":"7","id":"aogl9rl7t4ct","rank (of 753)":50,"geo_precision":"city","state":"NY"},"type":"Feature","geometry":{"type":"Point","coordinates":[-78.737809,42.963947]}},{"properties":{"city":"Croton On Hudson","rank score*":0.914,"# ranked high schools":"1","geo_score":0.714,"# ranked middle schools":"1","# alt. schools":"-","# private schools":"2","# ranked elementary schools":"1","id":"aogl9riqdtqr","rank (of 753)":51,"geo_precision":"city","state":"NY"},"type":"Feature","geometry":{"type":"Point","coordinates":[-74.464026,42.85813]}},{"properties":{"city":"Rexford","rank score*":0.913,"# ranked high schools":"-","geo_score":0.0,"# ranked middle schools":"-","# alt. schools":"-","# private schools":"-","# ranked elementary schools":"1","id":"aogl9r5tc443","rank (of 753)":52,"geo_precision":"unmatched","state":"NY"},"type":"Feature","geometry":null},{"properties":{"city":"Bayville","rank score*":0.912,"# ranked high schools":"-","geo_score":0.714,"# ranked middle schools":"-","# alt. schools":"-","# private schools":"-","# ranked elementary schools":"1","id":"aogl9rjw8uh7","rank (of 753)":53,"geo_precision":"city","state":"NY"},"type":"Feature","geometry":{"type":"Point","coordinates":[-78.832706,42.929303]}},{"properties":{"city":"East Amherst","rank score*":0.91,"# ranked high schools":"1","geo_score":0.714,"# ranked middle schools":"2","# alt. schools":"-","# private schools":"-","# ranked elementary schools":"1","id":"aogl9r5uks16","rank (of 753)":54,"geo_precision":"city","state":"NY"},"type":"Feature","geometry":{"type":"Point","coordinates":[-78.698796,43.042907]}},{"properties":{"city":"East Meadow","rank score*":0.91,"# ranked high schools":"1","geo_score":0.714,"# ranked middle schools":"1","# alt. schools":"-","# private schools":"1","# ranked elementary schools":"4","id":"aogl9r69apzj","rank (of 753)":55,"geo_precision":"city","state":"NY"},"type":"Feature","geometry":{"type":"Point","coordinates":[-74.484892,44.227838]}},{"properties":{"city":"Amagansett","rank score*":0.907,"# ranked high schools":"-","geo_score":0.714,"# ranked middle schools":"-","# alt. schools":"-","# private schools":"-","# ranked elementary schools":"1","id":"aogl9rig8sqv","rank (of 753)":56,"geo_precision":"city","state":"NY"},"type":"Feature","geometry":{"type":"Point","coordinates":[-72.637078,40.922326]}},{"properties":{"city":"Bardonia","rank score*":0.903,"# ranked high schools":"-","geo_score":0.714,"# ranked middle schools":"-","# alt. schools":"-","# private schools":"1","# ranked elementary schools":"1","id":"aogl9rezcz1a","rank (of 753)":57,"geo_precision":"city","state":"NY"},"type":"Feature","geometry":{"type":"Point","coordinates":[-77.32748,42.041739]}},{"properties":{"city":"Clarence Center","rank score*":0.903,"# ranked high schools":"-","geo_score":0.714,"# ranked middle schools":"-","# alt. schools":"-","# private schools":"-","# ranked elementary schools":"1","id":"aogl9r9iutw4","rank (of 753)":57,"geo_precision":"city","state":"NY"},"type":"Feature","geometry":{"type":"Point","coordinates":[-78.783922,42.963669]}},{"properties":{"city":"Crompond","rank score*":0.903,"# ranked high schools":"-","geo_score":0.714,"# ranked middle schools":"-","# alt. schools":"-","# private schools":"1","# ranked elementary schools":"1","id":"aogl9r6xuzom","rank (of 753)":57,"geo_precision":"city","state":"NY"},"type":"Feature","geometry":{"type":"Point","coordinates":[-73.861217,41.300561]}},{"properties":{"city":"East Setauket","rank score*":0.902,"# ranked high schools":"1","geo_score":0.714,"# ranked middle schools":"-","# alt. schools":"-","# private schools":"1","# ranked elementary schools":"3","id":"aogl9r8307ma","rank (of 753)":60,"geo_precision":"city","state":"NY"},"type":"Feature","geometry":{"type":"Point","coordinates":[-73.118442,40.935098]}},{"properties":{"city":"Delmar","rank score*":0.9,"# ranked high schools":"1","geo_score":0.714,"# ranked middle schools":"1","# alt. schools":"-","# private schools":"2","# ranked elementary schools":"4","id":"aogl9riomz1d","rank (of 753)":61,"geo_precision":"city","state":"NY"},"type":"Feature","geometry":{"type":"Point","coordinates":[-73.8757,42.605467]}},{"properties":{"city":"Jamesville","rank score*":0.899,"# ranked high schools":"-","geo_score":0.714,"# ranked middle schools":"1","# alt. schools":"-","# private schools":"-","# ranked elementary schools":"2","id":"aogl9rj2r0yv","rank (of 753)":62,"geo_precision":"city","state":"NY"},"type":"Feature","geometry":{"type":"Point","coordinates":[-76.057658,42.966136]}},{"properties":{"city":"Setauket","rank score*":0.897,"# ranked high schools":"-","geo_score":0.714,"# ranked middle schools":"1","# alt. schools":"-","# private schools":"-","# ranked elementary schools":"1","id":"aogl9remuh7n","rank (of 753)":63,"geo_precision":"city","state":"NY"},"type":"Feature","geometry":{"type":"Point","coordinates":[-73.118442,40.935098]}},{"properties":{"city":"Dix Hills","rank score*":0.897,"# ranked high schools":"2","geo_score":0.714,"# ranked middle schools":"1","# alt. schools":"-","# private schools":"2","# ranked elementary schools":"7","id":"aogl9rdw8oj9","rank (of 753)":64,"geo_precision":"city","state":"NY"},"type":"Feature","geometry":{"type":"Point","coordinates":[-73.766897,40.716888]}},{"properties":{"city":"Massapequa Park","rank score*":0.896,"# ranked high schools":"-","geo_score":0.714,"# ranked middle schools":"-","# alt. schools":"-","# private schools":"-","# ranked elementary schools":"3","id":"aogl9r60xam3","rank (of 753)":65,"geo_precision":"city","state":"NY"},"type":"Feature","geometry":{"type":"Point","coordinates":[-73.601772,40.754757]}},{"properties":{"city":"Lake View","rank score*":0.893,"# ranked high schools":"-","geo_score":0.714,"# ranked middle schools":"-","# alt. schools":"-","# private schools":"1","# ranked elementary schools":"1","id":"aogl9rjx2vhh","rank (of 753)":66,"geo_precision":"city","state":"NY"},"type":"Feature","geometry":{"type":"Point","coordinates":[-73.65263,40.68538]}},{"properties":{"city":"Stony Brook","rank score*":0.893,"# ranked high schools":"-","geo_score":0.714,"# ranked middle schools":"1","# alt. schools":"-","# private schools":"2","# ranked elementary schools":"1","id":"aogl9rfggyc8","rank (of 753)":66,"geo_precision":"city","state":"NY"},"type":"Feature","geometry":{"type":"Point","coordinates":[-73.182803,40.90129]}},{"properties":{"city":"Eastchester","rank score*":0.893,"# ranked high schools":"2","geo_score":0.714,"# ranked middle schools":"2","# alt. schools":"-","# private schools":"1","# ranked elementary schools":"3","id":"aogl9rm73up2","rank (of 753)":68,"geo_precision":"city","state":"NY"},"type":"Feature","geometry":{"type":"Point","coordinates":[-74.277095,41.354538]}},{"properties":{"city":"Guilderland","rank score*":0.889,"# ranked high schools":"-","geo_score":0.714,"# ranked middle schools":"1","# alt. schools":"-","# private schools":"-","# ranked elementary schools":"1","id":"aogl9rcq0ic8","rank (of 753)":69,"geo_precision":"city","state":"NY"},"type":"Feature","geometry":{"type":"Point","coordinates":[-73.960324,42.703519]}},{"properties":{"city":"Skaneateles","rank score*":0.887,"# ranked high schools":"1","geo_score":0.714,"# ranked middle schools":"1","# alt. schools":"-","# private schools":"-","# ranked elementary schools":"2","id":"aogl9rh23l5p","rank (of 753)":70,"geo_precision":"city","state":"NY"},"type":"Feature","geometry":{"type":"Point","coordinates":[-76.285202,42.884394]}},{"properties":{"city":"Honeoye Falls","rank score*":0.887,"# ranked high schools":"1","geo_score":0.714,"# ranked middle schools":"1","# alt. schools":"-","# private schools":"-","# ranked elementary schools":"1","id":"aogl9rmbjach","rank (of 753)":71,"geo_precision":"city","state":"NY"},"type":"Feature","geometry":{"type":"Point","coordinates":[-77.606771,42.982513]}},{"properties":{"city":"Altamont","rank score*":0.886,"# ranked high schools":"-","geo_score":0.714,"# ranked middle schools":"-","# alt. schools":"-","# private schools":"1","# ranked elementary schools":"1","id":"aogl9rbl1f7m","rank (of 753)":72,"geo_precision":"city","state":"NY"},"type":"Feature","geometry":{"type":"Point","coordinates":[-74.030596,42.688731]}},{"properties":{"city":"Bayside","rank score*":0.886,"# ranked high schools":"2","geo_score":0.714,"# ranked middle schools":"3","# alt. schools":"-","# private schools":"5","# ranked elementary schools":"10","id":"aogl9r9nmby0","rank (of 753)":73,"geo_precision":"city","state":"NY"},"type":"Feature","geometry":{"type":"Point","coordinates":[-73.776701,40.79278]}},{"properties":{"city":"Lake Huntington","rank score*":0.885,"# ranked high schools":"1","geo_score":0.714,"# ranked middle schools":"-","# alt. schools":"-","# private schools":"-","# ranked elementary schools":"-","id":"aogl9re8b7pg","rank (of 753)":74,"geo_precision":"city","state":"NY"},"type":"Feature","geometry":{"type":"Point","coordinates":[-75.861867,43.976174]}},{"properties":{"city":"Bedford","rank score*":0.882,"# ranked high schools":"1","geo_score":0.714,"# ranked middle schools":"1","# alt. schools":"-","# private schools":"2","# ranked elementary schools":"1","id":"aogl9ri9unfe","rank (of 753)":75,"geo_precision":"city","state":"NY"},"type":"Feature","geometry":{"type":"Point","coordinates":[-73.718481,41.123741]}},{"properties":{"city":"Cold Spring","rank score*":0.882,"# ranked high schools":"1","geo_score":0.714,"# ranked middle schools":"-","# alt. schools":"-","# private schools":"-","# ranked elementary schools":"1","id":"aogl9rkqjmuz","rank (of 753)":76,"geo_precision":"city","state":"NY"},"type":"Feature","geometry":{"type":"Point","coordinates":[-73.755926,40.664542]}},{"properties":{"city":"Floral Park","rank score*":0.88,"# ranked high schools":"2","geo_score":0.714,"# ranked middle schools":"1","# alt. schools":"1","# private schools":"2","# ranked elementary schools":"4","id":"aogl9rfu1nhv","rank (of 753)":77,"geo_precision":"city","state":"NY"},"type":"Feature","geometry":{"type":"Point","coordinates":[-73.706783,40.720051]}},{"properties":{"city":"Somers","rank score*":0.88,"# ranked high schools":"-","geo_score":0.714,"# ranked middle schools":"1","# alt. schools":"-","# private schools":"1","# ranked elementary schools":"1","id":"aogl9r94rbn3","rank (of 753)":78,"geo_precision":"city","state":"NY"},"type":"Feature","geometry":{"type":"Point","coordinates":[-73.693685,41.326544]}},{"properties":{"city":"Westhampton Beach","rank score*":0.879,"# ranked high schools":"1","geo_score":0.714,"# ranked middle schools":"1","# alt. schools":"-","# private schools":"-","# ranked elementary schools":"1","id":"aogl9radolp9","rank (of 753)":79,"geo_precision":"city","state":"NY"},"type":"Feature","geometry":{"type":"Point","coordinates":[-72.637078,40.922326]}},{"properties":{"city":"Commack","rank score*":0.878,"# ranked high schools":"1","geo_score":0.0,"# ranked middle schools":"1","# alt. schools":"-","# private schools":"2","# ranked elementary schools":"5","id":"aogl9rezq95q","rank (of 753)":80,"geo_precision":"unmatched","state":"NY"},"type":"Feature","geometry":null},{"properties":{"city":"Mamaroneck","rank score*":0.878,"# ranked high schools":"2","geo_score":0.714,"# ranked middle schools":"1","# alt. schools":"-","# private schools":"2","# ranked elementary schools":"3","id":"aogl9rllskhq","rank (of 753)":81,"geo_precision":"city","state":"NY"},"type":"Feature","geometry":{"type":"Point","coordinates":[-73.738779,40.949199]}},{"properties":{"city":"Saint James","rank score*":0.873,"# ranked high schools":"1","geo_score":0.714,"# ranked middle schools":"1","# alt. schools":"-","# private schools":"2","# ranked elementary schools":"2","id":"aogl9rgj7crq","rank (of 753)":82,"geo_precision":"city","state":"NY"},"type":"Feature","geometry":{"type":"Point","coordinates":[-73.174435,40.889314]}},{"properties":{"city":"Northport","rank score*":0.871,"# ranked high schools":"1","geo_score":0.714,"# ranked middle schools":"1","# alt. schools":"-","# private schools":"-","# ranked elementary schools":"3","id":"aogl9rc1fw2g","rank (of 753)":83,"geo_precision":"city","state":"NY"},"type":"Feature","geometry":{"type":"Point","coordinates":[-73.33268,40.914289]}},{"properties":{"city":"Yorktown Heights","rank score*":0.868,"# ranked high schools":"1","geo_score":0.714,"# ranked middle schools":"3","# alt. schools":"-","# private schools":"4","# ranked elementary schools":"4","id":"aogl9r6tnmek","rank (of 753)":84,"geo_precision":"city","state":"NY"},"type":"Feature","geometry":{"type":"Point","coordinates":[-73.80819,41.29565]}},{"properties":{"city":"Montauk","rank score*":0.866,"# ranked high schools":"-","geo_score":0.714,"# ranked middle schools":"-","# alt. schools":"-","# private schools":"-","# ranked elementary schools":"1","id":"aogl9rl08k9e","rank (of 753)":85,"geo_precision":"city","state":"NY"},"type":"Feature","geometry":{"type":"Point","coordinates":[-72.637078,40.922326]}},{"properties":{"city":"Greenlawn","rank score*":0.865,"# ranked high schools":"1","geo_score":0.714,"# ranked middle schools":"1","# alt. schools":"-","# private schools":"-","# ranked elementary schools":"1","id":"aogl9rlr9hms","rank (of 753)":86,"geo_precision":"city","state":"NY"},"type":"Feature","geometry":{"type":"Point","coordinates":[-73.362512,40.866948]}},{"properties":{"city":"Hewlett","rank score*":0.864,"# ranked high schools":"1","geo_score":0.714,"# ranked middle schools":"1","# alt. schools":"-","# private schools":"2","# ranked elementary schools":"2","id":"aogl9rkksst1","rank (of 753)":87,"geo_precision":"city","state":"NY"},"type":"Feature","geometry":{"type":"Point","coordinates":[-73.693274,40.638803]}},{"properties":{"city":"Merrick","rank score*":0.862,"# ranked high schools":"1","geo_score":0.0,"# ranked middle schools":"1","# alt. schools":"-","# private schools":"4","# ranked elementary schools":"5","id":"aogl9ri7tz41","rank (of 753)":88,"geo_precision":"unmatched","state":"NY"},"type":"Feature","geometry":null},{"properties":{"city":"Port Washington","rank score*":0.861,"# ranked high schools":"1","geo_score":0.714,"# ranked middle schools":"1","# alt. schools":"-","# private schools":"3","# ranked elementary schools":"5","id":"aogl9rbbdoeu","rank (of 753)":89,"geo_precision":"city","state":"NY"},"type":"Feature","geometry":{"type":"Point","coordinates":[-73.601772,40.754757]}},{"properties":{"city":"N Massapequa","rank score*":0.86,"# ranked high schools":"-","geo_score":0.714,"# ranked middle schools":"-","# alt. schools":"-","# private schools":"-","# ranked elementary schools":"1","id":"aogl9rdecgmc","rank (of 753)":90,"geo_precision":"city","state":"NY"},"type":"Feature","geometry":{"type":"Point","coordinates":[-73.601772,40.754757]}},{"properties":{"city":"Cornwall","rank score*":0.86,"# ranked high schools":"-","geo_score":0.714,"# ranked middle schools":"1","# alt. schools":"-","# private schools":"1","# ranked elementary schools":"2","id":"aogl9rfkreix","rank (of 753)":91,"geo_precision":"city","state":"NY"},"type":"Feature","geometry":{"type":"Point","coordinates":[-74.135167,41.348593]}},{"properties":{"city":"East Greenbush","rank score*":0.86,"# ranked high schools":"1","geo_score":0.714,"# ranked middle schools":"1","# alt. schools":"-","# private schools":"1","# ranked elementary schools":"1","id":"aogl9r6nvopp","rank (of 753)":92,"geo_precision":"city","state":"NY"},"type":"Feature","geometry":{"type":"Point","coordinates":[-76.986354,42.12563]}},{"properties":{"city":"West Henrietta","rank score*":0.858,"# ranked high schools":"-","geo_score":0.714,"# ranked middle schools":"1","# alt. schools":"-","# private schools":"-","# ranked elementary schools":"-","id":"aogl9rbmq9n1","rank (of 753)":93,"geo_precision":"city","state":"NY"},"type":"Feature","geometry":{"type":"Point","coordinates":[-77.683575,43.041553]}},{"properties":{"city":"Stewart Manor","rank score*":0.858,"# ranked high schools":"-","geo_score":0.714,"# ranked middle schools":"-","# alt. schools":"-","# private schools":"-","# ranked elementary schools":"1","id":"aogl9rg0p5ei","rank (of 753)":94,"geo_precision":"city","state":"NY"},"type":"Feature","geometry":{"type":"Point","coordinates":[-74.316824,41.343092]}},{"properties":{"city":"Hamburg","rank score*":0.858,"# ranked high schools":"3","geo_score":0.714,"# ranked middle schools":"2","# alt. schools":"-","# private schools":"3","# ranked elementary schools":"6","id":"aogl9rg0h92y","rank (of 753)":95,"geo_precision":"city","state":"NY"},"type":"Feature","geometry":{"type":"Point","coordinates":[-73.850128,42.234254]}},{"properties":{"city":"Bethpage","rank score*":0.858,"# ranked high schools":"1","geo_score":0.714,"# ranked middle schools":"2","# alt. schools":"-","# private schools":"-","# ranked elementary schools":"3","id":"aogl9rd53u9k","rank (of 753)":96,"geo_precision":"city","state":"NY"},"type":"Feature","geometry":{"type":"Point","coordinates":[-73.495369,40.728449]}},{"properties":{"city":"Nesconset","rank score*":0.856,"# ranked high schools":"-","geo_score":0.714,"# ranked middle schools":"1","# alt. schools":"-","# private schools":"1","# ranked elementary schools":"2","id":"aogl9razcq51","rank (of 753)":97,"geo_precision":"city","state":"NY"},"type":"Feature","geometry":{"type":"Point","coordinates":[-73.146763,40.846678]}},{"properties":{"city":"South Hempstead","rank score*":0.855,"# ranked high schools":"-","geo_score":0.714,"# ranked middle schools":"-","# alt. schools":"-","# private schools":"-","# ranked elementary schools":"1","id":"aogl9rhj06wi","rank (of 753)":98,"geo_precision":"city","state":"NY"},"type":"Feature","geometry":{"type":"Point","coordinates":[-73.645129,40.696491]}},{"properties":{"city":"Nanuet","rank score*":0.854,"# ranked high schools":"1","geo_score":0.714,"# ranked middle schools":"1","# alt. schools":"-","# private schools":"2","# ranked elementary schools":"2","id":"aogl9rfqq4w1","rank (of 753)":99,"geo_precision":"city","state":"NY"},"type":"Feature","geometry":{"type":"Point","coordinates":[-77.894474,42.591883]}},{"properties":{"city":"North Merrick","rank score*":0.853,"# ranked high schools":"-","geo_score":0.714,"# ranked middle schools":"-","# alt. schools":"-","# private schools":"1","# ranked elementary schools":"2","id":"aogl9rfu2h9q","rank (of 753)":100,"geo_precision":"city","state":"NY"},"type":"Feature","geometry":{"type":"Point","coordinates":[-73.563183,40.691213]}},{"properties":{"city":"Massapequa","rank score*":0.851,"# ranked high schools":"2","geo_score":0.714,"# ranked middle schools":"1","# alt. schools":"1","# private schools":"2","# ranked elementary schools":"4","id":"aogl9rft1fbu","rank (of 753)":101,"geo_precision":"city","state":"NY"},"type":"Feature","geometry":{"type":"Point","coordinates":[-73.601772,40.754757]}},{"properties":{"city":"Orchard Park","rank score*":0.848,"# ranked high schools":"1","geo_score":0.714,"# ranked middle schools":"1","# alt. schools":"-","# private schools":"4","# ranked elementary schools":"4","id":"aogl9rhe2poo","rank (of 753)":102,"geo_precision":"city","state":"NY"},"type":"Feature","geometry":{"type":"Point","coordinates":[-78.704437,42.742541]}},{"properties":{"city":"Sayville","rank score*":0.847,"# ranked high schools":"-","geo_score":0.714,"# ranked middle schools":"1","# alt. schools":"-","# private schools":"1","# ranked elementary schools":"2","id":"aogl9riczjia","rank (of 753)":103,"geo_precision":"city","state":"NY"},"type":"Feature","geometry":{"type":"Point","coordinates":[-73.085858,40.745866]}},{"properties":{"city":"Suffern","rank score*":0.847,"# ranked high schools":"1","geo_score":0.714,"# ranked middle schools":"3","# alt. schools":"-","# private schools":"5","# ranked elementary schools":"4","id":"aogl9rk29vsr","rank (of 753)":104,"geo_precision":"city","state":"NY"},"type":"Feature","geometry":{"type":"Point","coordinates":[-74.105737,41.137295]}},{"properties":{"city":"East Aurora","rank score*":0.847,"# ranked high schools":"1","geo_score":0.714,"# ranked middle schools":"1","# alt. schools":"-","# private schools":"2","# ranked elementary schools":"2","id":"aogl9ramg97n","rank (of 753)":105,"geo_precision":"city","state":"NY"},"type":"Feature","geometry":{"type":"Point","coordinates":[-76.646007,42.755979]}},{"properties":{"city":"Red Hook","rank score*":0.846,"# ranked high schools":"1","geo_score":0.714,"# ranked middle schools":"1","# alt. schools":"-","# private schools":"1","# ranked elementary schools":"2","id":"aogl9rgn29a1","rank (of 753)":106,"geo_precision":"city","state":"NY"},"type":"Feature","geometry":{"type":"Point","coordinates":[-74.009584,40.675103]}},{"properties":{"city":"Eldred","rank score*":0.845,"# ranked high schools":"1","geo_score":0.714,"# ranked middle schools":"-","# alt. schools":"-","# private schools":"-","# ranked elementary schools":"-","id":"aogl9r93blt8","rank (of 753)":107,"geo_precision":"city","state":"NY"},"type":"Feature","geometry":{"type":"Point","coordinates":[-74.845788,41.517426]}},{"properties":{"city":"Bellmore","rank score*":0.845,"# ranked high schools":"2","geo_score":0.714,"# ranked middle schools":"2","# alt. schools":"-","# private schools":"1","# ranked elementary schools":"3","id":"aogl9rbqm6xu","rank (of 753)":108,"geo_precision":"city","state":"NY"},"type":"Feature","geometry":{"type":"Point","coordinates":[-73.53652,40.6729]}},{"properties":{"city":"Varysburg","rank score*":0.844,"# ranked high schools":"-","geo_score":0.714,"# ranked middle schools":"-","# alt. schools":"-","# private schools":"-","# ranked elementary schools":"1","id":"aogl9r9y9nu0","rank (of 753)":109,"geo_precision":"city","state":"NY"},"type":"Feature","geometry":{"type":"Point","coordinates":[-79.118889,42.053586]}},{"properties":{"city":"Roosevelt Island","rank score*":0.844,"# ranked high schools":"-","geo_score":0.714,"# ranked middle schools":"-","# alt. schools":"-","# private schools":"1","# ranked elementary schools":"1","id":"aogl9r89z8az","rank (of 753)":109,"geo_precision":"city","state":"NY"},"type":"Feature","geometry":{"type":"Point","coordinates":[-77.646948,43.277284]}},{"properties":{"city":"Burnt Hills","rank score*":0.843,"# ranked high schools":"1","geo_score":0.714,"# ranked middle schools":"1","# alt. schools":"-","# private schools":"1","# ranked elementary schools":"-","id":"aogl9rgv6o2j","rank (of 753)":111,"geo_precision":"city","state":"NY"},"type":"Feature","geometry":{"type":"Point","coordinates":[-73.766897,40.716888]}},{"properties":{"city":"Bemus Point","rank score*":0.842,"# ranked high schools":"1","geo_score":0.714,"# ranked middle schools":"-","# alt. schools":"-","# private schools":"-","# ranked elementary schools":"1","id":"aogl9rkxbswx","rank (of 753)":112,"geo_precision":"city","state":"NY"},"type":"Feature","geometry":{"type":"Point","coordinates":[-79.445292,42.164572]}},{"properties":{"city":"Elwood","rank score*":0.842,"# ranked high schools":"1","geo_score":0.714,"# ranked middle schools":"1","# alt. schools":"-","# private schools":"-","# ranked elementary schools":"1","id":"aogl9rezi9pc","rank (of 753)":113,"geo_precision":"city","state":"NY"},"type":"Feature","geometry":{"type":"Point","coordinates":[-73.335118,40.845376]}},{"properties":{"city":"Franklin Square","rank score*":0.84,"# ranked high schools":"2","geo_score":0.714,"# ranked middle schools":"-","# alt. schools":"-","# private schools":"1","# ranked elementary schools":"4","id":"aogl9r8mfs8i","rank (of 753)":114,"geo_precision":"city","state":"NY"},"type":"Feature","geometry":{"type":"Point","coordinates":[-74.303474,42.52091]}},{"properties":{"city":"Pearl River","rank score*":0.839,"# ranked high schools":"1","geo_score":0.714,"# ranked middle schools":"1","# alt. schools":"-","# private schools":"1","# ranked elementary schools":"3","id":"aogl9rle47wm","rank (of 753)":115,"geo_precision":"city","state":"NY"},"type":"Feature","geometry":{"type":"Point","coordinates":[-74.018283,41.061476]}},{"properties":{"city":"Harrison","rank score*":0.837,"# ranked high schools":"1","geo_score":0.714,"# ranked middle schools":"1","# alt. schools":"-","# private schools":"-","# ranked elementary schools":"2","id":"aogl9rhov13v","rank (of 753)":116,"geo_precision":"city","state":"NY"},"type":"Feature","geometry":{"type":"Point","coordinates":[-73.723036,40.979118]}},{"properties":{"city":"Rockville Centre","rank score*":0.836,"# ranked high schools":"1","geo_score":0.714,"# ranked middle schools":"1","# alt. schools":"-","# private schools":"3","# ranked elementary schools":"4","id":"aogl9rg22t8l","rank (of 753)":117,"geo_precision":"city","state":"NY"},"type":"Feature","geometry":{"type":"Point","coordinates":[-78.783922,42.963669]}},{"properties":{"city":"Saratoga Springs","rank score*":0.836,"# ranked high schools":"1","geo_score":0.714,"# ranked middle schools":"1","# alt. schools":"-","# private schools":"4","# ranked elementary schools":"5","id":"aogl9rjdhevs","rank (of 753)":118,"geo_precision":"city","state":"NY"},"type":"Feature","geometry":{"type":"Point","coordinates":[-73.755926,40.664542]}},{"properties":{"city":"Port Jefferson","rank score*":0.835,"# ranked high schools":"1","geo_score":0.714,"# ranked middle schools":"1","# alt. schools":"-","# private schools":"2","# ranked elementary schools":"1","id":"aogl9r8go2bp","rank (of 753)":119,"geo_precision":"city","state":"NY"},"type":"Feature","geometry":{"type":"Point","coordinates":[-74.905417,41.782874]}},{"properties":{"city":"Whitestone","rank score*":0.834,"# ranked high schools":"-","geo_score":0.714,"# ranked middle schools":"1","# alt. schools":"-","# private schools":"6","# ranked elementary schools":"4","id":"aogl9reljceb","rank (of 753)":120,"geo_precision":"city","state":"NY"},"type":"Feature","geometry":{"type":"Point","coordinates":[-73.819069,40.786173]}},{"properties":{"city":"Forest Hills","rank score*":0.834,"# ranked high schools":"1","geo_score":0.714,"# ranked middle schools":"1","# alt. schools":"1","# private schools":"8","# ranked elementary schools":"5","id":"aogl9rllm15t","rank (of 753)":121,"geo_precision":"city","state":"NY"},"type":"Feature","geometry":{"type":"Point","coordinates":[-73.766897,40.716888]}},{"properties":{"city":"East Moriches","rank score*":0.833,"# ranked high schools":"-","geo_score":0.714,"# ranked middle schools":"1","# alt. schools":"-","# private schools":"-","# ranked elementary schools":"1","id":"aogl9rkjvzsj","rank (of 753)":122,"geo_precision":"city","state":"NY"},"type":"Feature","geometry":{"type":"Point","coordinates":[-75.427404,43.744791]}},{"properties":{"city":"East Norwich","rank score*":0.833,"# ranked high schools":"-","geo_score":0.714,"# ranked middle schools":"-","# alt. schools":"-","# private schools":"1","# ranked elementary schools":"1","id":"aogl9rbtzwfp","rank (of 753)":123,"geo_precision":"city","state":"NY"},"type":"Feature","geometry":{"type":"Point","coordinates":[-75.601779,42.536226]}},{"properties":{"city":"Greenfield Center","rank score*":0.833,"# ranked high schools":"-","geo_score":0.714,"# ranked middle schools":"-","# alt. schools":"-","# private schools":"-","# ranked elementary schools":"1","id":"aogl9rdiznd3","rank (of 753)":123,"geo_precision":"city","state":"NY"},"type":"Feature","geometry":{"type":"Point","coordinates":[-73.906293,43.181214]}},{"properties":{"city":"Mount Sinai","rank score*":0.83,"# ranked high schools":"1","geo_score":0.714,"# ranked middle schools":"1","# alt. schools":"-","# private schools":"-","# ranked elementary schools":"1","id":"aogl9rc0hcax","rank (of 753)":125,"geo_precision":"city","state":"NY"},"type":"Feature","geometry":{"type":"Point","coordinates":[-74.076252,42.016759]}},{"properties":{"city":"Sag Harbor","rank score*":0.828,"# ranked high schools":"-","geo_score":0.714,"# ranked middle schools":"-","# alt. schools":"1","# private schools":"-","# ranked elementary schools":"1","id":"aogl9rctjx8g","rank (of 753)":126,"geo_precision":"city","state":"NY"},"type":"Feature","geometry":{"type":"Point","coordinates":[-73.858469,41.135929]}},{"properties":{"city":"Locust Valley","rank score*":0.828,"# ranked high schools":"1","geo_score":0.714,"# ranked middle schools":"1","# alt. schools":"-","# private schools":"1","# ranked elementary schools":"1","id":"aogl9rcmrdfz","rank (of 753)":127,"geo_precision":"city","state":"NY"},"type":"Feature","geometry":{"type":"Point","coordinates":[-77.338323,43.255619]}},{"properties":{"city":"Orangeburg","rank score*":0.828,"# ranked high schools":"1","geo_score":0.714,"# ranked middle schools":"-","# alt. schools":"-","# private schools":"-","# ranked elementary schools":"-","id":"aogl9r9h2a31","rank (of 753)":128,"geo_precision":"city","state":"NY"},"type":"Feature","geometry":{"type":"Point","coordinates":[-73.953181,41.057496]}},{"properties":{"city":"Poplar Ridge","rank score*":0.828,"# ranked high schools":"1","geo_score":0.714,"# ranked middle schools":"-","# alt. schools":"-","# private schools":"-","# ranked elementary schools":"-","id":"aogl9rkfoctm","rank (of 753)":128,"geo_precision":"city","state":"NY"},"type":"Feature","geometry":{"type":"Point","coordinates":[-76.628454,42.742057]}},{"properties":{"city":"Nassau","rank score*":0.824,"# ranked high schools":"-","geo_score":0.714,"# ranked middle schools":"-","# alt. schools":"-","# private schools":"-","# ranked elementary schools":"1","id":"aogl9r7n0hxy","rank (of 753)":130,"geo_precision":"city","state":"NY"},"type":"Feature","geometry":{"type":"Point","coordinates":[-73.629023,42.565736]}},{"properties":{"city":"Marcy","rank score*":0.824,"# ranked high schools":"1","geo_score":0.714,"# ranked middle schools":"-","# alt. schools":"-","# private schools":"-","# ranked elementary schools":"1","id":"aogl9re3460e","rank (of 753)":131,"geo_precision":"city","state":"NY"},"type":"Feature","geometry":{"type":"Point","coordinates":[-75.131023,42.531661]}},{"properties":{"city":"New City","rank score*":0.822,"# ranked high schools":"1","geo_score":0.714,"# ranked middle schools":"-","# alt. schools":"-","# private schools":"4","# ranked elementary schools":"6","id":"aogl9r6jb180","rank (of 753)":132,"geo_precision":"city","state":"NY"},"type":"Feature","geometry":{"type":"Point","coordinates":[-73.98827,41.149494]}},{"properties":{"city":"Dobbs Ferry","rank score*":0.819,"# ranked high schools":"2","geo_score":0.714,"# ranked middle schools":"2","# alt. schools":"1","# private schools":"2","# ranked elementary schools":"2","id":"aogl9rgg6c9u","rank (of 753)":133,"geo_precision":"city","state":"NY"},"type":"Feature","geometry":{"type":"Point","coordinates":[-73.865178,41.011147]}},{"properties":{"city":"Mattituck","rank score*":0.818,"# ranked high schools":"1","geo_score":0.0,"# ranked middle schools":"-","# alt. schools":"-","# private schools":"-","# ranked elementary schools":"-","id":"aogl9r6ckgn1","rank (of 753)":134,"geo_precision":"unmatched","state":"NY"},"type":"Feature","geometry":null},{"properties":{"city":"Union Springs","rank score*":0.818,"# ranked high schools":"1","geo_score":0.714,"# ranked middle schools":"1","# alt. schools":"-","# private schools":"2","# ranked elementary schools":"-","id":"aogl9rfpx0sy","rank (of 753)":134,"geo_precision":"city","state":"NY"},"type":"Feature","geometry":{"type":"Point","coordinates":[-73.755926,40.664542]}},{"properties":{"city":"Lake George","rank score*":0.815,"# ranked high schools":"1","geo_score":0.714,"# ranked middle schools":"-","# alt. schools":"-","# private schools":"-","# ranked elementary schools":"1","id":"aogl9rj1ymum","rank (of 753)":136,"geo_precision":"city","state":"NY"},"type":"Feature","geometry":{"type":"Point","coordinates":[-73.875462,43.518611]}},{"properties":{"city":"Glenmont","rank score*":0.815,"# ranked high schools":"-","geo_score":0.714,"# ranked middle schools":"-","# alt. schools":"-","# private schools":"2","# ranked elementary schools":"1","id":"aogl9rlysz3k","rank (of 753)":137,"geo_precision":"city","state":"NY"},"type":"Feature","geometry":{"type":"Point","coordinates":[-73.787766,42.595704]}},{"properties":{"city":"Slaterville Springs","rank score*":0.815,"# ranked high schools":"-","geo_score":0.714,"# ranked middle schools":"-","# alt. schools":"-","# private schools":"-","# ranked elementary schools":"1","id":"aogl9r9iwoyn","rank (of 753)":137,"geo_precision":"city","state":"NY"},"type":"Feature","geometry":{"type":"Point","coordinates":[-76.360782,42.402463]}},{"properties":{"city":"Clifton Park","rank score*":0.815,"# ranked high schools":"1","geo_score":0.714,"# ranked middle schools":"3","# alt. schools":"-","# private schools":"4","# ranked elementary schools":"7","id":"aogl9rfhyqew","rank (of 753)":139,"geo_precision":"city","state":"NY"},"type":"Feature","geometry":{"type":"Point","coordinates":[-73.820399,42.85841]}},{"properties":{"city":"Fairport","rank score*":0.814,"# ranked high schools":"1","geo_score":0.714,"# ranked middle schools":"2","# alt. schools":"1","# private schools":"1","# ranked elementary schools":"4","id":"aogl9rm4hrzg","rank (of 753)":140,"geo_precision":"city","state":"NY"},"type":"Feature","geometry":{"type":"Point","coordinates":[-73.585222,40.651251]}},{"properties":{"city":"Endwell","rank score*":0.812,"# ranked high schools":"1","geo_score":0.714,"# ranked middle schools":"1","# alt. schools":"-","# private schools":"-","# ranked elementary schools":"1","id":"aogl9rfhgrpu","rank (of 753)":141,"geo_precision":"city","state":"NY"},"type":"Feature","geometry":{"type":"Point","coordinates":[-76.021034,42.112853]}},{"properties":{"city":"Blauvelt","rank score*":0.811,"# ranked high schools":"-","geo_score":0.714,"# ranked middle schools":"2","# alt. schools":"-","# private schools":"2","# ranked elementary schools":"-","id":"aogl9rm38mzw","rank (of 753)":142,"geo_precision":"city","state":"NY"},"type":"Feature","geometry":{"type":"Point","coordinates":[-73.957282,41.068782]}},{"properties":{"city":"Thornwood","rank score*":0.81,"# ranked high schools":"1","geo_score":0.714,"# ranked middle schools":"1","# alt. schools":"-","# private schools":"-","# ranked elementary schools":"1","id":"aogl9rcwbebc","rank (of 753)":143,"geo_precision":"city","state":"NY"},"type":"Feature","geometry":{"type":"Point","coordinates":[-73.771469,41.117214]}},{"properties":{"city":"Melville","rank score*":0.808,"# ranked high schools":"-","geo_score":0.714,"# ranked middle schools":"1","# alt. schools":"-","# private schools":"1","# ranked elementary schools":"2","id":"aogl9rkpumct","rank (of 753)":144,"geo_precision":"city","state":"NY"},"type":"Feature","geometry":{"type":"Point","coordinates":[-78.324745,43.207559]}},{"properties":{"city":"Maine","rank score*":0.807,"# ranked high schools":"-","geo_score":0.714,"# ranked middle schools":"-","# alt. schools":"-","# private schools":"-","# ranked elementary schools":"1","id":"aogl9r8u8uta","rank (of 753)":145,"geo_precision":"city","state":"NY"},"type":"Feature","geometry":{"type":"Point","coordinates":[-76.006001,43.076828]}},{"properties":{"city":"Garrison","rank score*":0.807,"# ranked high schools":"-","geo_score":0.714,"# ranked middle schools":"-","# alt. schools":"-","# private schools":"-","# ranked elementary schools":"1","id":"aogl9rdzrnfl","rank (of 753)":145,"geo_precision":"city","state":"NY"},"type":"Feature","geometry":{"type":"Point","coordinates":[-73.931844,41.375016]}},{"properties":{"city":"Rush","rank score*":0.807,"# ranked high schools":"-","geo_score":0.714,"# ranked middle schools":"-","# alt. schools":"-","# private schools":"-","# ranked elementary schools":"1","id":"aogl9r6jgvo1","rank (of 753)":145,"geo_precision":"city","state":"NY"},"type":"Feature","geometry":{"type":"Point","coordinates":[-75.082105,43.25868]}},{"properties":{"city":"Smithtown","rank score*":0.807,"# ranked high schools":"1","geo_score":0.714,"# ranked middle schools":"1","# alt. schools":"-","# private schools":"4","# ranked elementary schools":"7","id":"aogl9rdwijpn","rank (of 753)":148,"geo_precision":"city","state":"NY"},"type":"Feature","geometry":{"type":"Point","coordinates":[-72.637078,40.922326]}},{"properties":{"city":"Cortlandt Manor","rank score*":0.806,"# ranked high schools":"1","geo_score":0.714,"# ranked middle schools":"1","# alt. schools":"-","# private schools":"1","# ranked elementary schools":"1","id":"aogl9rmb5rhe","rank (of 753)":149,"geo_precision":"city","state":"NY"},"type":"Feature","geometry":{"type":"Point","coordinates":[-74.316824,41.343092]}},{"properties":{"city":"Levittown","rank score*":0.803,"# ranked high schools":"3","geo_score":0.714,"# ranked middle schools":"3","# alt. schools":"-","# private schools":"2","# ranked elementary schools":"6","id":"aogl9rfuekd1","rank (of 753)":150,"geo_precision":"city","state":"NY"},"type":"Feature","geometry":{"type":"Point","coordinates":[-73.515819,40.7228]}},{"properties":{"city":"Livingston Manor","rank score*":0.802,"# ranked high schools":"1","geo_score":0.714,"# ranked middle schools":"-","# alt. schools":"-","# private schools":"-","# ranked elementary schools":"1","id":"aogl9rc5xf8c","rank (of 753)":151,"geo_precision":"city","state":"NY"},"type":"Feature","geometry":{"type":"Point","coordinates":[-74.316824,41.343092]}},{"properties":{"city":"Central Valley","rank score*":0.802,"# ranked high schools":"1","geo_score":0.714,"# ranked middle schools":"1","# alt. schools":"-","# private schools":"-","# ranked elementary schools":"2","id":"aogl9rlcqqms","rank (of 753)":152,"geo_precision":"city","state":"NY"},"type":"Feature","geometry":{"type":"Point","coordinates":[-73.950138,41.093985]}},{"properties":{"city":"Voorheesville","rank score*":0.802,"# ranked high schools":"1","geo_score":0.714,"# ranked middle schools":"1","# alt. schools":"-","# private schools":"-","# ranked elementary schools":"1","id":"aogl9ra18w01","rank (of 753)":153,"geo_precision":"city","state":"NY"},"type":"Feature","geometry":{"type":"Point","coordinates":[-73.980441,42.620654]}},{"properties":{"city":"Ransomville","rank score*":0.801,"# ranked high schools":"-","geo_score":0.714,"# ranked middle schools":"-","# alt. schools":"-","# private schools":"-","# ranked elementary schools":"1","id":"aogl9rixsha7","rank (of 753)":154,"geo_precision":"city","state":"NY"},"type":"Feature","geometry":{"type":"Point","coordinates":[-78.906562,43.233055]}},{"properties":{"city":"Ballston Lake","rank score*":0.801,"# ranked high schools":"-","geo_score":0.714,"# ranked middle schools":"-","# alt. schools":"-","# private schools":"-","# ranked elementary schools":"3","id":"aogl9ridh41x","rank (of 753)":155,"geo_precision":"city","state":"NY"},"type":"Feature","geometry":{"type":"Point","coordinates":[-75.964641,43.660347]}},{"properties":{"city":"Le Roy","rank score*":0.8,"# ranked high schools":"1","geo_score":0.714,"# ranked middle schools":"-","# alt. schools":"-","# private schools":"1","# ranked elementary schools":"1","id":"aogl9ra9oiqh","rank (of 753)":156,"geo_precision":"city","state":"NY"},"type":"Feature","geometry":{"type":"Point","coordinates":[-75.571569,43.278403]}},{"properties":{"city":"Lansing","rank score*":0.798,"# ranked high schools":"1","geo_score":0.714,"# ranked middle schools":"1","# alt. schools":"-","# private schools":"-","# ranked elementary schools":"1","id":"aogl9ri6vwhw","rank (of 753)":157,"geo_precision":"city","state":"NY"},"type":"Feature","geometry":{"type":"Point","coordinates":[-76.449939,43.443124]}},{"properties":{"city":"Sleepy Hollow","rank score*":0.798,"# ranked high schools":"1","geo_score":0.714,"# ranked middle schools":"-","# alt. schools":"-","# private schools":"-","# ranked elementary schools":"2","id":"aogl9rdab2vq","rank (of 753)":158,"geo_precision":"city","state":"NY"},"type":"Feature","geometry":{"type":"Point","coordinates":[-77.063876,42.796578]}},{"properties":{"city":"Warwick","rank score*":0.798,"# ranked high schools":"1","geo_score":0.0,"# ranked middle schools":"1","# alt. schools":"-","# private schools":"2","# ranked elementary schools":"3","id":"aogl9r9c6usp","rank (of 753)":159,"geo_precision":"unmatched","state":"NY"},"type":"Feature","geometry":null},{"properties":{"city":"Garden City Park","rank score*":0.797,"# ranked high schools":"1","geo_score":0.714,"# ranked middle schools":"-","# alt. schools":"-","# private schools":"-","# ranked elementary schools":"1","id":"aogl9r8vdq1r","rank (of 753)":160,"geo_precision":"city","state":"NY"},"type":"Feature","geometry":{"type":"Point","coordinates":[-76.28521,42.61507]}},{"properties":{"city":"Rhinebeck","rank score*":0.796,"# ranked high schools":"1","geo_score":0.714,"# ranked middle schools":"1","# alt. schools":"-","# private schools":"1","# ranked elementary schools":"1","id":"aogl9rev76yv","rank (of 753)":161,"geo_precision":"city","state":"NY"},"type":"Feature","geometry":{"type":"Point","coordinates":[-73.760423,41.836548]}},{"properties":{"city":"Barker","rank score*":0.796,"# ranked high schools":"1","geo_score":0.714,"# ranked middle schools":"-","# alt. schools":"-","# private schools":"-","# ranked elementary schools":"1","id":"aogl9rez6cfu","rank (of 753)":162,"geo_precision":"city","state":"NY"},"type":"Feature","geometry":{"type":"Point","coordinates":[-78.534963,43.327031]}},{"properties":{"city":"Almond","rank score*":0.796,"# ranked high schools":"1","geo_score":0.714,"# ranked middle schools":"-","# alt. schools":"-","# private schools":"-","# ranked elementary schools":"1","id":"aogl9rfhj5wd","rank (of 753)":162,"geo_precision":"city","state":"NY"},"type":"Feature","geometry":{"type":"Point","coordinates":[-77.851286,42.313285]}},{"properties":{"city":"Montrose","rank score*":0.792,"# ranked high schools":"1","geo_score":0.714,"# ranked middle schools":"-","# alt. schools":"-","# private schools":"-","# ranked elementary schools":"1","id":"aogl9rkvfnyo","rank (of 753)":164,"geo_precision":"city","state":"NY"},"type":"Feature","geometry":{"type":"Point","coordinates":[-73.942877,41.25126]}},{"properties":{"city":"Vestal","rank score*":0.791,"# ranked high schools":"1","geo_score":0.714,"# ranked middle schools":"1","# alt. schools":"-","# private schools":"2","# ranked elementary schools":"4","id":"aogl9rlvudrk","rank (of 753)":165,"geo_precision":"city","state":"NY"},"type":"Feature","geometry":{"type":"Point","coordinates":[-76.027088,42.055476]}},{"properties":{"city":"Brewerton","rank score*":0.791,"# ranked high schools":"-","geo_score":0.714,"# ranked middle schools":"-","# alt. schools":"-","# private schools":"-","# ranked elementary schools":"1","id":"aogl9rgvln2n","rank (of 753)":166,"geo_precision":"city","state":"NY"},"type":"Feature","geometry":{"type":"Point","coordinates":[-76.140648,43.227448]}},{"properties":{"city":"Webster","rank score*":0.787,"# ranked high schools":"2","geo_score":0.714,"# ranked middle schools":"2","# alt. schools":"-","# private schools":"6","# ranked elementary schools":"7","id":"aogl9rdrt1kh","rank (of 753)":167,"geo_precision":"city","state":"NY"},"type":"Feature","geometry":{"type":"Point","coordinates":[-77.454075,43.21821]}},{"properties":{"city":"Bayport","rank score*":0.787,"# ranked high schools":"1","geo_score":0.714,"# ranked middle schools":"1","# alt. schools":"-","# private schools":"-","# ranked elementary schools":"2","id":"aogl9rkunsyt","rank (of 753)":168,"geo_precision":"city","state":"NY"},"type":"Feature","geometry":{"type":"Point","coordinates":[-73.057026,40.748364]}},{"properties":{"city":"Blue Point","rank score*":0.787,"# ranked high schools":"-","geo_score":0.714,"# ranked middle schools":"-","# alt. schools":"-","# private schools":"-","# ranked elementary schools":"1","id":"aogl9rb3pacq","rank (of 753)":169,"geo_precision":"city","state":"NY"},"type":"Feature","geometry":{"type":"Point","coordinates":[-73.043481,40.75673]}},{"properties":{"city":"West Sand Lake","rank score*":0.787,"# ranked high schools":"-","geo_score":0.714,"# ranked middle schools":"-","# alt. schools":"-","# private schools":"-","# ranked elementary schools":"1","id":"aogl9r6axka2","rank (of 753)":169,"geo_precision":"city","state":"NY"},"type":"Feature","geometry":{"type":"Point","coordinates":[-73.561566,42.603715]}},{"properties":{"city":"Hopewell Junction","rank score*":0.785,"# ranked high schools":"1","geo_score":0.714,"# ranked middle schools":"-","# alt. schools":"-","# private schools":"2","# ranked elementary schools":"1","id":"aogl9rex9xke","rank (of 753)":171,"geo_precision":"city","state":"NY"},"type":"Feature","geometry":{"type":"Point","coordinates":[-73.766191,41.748948]}},{"properties":{"city":"Lagrangeville","rank score*":0.784,"# ranked high schools":"1","geo_score":0.714,"# ranked middle schools":"2","# alt. schools":"-","# private schools":"-","# ranked elementary schools":"1","id":"aogl9rgo92qq","rank (of 753)":172,"geo_precision":"city","state":"NY"},"type":"Feature","geometry":{"type":"Point","coordinates":[-73.743183,41.633029]}},{"properties":{"city":"Alexander","rank score*":0.784,"# ranked high schools":"-","geo_score":0.0,"# ranked middle schools":"-","# alt. schools":"1","# private schools":"-","# ranked elementary schools":"1","id":"aogl9rcacoim","rank (of 753)":173,"geo_precision":"unmatched","state":"NY"},"type":"Feature","geometry":null},{"properties":{"city":"College Point","rank score*":0.784,"# ranked high schools":"-","geo_score":0.714,"# ranked middle schools":"-","# alt. schools":"-","# private schools":"2","# ranked elementary schools":"2","id":"aogl9rcqra38","rank (of 753)":174,"geo_precision":"city","state":"NY"},"type":"Feature","geometry":{"type":"Point","coordinates":[-73.843641,40.784369]}},{"properties":{"city":"Hauppauge","rank score*":0.783,"# ranked high schools":"1","geo_score":0.714,"# ranked middle schools":"1","# alt. schools":"-","# private schools":"1","# ranked elementary schools":"1","id":"aogl9rehitlp","rank (of 753)":175,"geo_precision":"city","state":"NY"},"type":"Feature","geometry":{"type":"Point","coordinates":[-73.191789,40.810246]}},{"properties":{"city":"Boiceville","rank score*":0.783,"# ranked high schools":"1","geo_score":0.714,"# ranked middle schools":"1","# alt. schools":"-","# private schools":"-","# ranked elementary schools":"1","id":"aogl9r68ea9o","rank (of 753)":176,"geo_precision":"city","state":"NY"},"type":"Feature","geometry":{"type":"Point","coordinates":[-74.265437,41.998413]}},{"properties":{"city":"Carmel","rank score*":0.781,"# ranked high schools":"1","geo_score":0.714,"# ranked middle schools":"1","# alt. schools":"-","# private schools":"1","# ranked elementary schools":"2","id":"aogl9rgq5vja","rank (of 753)":177,"geo_precision":"city","state":"NY"},"type":"Feature","geometry":{"type":"Point","coordinates":[-73.777626,41.429571]}},{"properties":{"city":"Bedford Hills","rank score*":0.78,"# ranked high schools":"-","geo_score":0.714,"# ranked middle schools":"-","# alt. schools":"-","# private schools":"-","# ranked elementary schools":"2","id":"aogl9r8ks2t9","rank (of 753)":178,"geo_precision":"city","state":"NY"},"type":"Feature","geometry":{"type":"Point","coordinates":[-73.718481,41.123741]}},{"properties":{"city":"Honeoye","rank score*":0.779,"# ranked high schools":"-","geo_score":0.714,"# ranked middle schools":"-","# alt. schools":"1","# private schools":"-","# ranked elementary schools":"1","id":"aogl9rftaz55","rank (of 753)":179,"geo_precision":"city","state":"NY"},"type":"Feature","geometry":{"type":"Point","coordinates":[-77.491905,42.755573]}},{"properties":{"city":"Howard Beach","rank score*":0.777,"# ranked high schools":"-","geo_score":0.714,"# ranked middle schools":"-","# alt. schools":"-","# private schools":"2","# ranked elementary schools":"3","id":"aogl9rkb2gzz","rank (of 753)":180,"geo_precision":"city","state":"NY"},"type":"Feature","geometry":{"type":"Point","coordinates":[-77.508876,42.364237]}},{"properties":{"city":"Middle Village","rank score*":0.777,"# ranked high schools":"-","geo_score":0.714,"# ranked middle schools":"-","# alt. schools":"-","# private schools":"3","# ranked elementary schools":"3","id":"aogl9rf05h8z","rank (of 753)":181,"geo_precision":"city","state":"NY"},"type":"Feature","geometry":{"type":"Point","coordinates":[-74.839594,42.764518]}},{"properties":{"city":"Sloatsburg","rank score*":0.775,"# ranked high schools":"-","geo_score":0.714,"# ranked middle schools":"-","# alt. schools":"-","# private schools":"-","# ranked elementary schools":"1","id":"aogl9rhio6p6","rank (of 753)":182,"geo_precision":"city","state":"NY"},"type":"Feature","geometry":{"type":"Point","coordinates":[-74.200784,41.157473]}},{"properties":{"city":"Shrub Oak","rank score*":0.771,"# ranked high schools":"1","geo_score":0.714,"# ranked middle schools":"-","# alt. schools":"-","# private schools":"1","# ranked elementary schools":"-","id":"aogl9re1wzam","rank (of 753)":183,"geo_precision":"city","state":"NY"},"type":"Feature","geometry":{"type":"Point","coordinates":[-73.823549,41.330892]}},{"properties":{"city":"Guilderland Center","rank score*":0.771,"# ranked high schools":"1","geo_score":0.714,"# ranked middle schools":"-","# alt. schools":"-","# private schools":"-","# ranked elementary schools":"-","id":"aogl9rfqg7y6","rank (of 753)":183,"geo_precision":"city","state":"NY"},"type":"Feature","geometry":{"type":"Point","coordinates":[-78.783922,42.963669]}},{"properties":{"city":"Fort Montgomery","rank score*":0.771,"# ranked high schools":"1","geo_score":0.714,"# ranked middle schools":"-","# alt. schools":"-","# private schools":"-","# ranked elementary schools":"1","id":"aogl9rl8ldr1","rank (of 753)":183,"geo_precision":"city","state":"NY"},"type":"Feature","geometry":{"type":"Point","coordinates":[-74.255717,41.405901]}},{"properties":{"city":"Kings Park","rank score*":0.77,"# ranked high schools":"1","geo_score":0.714,"# ranked middle schools":"2","# alt. schools":"-","# private schools":"-","# ranked elementary schools":"1","id":"aogl9rlxrapr","rank (of 753)":186,"geo_precision":"city","state":"NY"},"type":"Feature","geometry":{"type":"Point","coordinates":[-73.735132,40.819823]}},{"properties":{"city":"New Paltz","rank score*":0.77,"# ranked high schools":"1","geo_score":0.714,"# ranked middle schools":"1","# alt. schools":"-","# private schools":"1","# ranked elementary schools":"2","id":"aogl9rg9ziyd","rank (of 753)":187,"geo_precision":"city","state":"NY"},"type":"Feature","geometry":{"type":"Point","coordinates":[-74.109241,41.74638]}},{"properties":{"city":"Avon","rank score*":0.77,"# ranked high schools":"1","geo_score":0.714,"# ranked middle schools":"1","# alt. schools":"-","# private schools":"1","# ranked elementary schools":"1","id":"aogl9rd3pl7g","rank (of 753)":188,"geo_precision":"city","state":"NY"},"type":"Feature","geometry":{"type":"Point","coordinates":[-77.735104,42.895631]}},{"properties":{"city":"Amherst","rank score*":0.769,"# ranked high schools":"2","geo_score":0.714,"# ranked middle schools":"2","# alt. schools":"-","# private schools":"5","# ranked elementary schools":"5","id":"aogl9rgucavk","rank (of 753)":189,"geo_precision":"city","state":"NY"},"type":"Feature","geometry":{"type":"Point","coordinates":[-78.799756,42.978391]}},{"properties":{"city":"Selkirk","rank score*":0.768,"# ranked high schools":"-","geo_score":0.714,"# ranked middle schools":"-","# alt. schools":"-","# private schools":"-","# ranked elementary schools":"1","id":"aogl9rh47nhp","rank (of 753)":190,"geo_precision":"city","state":"NY"},"type":"Feature","geometry":{"type":"Point","coordinates":[-73.840579,42.529746]}},{"properties":{"city":"Canandaigua","rank score*":0.767,"# ranked high schools":"1","geo_score":0.714,"# ranked middle schools":"1","# alt. schools":"-","# private schools":"2","# ranked elementary schools":"2","id":"aogl9rgzy4vv","rank (of 753)":191,"geo_precision":"city","state":"NY"},"type":"Feature","geometry":{"type":"Point","coordinates":[-77.289687,42.813576]}},{"properties":{"city":"Cohocton","rank score*":0.766,"# ranked high schools":"-","geo_score":0.714,"# ranked middle schools":"-","# alt. schools":"-","# private schools":"-","# ranked elementary schools":"1","id":"aogl9rflpiak","rank (of 753)":192,"geo_precision":"city","state":"NY"},"type":"Feature","geometry":{"type":"Point","coordinates":[-77.391286,42.470356]}},{"properties":{"city":"Marcellus","rank score*":0.765,"# ranked high schools":"1","geo_score":0.714,"# ranked middle schools":"1","# alt. schools":"-","# private schools":"-","# ranked elementary schools":"1","id":"aogl9rbmqkeu","rank (of 753)":193,"geo_precision":"city","state":"NY"},"type":"Feature","geometry":{"type":"Point","coordinates":[-76.329799,42.948057]}},{"properties":{"city":"Oceanside","rank score*":0.764,"# ranked high schools":"2","geo_score":0.714,"# ranked middle schools":"1","# alt. schools":"-","# private schools":"1","# ranked elementary schools":"7","id":"aogl9rhnkig8","rank (of 753)":194,"geo_precision":"city","state":"NY"},"type":"Feature","geometry":{"type":"Point","coordinates":[-73.636923,40.635252]}},{"properties":{"city":"Mohegan Lake","rank score*":0.76,"# ranked high schools":"-","geo_score":0.714,"# ranked middle schools":"-","# alt. schools":"-","# private schools":"-","# ranked elementary schools":"2","id":"aogl9r9nkf5j","rank (of 753)":195,"geo_precision":"city","state":"NY"},"type":"Feature","geometry":{"type":"Point","coordinates":[-73.797555,41.281975]}},{"properties":{"city":"Holland","rank score*":0.76,"# ranked high schools":"1","geo_score":0.714,"# ranked middle schools":"1","# alt. schools":"-","# private schools":"-","# ranked elementary schools":"1","id":"aogl9r7k9cbz","rank (of 753)":196,"geo_precision":"city","state":"NY"},"type":"Feature","geometry":{"type":"Point","coordinates":[-78.543738,42.640179]}},{"properties":{"city":"East Northport","rank score*":0.76,"# ranked high schools":"-","geo_score":0.714,"# ranked middle schools":"1","# alt. schools":"-","# private schools":"3","# ranked elementary schools":"4","id":"aogl9r9mt5w8","rank (of 753)":197,"geo_precision":"city","state":"NY"},"type":"Feature","geometry":{"type":"Point","coordinates":[-73.601772,40.754757]}},{"properties":{"city":"Babylon","rank score*":0.759,"# ranked high schools":"1","geo_score":0.714,"# ranked middle schools":"-","# alt. schools":"-","# private schools":"2","# ranked elementary schools":"2","id":"aogl9rbh7xqa","rank (of 753)":198,"geo_precision":"city","state":"NY"},"type":"Feature","geometry":{"type":"Point","coordinates":[-73.340984,40.66415]}},{"properties":{"city":"North Salem","rank score*":0.758,"# ranked high schools":"-","geo_score":0.714,"# ranked middle schools":"-","# alt. schools":"1","# private schools":"1","# ranked elementary schools":"1","id":"aogl9rc23tvg","rank (of 753)":199,"geo_precision":"city","state":"NY"},"type":"Feature","geometry":{"type":"Point","coordinates":[-73.348736,43.225966]}},{"properties":{"city":"Averill Park","rank score*":0.758,"# ranked high schools":"1","geo_score":0.714,"# ranked middle schools":"1","# alt. schools":"-","# private schools":"-","# ranked elementary schools":"1","id":"aogl9rlqw2ep","rank (of 753)":200,"geo_precision":"city","state":"NY"},"type":"Feature","geometry":{"type":"Point","coordinates":[-73.55142,42.670645]}}],"is_temporal":false,"author":{"url":"","metadata":"","contact_name":"","contact_address":"","source":"","contact_phone":""},"source":"","pagination":{"sort":null,"start":0,"total":200,"limit":1000000},"state":"complete","tags":"","published":"2014-08-17T23:18:53-04:00","id":480631}