{"type":"FeatureCollection","data_type":"Dataset","url_type":null,"permissions":[{"permissions":{"download":true,"view":true},"group_id":"everyone"}],"classification":null,"title":"2011_50_fr_no_marion","count":92,"stream_id":481089,"contributor":{"url":"http://geocommons.com/users/101978","name":"szellner"},"data_attributes":null,"calculation_params":null,"icon_link":null,"link":"http://geocommons.com/overlays/481089.json","extent":[-86.9615,38.6522,-84.8169,40.0344],"geometry_types":["point"],"unique_name":null,"name":"2011_50_fr_no_marion","feature_count":92,"description":"","next_feature":null,"is_raster":false,"short_classification":"Y","stats":{"total f&r":{"max":993,"variance":19714.4303631151,"mean":279.858695652174,"stdev":140.408085105934,"min":68,"median":265},"latitude":{"max":40.034363,"variance":0.14886816742733,"mean":39.3878767934783,"stdev":0.385834378234146,"min":38.652228,"median":39.510572},"column_5":{"max":9053,"variance":7862240.2795031,"mean":5207.63043478261,"stdev":2803.96866592748,"min":328,"median":6331},"column_11":{"max":40817,"variance":0.0,"mean":40817.0,"stdev":0.0,"min":40817,"median":40817},"f&r rate":{"max":0.96,"variance":0.011156856187291,"mean":0.632391304347826,"stdev":0.105626020408283,"min":0.5,"median":0.61},"column_12":{"max":653,"variance":12817.7710224558,"mean":170.358695652174,"stdev":113.215595314673,"min":9,"median":146},"column_13":{"max":836,"variance":14228.6252986144,"mean":236.467391304348,"stdev":119.283801492971,"min":55,"median":225},"column_14":{"max":157,"variance":640.878165312948,"mean":43.3913043478261,"stdev":25.3155715975948,"min":7,"median":39},"longitude":{"max":-84.816886,"variance":0.332206750910206,"mean":-85.6648070543478,"stdev":0.576373794433964,"min":-86.961489,"median":-85.652834},"column_1":{"max":89,"variance":649.078236980412,"mean":52.4021739130435,"stdev":25.4770138944974,"min":3,"median":55},"geocode score":{"max":1.0,"variance":0.0189153534400382,"mean":0.830641304347826,"stdev":0.137533099434421,"min":0.429,"median":0.902},"total students":{"max":1646,"variance":57419.0511227902,"mean":450.217391304348,"stdev":239.622726640839,"min":118,"median":403},"column_3":{"max":9565,"variance":5736445.75668897,"mean":5261.6847826087,"stdev":2395.08783903409,"min":365,"median":5925}},"features":[{"properties":{"column_4":"Bartholomew Consolidated Schools","city":"Columbus","total f&r":457,"column_5":328,"school name":"Clifty Creek Elementary School","zip":"47203","latitude":39.208802,"column_11":40817,"county":"Bartholomew","column_12":157,"f&r rate":0.74,"column_13":418,"column_14":39,"column_1":3,"longitude":-85.870553,"id":"aokiis0hx710","address":"4625 East County Road 50 North","total students":614,"geocode score":0.854,"column_3":365,"state":"IN","geocode precision":"range"},"type":"Feature","geometry":{"type":"Point","coordinates":[-85.870553,39.208802]}},{"properties":{"column_4":"Bartholomew Consolidated Schools","city":"Indianapolis","total f&r":296,"column_5":371,"school name":"Frances Smith Elementary School","zip":"47203","latitude":39.220872,"column_11":40817,"county":"Bartholomew","column_12":191,"f&r rate":0.61,"column_13":253,"column_14":43,"column_1":3,"longitude":-85.869878,"id":"aokiis1q10nd","address":"4505 Waycross Drive","total students":487,"geocode score":0.911,"column_3":365,"state":"IN","geocode precision":"range"},"type":"Feature","geometry":{"type":"Point","coordinates":[-85.869878,39.220872]}},{"properties":{"column_4":"Bartholomew Consolidated Schools","city":"Columbus","total f&r":468,"column_5":369,"school name":"Lillian Schmitt Elementary School","zip":"47203","latitude":39.220872,"column_11":40817,"county":"Bartholomew","column_12":205,"f&r rate":0.7,"column_13":420,"column_14":48,"column_1":3,"longitude":-85.869878,"id":"aokiiskqopxk","address":"4505 Waycross Drive","total students":673,"geocode score":1.0,"column_3":365,"state":"IN","geocode precision":"range"},"type":"Feature","geometry":{"type":"Point","coordinates":[-85.869878,39.220872]}},{"properties":{"column_4":"Bartholomew Consolidated Schools","city":"Taylorsville","total f&r":417,"column_5":377,"school name":"Taylorsville Elementary School","zip":"47280","latitude":39.298074,"column_11":40817,"county":"Bartholomew","column_12":173,"f&r rate":0.71,"column_13":351,"column_14":66,"column_1":3,"longitude":-85.948822,"id":"aokiisi28oci","address":"9711 Walnut Street","total students":590,"geocode score":0.878,"column_3":365,"state":"IN","geocode precision":"range"},"type":"Feature","geometry":{"type":"Point","coordinates":[-85.948822,39.298074]}},{"properties":{"column_4":"Lebanon Community School","city":"Lebanon","total f&r":327,"column_5":569,"school name":"Stokes Elementary School","zip":"46052","latitude":40.034363,"column_11":40817,"county":"Boone","column_12":128,"f&r rate":0.72,"column_13":275,"column_14":52,"column_1":6,"longitude":-86.454233,"id":"aokiislzidrl","address":"1005 Hendricks Drive","total students":455,"geocode score":0.808,"column_3":665,"state":"IN","geocode precision":"range"},"type":"Feature","geometry":{"type":"Point","coordinates":[-86.454233,40.034363]}},{"properties":{"column_4":"Greensburg Community Schools","city":"Greensburg","total f&r":640,"column_5":1270,"school name":"Greensburg Elementary School","zip":"47240","latitude":39.32438,"column_11":40817,"county":"Decatur","column_12":439,"f&r rate":0.59,"column_13":535,"column_14":105,"column_1":16,"longitude":-85.475466,"id":"aokiisj0n836","address":"900 North Big Blue Avenue","total students":1079,"geocode score":0.679,"column_3":1730,"state":"IN","geocode precision":"range"},"type":"Feature","geometry":{"type":"Point","coordinates":[-85.475466,39.32438]}},{"properties":{"column_4":"Decatur County Community Schools","city":"Greensburg","total f&r":278,"column_5":1265,"school name":"South Decatur Elementary School","zip":"47240","latitude":39.200629,"column_11":40817,"county":"Decatur","column_12":265,"f&r rate":0.51,"column_13":237,"column_14":41,"column_1":16,"longitude":-85.55995,"id":"aokiismgqalf","address":"9302 South County Road 420 West","total students":543,"geocode score":0.919,"column_3":1655,"state":"IN","geocode precision":"range"},"type":"Feature","geometry":{"type":"Point","coordinates":[-85.55995,39.200629]}},{"properties":{"column_4":"Fayette County School Corp","city":"Connersville","total f&r":352,"column_5":1895,"school name":"Connersville Middle School","zip":"47331","latitude":39.65528,"column_11":40817,"county":"Fayette","column_12":272,"f&r rate":0.56,"column_13":295,"column_14":57,"column_1":21,"longitude":-85.134902,"id":"aokiis9gcsmd","address":"1900 Grand Avenue","total students":624,"geocode score":0.894,"column_3":2395,"state":"IN","geocode precision":"range"},"type":"Feature","geometry":{"type":"Point","coordinates":[-85.134902,39.65528]}},{"properties":{"column_4":"Fayette County School Corp","city":"Connersville","total f&r":595,"column_5":1889,"school name":"Connersville Senior High School","zip":"47331","latitude":39.637491,"column_11":40817,"county":"Fayette","column_12":545,"f&r rate":0.52,"column_13":495,"column_14":100,"column_1":21,"longitude":-85.160915,"id":"aokiismo2lk2","address":"1100 Spartan Drive","total students":1140,"geocode score":0.927,"column_3":2395,"state":"IN","geocode precision":"range"},"type":"Feature","geometry":{"type":"Point","coordinates":[-85.160915,39.637491]}},{"properties":{"column_4":"Fayette County School Corp","city":"Connersville","total f&r":248,"column_5":1897,"school name":"Eastview Elementary School","zip":"47331","latitude":39.636272,"column_11":40817,"county":"Fayette","column_12":115,"f&r rate":0.68,"column_13":217,"column_14":31,"column_1":21,"longitude":-85.124952,"id":"aokiis6yj5if","address":"401 South Fountain Street","total students":363,"geocode score":0.927,"column_3":2395,"state":"IN","geocode precision":"range"},"type":"Feature","geometry":{"type":"Point","coordinates":[-85.124952,39.636272]}},{"properties":{"column_4":"Fayette County School Corp","city":"Connersville","total f&r":184,"column_5":1869,"school name":"Everton Elementary School","zip":"47331","latitude":39.562625,"column_11":40817,"county":"Fayette","column_12":119,"f&r rate":0.61,"column_13":159,"column_14":25,"column_1":21,"longitude":-85.095231,"id":"aokiiskl40m3","address":"2440 East Everton Road","total students":303,"geocode score":0.927,"column_3":2395,"state":"IN","geocode precision":"range"},"type":"Feature","geometry":{"type":"Point","coordinates":[-85.095231,39.562625]}},{"properties":{"column_4":"Fayette County School Corp","city":"Connersville","total f&r":285,"column_5":1921,"school name":"Fayette Central Elementary School","zip":"47331","latitude":39.6856,"column_11":40817,"county":"Fayette","column_12":123,"f&r rate":0.7,"column_13":246,"column_14":39,"column_1":21,"longitude":-85.179897,"id":"aokiisf7a9vr","address":"2928 North County Road 225 West","total students":408,"geocode score":0.927,"column_3":2395,"state":"IN","geocode precision":"range"},"type":"Feature","geometry":{"type":"Point","coordinates":[-85.179897,39.6856]}},{"properties":{"column_4":"Fayette County School Corp","city":"Connersville","total f&r":258,"column_5":1909,"school name":"Frazee Elementary School","zip":"47331","latitude":39.640041,"column_11":40817,"county":"Fayette","column_12":111,"f&r rate":0.7,"column_13":225,"column_14":33,"column_1":21,"longitude":-85.14962,"id":"aokiisn1dd7m","address":"600 West 3rd Street","total students":369,"geocode score":0.829,"column_3":2395,"state":"IN","geocode precision":"range"},"type":"Feature","geometry":{"type":"Point","coordinates":[-85.14962,39.640041]}},{"properties":{"column_4":"Fayette County School Corp","city":"Connersville","total f&r":331,"column_5":1913,"school name":"Grandview Elementary School","zip":"47331","latitude":39.666902,"column_11":40817,"county":"Fayette","column_12":117,"f&r rate":0.74,"column_13":295,"column_14":36,"column_1":21,"longitude":-85.137321,"id":"aokiisar4uj6","address":"2620 Iowa Avenue","total students":448,"geocode score":0.927,"column_3":2395,"state":"IN","geocode precision":"range"},"type":"Feature","geometry":{"type":"Point","coordinates":[-85.137321,39.666902]}},{"properties":{"column_4":"Fayette County School Corp","city":"Connersville","total f&r":307,"column_5":1917,"school name":"Maplewood Elementary School","zip":"47331","latitude":39.653352,"column_11":40817,"county":"Fayette","column_12":48,"f&r rate":0.86,"column_13":283,"column_14":24,"column_1":21,"longitude":-85.128322,"id":"aokiisft6egn","address":"1800 Eastern Avenue","total students":355,"geocode score":0.9,"column_3":2395,"state":"IN","geocode precision":"range"},"type":"Feature","geometry":{"type":"Point","coordinates":[-85.128322,39.653352]}},{"properties":{"column_4":"Franklin County Community Schools","city":"Brookville","total f&r":265,"column_5":2125,"school name":"Brookville Elementary School","zip":"47012","latitude":39.436371,"column_11":40817,"county":"Franklin","column_12":240,"f&r rate":0.52,"column_13":225,"column_14":40,"column_1":24,"longitude":-84.986262,"id":"aokiisae6wvi","address":"10160 Oxford Pike","total students":505,"geocode score":0.902,"column_3":2475,"state":"IN","geocode precision":"range"},"type":"Feature","geometry":{"type":"Point","coordinates":[-84.986262,39.436371]}},{"properties":{"column_4":"Franklin County Community Schools","city":"Laurel","total f&r":330,"column_5":2082,"school name":"Laurel Elementary School","zip":"47024","latitude":39.488848,"column_11":40817,"county":"Franklin","column_12":165,"f&r rate":0.67,"column_13":273,"column_14":57,"column_1":24,"longitude":-85.198813,"id":"aokiis77r63y","address":"13246 State Road 121","total students":495,"geocode score":0.939,"column_3":2475,"state":"IN","geocode precision":"range"},"type":"Feature","geometry":{"type":"Point","coordinates":[-85.198813,39.488848]}},{"properties":{"column_4":"Greenfield Central Community School Corporation","city":"Greenfield","total f&r":192,"column_5":2597,"school name":"Harris Elementary School","zip":"46140","latitude":39.792175,"column_11":40817,"county":"Hancock","column_12":150,"f&r rate":0.56,"column_13":155,"column_14":37,"column_1":30,"longitude":-85.77183,"id":"aokiisck49xw","address":"200 West Park Avenue","total students":342,"geocode score":0.922,"column_3":3125,"state":"IN","geocode precision":"range"},"type":"Feature","geometry":{"type":"Point","coordinates":[-85.77183,39.792175]}},{"properties":{"column_4":"Seymour Community Schools","city":"Seymour","total f&r":353,"column_5":3135,"school name":"Brown Elementary School","zip":"47274","latitude":38.955607,"column_11":40817,"county":"Jackson","column_12":135,"f&r rate":0.72,"column_13":308,"column_14":45,"column_1":36,"longitude":-85.874324,"id":"aokiis6nuf87","address":"550 Miller Lane","total students":488,"geocode score":0.915,"column_3":3675,"state":"IN","geocode precision":"range"},"type":"Feature","geometry":{"type":"Point","coordinates":[-85.874324,38.955607]}},{"properties":{"column_4":"Medora Community School Corp","city":"Medora","total f&r":93,"column_5":3095,"school name":"Medora Elementary School","zip":"47260","latitude":38.823997,"column_11":40817,"county":"Jackson","column_12":35,"f&r rate":0.73,"column_13":79,"column_14":14,"column_1":36,"longitude":-86.171509,"id":"aokiisgkyhvk","address":"82 South George Street","total students":128,"geocode score":0.902,"column_3":3640,"state":"IN","geocode precision":"range"},"type":"Feature","geometry":{"type":"Point","coordinates":[-86.171509,38.823997]}},{"properties":{"column_4":"Medora Community School Corp","city":"Medora","total f&r":71,"column_5":3093,"school name":"Medora Jr &amp; Sr. High School","zip":"47260","latitude":38.823997,"column_11":40817,"county":"Jackson","column_12":49,"f&r rate":0.59,"column_13":55,"column_14":16,"column_1":36,"longitude":-86.171509,"id":"aokiisfpqqfg","address":"82 South George Street","total students":120,"geocode score":0.902,"column_3":3640,"state":"IN","geocode precision":"range"},"type":"Feature","geometry":{"type":"Point","coordinates":[-86.171509,38.823997]}},{"properties":{"column_4":"Seymour Community Schools","city":"Seymour","total f&r":506,"column_5":3138,"school name":"Seymour Middle School","zip":"47274","latitude":38.968354,"column_11":40817,"county":"Jackson","column_12":430,"f&r rate":0.54,"column_13":382,"column_14":124,"column_1":36,"longitude":-85.878563,"id":"aokiisd5jy96","address":"920 North O'Brien St.","total students":936,"geocode score":0.793,"column_3":3675,"state":"IN","geocode precision":"range"},"type":"Feature","geometry":{"type":"Point","coordinates":[-85.878563,38.968354]}},{"properties":{"column_4":"Seymour Community Schools","city":"Seymour","total f&r":406,"column_5":3153,"school name":"Seymour-Jackson Elem. School","zip":"47274","latitude":38.933385,"column_11":40817,"county":"Jackson","column_12":245,"f&r rate":0.62,"column_13":369,"column_14":37,"column_1":36,"longitude":-85.896487,"id":"aokiis9uzlc1","address":"508 B. Avenue","total students":651,"geocode score":0.532,"column_3":3675,"state":"IN","geocode precision":"street"},"type":"Feature","geometry":{"type":"Point","coordinates":[-85.896487,38.933385]}},{"properties":{"column_4":"Seymour Community Schools","city":"Seymour","total f&r":330,"column_5":3157,"school name":"Seymour-Redding Elem. School","zip":"47274","latitude":38.974688,"column_11":40817,"county":"Jackson","column_12":220,"f&r rate":0.6,"column_13":271,"column_14":59,"column_1":36,"longitude":-85.890367,"id":"aokiis9ggnmf","address":"1700 North Ewing St.","total students":550,"geocode score":0.915,"column_3":3675,"state":"IN","geocode precision":"range"},"type":"Feature","geometry":{"type":"Point","coordinates":[-85.890367,38.974688]}},{"properties":{"column_4":"Madison Consolidated Schools","city":"Deputy","total f&r":73,"column_5":3301,"school name":"Deputy Elementary","zip":"47230","latitude":38.795773,"column_11":40817,"county":"Jefferson","column_12":45,"f&r rate":0.62,"column_13":61,"column_14":12,"column_1":39,"longitude":-85.652834,"id":"aokiisbkjnd4","address":"14350 W. Mulberry Street","total students":118,"geocode score":0.429,"column_3":3995,"state":"IN","geocode precision":"street"},"type":"Feature","geometry":{"type":"Point","coordinates":[-85.652834,38.795773]}},{"properties":{"column_4":"Madison Consolidated Schools","city":"Dupont","total f&r":68,"column_5":3305,"school name":"Dupont Elementary","zip":"47231","latitude":38.888757,"column_11":40817,"county":"Jefferson","column_12":51,"f&r rate":0.57,"column_13":57,"column_14":11,"column_1":39,"longitude":-85.51923,"id":"aokiisb2rwid","address":"7045 West Main Street","total students":119,"geocode score":0.8,"column_3":3995,"state":"IN","geocode precision":"range"},"type":"Feature","geometry":{"type":"Point","coordinates":[-85.51923,38.888757]}},{"properties":{"column_4":"Madison Consolidated Schools","city":"Madison","total f&r":300,"column_5":3333,"school name":"E. O. Muncie Elementary","zip":"47250","latitude":38.762285,"column_11":40817,"county":"Jefferson","column_12":181,"f&r rate":0.62,"column_13":250,"column_14":50,"column_1":39,"longitude":-85.405195,"id":"aokiisc62d3m","address":"800 Lanier Drive","total students":481,"geocode score":0.902,"column_3":3995,"state":"IN","geocode precision":"range"},"type":"Feature","geometry":{"type":"Point","coordinates":[-85.405195,38.762285]}},{"properties":{"column_4":"Madison Consolidated Schools","city":"Madison","total f&r":131,"column_5":3329,"school name":"Lydia Middleton School","zip":"47250","latitude":38.73779,"column_11":40817,"county":"Jefferson","column_12":96,"f&r rate":0.58,"column_13":111,"column_14":20,"column_1":39,"longitude":-85.387974,"id":"aokiis8euin9","address":"714 West Main Street","total students":227,"geocode score":0.902,"column_3":3995,"state":"IN","geocode precision":"range"},"type":"Feature","geometry":{"type":"Point","coordinates":[-85.387974,38.73779]}},{"properties":{"column_4":"Madison Consolidated Schools","city":"Madison","total f&r":389,"column_5":3313,"school name":"Madison Junior High School","zip":"47250","latitude":38.770748,"column_11":40817,"county":"Jefferson","column_12":385,"f&r rate":0.5,"column_13":324,"column_14":65,"column_1":39,"longitude":-85.399879,"id":"aokiis9lf7kv","address":"701 Eighth St.","total students":774,"geocode score":0.785,"column_3":3995,"state":"IN","geocode precision":"range"},"type":"Feature","geometry":{"type":"Point","coordinates":[-85.399879,38.770748]}},{"properties":{"column_4":"Madison Consolidated Schools","city":"Madison","total f&r":160,"column_5":3321,"school name":"Ryker's Ridge Elementary","zip":"47250","latitude":38.772787,"column_11":40817,"county":"Jefferson","column_12":90,"f&r rate":0.64,"column_13":135,"column_14":25,"column_1":39,"longitude":-85.334129,"id":"aokiis8t8vpa","address":"2485 North Rykers' Ridge Rd.","total students":250,"geocode score":0.902,"column_3":3995,"state":"IN","geocode precision":"range"},"type":"Feature","geometry":{"type":"Point","coordinates":[-85.334129,38.772787]}},{"properties":{"column_4":"Southwestern Jefferson Co. Consolidated School Corp","city":"Hanover","total f&r":363,"column_5":3341,"school name":"Southwestern Elementary School","zip":"47243","latitude":38.711597,"column_11":40817,"county":"Jefferson","column_12":235,"f&r rate":0.61,"column_13":300,"column_14":63,"column_1":39,"longitude":-85.473944,"id":"aokiis79gozg","address":"273 Main Cross","total students":598,"geocode score":0.843,"column_3":4000,"state":"IN","geocode precision":"range"},"type":"Feature","geometry":{"type":"Point","coordinates":[-85.473944,38.711597]}},{"properties":{"column_4":"Jennings County School Corp","city":"North Vernon","total f&r":252,"column_5":3389,"school name":"Brush Creek Elementary School","zip":"47265","latitude":38.982135,"column_11":40817,"county":"Jennings","column_12":128,"f&r rate":0.66,"column_13":207,"column_14":45,"column_1":40,"longitude":-85.689905,"id":"aokiisezid2p","address":"4275 East US 50","total students":380,"geocode score":0.735,"column_3":4015,"state":"IN","geocode precision":"range"},"type":"Feature","geometry":{"type":"Point","coordinates":[-85.689905,38.982135]}},{"properties":{"column_4":"Jennings County School Corp","city":"Commiskey","total f&r":163,"column_5":3361,"school name":"Graham Creek Elementary School","zip":"47227","latitude":38.87135,"column_11":40817,"county":"Jennings","column_12":146,"f&r rate":0.53,"column_13":121,"column_14":42,"column_1":40,"longitude":-85.627638,"id":"aokiisaf0q98","address":"7910 South County Road 90 West","total students":309,"geocode score":1.0,"column_3":4015,"state":"IN","geocode precision":"range"},"type":"Feature","geometry":{"type":"Point","coordinates":[-85.627638,38.87135]}},{"properties":{"column_4":"Jennings County School Corp","city":"Hayden","total f&r":162,"column_5":3385,"school name":"Hayden Elementary School","zip":"47245","latitude":38.982339,"column_11":40817,"county":"Jennings","column_12":143,"f&r rate":0.53,"column_13":136,"column_14":26,"column_1":40,"longitude":-85.738156,"id":"aokiisju676z","address":"55 South County Road 685 West","total students":305,"geocode score":0.805,"column_3":4015,"state":"IN","geocode precision":"range"},"type":"Feature","geometry":{"type":"Point","coordinates":[-85.738156,38.982339]}},{"properties":{"column_4":"Jennings County School Corp","city":"North Vernon","total f&r":445,"column_5":3393,"school name":"Jennings County Middle School","zip":"47265","latitude":39.000501,"column_11":40817,"county":"Jennings","column_12":404,"f&r rate":0.52,"column_13":351,"column_14":94,"column_1":40,"longitude":-85.642815,"id":"aokiisas7h9q","address":"820 West Walnut St.","total students":849,"geocode score":0.902,"column_3":4015,"state":"IN","geocode precision":"range"},"type":"Feature","geometry":{"type":"Point","coordinates":[-85.642815,39.000501]}},{"properties":{"column_4":"Jennings County School Corp","city":"North Vernon","total f&r":478,"column_5":3397,"school name":"North Vernon Elementary School","zip":"47265","latitude":39.000559,"column_11":40817,"county":"Jennings","column_12":257,"f&r rate":0.65,"column_13":400,"column_14":78,"column_1":40,"longitude":-85.642677,"id":"aokiisbppe7v","address":"810 West Walnut Street","total students":735,"geocode score":0.902,"column_3":4015,"state":"IN","geocode precision":"range"},"type":"Feature","geometry":{"type":"Point","coordinates":[-85.642677,39.000559]}},{"properties":{"column_4":"Jennings County School Corp","city":"North Vernon","total f&r":388,"column_5":3349,"school name":"Sand Creek Elementary","zip":"47265","latitude":39.058523,"column_11":40817,"county":"Jennings","column_12":104,"f&r rate":0.79,"column_13":352,"column_14":36,"column_1":40,"longitude":-85.638964,"id":"aokiiscijq7l","address":"1450 West County Road 500 North","total students":492,"geocode score":0.902,"column_3":4015,"state":"IN","geocode precision":"range"},"type":"Feature","geometry":{"type":"Point","coordinates":[-85.638964,39.058523]}},{"properties":{"column_4":"Jennings County School Corp","city":"Scipio","total f&r":221,"column_5":3357,"school name":"Scipio Elementary School","zip":"47273","latitude":39.075179,"column_11":40817,"county":"Jennings","column_12":140,"f&r rate":0.61,"column_13":172,"column_14":49,"column_1":40,"longitude":-85.712243,"id":"aokiiscv8rtl","address":"6320 North State Highway 7","total students":361,"geocode score":0.883,"column_3":4015,"state":"IN","geocode precision":"range"},"type":"Feature","geometry":{"type":"Point","coordinates":[-85.712243,39.075179]}},{"properties":{"column_4":"Edinburgh Community School Corp","city":"Edinburgh","total f&r":285,"column_5":3452,"school name":"Eastside Elementary School","zip":"46124","latitude":39.354543,"column_11":40817,"county":"Johnson","column_12":120,"f&r rate":0.7,"column_13":220,"column_14":65,"column_1":41,"longitude":-85.955561,"id":"aokiiseu3c7v","address":"810 East Main Cross Street","total students":405,"geocode score":0.918,"column_3":4215,"state":"IN","geocode precision":"range"},"type":"Feature","geometry":{"type":"Point","coordinates":[-85.955561,39.354543]}},{"properties":{"column_4":"Edinburgh Community School Corp","city":"Edinburgh","total f&r":294,"column_5":3447,"school name":"Edinburgh High School","zip":"46124","latitude":39.35228,"column_11":40817,"county":"Johnson","column_12":221,"f&r rate":0.57,"column_13":229,"column_14":65,"column_1":41,"longitude":-85.9697,"id":"aokiish7mmnj","address":"300 South Keeley Street","total students":515,"geocode score":0.885,"column_3":4215,"state":"IN","geocode precision":"range"},"type":"Feature","geometry":{"type":"Point","coordinates":[-85.9697,39.35228]}},{"properties":{"column_4":"Greenwood Community School Corp","city":"Greenwood","total f&r":231,"column_5":3481,"school name":"Isom Central School","zip":"46143","latitude":39.6156,"column_11":40817,"county":"Johnson","column_12":141,"f&r rate":0.62,"column_13":199,"column_14":32,"column_1":41,"longitude":-86.10632,"id":"aokiisius27j","address":"50 E. Broadway St.","total students":372,"geocode score":0.61,"column_3":4245,"state":"IN","geocode precision":"street"},"type":"Feature","geometry":{"type":"Point","coordinates":[-86.10632,39.6156]}},{"properties":{"column_4":"Franklin Community School Corp","city":"Franklin","total f&r":234,"column_5":3413,"school name":"Needham Elementary School","zip":"46131","latitude":39.490543,"column_11":40817,"county":"Johnson","column_12":196,"f&r rate":0.54,"column_13":192,"column_14":42,"column_1":41,"longitude":-86.037148,"id":"aokiis6pgme3","address":"1399 Upper Shelbyville Rd.","total students":430,"geocode score":0.922,"column_3":4225,"state":"IN","geocode precision":"range"},"type":"Feature","geometry":{"type":"Point","coordinates":[-86.037148,39.490543]}},{"properties":{"column_4":"Greenwood Community School Corp","city":"Greenwood","total f&r":358,"column_5":3477,"school name":"Northeast Elementary School","zip":"46143","latitude":39.628109,"column_11":40817,"county":"Johnson","column_12":100,"f&r rate":0.78,"column_13":312,"column_14":46,"column_1":41,"longitude":-86.09898,"id":"aokiisif6mjh","address":"99 Crestview Drive","total students":458,"geocode score":1.0,"column_3":4245,"state":"IN","geocode precision":"range"},"type":"Feature","geometry":{"type":"Point","coordinates":[-86.09898,39.628109]}},{"properties":{"column_4":"Franklin Community School Corp","city":"Franklin","total f&r":288,"column_5":3461,"school name":"Northwood Elementary School","zip":"46131","latitude":39.489974,"column_11":40817,"county":"Johnson","column_12":197,"f&r rate":0.59,"column_13":237,"column_14":51,"column_1":41,"longitude":-86.063884,"id":"aokiislxu8k4","address":"965 Grizzly Cub Drive","total students":485,"geocode score":0.922,"column_3":4225,"state":"IN","geocode precision":"range"},"type":"Feature","geometry":{"type":"Point","coordinates":[-86.063884,39.489974]}},{"properties":{"column_4":"Clark-Pleasant Community Schools","city":"Whiteland","total f&r":168,"column_5":3423,"school name":"Sawmill Woods Elementary School","zip":"46184","latitude":39.558201,"column_11":40817,"county":"Johnson","column_12":154,"f&r rate":0.52,"column_13":131,"column_14":37,"column_1":41,"longitude":-86.101698,"id":"aokiism1y4ui","address":"700 Sawmill Rd.","total students":322,"geocode score":0.824,"column_3":4145,"state":"IN","geocode precision":"range"},"type":"Feature","geometry":{"type":"Point","coordinates":[-86.101698,39.558201]}},{"properties":{"column_4":"Franklin Community School Corp","city":"Franklin","total f&r":163,"column_5":3465,"school name":"Webb Elementary School","zip":"46131","latitude":39.486149,"column_11":40817,"county":"Johnson","column_12":122,"f&r rate":0.57,"column_13":139,"column_14":24,"column_1":41,"longitude":-86.03419,"id":"aokiisj3hera","address":"1400 Webb Court","total students":285,"geocode score":0.922,"column_3":4225,"state":"IN","geocode precision":"range"},"type":"Feature","geometry":{"type":"Point","coordinates":[-86.03419,39.486149]}},{"properties":{"column_4":"MSD of Martinsville","city":"Brooklyn","total f&r":139,"column_5":6337,"school name":"Brooklyn Elementary School","zip":"46111","latitude":39.544242,"column_11":40817,"county":"Morgan","column_12":76,"f&r rate":0.65,"column_13":132,"column_14":7,"column_1":55,"longitude":-86.36915,"id":"aokiisj7tcvu","address":"251 North Church Street","total students":215,"geocode score":0.927,"column_3":5925,"state":"IN","geocode precision":"range"},"type":"Feature","geometry":{"type":"Point","coordinates":[-86.36915,39.544242]}},{"properties":{"column_4":"MSD of Martinsville","city":"Martinsville","total f&r":145,"column_5":6367,"school name":"Central Elementary School","zip":"46151","latitude":39.425909,"column_11":40817,"county":"Morgan","column_12":70,"f&r rate":0.67,"column_13":127,"column_14":18,"column_1":55,"longitude":-86.424018,"id":"aokiisl2g5u9","address":"389 East Jackson Street","total students":215,"geocode score":0.902,"column_3":5925,"state":"IN","geocode precision":"range"},"type":"Feature","geometry":{"type":"Point","coordinates":[-86.424018,39.425909]}},{"properties":{"column_4":"MSD of Martinsville","city":"Martinsville","total f&r":154,"column_5":6349,"school name":"Charles L. Smith Elem. School","zip":"46151","latitude":39.424916,"column_11":40817,"county":"Morgan","column_12":147,"f&r rate":0.51,"column_13":127,"column_14":27,"column_1":55,"longitude":-86.411738,"id":"aokiisiup5hl","address":"1359 East Columbus Street","total students":301,"geocode score":0.902,"column_3":5925,"state":"IN","geocode precision":"range"},"type":"Feature","geometry":{"type":"Point","coordinates":[-86.411738,39.424916]}},{"properties":{"column_4":"MSD of Martinsville","city":"Martinsville","total f&r":387,"column_5":6331,"school name":"Martinsville West Middle School","zip":"46151","latitude":39.420657,"column_11":40817,"county":"Morgan","column_12":230,"f&r rate":0.63,"column_13":306,"column_14":81,"column_1":55,"longitude":-86.42709,"id":"aokiisfk6t8b","address":"109 East Garfield St.","total students":617,"geocode score":0.829,"column_3":5925,"state":"IN","geocode precision":"range"},"type":"Feature","geometry":{"type":"Point","coordinates":[-86.42709,39.420657]}},{"properties":{"column_4":"Mooresville Consolidated Schools","city":"Mooresville","total f&r":182,"column_5":6381,"school name":"Newby Memorial Elementary School","zip":"46158","latitude":39.611711,"column_11":40817,"county":"Morgan","column_12":151,"f&r rate":0.55,"column_13":140,"column_14":42,"column_1":55,"longitude":-86.379662,"id":"aokiis888jzk","address":"240 N. Monroe St.","total students":333,"geocode score":0.489,"column_3":5930,"state":"IN","geocode precision":"street"},"type":"Feature","geometry":{"type":"Point","coordinates":[-86.379662,39.611711]}},{"properties":{"column_4":"MSD of Martinsville","city":"Paragon","total f&r":188,"column_5":6357,"school name":"Paragon Elementary School","zip":"46166","latitude":39.601368,"column_11":40817,"county":"Morgan","column_12":107,"f&r rate":0.64,"column_13":153,"column_14":35,"column_1":55,"longitude":-85.442619,"id":"aokiiseqj2kt","address":"520 Old State Rd. 67","total students":295,"geocode score":0.488,"column_3":5925,"state":"IN","geocode precision":"street"},"type":"Feature","geometry":{"type":"Point","coordinates":[-85.442619,39.601368]}},{"properties":{"column_4":"MSD of Martinsville","city":"Martinsville","total f&r":252,"column_5":6361,"school name":"Poston Road Elementary School","zip":"46151","latitude":39.413822,"column_11":40817,"county":"Morgan","column_12":165,"f&r rate":0.6,"column_13":212,"column_14":40,"column_1":55,"longitude":-86.42718,"id":"aokiise50jil","address":"139 East Poston Rd.","total students":417,"geocode score":0.902,"column_3":5925,"state":"IN","geocode precision":"range"},"type":"Feature","geometry":{"type":"Point","coordinates":[-86.42718,39.413822]}},{"properties":{"column_4":"MSD of Martinsville","city":"Martinsville","total f&r":253,"column_5":6344,"school name":"South Elementary School","zip":"46151","latitude":39.405659,"column_11":40817,"county":"Morgan","column_12":210,"f&r rate":0.55,"column_13":218,"column_14":35,"column_1":55,"longitude":-86.416896,"id":"aokiisax97h8","address":"500 East Mahalasville Road","total students":463,"geocode score":0.902,"column_3":5925,"state":"IN","geocode precision":"range"},"type":"Feature","geometry":{"type":"Point","coordinates":[-86.416896,39.405659]}},{"properties":{"column_4":"Cloverdale Community Schools","city":"Cloverdale","total f&r":289,"column_5":7082,"school name":"Cloverdale Elementary School","zip":"46120","latitude":39.510709,"column_11":40817,"county":"Putnam","column_12":106,"f&r rate":0.73,"column_13":248,"column_14":41,"column_1":67,"longitude":-86.788327,"id":"aokiisfqhluo","address":"311 East Logan Street","total students":395,"geocode score":0.922,"column_3":6750,"state":"IN","geocode precision":"range"},"type":"Feature","geometry":{"type":"Point","coordinates":[-86.788327,39.510709]}},{"properties":{"column_4":"Cloverdale Community Schools","city":"Cloverdale","total f&r":262,"column_5":7085,"school name":"Cloverdale Middle School","zip":"46120","latitude":39.510572,"column_11":40817,"county":"Putnam","column_12":146,"f&r rate":0.64,"column_13":214,"column_14":48,"column_1":67,"longitude":-86.790472,"id":"aokiis9a9awz","address":"312 East Logan Street","total students":408,"geocode score":0.922,"column_3":6750,"state":"IN","geocode precision":"range"},"type":"Feature","geometry":{"type":"Point","coordinates":[-86.790472,39.510572]}},{"properties":{"column_4":"Greencastle Community School Corp","city":"Greencastle","total f&r":183,"column_5":7107,"school name":"Deer Meadow Primary School","zip":"46135","latitude":39.647192,"column_11":40817,"county":"Putnam","column_12":105,"f&r rate":0.64,"column_13":149,"column_14":34,"column_1":67,"longitude":-86.840674,"id":"aokiisfthaqg","address":"1000 Deer Meadow Ln","total students":288,"geocode score":0.827,"column_3":6755,"state":"IN","geocode precision":"range"},"type":"Feature","geometry":{"type":"Point","coordinates":[-86.840674,39.647192]}},{"properties":{"column_4":"Greencastle Community School Corp","city":"Greencastle","total f&r":111,"column_5":7105,"school name":"Martha Jane Ridpath Elem. School","zip":"46135","latitude":39.63538,"column_11":40817,"county":"Putnam","column_12":109,"f&r rate":0.5,"column_13":94,"column_14":17,"column_1":67,"longitude":-86.847152,"id":"aokiisd0ryfd","address":"711 Central St.","total students":220,"geocode score":0.701,"column_3":6755,"state":"IN","geocode precision":"street"},"type":"Feature","geometry":{"type":"Point","coordinates":[-86.847152,39.63538]}},{"properties":{"column_4":"South Putnam Community School Corp","city":"Reelsville","total f&r":109,"column_5":7073,"school name":"Reelsville Elementary School","zip":"46171","latitude":39.589159,"column_11":40817,"county":"Putnam","column_12":75,"f&r rate":0.59,"column_13":90,"column_14":19,"column_1":67,"longitude":-86.961489,"id":"aokiisb7j3v9","address":"7840 South Cr. 625 West","total students":184,"geocode score":0.467,"column_3":6705,"state":"IN","geocode precision":"street"},"type":"Feature","geometry":{"type":"Point","coordinates":[-86.961489,39.589159]}},{"properties":{"column_4":"North Putnam Community School","city":"Roachdale","total f&r":130,"column_5":7045,"school name":"Roachdale Elementary School","zip":"46172","latitude":39.847094,"column_11":40817,"county":"Putnam","column_12":126,"f&r rate":0.51,"column_13":99,"column_14":31,"column_1":67,"longitude":-86.802292,"id":"aokiisl1z26x","address":"305 S. Indiana","total students":256,"geocode score":0.524,"column_3":6715,"state":"IN","geocode precision":"street"},"type":"Feature","geometry":{"type":"Point","coordinates":[-86.802292,39.847094]}},{"properties":{"column_4":"Greencastle Community School Corp","city":"Greencastle","total f&r":247,"column_5":7102,"school name":"Tzouanakis Elementary School","zip":"46135","latitude":39.650808,"column_11":40817,"county":"Putnam","column_12":228,"f&r rate":0.52,"column_13":212,"column_14":35,"column_1":67,"longitude":-86.855781,"id":"aokiishsvk5m","address":"500 Linwood Dr","total students":475,"geocode score":0.925,"column_3":6755,"state":"IN","geocode precision":"range"},"type":"Feature","geometry":{"type":"Point","coordinates":[-86.855781,39.650808]}},{"properties":{"column_4":"South Ripley Community School Corp","city":"Versailles","total f&r":370,"column_5":7178,"school name":"South Ripley Elementary School","zip":"47042","latitude":39.051556,"column_11":40817,"county":"Ripley","column_12":272,"f&r rate":0.58,"column_13":291,"column_14":79,"column_1":69,"longitude":-85.250211,"id":"aokiislff7ye","address":"1568 South Benham Rd.","total students":642,"geocode score":0.912,"column_3":6865,"state":"IN","geocode precision":"range"},"type":"Feature","geometry":{"type":"Point","coordinates":[-85.250211,39.051556]}},{"properties":{"column_4":"Rush County Schools","city":"Rushville","total f&r":177,"column_5":7271,"school name":"Rushville Elementary East","zip":"46173","latitude":39.625424,"column_11":40817,"county":"Rush","column_12":122,"f&r rate":0.59,"column_13":152,"column_14":25,"column_1":70,"longitude":-85.448196,"id":"aokiisi91n0z","address":"390 West 16th St.","total students":299,"geocode score":0.83,"column_3":6995,"state":"IN","geocode precision":"range"},"type":"Feature","geometry":{"type":"Point","coordinates":[-85.448196,39.625424]}},{"properties":{"column_4":"Rush County Schools","city":"Rushville","total f&r":214,"column_5":7272,"school name":"Rushville Elementary West","zip":"46173","latitude":39.625421,"column_11":40817,"county":"Rush","column_12":120,"f&r rate":0.64,"column_13":174,"column_14":40,"column_1":70,"longitude":-85.448406,"id":"aokiisf0uf7r","address":"410 West 16th St.","total students":334,"geocode score":0.83,"column_3":6995,"state":"IN","geocode precision":"range"},"type":"Feature","geometry":{"type":"Point","coordinates":[-85.448406,39.625421]}},{"properties":{"column_4":"Scott Co School Dist #1","city":"Austin","total f&r":499,"column_5":7630,"school name":"Austin Elementary School","zip":"47102","latitude":38.742339,"column_11":40817,"county":"Scott","column_12":168,"f&r rate":0.75,"column_13":430,"column_14":69,"column_1":72,"longitude":-85.804631,"id":"aokiisam2zvb","address":"Highway 31 South","total students":667,"geocode score":0.816,"column_3":7230,"state":"IN","geocode precision":"street"},"type":"Feature","geometry":{"type":"Point","coordinates":[-85.804631,38.742339]}},{"properties":{"column_4":"Scott Co School Dist #1","city":"Austin","total f&r":476,"column_5":7629,"school name":"Austin High School","zip":"47102","latitude":38.746741,"column_11":40817,"county":"Scott","column_12":238,"f&r rate":0.67,"column_13":413,"column_14":63,"column_1":72,"longitude":-85.807244,"id":"aokiis994ppc","address":"401 Highway 31 South","total students":714,"geocode score":0.875,"column_3":7230,"state":"IN","geocode precision":"range"},"type":"Feature","geometry":{"type":"Point","coordinates":[-85.807244,38.746741]}},{"properties":{"column_4":"Scott County School Dist #2","city":"Scottsburg","total f&r":139,"column_5":7633,"school name":"Johnson Elementary School","zip":"47170","latitude":38.73668,"column_11":40817,"county":"Scott","column_12":90,"f&r rate":0.61,"column_13":121,"column_14":18,"column_1":72,"longitude":-85.694247,"id":"aokiis6sn0x1","address":"4235 East State Road 256","total students":229,"geocode score":0.902,"column_3":7255,"state":"IN","geocode precision":"range"},"type":"Feature","geometry":{"type":"Point","coordinates":[-85.694247,38.73668]}},{"properties":{"column_4":"Scott County School Dist #2","city":"Lexington","total f&r":135,"column_5":7637,"school name":"Lexington Elementary","zip":"47138","latitude":38.652228,"column_11":40817,"county":"Scott","column_12":100,"f&r rate":0.57,"column_13":111,"column_14":24,"column_1":72,"longitude":-85.628274,"id":"aokiish5aj3m","address":"7980 East Walnut St.","total students":235,"geocode score":0.87,"column_3":7255,"state":"IN","geocode precision":"range"},"type":"Feature","geometry":{"type":"Point","coordinates":[-85.628274,38.652228]}},{"properties":{"column_4":"Scott County School Dist #2","city":"Scottsburg","total f&r":325,"column_5":7649,"school name":"Scottsburg Elementary","zip":"47170","latitude":38.686602,"column_11":40817,"county":"Scott","column_12":184,"f&r rate":0.64,"column_13":279,"column_14":46,"column_1":72,"longitude":-85.776206,"id":"aokiisjn6as9","address":"49 North Hyland St.","total students":509,"geocode score":0.902,"column_3":7255,"state":"IN","geocode precision":"range"},"type":"Feature","geometry":{"type":"Point","coordinates":[-85.776206,38.686602]}},{"properties":{"column_4":"Scott County School Dist #2","city":"Scottsburg","total f&r":364,"column_5":7645,"school name":"Scottsburg Middle School","zip":"47170","latitude":38.683335,"column_11":40817,"county":"Scott","column_12":304,"f&r rate":0.54,"column_13":294,"column_14":70,"column_1":72,"longitude":-85.766894,"id":"aokiismee31k","address":"425 South 3rd St.","total students":668,"geocode score":0.611,"column_3":7255,"state":"IN","geocode precision":"street"},"type":"Feature","geometry":{"type":"Point","coordinates":[-85.766894,38.683335]}},{"properties":{"column_4":"Shelbyville Central Schools","city":"Shelbyville","total f&r":337,"column_5":7725,"school name":"Coulston Elementary School","zip":"46176","latitude":39.53142,"column_11":40817,"county":"Shelby","column_12":268,"f&r rate":0.56,"column_13":291,"column_14":46,"column_1":73,"longitude":-85.759873,"id":"aokiisl7tj43","address":"121 Knightstown Road","total students":605,"geocode score":0.893,"column_3":7365,"state":"IN","geocode precision":"range"},"type":"Feature","geometry":{"type":"Point","coordinates":[-85.759873,39.53142]}},{"properties":{"column_4":"Shelbyville Central Schools","city":"Shelbyville","total f&r":334,"column_5":7733,"school name":"Loper Elementary School","zip":"46176","latitude":39.511966,"column_11":40817,"county":"Shelby","column_12":288,"f&r rate":0.54,"column_13":277,"column_14":57,"column_1":73,"longitude":-85.765742,"id":"aokiise63a2u","address":"901 Loper Drive","total students":622,"geocode score":0.914,"column_3":7365,"state":"IN","geocode precision":"range"},"type":"Feature","geometry":{"type":"Point","coordinates":[-85.765742,39.511966]}},{"properties":{"column_4":"Shelbyville Central Schools","city":"Shelbyville","total f&r":490,"column_5":7721,"school name":"Shelbyville Junior High School","zip":"46176","latitude":39.504664,"column_11":40817,"county":"Shelby","column_12":460,"f&r rate":0.52,"column_13":404,"column_14":86,"column_1":73,"longitude":-85.793781,"id":"aokiis9sgj7z","address":"1200 West McKay Rd.","total students":950,"geocode score":0.914,"column_3":7365,"state":"IN","geocode precision":"range"},"type":"Feature","geometry":{"type":"Point","coordinates":[-85.793781,39.504664]}},{"properties":{"column_4":"Shelbyville Central Schools","city":"Shelbyville","total f&r":411,"column_5":7729,"school name":"T.A. Hendricks Elementary School","zip":"46176","latitude":39.5379,"column_11":40817,"county":"Shelby","column_12":255,"f&r rate":0.62,"column_13":350,"column_14":61,"column_1":73,"longitude":-86.09483,"id":"aokiis6xmfwi","address":"1111 Saint Joseph Street","total students":666,"geocode score":0.452,"column_3":7365,"state":"IN","geocode precision":"street"},"type":"Feature","geometry":{"type":"Point","coordinates":[-86.09483,39.5379]}},{"properties":{"column_4":"Union County/College Corner Joint School District","city":"Liberty","total f&r":203,"column_5":8206,"school name":"Union County Middle School","zip":"47353","latitude":39.633444,"column_11":40817,"county":"Union","column_12":198,"f&r rate":0.51,"column_13":146,"column_14":57,"column_1":81,"longitude":-84.926078,"id":"aokiisgoj4om","address":"488 St. Rd. 44 East","total students":401,"geocode score":0.672,"column_3":7950,"state":"IN","geocode precision":"range"},"type":"Feature","geometry":{"type":"Point","coordinates":[-84.926078,39.633444]}},{"properties":{"column_4":"Union County/College Corner Joint School District","city":"College Corner","total f&r":139,"column_5":8213,"school name":"Union Elementary School","zip":"45003","latitude":39.571587,"column_11":40817,"county":"Union","column_12":120,"f&r rate":0.54,"column_13":112,"column_14":27,"column_1":81,"longitude":-84.816886,"id":"aokiisai0l8k","address":"230 Ramsey St.","total students":259,"geocode score":0.59,"column_3":7950,"state":"OH","geocode precision":"street"},"type":"Feature","geometry":{"type":"Point","coordinates":[-84.816886,39.571587]}},{"properties":{"column_4":"Richmond Community Schools","city":"Richmond","total f&r":215,"column_5":9013,"school name":"Charles Elementary","zip":"47374","latitude":39.823906,"column_11":40817,"county":"Wayne","column_12":188,"f&r rate":0.53,"column_13":182,"column_14":33,"column_1":89,"longitude":-84.869594,"id":"aokiismavz2o","address":"2400 Reeveston Road","total students":403,"geocode score":0.912,"column_3":8385,"state":"IN","geocode precision":"range"},"type":"Feature","geometry":{"type":"Point","coordinates":[-84.869594,39.823906]}},{"properties":{"column_4":"Richmond Community Schools","city":"Richmond","total f&r":270,"column_5":9014,"school name":"Crestdale Elementary","zip":"47374","latitude":39.856352,"column_11":40817,"county":"Wayne","column_12":66,"f&r rate":0.8,"column_13":242,"column_14":28,"column_1":89,"longitude":-84.891144,"id":"aokiism5gxrf","address":"701 Crestdale Drive","total students":336,"geocode score":0.912,"column_3":8385,"state":"IN","geocode precision":"range"},"type":"Feature","geometry":{"type":"Point","coordinates":[-84.891144,39.856352]}},{"properties":{"column_4":"Richmond Community Schools","city":"Richmond","total f&r":299,"column_5":9001,"school name":"Dennis Middle School","zip":"47374","latitude":39.831517,"column_11":40817,"county":"Wayne","column_12":85,"f&r rate":0.78,"column_13":267,"column_14":32,"column_1":89,"longitude":-84.91087,"id":"aokiisldvbng","address":"222 Northwest 7th Street","total students":384,"geocode score":0.829,"column_3":8385,"state":"IN","geocode precision":"range"},"type":"Feature","geometry":{"type":"Point","coordinates":[-84.91087,39.831517]}},{"properties":{"column_4":"Richmond Community Schools","city":"Richmond","total f&r":281,"column_5":9017,"school name":"Fairview Elementary","zip":"47374","latitude":39.843767,"column_11":40817,"county":"Wayne","column_12":38,"f&r rate":0.88,"column_13":248,"column_14":33,"column_1":89,"longitude":-84.897838,"id":"aokiisg9bvtj","address":"60 Northwest 'L' Street","total students":319,"geocode score":0.614,"column_3":8385,"state":"IN","geocode precision":"street"},"type":"Feature","geometry":{"type":"Point","coordinates":[-84.897838,39.843767]}},{"properties":{"column_4":"Galileo Charter School","city":"Richmond","total f&r":216,"column_5":9018,"school name":"Galileo North","zip":"47374","latitude":39.837883,"column_11":40817,"county":"Wayne","column_12":15,"f&r rate":0.94,"column_13":204,"column_14":12,"column_1":89,"longitude":-84.886084,"id":"aokiisn09eg5","address":"777 North 12th Street","total students":231,"geocode score":0.829,"column_3":9565,"state":"IN","geocode precision":"range"},"type":"Feature","geometry":{"type":"Point","coordinates":[-84.886084,39.837883]}},{"properties":{"column_4":"Richmond Community Schools","city":"Richmond","total f&r":178,"column_5":8943,"school name":"Garrison Elementary","zip":"47374","latitude":39.771218,"column_11":40817,"county":"Wayne","column_12":128,"f&r rate":0.58,"column_13":161,"column_14":17,"column_1":89,"longitude":-84.85218,"id":"aokiiselxssw","address":"4138 Niewoehner Road","total students":306,"geocode score":0.912,"column_3":8385,"state":"IN","geocode precision":"range"},"type":"Feature","geometry":{"type":"Point","coordinates":[-84.85218,39.771218]}},{"properties":{"column_4":"Richmond Community Schools","city":"Richmond","total f&r":167,"column_5":8947,"school name":"Highland Heights Elementary","zip":"47374","latitude":39.888145,"column_11":40817,"county":"Wayne","column_12":65,"f&r rate":0.72,"column_13":140,"column_14":27,"column_1":89,"longitude":-84.878395,"id":"aokiisgffpsh","address":"1751 East Chester Road","total students":232,"geocode score":0.883,"column_3":8385,"state":"IN","geocode precision":"range"},"type":"Feature","geometry":{"type":"Point","coordinates":[-84.878395,39.888145]}},{"properties":{"column_4":"Western Wayne Schools","city":"Cambridge City","total f&r":158,"column_5":8965,"school name":"Lincoln Middle School","zip":"47327","latitude":39.815245,"column_11":40817,"county":"Wayne","column_12":87,"f&r rate":0.64,"column_13":135,"column_14":23,"column_1":89,"longitude":-85.174411,"id":"aokiishq12ur","address":"205 Parkway Drive","total students":245,"geocode score":0.876,"column_3":8355,"state":"IN","geocode precision":"range"},"type":"Feature","geometry":{"type":"Point","coordinates":[-85.174411,39.815245]}},{"properties":{"column_4":"Western Wayne Schools","city":"Cambridge City","total f&r":185,"column_5":8961,"school name":"Lincoln Senior High School","zip":"47327","latitude":39.815266,"column_11":40817,"county":"Wayne","column_12":180,"f&r rate":0.51,"column_13":137,"column_14":48,"column_1":89,"longitude":-85.167482,"id":"aokiisbnpdin","address":"215 E. Parkway Dr.","total students":365,"geocode score":0.493,"column_3":8355,"state":"IN","geocode precision":"street"},"type":"Feature","geometry":{"type":"Point","coordinates":[-85.167482,39.815266]}},{"properties":{"column_4":"Richmond Community Schools","city":"Richmond","total f&r":235,"column_5":9003,"school name":"Richardson Elementary School","zip":"47374","latitude":39.815538,"column_11":40817,"county":"Wayne","column_12":9,"f&r rate":0.96,"column_13":221,"column_14":14,"column_1":89,"longitude":-84.886137,"id":"aokiisf6m8aj","address":"1215 South J Street","total students":244,"geocode score":0.912,"column_3":8385,"state":"IN","geocode precision":"range"},"type":"Feature","geometry":{"type":"Point","coordinates":[-84.886137,39.815538]}},{"properties":{"column_4":"Richmond Community Schools","city":"Richmond","total f&r":993,"column_5":8993,"school name":"Richmond Senior High School","zip":"47374","latitude":39.94477,"column_11":40817,"county":"Wayne","column_12":653,"f&r rate":0.6,"column_13":836,"column_14":157,"column_1":89,"longitude":-84.831071,"id":"aokiisdv5hw7","address":"380 Hub Etchison Parkway","total students":1646,"geocode score":0.595,"column_3":8385,"state":"IN","geocode precision":"zip"},"type":"Feature","geometry":{"type":"Point","coordinates":[-84.831071,39.94477]}},{"properties":{"column_4":"Richmond Community Schools","city":"Richmond","total f&r":303,"column_5":9037,"school name":"Starr Academy","zip":"47374","latitude":39.832702,"column_11":40817,"county":"Wayne","column_12":39,"f&r rate":0.89,"column_13":282,"column_14":21,"column_1":89,"longitude":-84.876448,"id":"aokiisdhltkf","address":"301 North 19th St.","total students":342,"geocode score":0.829,"column_3":8385,"state":"IN","geocode precision":"range"},"type":"Feature","geometry":{"type":"Point","coordinates":[-84.876448,39.832702]}},{"properties":{"column_4":"Richmond Community Schools","city":"Richmond","total f&r":294,"column_5":8997,"school name":"Test Middle School","zip":"47374","latitude":39.829423,"column_11":40817,"county":"Wayne","column_12":181,"f&r rate":0.62,"column_13":248,"column_14":46,"column_1":89,"longitude":-84.872728,"id":"aokiisf8wlt7","address":"33 South 22nd St.","total students":475,"geocode score":0.829,"column_3":8385,"state":"IN","geocode precision":"range"},"type":"Feature","geometry":{"type":"Point","coordinates":[-84.872728,39.829423]}},{"properties":{"column_4":"Richmond Community Schools","city":"Richmond","total f&r":230,"column_5":9045,"school name":"Vaile Elementary School","zip":"47374","latitude":39.824518,"column_11":40817,"county":"Wayne","column_12":17,"f&r rate":0.93,"column_13":222,"column_14":8,"column_1":89,"longitude":-84.883275,"id":"aokiis7le66o","address":"300 South 14th St.","total students":247,"geocode score":0.829,"column_3":8385,"state":"IN","geocode precision":"range"},"type":"Feature","geometry":{"type":"Point","coordinates":[-84.883275,39.824518]}},{"properties":{"column_4":"Western Wayne Schools","city":"Cambridge City","total f&r":266,"column_5":8971,"school name":"Western Wayne Elementary School","zip":"47327","latitude":39.816935,"column_11":40817,"county":"Wayne","column_12":229,"f&r rate":0.54,"column_13":227,"column_14":39,"column_1":89,"longitude":-85.160156,"id":"aokiishvhnh0","address":"801 East Delaware St.","total students":495,"geocode score":0.917,"column_3":8355,"state":"IN","geocode precision":"range"},"type":"Feature","geometry":{"type":"Point","coordinates":[-85.160156,39.816935]}},{"properties":{"column_4":"Richmond Community Schools","city":"Richmond","total f&r":210,"column_5":9053,"school name":"Westview Elementary","zip":"47374","latitude":39.828276,"column_11":40817,"county":"Wayne","column_12":122,"f&r rate":0.63,"column_13":180,"column_14":30,"column_1":89,"longitude":-84.925729,"id":"aokiiskblf71","address":"1707 Southwest A St.","total students":332,"geocode score":0.912,"column_3":8385,"state":"IN","geocode precision":"range"},"type":"Feature","geometry":{"type":"Point","coordinates":[-84.925729,39.828276]}}],"is_temporal":false,"author":{"url":"","metadata":null,"contact_name":null,"contact_address":null,"source":null,"contact_phone":null},"source":"","pagination":{"sort":null,"start":0,"total":92,"limit":1000000},"state":"complete","tags":"","published":"2014-08-17T23:51:35-04:00","id":481089}