{"type":"FeatureCollection","data_type":"Dataset","url_type":null,"permissions":[{"permissions":{"download":true,"view":true},"group_id":"everyone"}],"classification":null,"title":"backsacks_sites_may_2013_new_scott_county","count":226,"stream_id":481088,"contributor":{"url":"http://geocommons.com/users/101978","name":"szellner"},"data_attributes":null,"calculation_params":null,"icon_link":null,"link":"http://geocommons.com/overlays/481088.json","extent":[-86.8174,38.6499,-84.8169,40.1531],"geometry_types":["point"],"unique_name":null,"name":"backsacks_sites_may_2013_new_scott_county","feature_count":226,"description":"","next_feature":null,"is_raster":false,"short_classification":"Y","stats":{"latitude":{"max":40.153143,"variance":0.106481953070118,"mean":39.6249323362832,"stdev":0.326315726053951,"min":38.649939,"median":39.742581},"longitude":{"max":-84.816886,"variance":0.178266979461041,"mean":-85.9635890575222,"stdev":0.422216744647866,"min":-86.817444,"median":-86.085669},"geocode score":{"max":1.0,"variance":0.0206554946902655,"mean":0.897712389380531,"stdev":0.143720195832964,"min":0.329,"median":0.947}},"features":[{"properties":{"city":"Columbus","latitude":39.223789,"township":"Bartholomew Consolidated School Corporation","zip code":"47201","agency id #":"01332BS","longitude":-85.914334,"id":"aokihfzuwd6v","school":"L. C. Schmitt Elementary","address":"2675 California Street","geocode score":1.0,"state":"IN","geocode precision":"range"},"type":"Feature","geometry":{"type":"Point","coordinates":[-85.914334,39.223789]}},{"properties":{"city":"Columbus","latitude":39.208652,"township":"Bartholomew Consolidated School Corporation","zip code":"47203","agency id #":"01332BS","longitude":-85.86738,"id":"aokihg795fbl","school":"Clifty Creek Elementary","address":"4625 East 50 North","geocode score":1.0,"state":"IN","geocode precision":"range"},"type":"Feature","geometry":{"type":"Point","coordinates":[-85.86738,39.208652]}},{"properties":{"city":"Taylorsville","latitude":39.29849,"township":"Bartholomew Consolidated School Corporation","zip code":"47280","agency id #":null,"longitude":-85.949003,"id":"aokihg6dvh6y","school":"Taylorsville Elementary","address":"9711 Walnut Street","geocode score":0.878,"state":"IN","geocode precision":"range"},"type":"Feature","geometry":{"type":"Point","coordinates":[-85.949003,39.29849]}},{"properties":{"city":"Columbus","latitude":39.240887,"township":"Bartholomew Consolidated School Corporation","zip code":"47203","agency id #":"01332BS","longitude":-85.911893,"id":"aokihg81x8mv","school":"Parkside Elementary School","address":"1400 Parkside Drive","geocode score":1.0,"state":"IN","geocode precision":"range"},"type":"Feature","geometry":{"type":"Point","coordinates":[-85.911893,39.240887]}},{"properties":{"city":"Columbus","latitude":39.195747,"township":"Bartholomew Consolidated School Corporation","zip code":"47201","agency id #":"01332BS","longitude":-85.892405,"id":"aokihg3k5d73","school":"CSA-Fodrea","address":"2775 Illinois Street","geocode score":1.0,"state":"IN","geocode precision":"range"},"type":"Feature","geometry":{"type":"Point","coordinates":[-85.892405,39.195747]}},{"properties":{"city":"Columbus","latitude":39.203733,"township":"Bartholomew Consolidated School Corporation","zip code":"47201","agency id #":"01332BS","longitude":-85.91569,"id":"aokihg5bd7sc","school":"CSA-Lincoln","address":"750 5th Street","geocode score":0.902,"state":"IN","geocode precision":"range"},"type":"Feature","geometry":{"type":"Point","coordinates":[-85.91569,39.203733]}},{"properties":{"city":"Columbus","latitude":39.220797,"township":"Bartholomew Consolidated School Corporation","zip code":"47203","agency id #":"01445BS","longitude":-85.869875,"id":"aokihgdgksr6","school":"L. F. Smith Elementary","address":"4505 Waycross Drive","geocode score":1.0,"state":"IN","geocode precision":"range"},"type":"Feature","geometry":{"type":"Point","coordinates":[-85.869875,39.220797]}},{"properties":{"city":"Columbus","latitude":39.232509,"township":"Bartholomew Consolidated School Corporation","zip code":"47203","agency id #":null,"longitude":-85.871525,"id":"aokihg3jukn7","school":"W. D. Richards Elementary","address":"3311 Fairlawn Drive","geocode score":1.0,"state":"IN","geocode precision":"range"},"type":"Feature","geometry":{"type":"Point","coordinates":[-85.871525,39.232509]}},{"properties":{"city":"Columbus","latitude":39.090789,"township":"Bartholomew Consolidated School Corporation","zip code":"47201","agency id #":"01445BS","longitude":-86.033936,"id":"aokihg3yg8ic","school":"Mt. Healthy Elementary","address":"12150 S SR 58","geocode score":0.865,"state":"IN","geocode precision":"range"},"type":"Feature","geometry":{"type":"Point","coordinates":[-86.033936,39.090789]}},{"properties":{"city":"Columbus","latitude":39.171427,"township":"Bartholomew Consolidated School Corporation","zip code":"47201","agency id #":"01580BS","longitude":-85.938207,"id":"aokihg2js50x","school":"Southside Elementary","address":"1320 West 200 South","geocode score":1.0,"state":"IN","geocode precision":"range"},"type":"Feature","geometry":{"type":"Point","coordinates":[-85.938207,39.171427]}},{"properties":{"city":"Columbus","latitude":39.203608,"township":"Bartholomew Consolidated School Corporation (Private)","zip code":"47201","agency id #":"01515BS","longitude":-85.91491,"id":"aokihgboxlxj","school":"St. Peter's Lutheran","address":"719 5th Street","geocode score":0.902,"state":"IN","geocode precision":"range"},"type":"Feature","geometry":{"type":"Point","coordinates":[-85.91491,39.203608]}},{"properties":{"city":"Hope","latitude":39.298597,"township":"Flat Rock","zip code":"47246","agency id #":"01445BS","longitude":-85.771422,"id":"aokihgel0qgg","school":"Hope Elementary","address":"9575 N State Road 9","geocode score":0.806,"state":"IN","geocode precision":"street"},"type":"Feature","geometry":{"type":"Point","coordinates":[-85.771422,39.298597]}},{"properties":{"city":"Lebanon","latitude":40.034438,"township":"Lebanon Community Schools","zip code":"46052","agency id #":"01338BS","longitude":-86.454232,"id":"aokihg3x75t4","school":"Hattie B. Stokes Elementary","address":"1005 Hendricks Drive","geocode score":0.878,"state":"IN","geocode precision":"range"},"type":"Feature","geometry":{"type":"Point","coordinates":[-86.454232,40.034438]}},{"properties":{"city":"Lebanon","latitude":40.050144,"township":"Lebanon Community Schools","zip code":"46052","agency id #":"01418BS","longitude":-86.463701,"id":"aokihg1xhjxn","school":"Central Elementary","address":"515 East Williams Street","geocode score":1.0,"state":"IN","geocode precision":"range"},"type":"Feature","geometry":{"type":"Point","coordinates":[-86.463701,40.050144]}},{"properties":{"city":"Lebanon","latitude":40.05956,"township":"Lebanon Community Schools","zip code":"46052","agency id #":"01419BS","longitude":-86.47757,"id":"aokihg2t72gf","school":"Harney Elementary","address":"1500 N Garfield Street","geocode score":0.955,"state":"IN","geocode precision":"range"},"type":"Feature","geometry":{"type":"Point","coordinates":[-86.47757,40.05956]}},{"properties":{"city":"Lebanon","latitude":39.996729,"township":"Lebanon Community Schools","zip code":"46052","agency id #":"01417BS","longitude":-86.398958,"id":"aokihg8lf07m","school":"Perry Worth Elementary","address":"3900 E 300 S","geocode score":1.0,"state":"IN","geocode precision":"range"},"type":"Feature","geometry":{"type":"Point","coordinates":[-86.398958,39.996729]}},{"properties":{"city":"Thorntown","latitude":40.12472,"township":"Western Boone","zip code":"46071","agency id #":"01406BS","longitude":-86.60794,"id":"aokihg3mgmod","school":"Thorntown Elementary","address":"200 Mill Street","geocode score":0.925,"state":"IN","geocode precision":"range"},"type":"Feature","geometry":{"type":"Point","coordinates":[-86.60794,40.12472]}},{"properties":{"city":"Jamestown","latitude":39.966031,"township":"Western Boone","zip code":"46147","agency id #":"01415BS","longitude":-86.619816,"id":"aokihgaiwhjj","school":"Granville Wells","address":"5046 S St Road 75","geocode score":0.932,"state":"IN","geocode precision":"range"},"type":"Feature","geometry":{"type":"Point","coordinates":[-86.619816,39.966031]}},{"properties":{"city":"Greensburg","latitude":39.20063,"township":"Decatur Community Schools","zip code":"47240","agency id #":"01560BS","longitude":-85.559875,"id":"aokihgejvp89","school":"South Decatur Elementary","address":"9302 S CR 420 W","geocode score":0.932,"state":"IN","geocode precision":"range"},"type":"Feature","geometry":{"type":"Point","coordinates":[-85.559875,39.20063]}},{"properties":{"city":"Greensburg","latitude":39.390904,"township":"Decatur Community Schools","zip code":"47240","agency id #":"01561BS","longitude":-85.479548,"id":"aokihg60sx01","school":"North Decatur Elementary","address":"3300 N State Road 3","geocode score":1.0,"state":"IN","geocode precision":"range"},"type":"Feature","geometry":{"type":"Point","coordinates":[-85.479548,39.390904]}},{"properties":{"city":"Greensburg","latitude":39.324104,"township":"Greensburg","zip code":"47240","agency id #":"01562BS","longitude":-85.47554,"id":"aokihg7qb189","school":"Greensburg Elementary","address":"900 Big Blue Avenue","geocode score":0.78,"state":"IN","geocode precision":"range"},"type":"Feature","geometry":{"type":"Point","coordinates":[-85.47554,39.324104]}},{"properties":{"city":"Connersville","latitude":39.653817,"township":"Fayette County Schools","zip code":"47331","agency id #":"01405BS","longitude":-85.127974,"id":"aokihgc8gtd6","school":"Maplewood Elementary","address":"1800 Eastern Avenue","geocode score":0.955,"state":"IN","geocode precision":"range"},"type":"Feature","geometry":{"type":"Point","coordinates":[-85.127974,39.653817]}},{"properties":{"city":"Connersville","latitude":39.636786,"township":"Fayette County Schools","zip code":"47331","agency id #":"01401BS","longitude":-85.124869,"id":"aokihg0d1y6t","school":"Eastview Elementary","address":"401 S Fountain Street","geocode score":1.0,"state":"IN","geocode precision":"range"},"type":"Feature","geometry":{"type":"Point","coordinates":[-85.124869,39.636786]}},{"properties":{"city":"Connersville","latitude":39.667434,"township":"Fayette County Schools","zip code":"47331","agency id #":"01304BS","longitude":-85.137237,"id":"aokihgb4lhcp","school":"Grandview Elementary","address":"2620 Iowa Avenue","geocode score":1.0,"state":"IN","geocode precision":"range"},"type":"Feature","geometry":{"type":"Point","coordinates":[-85.137237,39.667434]}},{"properties":{"city":"Connersville","latitude":39.682349,"township":"Fayette County Schools","zip code":"47331","agency id #":"01403BS","longitude":-85.17964,"id":"aokihgdlywcn","school":"Fayette Central Elementary","address":"2928 North County Road 225 West","geocode score":1.0,"state":"IN","geocode precision":"range"},"type":"Feature","geometry":{"type":"Point","coordinates":[-85.17964,39.682349]}},{"properties":{"city":"Connersville","latitude":39.640041,"township":"Fayette County Schools","zip code":"47331","agency id #":"01407BS","longitude":-85.14962,"id":"aokihgbghr3q","school":"Frazee Elementary","address":"600 West 3rd Street","geocode score":0.927,"state":"IN","geocode precision":"range"},"type":"Feature","geometry":{"type":"Point","coordinates":[-85.14962,39.640041]}},{"properties":{"city":"Connersville","latitude":39.5627,"township":"Fayette County Schools","zip code":"47331","agency id #":"01402BS","longitude":-85.095228,"id":"aokihg3gmru8","school":"Everton Elementary","address":"2440 Everton Road","geocode score":0.951,"state":"IN","geocode precision":"range"},"type":"Feature","geometry":{"type":"Point","coordinates":[-85.095228,39.5627]}},{"properties":{"city":"Laurel","latitude":39.482948,"township":"Franklin County Community School Corporation","zip code":"47024","agency id #":"01505BS","longitude":-85.196783,"id":"aokihg56nf5n","school":"Laurel Elementary","address":"13246 St Road 121","geocode score":0.927,"state":"IN","geocode precision":"range"},"type":"Feature","geometry":{"type":"Point","coordinates":[-85.196783,39.482948]}},{"properties":{"city":"Brookville","latitude":39.321719,"township":"Franklin County Community School Corporation","zip code":"47012","agency id #":"01504BS","longitude":-85.031626,"id":"aokihg80xhpo","school":"Brookville Elementary School","address":"10160 Oxford Pike","geocode score":0.585,"state":"IN","geocode precision":"zip"},"type":"Feature","geometry":{"type":"Point","coordinates":[-85.031626,39.321719]}},{"properties":{"city":"Cedar Grove","latitude":39.406627,"township":"Franklin County Community School Corporation","zip code":"47012","agency id #":"01506BS","longitude":-84.873677,"id":"aokihg74r62o","school":"Mt. Carmel School","address":"6178 Johnson Fork Road","geocode score":0.73,"state":"IN","geocode precision":"street"},"type":"Feature","geometry":{"type":"Point","coordinates":[-84.873677,39.406627]}},{"properties":{"city":"Brookville","latitude":39.321719,"township":"Franklin School Corporation","zip code":"47012","agency id #":"01503BS","longitude":-85.031626,"id":"aokihfy5blqj","school":"Brookville Middle School","address":"9092 Wildcat Lane","geocode score":0.585,"state":"IN","geocode precision":"zip"},"type":"Feature","geometry":{"type":"Point","coordinates":[-85.031626,39.321719]}},{"properties":{"city":"Indianapolis","latitude":39.93861,"township":"Carmel Clay","zip code":"46280","agency id #":"01470BS","longitude":-86.129922,"id":"aokihgbf7xxc","school":"Orchard Park","address":"10404 Orchard Park Drive","geocode score":0.966,"state":"IN","geocode precision":"range"},"type":"Feature","geometry":{"type":"Point","coordinates":[-86.129922,39.93861]}},{"properties":{"city":"Carmel","latitude":39.944017,"township":"Carmel Clay","zip code":"46033","agency id #":null,"longitude":-86.111385,"id":"aokihg8movps","school":"Forest Dale Elementary","address":"10721 Lakeshore Drive West","geocode score":0.986,"state":"IN","geocode precision":"range"},"type":"Feature","geometry":{"type":"Point","coordinates":[-86.111385,39.944017]}},{"properties":{"city":"Carmel","latitude":39.979295,"township":"Carmel Clay","zip code":"46032","agency id #":"01565BS","longitude":-86.122547,"id":"aokihg5e25sd","school":"Carmel Elementary School","address":"101 4th Avenue","geocode score":0.84,"state":"IN","geocode precision":"range"},"type":"Feature","geometry":{"type":"Point","coordinates":[-86.122547,39.979295]}},{"properties":{"city":"Fishers","latitude":39.97868,"township":"Hamilton South Eastern","zip code":"46038","agency id #":null,"longitude":-86.01752,"id":"aokihg2n63p9","school":"New Britton Elementary","address":"8660 East 131st Street","geocode score":1.0,"state":"IN","geocode precision":"range"},"type":"Feature","geometry":{"type":"Point","coordinates":[-86.01752,39.97868]}},{"properties":{"city":"Fishers","latitude":39.964603,"township":"Hamilton South Eastern","zip code":"46037","agency id #":"01521BS","longitude":-85.969985,"id":"aokihgcss06r","school":"Hoosier Road Elementary","address":"11300 East 121st Street","geocode score":0.808,"state":"IN","geocode precision":"street"},"type":"Feature","geometry":{"type":"Point","coordinates":[-85.969985,39.964603]}},{"properties":{"city":"Sheridan","latitude":40.153143,"township":"Sheridan Community Schools","zip code":"46069","agency id #":"01390BS","longitude":-86.218384,"id":"aokihg7n91qe","school":"Sheridan Elementary Middle Schools","address":"24795 Hinesley Road","geocode score":1.0,"state":"IN","geocode precision":"range"},"type":"Feature","geometry":{"type":"Point","coordinates":[-86.218384,40.153143]}},{"properties":{"city":"Westfield","latitude":40.017998,"township":"Westfield Washington","zip code":"46069","agency id #":"01477BS","longitude":-86.108757,"id":"aokihg7c34p9","school":"Carey Ridge Elementary","address":"16231 Carey Road","geocode score":0.805,"state":"IN","geocode precision":"range"},"type":"Feature","geometry":{"type":"Point","coordinates":[-86.108757,40.017998]}},{"properties":{"city":"Westfield","latitude":40.064941,"township":"Westfield Washington","zip code":"46074","agency id #":"01466BS","longitude":-86.109243,"id":"aokihg8vn792","school":"Washington Woods Elementary","address":"17950 Grassy Branch Road","geocode score":0.795,"state":"IN","geocode precision":"street"},"type":"Feature","geometry":{"type":"Point","coordinates":[-86.109243,40.064941]}},{"properties":{"city":"Westfield","latitude":40.069397,"township":"Westfield Washington","zip code":"46074","agency id #":"01478BS","longitude":-86.137114,"id":"aokihgcst61q","school":"Monon Trail Elementary","address":"19400 Tomlinson Road","geocode score":0.868,"state":"IN","geocode precision":"range"},"type":"Feature","geometry":{"type":"Point","coordinates":[-86.137114,40.069397]}},{"properties":{"city":"Charlottesville","latitude":39.822872,"township":"Eastern Hancock","zip code":"46117","agency id #":"00323BS","longitude":-85.607872,"id":"aokihfzt4ino","school":"Eastern Hancock Elementary","address":"10450 E 250 N","geocode score":1.0,"state":"IN","geocode precision":"range"},"type":"Feature","geometry":{"type":"Point","coordinates":[-85.607872,39.822872]}},{"properties":{"city":"Greenfield","latitude":39.792248,"township":"Greenfield Central","zip code":"46140","agency id #":"00323BS","longitude":-85.771903,"id":"aokihg5ek81p","school":"Greenfield Intermediate School","address":"204 W Park","geocode score":0.874,"state":"IN","geocode precision":"range"},"type":"Feature","geometry":{"type":"Point","coordinates":[-85.771903,39.792248]}},{"properties":{"city":"Greenfield","latitude":39.903763,"township":"Greenfield Central","zip code":"46140","agency id #":"00323BS","longitude":-85.770649,"id":"aokihg383qp4","school":"Eden Elementary","address":"8185 N State Road 9","geocode score":0.991,"state":"IN","geocode precision":"range"},"type":"Feature","geometry":{"type":"Point","coordinates":[-85.770649,39.903763]}},{"properties":{"city":"Greenfield","latitude":39.805864,"township":"Greenfield-Central","zip code":"46140","agency id #":"00323BS","longitude":-85.746283,"id":"aokihgcl914d","school":"JB Stephens Elementary","address":"1331 N Blue Road","geocode score":0.991,"state":"IN","geocode precision":"range"},"type":"Feature","geometry":{"type":"Point","coordinates":[-85.746283,39.805864]}},{"properties":{"city":"Greenfield","latitude":39.792127,"township":"Greenfield-Central","zip code":"46140","agency id #":"00323BS","longitude":-85.774102,"id":"aokihfy3mf2y","school":"Harris Elementary","address":"200 W. Park Avenue","geocode score":0.601,"state":"IN","geocode precision":"street"},"type":"Feature","geometry":{"type":"Point","coordinates":[-85.774102,39.792127]}},{"properties":{"city":"Greenfield","latitude":39.787328,"township":"Greenfield-Central","zip code":"46140","agency id #":null,"longitude":-85.786631,"id":"aokihfzglvxf","school":"Weston Elementary","address":"140 Polk","geocode score":0.866,"state":"IN","geocode precision":"range"},"type":"Feature","geometry":{"type":"Point","coordinates":[-85.786631,39.787328]}},{"properties":{"city":"Maxwell","latitude":39.857838,"township":"Greenfield-Central","zip code":"46140","agency id #":"00323BS","longitude":-85.770066,"id":"aokihfzb6m7g","school":"Maxwell Intermediate","address":"102 N Main Street","geocode score":0.924,"state":"IN","geocode precision":"range"},"type":"Feature","geometry":{"type":"Point","coordinates":[-85.770066,39.857838]}},{"properties":{"city":"Fortville","latitude":39.906121,"township":"Mount Vernon","zip code":"46040","agency id #":"00323BS","longitude":-85.843335,"id":"aokihfyxgr1x","school":"Fortville Elementary School","address":"8414 North 200 West","geocode score":0.99,"state":"In","geocode precision":"range"},"type":"Feature","geometry":{"type":"Point","coordinates":[-85.843335,39.906121]}},{"properties":{"city":"Avon","latitude":39.772306,"township":"Avon Community Schools","zip code":"46112","agency id #":"01460BS","longitude":-86.428894,"id":"aokihg0txwjv","school":"River Birch Elementary","address":"5456 E CR 75 N","geocode score":0.61,"state":"IN","geocode precision":"range"},"type":"Feature","geometry":{"type":"Point","coordinates":[-86.428894,39.772306]}},{"properties":{"city":"Avon","latitude":39.718511,"township":"Avon Community Schools","zip code":"46123","agency id #":null,"longitude":-86.39904,"id":"aokihg5mmxc7","school":"Cedar Elementary","address":"685 South State Road 267","geocode score":0.939,"state":"IN","geocode precision":"range"},"type":"Feature","geometry":{"type":"Point","coordinates":[-86.39904,39.718511]}},{"properties":{"city":"Brownsburg","latitude":39.82111,"township":"Brownsburg School Corporation","zip code":"46112","agency id #":"01573BS","longitude":-86.382163,"id":"aokihg18ahkl","school":"Cardinal Elementary","address":"3590 Hornaday Road","geocode score":1.0,"state":"IN","geocode precision":"range"},"type":"Feature","geometry":{"type":"Point","coordinates":[-86.382163,39.82111]}},{"properties":{"city":"Brownsburg","latitude":39.838262,"township":"Brownsburg School Corporation","zip code":"46112","agency id #":"01554BS","longitude":-86.389082,"id":"aokihg9y1kb3","school":"Brown Elementary","address":"340 Stadium Drive","geocode score":1.0,"state":"IN","geocode precision":"range"},"type":"Feature","geometry":{"type":"Point","coordinates":[-86.389082,39.838262]}},{"properties":{"city":"Brownsburg","latitude":39.820547,"township":"Brownsburg School Corporation","zip code":"46112","agency id #":"01572BS","longitude":-86.382153,"id":"aokihfzxyj13","school":"Delaware Trail Elementary","address":"3680 Hornaday Road","geocode score":1.0,"state":"IN","geocode precision":"range"},"type":"Feature","geometry":{"type":"Point","coordinates":[-86.382153,39.820547]}},{"properties":{"city":"Brownsburg","latitude":39.844232,"township":"Brownsburg School Corporation","zip code":"46112","agency id #":null,"longitude":-86.386845,"id":"aokihg66xeit","school":"White Lick Elementary","address":"1400 S. Odell Street","geocode score":0.625,"state":"IN","geocode precision":"street"},"type":"Feature","geometry":{"type":"Point","coordinates":[-86.386845,39.844232]}},{"properties":{"city":"Brownsburg","latitude":39.926986,"township":"Brownsburg School Corporation","zip code":"46112","agency id #":"01566BS","longitude":-86.338328,"id":"aokihg2zhyg6","school":"Reagan Elementary","address":"4845 Bulldog Way","geocode score":0.585,"state":"IN","geocode precision":"zip"},"type":"Feature","geometry":{"type":"Point","coordinates":[-86.338328,39.926986]}},{"properties":{"city":"Brownsburg","latitude":39.828585,"township":"Brownsburg School Corporation","zip code":"46112","agency id #":null,"longitude":-86.387098,"id":"aokihg1fjlfu","school":"Eagle Elementary","address":"555 Sycamore Street","geocode score":0.878,"state":"IN","geocode precision":"range"},"type":"Feature","geometry":{"type":"Point","coordinates":[-86.387098,39.828585]}},{"properties":{"city":"Plainfield","latitude":39.704214,"township":"Plainfield","zip code":"46168","agency id #":null,"longitude":-86.397905,"id":"aokihgeihi2b","school":"Central Elementary","address":"110 Wabash Street","geocode score":1.0,"state":"IN","geocode precision":"range"},"type":"Feature","geometry":{"type":"Point","coordinates":[-86.397905,39.704214]}},{"properties":{"city":"Plainfield","latitude":39.702899,"township":"Plainfield","zip code":"46168","agency id #":null,"longitude":-86.380874,"id":"aokihg05ge76","school":"Brentwood Elementary","address":"1630 Oliver Avenue","geocode score":0.951,"state":"IN","geocode precision":"range"},"type":"Feature","geometry":{"type":"Point","coordinates":[-86.380874,39.702899]}},{"properties":{"city":"Plainfield","latitude":39.702898,"township":"Plainfield","zip code":"46168","agency id #":null,"longitude":-86.377215,"id":"aokihg8dojg6","school":"Clarks Creek","address":"401 Elm Drive","geocode score":1.0,"state":"IN","geocode precision":"range"},"type":"Feature","geometry":{"type":"Point","coordinates":[-86.377215,39.702898]}},{"properties":{"city":"Plainfield","latitude":39.70352,"township":"Plainfield","zip code":"46168","agency id #":null,"longitude":-86.395958,"id":"aokihfzy7nhw","school":"Van Buren Elementary","address":"225 Shaw Street","geocode score":1.0,"state":"IN","geocode precision":"range"},"type":"Feature","geometry":{"type":"Point","coordinates":[-86.395958,39.70352]}},{"properties":{"city":"Brownstown","latitude":38.866164,"township":"Brownstown Central","zip code":"47220","agency id #":"01461BS","longitude":-86.038256,"id":"aokihgd19uio","school":"Brownstown Elementary School","address":"612 S Base Road","geocode score":0.991,"state":"IN","geocode precision":"range"},"type":"Feature","geometry":{"type":"Point","coordinates":[-86.038256,38.866164]}},{"properties":{"city":"Brownstown","latitude":38.880975,"township":"Brownstown Central","zip code":"47220","agency id #":"x","longitude":-86.047319,"id":"aokihgav4vdo","school":"Brownstown Middle School","address":"520 W Walnut Street","geocode score":0.991,"state":"IN","geocode precision":"range"},"type":"Feature","geometry":{"type":"Point","coordinates":[-86.047319,38.880975]}},{"properties":{"city":"Crothersville","latitude":38.797103,"township":"Crothersville","zip code":"47229","agency id #":"01416BS","longitude":-85.836912,"id":"aokihgdf4yhd","school":"Crothersville Elementary","address":"109 S Preston Street","geocode score":1.0,"state":"IN","geocode precision":"range"},"type":"Feature","geometry":{"type":"Point","coordinates":[-85.836912,38.797103]}},{"properties":{"city":"Medora","latitude":38.823995,"township":"Medora Community School Corporation","zip code":"47260","agency id #":"01416BS","longitude":-86.171584,"id":"aokihge61gtr","school":"Medora Elementary","address":"82 S George Street","geocode score":1.0,"state":"IN","geocode precision":"range"},"type":"Feature","geometry":{"type":"Point","coordinates":[-86.171584,38.823995]}},{"properties":{"city":"Seymour","latitude":38.955607,"township":"Seymour Community Schools","zip code":"47274","agency id #":"01339BS","longitude":-85.874399,"id":"aokihg47qnbw","school":"Margaret R. Brown Elementary","address":"550 Miller Lane","geocode score":1.0,"state":"IN","geocode precision":"range"},"type":"Feature","geometry":{"type":"Point","coordinates":[-85.874399,38.955607]}},{"properties":{"city":"Seymour","latitude":38.974986,"township":"Seymour Community Schools","zip code":"47274","agency id #":"01339BS","longitude":-85.890523,"id":"aokihg7pb5k7","school":"Redding Elementary","address":"1700 North Ewing Street","geocode score":0.988,"state":"IN","geocode precision":"range"},"type":"Feature","geometry":{"type":"Point","coordinates":[-85.890523,38.974986]}},{"properties":{"city":"Madison","latitude":38.76242,"township":"Madison Consolidated","zip code":"47250","agency id #":"00993BS","longitude":-85.405926,"id":"aokihfzdur65","school":"E. O. Muncie Elementary","address":"800 Lanier Drive","geocode score":1.0,"state":"IN","geocode precision":"range"},"type":"Feature","geometry":{"type":"Point","coordinates":[-85.405926,38.76242]}},{"properties":{"city":"Deputy","latitude":38.79584,"township":"Madison Consolidated","zip code":"47230","agency id #":"00993BS","longitude":-85.651876,"id":"aokihg0itq1e","school":"Deputy Elementary","address":"14350 West Mulberry Street","geocode score":0.955,"state":"IN","geocode precision":"range"},"type":"Feature","geometry":{"type":"Point","coordinates":[-85.651876,38.79584]}},{"properties":{"city":"Madison","latitude":38.772647,"township":"Madison Consolidated","zip code":"47250","agency id #":null,"longitude":-85.334312,"id":"aokihfychjm4","school":"Rykers Ridge Elementary","address":"2485 North Rykers' Ridge Road","geocode score":0.984,"state":"IN","geocode precision":"range"},"type":"Feature","geometry":{"type":"Point","coordinates":[-85.334312,38.772647]}},{"properties":{"city":"Madison","latitude":38.736307,"township":"Madison Consolidated","zip code":"47250","agency id #":"01073BS","longitude":-85.380541,"id":"aokihg8ah0d0","school":"Lydia Middleton Elementary","address":"714 W. Main Street","geocode score":0.619,"state":"IN","geocode precision":"street"},"type":"Feature","geometry":{"type":"Point","coordinates":[-85.380541,38.736307]}},{"properties":{"city":"Hanover","latitude":38.711592,"township":"Southwestern Jefferson County","zip code":"47243","agency id #":null,"longitude":-85.473869,"id":"aokihg7h9pv6","school":"Southwestern Elementary","address":"273 S Main Cross Street","geocode score":1.0,"state":"IN","geocode precision":"range"},"type":"Feature","geometry":{"type":"Point","coordinates":[-85.473869,38.711592]}},{"properties":{"city":"North Vernon","latitude":39.000628,"township":"Jennings County Schools","zip code":"47265","agency id #":"01073Bs","longitude":-85.642707,"id":"aokihfy3wdpg","school":"North Vernon Elementary","address":"810 W Walnut Street","geocode score":0.992,"state":"IN","geocode precision":"range"},"type":"Feature","geometry":{"type":"Point","coordinates":[-85.642707,39.000628]}},{"properties":{"city":"North Vernon","latitude":39.058574,"township":"Jennings County Schools","zip code":"47265","agency id #":null,"longitude":-85.638566,"id":"aokihg1737ms","school":"Sand Creek Elementary","address":"1450 W Co Road 500 North","geocode score":1.0,"state":"IN","geocode precision":"range"},"type":"Feature","geometry":{"type":"Point","coordinates":[-85.638566,39.058574]}},{"properties":{"city":"Hayden","latitude":38.982306,"township":"Jennings County Schools","zip code":"47245","agency id #":"01073BS","longitude":-85.738223,"id":"aokihgao48ob","school":"Hayden Elementary","address":"55 S CR 685 W","geocode score":0.737,"state":"IN","geocode precision":"range"},"type":"Feature","geometry":{"type":"Point","coordinates":[-85.738223,38.982306]}},{"properties":{"city":"North Vernon","latitude":39.051164,"township":"Jennings County Schools","zip code":"47265","agency id #":"01073BS","longitude":-85.677194,"id":"aokihg6cvxmv","school":"Brush Creek Elementary","address":"4275 E U.S. 50","geocode score":0.585,"state":"IN","geocode precision":"zip"},"type":"Feature","geometry":{"type":"Point","coordinates":[-85.677194,39.051164]}},{"properties":{"city":"Commiskey","latitude":38.871353,"township":"Jennings County Schools","zip code":"47227","agency id #":"01073BS","longitude":-85.627563,"id":"aokihg03800k","school":"Graham Creek Elementary","address":"7910 S Co Road 90 West","geocode score":1.0,"state":"IN","geocode precision":"range"},"type":"Feature","geometry":{"type":"Point","coordinates":[-85.627563,38.871353]}},{"properties":{"city":"Scipio","latitude":39.074167,"township":"Jennings County Schools","zip code":"47273","agency id #":null,"longitude":-85.710737,"id":"aokihg002k0e","school":"Scipio Elementary","address":"6320 North State Street Highway 7","geocode score":0.854,"state":"IN","geocode precision":"range"},"type":"Feature","geometry":{"type":"Point","coordinates":[-85.710737,39.074167]}},{"properties":{"city":"New Whiteland","latitude":39.536045,"township":"Clark Pleasant","zip code":"46184","agency id #":"01535BS","longitude":-86.101544,"id":"aokihgaifuq4","school":"Break-O-Day Elementary","address":"900 Sawmill Road","geocode score":0.951,"state":"IN","geocode precision":"range"},"type":"Feature","geometry":{"type":"Point","coordinates":[-86.101544,39.536045]}},{"properties":{"city":"New Whiteland","latitude":39.55667,"township":"Clark Pleasant","zip code":"46184","agency id #":"01534BS","longitude":-86.10168,"id":"aokihg4oc0wn","school":"Sawmill Woods Elementary","address":"700 Sawmill Road","geocode score":0.829,"state":"IN","geocode precision":"range"},"type":"Feature","geometry":{"type":"Point","coordinates":[-86.10168,39.55667]}},{"properties":{"city":"Franklin","latitude":39.489056,"township":"Franklin","zip code":"46131","agency id #":"01423BS","longitude":-86.063836,"id":"aokihfyo5cgj","school":"Northwood Elementary","address":"965  Grizzly Cub Drive","geocode score":1.0,"state":"IN","geocode precision":"range"},"type":"Feature","geometry":{"type":"Point","coordinates":[-86.063836,39.489056]}},{"properties":{"city":"Franklin","latitude":39.490309,"township":"Franklin","zip code":"46131","agency id #":"01477BS","longitude":-86.038973,"id":"aokihgdfi8ua","school":"Needham Elementary","address":"1399 Upper Shelbyville Road","geocode score":1.0,"state":"IN","geocode precision":"range"},"type":"Feature","geometry":{"type":"Point","coordinates":[-86.038973,39.490309]}},{"properties":{"city":"Franklin","latitude":39.470815,"township":"Franklin  Community School Corporation","zip code":"46131","agency id #":"01446BS","longitude":-86.103124,"id":"aokihgdnbzzh","school":"Custer Baker Intermediate Academy","address":"101 W SR 44","geocode score":0.865,"state":"IN","geocode precision":"range"},"type":"Feature","geometry":{"type":"Point","coordinates":[-86.103124,39.470815]}},{"properties":{"city":"Franklin","latitude":39.486149,"township":"Franklin Community Schools","zip code":"46131","agency id #":"01469BS","longitude":-86.03419,"id":"aokihg5a02xq","school":"Webb Elementary","address":"1400 Webb Court","geocode score":1.0,"state":"IN","geocode precision":"range"},"type":"Feature","geometry":{"type":"Point","coordinates":[-86.03419,39.486149]}},{"properties":{"city":"Bargersville","latitude":39.47625,"township":"Franklin Community Schools","zip code":"46106","agency id #":null,"longitude":-86.1579,"id":"aokihfz65tni","school":"Union Elementary","address":"3990 W. Division Road","geocode score":0.604,"state":"IN","geocode precision":"street"},"type":"Feature","geometry":{"type":"Point","coordinates":[-86.1579,39.47625]}},{"properties":{"city":"Greenwood","latitude":39.628999,"township":"Greenwood","zip code":"46143","agency id #":"01428BS","longitude":-86.098998,"id":"aokihgdky8q8","school":"Northeast Elementary","address":"99 Crestview Drive","geocode score":1.0,"state":"IN","geocode precision":"range"},"type":"Feature","geometry":{"type":"Point","coordinates":[-86.098998,39.628999]}},{"properties":{"city":"Greenwood","latitude":39.6156,"township":"Greenwood","zip code":"46143","agency id #":null,"longitude":-86.10632,"id":"aokihg4douq6","school":"Isom Elementary","address":"50 E. Broadway","geocode score":0.604,"state":"IN","geocode precision":"street"},"type":"Feature","geometry":{"type":"Point","coordinates":[-86.10632,39.6156]}},{"properties":{"city":"Indianapolis","latitude":39.825448,"township":"ADI Charter","zip code":"46218","agency id #":"01564BS","longitude":-86.099518,"id":"aokihg5klcoi","school":"Andrew Academy","address":"4050 East 38th Street","geocode score":0.935,"state":"IN","geocode precision":"range"},"type":"Feature","geometry":{"type":"Point","coordinates":[-86.099518,39.825448]}},{"properties":{"city":"Indianapolis","latitude":39.769419,"township":"Archdiocese of Indianapolis","zip code":"46202","agency id #":"01528BS","longitude":-86.135245,"id":"aokihg8tbd8u","school":"Holy Cross Central","address":"125 N Oriental","geocode score":0.932,"state":"IN","geocode precision":"range"},"type":"Feature","geometry":{"type":"Point","coordinates":[-86.135245,39.769419]}},{"properties":{"city":"Indianapolis","latitude":39.707685,"township":"Beech Grove","zip code":"46107","agency id #":"01523BS","longitude":-86.091942,"id":"aokihg0crol4","school":"South Grove Intermediate School","address":"851 S 9th Avenue","geocode score":0.846,"state":"IN","geocode precision":"range"},"type":"Feature","geometry":{"type":"Point","coordinates":[-86.091942,39.707685]}},{"properties":{"city":"Indianapolis","latitude":39.711163,"township":"Beech Grove","zip code":"46107","agency id #":"01525BS","longitude":-86.077721,"id":"aokihgegsn90","school":"Hornet Park Elementary","address":"5249 Hornet Avenue","geocode score":0.911,"state":"IN","geocode precision":"range"},"type":"Feature","geometry":{"type":"Point","coordinates":[-86.077721,39.711163]}},{"properties":{"city":"Indianapolis","latitude":39.490359,"township":"Beech Grove","zip code":"46131","agency id #":"01552BS","longitude":-86.05971,"id":"aokihg5yyyzu","school":"Central Elementary","address":"1000 Main Street","geocode score":0.87,"state":"IN","geocode precision":"range"},"type":"Feature","geometry":{"type":"Point","coordinates":[-86.05971,39.490359]}},{"properties":{"city":"Indianapolis","latitude":39.652765,"township":"Decatur","zip code":"46183","agency id #":"01458BS","longitude":-86.282228,"id":"aokihg77q8jh","school":"West Newton Elementary","address":"7529 Mooresville Road","geocode score":0.911,"state":"IN","geocode precision":"range"},"type":"Feature","geometry":{"type":"Point","coordinates":[-86.282228,39.652765]}},{"properties":{"city":"Indianapolis","latitude":39.682103,"township":"Decatur","zip code":"46221","agency id #":"01398BS","longitude":-86.24595,"id":"aokihgejee15","school":"DELC Blue Academy","address":"5650 Mann Road","geocode score":0.878,"state":"IN","geocode precision":"range"},"type":"Feature","geometry":{"type":"Point","coordinates":[-86.24595,39.682103]}},{"properties":{"city":"Indianapolis","latitude":39.682103,"township":"Decatur","zip code":"46221","agency id #":"01395BS","longitude":-86.24595,"id":"aokihg73kj6f","school":"DELC Gold Academy","address":"5650 Mann Road","geocode score":0.878,"state":"IN","geocode precision":"range"},"type":"Feature","geometry":{"type":"Point","coordinates":[-86.24595,39.682103]}},{"properties":{"city":"Indianapolis","latitude":39.674403,"township":"Franklin Township","zip code":"46259","agency id #":null,"longitude":-86.001844,"id":"aokihg90ze5t","school":"Kitley Elementary","address":"8735 Indian Creek Road","geocode score":0.966,"state":"IN","geocode precision":"range"},"type":"Feature","geometry":{"type":"Point","coordinates":[-86.001844,39.674403]}},{"properties":{"city":"Indianapolis","latitude":39.695621,"township":"Franklin Township","zip code":"46239","agency id #":"01585BS","longitude":-86.032132,"id":"aokihg6v1o9k","school":"Thompson Crossing Elementary","address":"7525 E Thompson Road","geocode score":1.0,"state":"IN","geocode precision":"range"},"type":"Feature","geometry":{"type":"Point","coordinates":[-86.032132,39.695621]}},{"properties":{"city":"Indianapolis","latitude":39.683039,"township":"Franklin Township","zip code":"46237","agency id #":"01579BS","longitude":-86.063605,"id":"aokihg64gijk","school":"Arlington Elementary","address":"5814 South Arlington Avenue","geocode score":1.0,"state":"IN","geocode precision":"range"},"type":"Feature","geometry":{"type":"Point","coordinates":[-86.063605,39.683039]}},{"properties":{"city":"Indianapolis","latitude":39.890202,"township":"IMSA","zip code":"46240","agency id #":"01475BS","longitude":-86.121878,"id":"aokihgchr47t","school":"Indiana Math and Science Academy North","address":"7435 North Keystone Avenue","geocode score":1.0,"state":"IN","geocode precision":"range"},"type":"Feature","geometry":{"type":"Point","coordinates":[-86.121878,39.890202]}},{"properties":{"city":"Indianapolis","latitude":39.84709,"township":"IMSA","zip code":"46235","agency id #":"01426BS","longitude":-85.974081,"id":"aokihg1s9mj1","school":"Imagine Indiana Life Sciences Academy East","address":"4352 North Mitthoefer Road","geocode score":0.585,"state":"IN","geocode precision":"zip"},"type":"Feature","geometry":{"type":"Point","coordinates":[-85.974081,39.84709]}},{"properties":{"city":"Indianapolis","latitude":39.798772,"township":"IPS","zip code":"46218","agency id #":"01429BS","longitude":-86.085669,"id":"aokihg9xtlw0","school":"IPS # 58 Ralph Waldo Emerson Elementary","address":"2107 N Riley","geocode score":0.894,"state":"IN","geocode precision":"range"},"type":"Feature","geometry":{"type":"Point","coordinates":[-86.085669,39.798772]}},{"properties":{"city":"Indianapolis","latitude":39.734895,"township":"IPS","zip code":"46203","agency id #":"01392BS","longitude":-86.087356,"id":"aokihg73r8rb","school":"IPS # 114 Paul I Miller Elementary","address":"2251 Sloan Avenue","geocode score":1.0,"state":"IN","geocode precision":"range"},"type":"Feature","geometry":{"type":"Point","coordinates":[-86.087356,39.734895]}},{"properties":{"city":"Indianapolis","latitude":39.758759,"township":"IPS","zip code":"46203","agency id #":"01540BS","longitude":-86.128663,"id":"aokihg9mtg0o","school":"IPS # 39 William McKinley","address":"1733 Spann Avenue","geocode score":1.0,"state":"IN","geocode precision":"range"},"type":"Feature","geometry":{"type":"Point","coordinates":[-86.128663,39.758759]}},{"properties":{"city":"Indianapolis","latitude":39.807863,"township":"IPS","zip code":"46219","agency id #":"01439BS","longitude":-86.022877,"id":"aokihg2rbhio","school":"IPS# 94 George Buck Elementary","address":"2701 Devon Avenue","geocode score":0.947,"state":"IN","geocode precision":"range"},"type":"Feature","geometry":{"type":"Point","coordinates":[-86.022877,39.807863]}},{"properties":{"city":"Indianapolis","latitude":39.745672,"township":"IPS","zip code":"46203","agency id #":"01522BS","longitude":-86.143755,"id":"aokihgapy91u","school":"IPS # 31 James A. Garfield","address":"307 Lincoln Street","geocode score":0.806,"state":"IN","geocode precision":"street"},"type":"Feature","geometry":{"type":"Point","coordinates":[-86.143755,39.745672]}},{"properties":{"city":"Indianapolis","latitude":39.768155,"township":"IPS","zip code":"46202","agency id #":"01072BS","longitude":-86.136567,"id":"aokihg1z0u4s","school":"IPS # 14 Washington Irving Elementary School","address":"1250 E Market Street","geocode score":1.0,"state":"IN","geocode precision":"range"},"type":"Feature","geometry":{"type":"Point","coordinates":[-86.136567,39.768155]}},{"properties":{"city":"Indianapolis","latitude":39.79931,"township":"IPS","zip code":"46218","agency id #":"01197BS","longitude":-86.108353,"id":"aokihg1rq8df","school":"IPS # 51 James Russell Lowell","address":"3426 Roosevelt Avenue","geocode score":1.0,"state":"IN","geocode precision":"range"},"type":"Feature","geometry":{"type":"Point","coordinates":[-86.108353,39.79931]}},{"properties":{"city":"Indianapolis","latitude":39.810694,"township":"IPS","zip code":"46218","agency id #":"01542BS","longitude":-86.135618,"id":"aokihgawmnsb","school":"IPS # 99 Arlington Woods Elementary","address":"5801 E. 30th St","geocode score":0.619,"state":"IN","geocode precision":"street"},"type":"Feature","geometry":{"type":"Point","coordinates":[-86.135618,39.810694]}},{"properties":{"city":"Indianapolis","latitude":39.816665,"township":"IPS","zip code":"46224","agency id #":null,"longitude":-86.239964,"id":"aokihg8et9le","school":"IPS # 79 Carl Wilde","address":"5002 W. 34th Street","geocode score":0.619,"state":"IN","geocode precision":"street"},"type":"Feature","geometry":{"type":"Point","coordinates":[-86.239964,39.816665]}},{"properties":{"city":"Indianapolis","latitude":39.828393,"township":"IPS","zip code":"46208","agency id #":null,"longitude":-86.161182,"id":"aokihfyqq9n7","school":"IPS # 43 James Whitcomb Riley","address":"150 W 40th Street","geocode score":0.935,"state":"IN","geocode precision":"range"},"type":"Feature","geometry":{"type":"Point","coordinates":[-86.161182,39.828393]}},{"properties":{"city":"Indianapolis","latitude":39.781438,"township":"IPS","zip code":"46201","agency id #":"01201BS","longitude":-86.111337,"id":"aokihg6zwfzo","school":"IPS # 54 Brookside Elementary","address":"3150 East 10th Street","geocode score":0.935,"state":"IN","geocode precision":"range"},"type":"Feature","geometry":{"type":"Point","coordinates":[-86.111337,39.781438]}},{"properties":{"city":"Indianapolis","latitude":39.739123,"township":"IPS","zip code":"46203","agency id #":null,"longitude":-86.12829,"id":"aokihg5a13iq","school":"IPS# 19 Frederick Douglass","address":"2020 Dawson Street","geocode score":1.0,"state":"IN","geocode precision":"range"},"type":"Feature","geometry":{"type":"Point","coordinates":[-86.12829,39.739123]}},{"properties":{"city":"Indianapolis","latitude":39.802885,"township":"IPS","zip code":"46208","agency id #":"01513BS","longitude":-86.180034,"id":"aokihfzbhktl","school":"IPS #42 Elder Diggs","address":"1002 W 25th Street","geocode score":0.935,"state":"IN","geocode precision":"range"},"type":"Feature","geometry":{"type":"Point","coordinates":[-86.180034,39.802885]}},{"properties":{"city":"Indianapolis","latitude":39.760242,"township":"IPS","zip code":"46201","agency id #":"01557BS","longitude":-86.088903,"id":"aokihg1h9039","school":"IPS # 82 Christian Park Elementary","address":"4700 English Avenue","geocode score":1.0,"state":"IN","geocode precision":"range"},"type":"Feature","geometry":{"type":"Point","coordinates":[-86.088903,39.760242]}},{"properties":{"city":"Indianapolis","latitude":39.735184,"township":"IPS","zip code":"46203","agency id #":"01558BS","longitude":-86.13605,"id":"aokihgcj0l7m","school":"IPS # 34 Eleanor Skillen Elementary","address":"1410 Wade","geocode score":0.875,"state":"IN","geocode precision":"range"},"type":"Feature","geometry":{"type":"Point","coordinates":[-86.13605,39.735184]}},{"properties":{"city":"Indianapolis","latitude":39.830465,"township":"IPS","zip code":"46226","agency id #":null,"longitude":-86.015986,"id":"aokihge75jr4","school":"IPS # 105 Charles W. Fairbanks Elementary","address":"8620 Montery Road","geocode score":1.0,"state":"IN","geocode precision":"range"},"type":"Feature","geometry":{"type":"Point","coordinates":[-86.015986,39.830465]}},{"properties":{"city":"Indianapolis","latitude":39.775953,"township":"IPS","zip code":"46222","agency id #":"01531BS","longitude":-86.221739,"id":"aokihg0lv88u","school":"IPS # 67 Stephen Collins Foster","address":"653 north Somerset Avenue","geocode score":1.0,"state":"IN","geocode precision":"range"},"type":"Feature","geometry":{"type":"Point","coordinates":[-86.221739,39.775953]}},{"properties":{"city":"Indianapolis","latitude":39.746642,"township":"IPS","zip code":"46221","agency id #":"01123BS","longitude":-86.189632,"id":"aokihgecm20b","school":"IPS # 46 Daniel Webster Elementary","address":"1450 S Reisner Street","geocode score":1.0,"state":"IN","geocode precision":"range"},"type":"Feature","geometry":{"type":"Point","coordinates":[-86.189632,39.746642]}},{"properties":{"city":"Indianapolis","latitude":39.822282,"township":"IPS","zip code":"46224","agency id #":"01508BS","longitude":-86.262856,"id":"aokihg5afouo","school":"IPS # 96 Meradith Nicholson","address":"3651 N Kiel","geocode score":0.883,"state":"IN","geocode precision":"range"},"type":"Feature","geometry":{"type":"Point","coordinates":[-86.262856,39.822282]}},{"properties":{"city":"Indianapolis","latitude":39.800619,"township":"IPS","zip code":"46218","agency id #":null,"longitude":-86.118598,"id":"aokihg3hef00","school":"IPS # 69 Joyce Kilmer Academy","address":"3421 N. Keystone Avenue","geocode score":0.607,"state":"IN","geocode precision":"street"},"type":"Feature","geometry":{"type":"Point","coordinates":[-86.118598,39.800619]}},{"properties":{"city":"Indianapolis","latitude":39.788944,"township":"IPS","zip code":"46218","agency id #":"01527BS","longitude":-86.067876,"id":"aokihg0pnmhv","school":"IPS # 88 Anna Brochhausen Elementary","address":"5801 E 16th Street","geocode score":0.935,"state":"IN","geocode precision":"range"},"type":"Feature","geometry":{"type":"Point","coordinates":[-86.067876,39.788944]}},{"properties":{"city":"Indianapolis","latitude":39.833022,"township":"IPS","zip code":"46226","agency id #":"01509BS","longitude":-86.086203,"id":"aokihgazojeh","school":"IPS # 83 Floro Torrence Elementary","address":"5050 East 42nd Street","geocode score":0.935,"state":"IN","geocode precision":"range"},"type":"Feature","geometry":{"type":"Point","coordinates":[-86.086203,39.833022]}},{"properties":{"city":"Indianapolis","latitude":39.800397,"township":"IPS","zip code":"46205","agency id #":"01383BS","longitude":-86.136775,"id":"aokihge0e5if","school":"IPS # 56 Francis W. Parker","address":"2353 Columbia Avenue","geocode score":1.0,"state":"IN","geocode precision":"range"},"type":"Feature","geometry":{"type":"Point","coordinates":[-86.136775,39.800397]}},{"properties":{"city":"Indianapolis","latitude":39.857818,"township":"IPS","zip code":"46226","agency id #":"01502BS","longitude":-86.063874,"id":"aokihg7opx0j","school":"IPS # 106 Robert Lee Frost","address":"53010 Roxburry Road","geocode score":0.585,"state":"IN","geocode precision":"zip"},"type":"Feature","geometry":{"type":"Point","coordinates":[-86.063874,39.857818]}},{"properties":{"city":"Indianapolis","latitude":39.820153,"township":"IPS","zip code":"46226","agency id #":"01559BS","longitude":-86.040187,"id":"aokihg5581i4","school":"IPS # 93 George H. Fisher Elementary","address":"7151 E 35th Street","geocode score":0.935,"state":"IN","geocode precision":"range"},"type":"Feature","geometry":{"type":"Point","coordinates":[-86.040187,39.820153]}},{"properties":{"city":"Indianapolis","latitude":39.828545,"township":"IPS","zip code":"46235","agency id #":"01526BS","longitude":-86.000667,"id":"aokihg8yspv2","school":"IPS # 103 Francis Scott Key Elementary","address":"3920 N Baker Drive","geocode score":0.941,"state":"IN","geocode precision":"range"},"type":"Feature","geometry":{"type":"Point","coordinates":[-86.000667,39.828545]}},{"properties":{"city":"Indianapolis","latitude":39.705155,"township":"IPS","zip code":"46227","agency id #":"01510BS","longitude":-86.128154,"id":"aokihfyqv4gg","school":"IPS # 65 Raymond Brandes","address":"4065 S Asbury Street","geocode score":0.947,"state":"IN","geocode precision":"range"},"type":"Feature","geometry":{"type":"Point","coordinates":[-86.128154,39.705155]}},{"properties":{"city":"Indianapolis","latitude":39.819033,"township":"IPS","zip code":"46205","agency id #":"01511BS","longitude":-86.149634,"id":"aokihg8i9j42","school":"IPS # 48 Louis B. Russell Jr. Elementary","address":"3445 Central Avenue","geocode score":1.0,"state":"IN","geocode precision":"range"},"type":"Feature","geometry":{"type":"Point","coordinates":[-86.149634,39.819033]}},{"properties":{"city":"Indianapolis","latitude":39.78591,"township":"IPS","zip code":"46222","agency id #":"01532BS","longitude":-86.196746,"id":"aokihge3tydn","school":"IPS # 63 Wendell Phillips","address":"1163 N Belmont Avenue","geocode score":1.0,"state":"IN","geocode precision":"range"},"type":"Feature","geometry":{"type":"Point","coordinates":[-86.196746,39.78591]}},{"properties":{"city":"Indianapolis","latitude":39.786148,"township":"IPS","zip code":"46219","agency id #":null,"longitude":-86.073713,"id":"aokihg66eugq","school":"IPS Roots","address":"1525 North Ritter Avenue","geocode score":1.0,"state":"IN","geocode precision":"range"},"type":"Feature","geometry":{"type":"Point","coordinates":[-86.073713,39.786148]}},{"properties":{"city":"Indianapolis","latitude":39.832886,"township":"ISD","zip code":"46205","agency id #":"01386BS","longitude":-86.131767,"id":"aokihgb9ck6s","school":"Indiana School for the Deaf","address":"1200 East 42nd Street","geocode score":0.935,"state":"IN","geocode precision":"range"},"type":"Feature","geometry":{"type":"Point","coordinates":[-86.131767,39.832886]}},{"properties":{"city":"Indianapolis","latitude":39.905483,"township":"Lawrence","zip code":"46256","agency id #":"01474BS","longitude":-86.017113,"id":"aokihgbe104v","school":"Mary Castle Elementary","address":"8502 East 82nd Street","geocode score":0.935,"state":"IN","geocode precision":"range"},"type":"Feature","geometry":{"type":"Point","coordinates":[-86.017113,39.905483]}},{"properties":{"city":"Indianapolis","latitude":39.850913,"township":"Lawrence","zip code":"46226","agency id #":null,"longitude":-86.050273,"id":"aokihfzqbb58","school":"Brook Park Elementary","address":"5259 North David Street","geocode score":0.941,"state":"IN","geocode precision":"range"},"type":"Feature","geometry":{"type":"Point","coordinates":[-86.050273,39.850913]}},{"properties":{"city":"Indianapolis","latitude":39.880463,"township":"Lawrence","zip code":"46226","agency id #":"01453BS","longitude":-85.973199,"id":"aokihg17y1z5","school":"Sunnyside Elementary","address":"6345 Sunnyside Road","geocode score":0.805,"state":"IN","geocode precision":"range"},"type":"Feature","geometry":{"type":"Point","coordinates":[-85.973199,39.880463]}},{"properties":{"city":"Indianapolis","latitude":39.850024,"township":"Lawrence","zip code":"46226","agency id #":"01202BS","longitude":-86.035419,"id":"aokihga0iiu4","school":"Harrison Hill Elementary","address":"7510 East 53rd St","geocode score":0.935,"state":"IN","geocode precision":"range"},"type":"Feature","geometry":{"type":"Point","coordinates":[-86.035419,39.850024]}},{"properties":{"city":"Indianapolis","latitude":39.841293,"township":"Lawrence","zip code":"46235","agency id #":"01396BS","longitude":-85.957471,"id":"aokihgb21psc","school":"Winding Ridge Elementary","address":"11825 East 46th Street","geocode score":0.935,"state":"IN","geocode precision":"range"},"type":"Feature","geometry":{"type":"Point","coordinates":[-85.957471,39.841293]}},{"properties":{"city":"Indianapolis","latitude":39.883522,"township":"Lawrence","zip code":"46256","agency id #":"01434BS","longitude":-86.037948,"id":"aokihg04jt02","school":"Crestview Elementary","address":"7600 East 71st Street","geocode score":0.935,"state":"In","geocode precision":"range"},"type":"Feature","geometry":{"type":"Point","coordinates":[-86.037948,39.883522]}},{"properties":{"city":"Indianapolis","latitude":39.692457,"township":"Perry","zip code":"46217","agency id #":"01537BS","longitude":-86.166272,"id":"aokihg6iy8kt","school":"Abraham Lincoln Elementary","address":"5241 Brehob Road","geocode score":1.0,"state":"IN","geocode precision":"range"},"type":"Feature","geometry":{"type":"Point","coordinates":[-86.166272,39.692457]}},{"properties":{"city":"Indianapolis","latitude":39.642947,"township":"Perry","zip code":"46227","agency id #":"01397BS","longitude":-86.127786,"id":"aokihgcqtzyt","school":"Winchester Village Elementary","address":"1900 E Stop 12 Road","geocode score":1.0,"state":"IN","geocode precision":"range"},"type":"Feature","geometry":{"type":"Point","coordinates":[-86.127786,39.642947]}},{"properties":{"city":"Indianapolis","latitude":39.659823,"township":"Perry","zip code":"46227","agency id #":"01427BS","longitude":-86.116367,"id":"aokihg6xx4z5","school":"Southport Elementary","address":"261 E Anniston Drive","geocode score":0.955,"state":"IN","geocode precision":"range"},"type":"Feature","geometry":{"type":"Point","coordinates":[-86.116367,39.659823]}},{"properties":{"city":"Indianapolis","latitude":39.685258,"township":"Perry","zip code":"46227","agency id #":"01430BS","longitude":-86.111108,"id":"aokihge4js0h","school":"Clinton Young Elementary","address":"5740 McFarland Road","geocode score":0.977,"state":"IN","geocode precision":"range"},"type":"Feature","geometry":{"type":"Point","coordinates":[-86.111108,39.685258]}},{"properties":{"city":"Indianapolis","latitude":39.683156,"township":"Perry","zip code":"46227","agency id #":null,"longitude":-86.120469,"id":"aokihg1jpafo","school":"Southport 6th Grade Academy","address":"5715 South Keystone Avenue","geocode score":1.0,"state":"IN","geocode precision":"range"},"type":"Feature","geometry":{"type":"Point","coordinates":[-86.120469,39.683156]}},{"properties":{"city":"Indianapolis","latitude":39.650957,"township":"Perry","zip code":"46237","agency id #":null,"longitude":-86.090387,"id":"aokihg3ogt7r","school":"Mary Bryan Elementary","address":"4355 E Stop 11 Road","geocode score":0.878,"state":"IN","geocode precision":"range"},"type":"Feature","geometry":{"type":"Point","coordinates":[-86.090387,39.650957]}},{"properties":{"city":"Indianapolis","latitude":39.699678,"township":"Perry","zip code":"46227","agency id #":null,"longitude":-86.108093,"id":"aokihfzjz7u6","school":"Jeremiah Gray-Edison","address":"5225 Gray Road","geocode score":0.675,"state":"IN","geocode precision":"street"},"type":"Feature","geometry":{"type":"Point","coordinates":[-86.108093,39.699678]}},{"properties":{"city":"Indianapolis","latitude":39.668505,"township":"Perry","zip code":"46227","agency id #":null,"longitude":-86.131862,"id":"aokihg773bj2","school":"Homecroft Elementary","address":"1551 Southview Drive","geocode score":1.0,"state":"IN","geocode precision":"range"},"type":"Feature","geometry":{"type":"Point","coordinates":[-86.131862,39.668505]}},{"properties":{"city":"Indianapolis","latitude":39.894551,"township":"Pike","zip code":"46268","agency id #":null,"longitude":-86.236391,"id":"aokihgcvbw02","school":"Eastbrook Elementary","address":"7625 New Augusta Road","geocode score":1.0,"state":"IN","geocode precision":"range"},"type":"Feature","geometry":{"type":"Point","coordinates":[-86.236391,39.894551]}},{"properties":{"city":"Indianapolis","latitude":39.845875,"township":"Pike","zip code":"46254","agency id #":null,"longitude":-86.25638,"id":"aokihg2920r4","school":"Deer Run Elementary","address":"5401 North Highschool Road","geocode score":0.585,"state":"IN","geocode precision":"zip"},"type":"Feature","geometry":{"type":"Point","coordinates":[-86.25638,39.845875]}},{"properties":{"city":"Indianapolis","latitude":39.853064,"township":"Pike","zip code":"46254","agency id #":null,"longitude":-86.261573,"id":"aokihgbo0e7a","school":"Snacks Crossing Elementary","address":"5455 W 56th Street","geocode score":0.813,"state":"IN","geocode precision":"range"},"type":"Feature","geometry":{"type":"Point","coordinates":[-86.261573,39.853064]}},{"properties":{"city":"Indianapolis","latitude":39.895287,"township":"Pike","zip code":"46268","agency id #":null,"longitude":-86.236391,"id":"aokihgaybhka","school":"College Park Elementary","address":"7839 New Augusta Drive","geocode score":0.979,"state":"IN","geocode precision":"range"},"type":"Feature","geometry":{"type":"Point","coordinates":[-86.236391,39.895287]}},{"properties":{"city":"Indianapolis","latitude":39.8459,"township":"Pike","zip code":"46254","agency id #":null,"longitude":-86.232365,"id":"aokihg9ycmoq","school":"Guion Creek Elementary","address":"4301 W 52nd Street","geocode score":0.935,"state":"IN","geocode precision":"range"},"type":"Feature","geometry":{"type":"Point","coordinates":[-86.232365,39.8459]}},{"properties":{"city":"Indianapolis","latitude":39.880927,"township":"Pike","zip code":"46268","agency id #":null,"longitude":-86.25977,"id":"aokihg2z0wg3","school":"Central Elementary","address":"7001 Zionsville Road","geocode score":1.0,"state":"IN","geocode precision":"range"},"type":"Feature","geometry":{"type":"Point","coordinates":[-86.25977,39.880927]}},{"properties":{"city":"Indianapolis","latitude":39.837904,"township":"Pike","zip code":"46254","agency id #":null,"longitude":-86.282928,"id":"aokihg6cwf5i","school":"Eagle Creek Elementary","address":"6905 West 46th Street","geocode score":0.935,"state":"IN","geocode precision":"range"},"type":"Feature","geometry":{"type":"Point","coordinates":[-86.282928,39.837904]}},{"properties":{"city":"Indianapolis","latitude":39.883375,"township":"Pike","zip code":"46268","agency id #":null,"longitude":-86.238602,"id":"aokihge1vtk1","school":"New Augusta South","address":"6250 Rodebaugh Road","geocode score":0.585,"state":"IN","geocode precision":"zip"},"type":"Feature","geometry":{"type":"Point","coordinates":[-86.238602,39.883375]}},{"properties":{"city":"Indianapolis","latitude":39.909721,"township":"Pike","zip code":"46278","agency id #":null,"longitude":-86.309566,"id":"aokihgecppy6","school":"Fishback Creek Public Academy","address":"8301 West 86th Street","geocode score":0.935,"state":"IN","geocode precision":"range"},"type":"Feature","geometry":{"type":"Point","coordinates":[-86.309566,39.909721]}},{"properties":{"city":"Indianapolis","latitude":39.724678,"township":"Private","zip code":"46225","agency id #":null,"longitude":-86.149105,"id":"aokihgaw4ti4","school":"Christel House Academy","address":"2717 South East Street","geocode score":0.902,"state":"IN","geocode precision":"range"},"type":"Feature","geometry":{"type":"Point","coordinates":[-86.149105,39.724678]}},{"properties":{"city":"Indianapolis","latitude":39.806536,"township":"Private","zip code":"46208","agency id #":"01462BS","longitude":-86.172952,"id":"aokihg6ha1y0","school":"Holy Angels Catholic","address":"740 W 28th Street","geocode score":0.935,"state":"IN","geocode precision":"range"},"type":"Feature","geometry":{"type":"Point","coordinates":[-86.172952,39.806536]}},{"properties":{"city":"Indianapolis","latitude":39.751418,"township":"Private","zip code":"46203","agency id #":null,"longitude":-86.135408,"id":"aokihg0j6xi0","school":"Emmaus Lutheran School","address":"1224 Laurel Street","geocode score":1.0,"state":"IN","geocode precision":"range"},"type":"Feature","geometry":{"type":"Point","coordinates":[-86.135408,39.751418]}},{"properties":{"city":"Indianapolis","latitude":39.771448,"township":"Public Charter","zip code":"46222","agency id #":"01414BS","longitude":-86.206487,"id":"aokihg3fk8v1","school":"Padua Academy","address":"349 N Warman Avenue","geocode score":1.0,"state":"IN","geocode precision":"range"},"type":"Feature","geometry":{"type":"Point","coordinates":[-86.206487,39.771448]}},{"properties":{"city":"Indianapolis","latitude":39.744395,"township":"SENSE","zip code":"46203","agency id #":"01356BS","longitude":-86.141105,"id":"aokihg8be6qc","school":"Sense Charter School","address":"1601 S Barth Avenue","geocode score":0.947,"state":"IN","geocode precision":"range"},"type":"Feature","geometry":{"type":"Point","coordinates":[-86.141105,39.744395]}},{"properties":{"city":"Indianapolis","latitude":39.807843,"township":"Warren","zip code":"46229","agency id #":"01481BS","longitude":-85.967075,"id":"aokihge5wz9y","school":"Stonybrook Intermediate Academy","address":"11300 Stonybrook Drive","geocode score":0.979,"state":"IN","geocode precision":"range"},"type":"Feature","geometry":{"type":"Point","coordinates":[-85.967075,39.807843]}},{"properties":{"city":"Indianapolis","latitude":39.796853,"township":"Warren","zip code":"46229","agency id #":"01485BS","longitude":-85.995944,"id":"aokihg2h2j0p","school":"Lakeside Elementary","address":"9601 East 21st Street","geocode score":0.935,"state":"In","geocode precision":"range"},"type":"Feature","geometry":{"type":"Point","coordinates":[-85.995944,39.796853]}},{"properties":{"city":"Indianapolis","latitude":39.788056,"township":"Warren","zip code":"46239","agency id #":"01492BS","longitude":-85.957322,"id":"aokihg3nt4mn","school":"Brookview Elementary","address":"1550 N Cumberland Road","geocode score":0.805,"state":"IN","geocode precision":"range"},"type":"Feature","geometry":{"type":"Point","coordinates":[-85.957322,39.788056]}},{"properties":{"city":"Indianapolis","latitude":39.793927,"township":"Warren","zip code":"46219","agency id #":"01482BS","longitude":-86.025274,"id":"aokihg2t4xrh","school":"Pleasant Run Elementary","address":"1800 N Franklin Road","geocode score":1.0,"state":"IN","geocode precision":"range"},"type":"Feature","geometry":{"type":"Point","coordinates":[-86.025274,39.793927]}},{"properties":{"city":"Indianapolis","latitude":39.742073,"township":"Warren","zip code":"46239","agency id #":"01490BS","longitude":-86.04965,"id":"aokihg247lnk","school":"Lowell Elementary","address":"2150 Hunter Road","geocode score":0.947,"state":"IN","geocode precision":"range"},"type":"Feature","geometry":{"type":"Point","coordinates":[-86.04965,39.742073]}},{"properties":{"city":"Indianapolis","latitude":39.80777,"township":"Warren","zip code":"46229","agency id #":"01480BS","longitude":-85.968329,"id":"aokihg5treey","school":"Sunny Heights Elementary","address":"1149 StonyBrook Drive","geocode score":0.784,"state":"IN","geocode precision":"street"},"type":"Feature","geometry":{"type":"Point","coordinates":[-85.968329,39.80777]}},{"properties":{"city":"Indianapolis","latitude":39.701007,"township":"Warren","zip code":"46126","agency id #":"01484BS","longitude":-86.391204,"id":"aokihg9oy6jf","school":"Raymond Park Intermediate School","address":"8575 East Raymond Street","geocode score":0.61,"state":"IN","geocode precision":"street"},"type":"Feature","geometry":{"type":"Point","coordinates":[-86.391204,39.701007]}},{"properties":{"city":"Indianapolis","latitude":39.782467,"township":"Warren","zip code":"46229","agency id #":"01487BS","longitude":-85.977566,"id":"aokihg13vo2c","school":"Eastridge Elementary","address":"10930 East 10th Street","geocode score":0.935,"state":"IN","geocode precision":"range"},"type":"Feature","geometry":{"type":"Point","coordinates":[-85.977566,39.782467]}},{"properties":{"city":"Indianapolis","latitude":39.755263,"township":"Warren","zip code":"46223","agency id #":"01486BS","longitude":-85.971646,"id":"aokihg3yik68","school":"Creston Intermediate Academy","address":"10925 East Prospect Street","geocode score":0.805,"state":"IN","geocode precision":"range"},"type":"Feature","geometry":{"type":"Point","coordinates":[-85.971646,39.755263]}},{"properties":{"city":"Indianapolis","latitude":39.740093,"township":"Warren","zip code":"46239","agency id #":"01488BS","longitude":-86.011715,"id":"aokihg6gux2w","school":"Liberty Park Elementary","address":"8425 East Raymond Street","geocode score":1.0,"state":"IN","geocode precision":"range"},"type":"Feature","geometry":{"type":"Point","coordinates":[-86.011715,39.740093]}},{"properties":{"city":"Indianapolis","latitude":39.755318,"township":"Warren","zip code":"46239","agency id #":"01483BS","longitude":-85.981002,"id":"aokihg2vjsbn","school":"Grassy Creek Elementary","address":"10330 E Prospect Street","geocode score":1.0,"state":"IN","geocode precision":"range"},"type":"Feature","geometry":{"type":"Point","coordinates":[-85.981002,39.755318]}},{"properties":{"city":"Indianapolis","latitude":39.762024,"township":"Warren","zip code":"46239","agency id #":"01491BS","longitude":-86.021043,"id":"aokihfzzkzvt","school":"Hawthorne Elementary","address":"8301 E. Rawles Avenue","geocode score":0.329,"state":"IN","geocode precision":"street"},"type":"Feature","geometry":{"type":"Point","coordinates":[-86.021043,39.762024]}},{"properties":{"city":"Indianapolis","latitude":39.919859,"township":"Washington","zip code":"46240","agency id #":"01551BS","longitude":-86.143547,"id":"aokihg33kwz3","school":"Nora Elementary","address":"1000 E 91st St","geocode score":0.935,"state":"IN","geocode precision":"range"},"type":"Feature","geometry":{"type":"Point","coordinates":[-86.143547,39.919859]}},{"properties":{"city":"Indianapolis","latitude":39.905658,"township":"Washington","zip code":"46260","agency id #":null,"longitude":-86.165147,"id":"aokihg39w1ll","school":"Springmill Elementary","address":"8250 Spring Mill Road","geocode score":1.0,"state":"IN","geocode precision":"range"},"type":"Feature","geometry":{"type":"Point","coordinates":[-86.165147,39.905658]}},{"properties":{"city":"Indianapolis","latitude":39.853728,"township":"Washington","zip code":"46228","agency id #":"01590BS","longitude":-86.199823,"id":"aokihg8spcod","school":"Crooked Creek Elementary","address":"2150 Kessler Blvd. West Drive","geocode score":0.607,"state":"IN","geocode precision":"street"},"type":"Feature","geometry":{"type":"Point","coordinates":[-86.199823,39.853728]}},{"properties":{"city":"Indianapolis","latitude":39.802265,"township":"Wayne","zip code":"46224","agency id #":"01129BS","longitude":-86.267213,"id":"aokihga0ypah","school":"Garden City Elementary","address":"4901 Rockville Road","geocode score":0.585,"state":"IN","geocode precision":"zip"},"type":"Feature","geometry":{"type":"Point","coordinates":[-86.267213,39.802265]}},{"properties":{"city":"Indianapolis","latitude":39.782013,"township":"Wayne","zip code":"46214","agency id #":"01359BS","longitude":-86.288434,"id":"aokihg74h0ny","school":"Chapelwood Elementary","address":"1129 N Girls School Road","geocode score":1.0,"state":"IN","geocode precision":"range"},"type":"Feature","geometry":{"type":"Point","coordinates":[-86.288434,39.782013]}},{"properties":{"city":"Indianapolis","latitude":39.75847,"township":"Wayne","zip code":"46241","agency id #":"01450BS","longitude":-86.243984,"id":"aokihgchdwk0","school":"Rhoades Elementary","address":"502 South Auburn","geocode score":0.92,"state":"IN","geocode precision":"range"},"type":"Feature","geometry":{"type":"Point","coordinates":[-86.243984,39.75847]}},{"properties":{"city":"Indianapolis","latitude":39.773965,"township":"Wayne","zip code":"46234","agency id #":"01571BS","longitude":-86.3166,"id":"aokihg2n7928","school":"Chapel Glen Elementary","address":"701 Lansdowne Road","geocode score":1.0,"state":"IN","geocode precision":"range"},"type":"Feature","geometry":{"type":"Point","coordinates":[-86.3166,39.773965]}},{"properties":{"city":"Indianapolis","latitude":39.744177,"township":"Wayne","zip code":"46241","agency id #":"01494BS","longitude":-86.244692,"id":"aokihgbejrt0","school":"Maplewood Elementary","address":"1643 S Dunlap Avenue","geocode score":0.951,"state":"IN","geocode precision":"range"},"type":"Feature","geometry":{"type":"Point","coordinates":[-86.244692,39.744177]}},{"properties":{"city":"Indianapolis","latitude":39.770147,"township":"Wayne","zip code":"46214","agency id #":"01592BS","longitude":-86.277122,"id":"aokihg0uldak","school":"Westlake Elementary","address":"271 North Sigsbee Street","geocode score":1.0,"state":"IN","geocode precision":"range"},"type":"Feature","geometry":{"type":"Point","coordinates":[-86.277122,39.770147]}},{"properties":{"city":"Indianapolis","latitude":39.74997,"township":"Wayne","zip code":"46241","agency id #":"01570BS","longitude":-86.277379,"id":"aokihfz4ldxi","school":"McClelland","address":"6740 W Morris Street","geocode score":1.0,"state":"IN","geocode precision":"range"},"type":"Feature","geometry":{"type":"Point","coordinates":[-86.277379,39.74997]}},{"properties":{"city":"Indianapolis","latitude":39.808122,"township":"Wayne","zip code":"46234","agency id #":"01569BS","longitude":-86.31962,"id":"aokihgcv0uri","school":"Robey Elementary","address":"8700 W 30th Street","geocode score":0.935,"state":"IN","geocode precision":"range"},"type":"Feature","geometry":{"type":"Point","coordinates":[-86.31962,39.808122]}},{"properties":{"city":"Indianapolis","latitude":39.749063,"township":"Wayne","zip code":"46231","agency id #":"01568BS","longitude":-86.322464,"id":"aokihfz0vt7t","school":"Bridgeport","address":"9035 W Morris Street","geocode score":1.0,"state":"IN","geocode precision":"range"},"type":"Feature","geometry":{"type":"Point","coordinates":[-86.322464,39.749063]}},{"properties":{"city":"Indianapolis","latitude":39.816074,"township":"Wayne","zip code":"46241","agency id #":null,"longitude":-86.282502,"id":"aokihg6eah0h","school":"North Wayne Elementary","address":"6950 W 34th Street","geocode score":0.74,"state":"IN","geocode precision":"range"},"type":"Feature","geometry":{"type":"Point","coordinates":[-86.282502,39.816074]}},{"properties":{"city":"Indianapolis","latitude":39.665093,"township":"IPS","zip code":"46241","agency id #":"01203BS","longitude":-86.11585,"id":"aokihg1b7gbh","school":"IPS # 60 Butler Lab School","address":"3330 N. Penn. Street","geocode score":0.347,"state":"In","geocode precision":"street"},"type":"Feature","geometry":{"type":"Point","coordinates":[-86.11585,39.665093]}},{"properties":{"city":"Indianapolis","latitude":39.731657,"township":"Wayne","zip code":"46241","agency id #":"01187BS","longitude":-86.225823,"id":"aokihfzom27j","school":"Stout Field Elementary","address":"3820 Bradbury Avenue","geocode score":0.958,"state":"IN","geocode precision":"range"},"type":"Feature","geometry":{"type":"Point","coordinates":[-86.225823,39.731657]}},{"properties":{"city":"Mooresville","latitude":39.603594,"township":"Mooresville","zip code":"46158","agency id #":"01400BS","longitude":-86.358998,"id":"aokihgec9uoo","school":"Neil Armstrong Elementary","address":"1000 State Road 144","geocode score":0.878,"state":"IN","geocode precision":"street"},"type":"Feature","geometry":{"type":"Point","coordinates":[-86.358998,39.603594]}},{"properties":{"city":"Camby","latitude":39.611398,"township":"Mooresville","zip code":"46113","agency id #":"01400BS","longitude":-86.267893,"id":"aokihg2wm2vq","school":"North Madison Elementary","address":"7456 E Hadley Road","geocode score":1.0,"state":"IN","geocode precision":"range"},"type":"Feature","geometry":{"type":"Point","coordinates":[-86.267893,39.611398]}},{"properties":{"city":"Mooresville","latitude":39.621093,"township":"Mooresville","zip code":"46158","agency id #":"01400Bs","longitude":-86.375077,"id":"aokihg4ic3sb","school":"Northwood Elementary","address":"630 N Indiana St","geocode score":1.0,"state":"IN","geocode precision":"range"},"type":"Feature","geometry":{"type":"Point","coordinates":[-86.375077,39.621093]}},{"properties":{"city":"Mooresville","latitude":39.615799,"township":"Mooresville","zip code":"46158","agency id #":"01400BS","longitude":-86.380962,"id":"aokihg0lgxf4","school":"Newby Memorial Elementary School","address":"240 North Monroe Street","geocode score":1.0,"state":"IN","geocode precision":"range"},"type":"Feature","geometry":{"type":"Point","coordinates":[-86.380962,39.615799]}},{"properties":{"city":"Martinsville","latitude":39.553767,"township":"Mooresville","zip code":"46151","agency id #":null,"longitude":-86.269345,"id":"aokihg9caktv","school":"Waverly Elementary","address":"8525 Waverly Road","geocode score":1.0,"state":"IN","geocode precision":"range"},"type":"Feature","geometry":{"type":"Point","coordinates":[-86.269345,39.553767]}},{"properties":{"city":"Cloverdale","latitude":39.510654,"township":"Cloverdale","zip code":"46120","agency id #":"01553BS","longitude":-86.787793,"id":"aokihg0dhg5r","school":"Cloverdale Elementary","address":"311 E Logan St","geocode score":1.0,"state":"IN","geocode precision":"range"},"type":"Feature","geometry":{"type":"Point","coordinates":[-86.787793,39.510654]}},{"properties":{"city":"Cloverdale","latitude":39.510552,"township":"Cloverdale","zip code":"46120","agency id #":"x","longitude":-86.791114,"id":"aokihg29oq1w","school":"Cloverdale Middle School","address":"312 E Logan Street","geocode score":1.0,"state":"IN","geocode precision":"range"},"type":"Feature","geometry":{"type":"Point","coordinates":[-86.791114,39.510552]}},{"properties":{"city":"Bainbridge","latitude":39.758095,"township":"North Putnam","zip code":"46105","agency id #":"01449Bs","longitude":-86.811916,"id":"aokihg5hvwo7","school":"Bainbridge Elementary","address":"412 South Washington Street","geocode score":0.807,"state":"IN","geocode precision":"street"},"type":"Feature","geometry":{"type":"Point","coordinates":[-86.811916,39.758095]}},{"properties":{"city":"Roachdale","latitude":39.854603,"township":"North Putnam","zip code":"46172","agency id #":"01448BS","longitude":-86.802198,"id":"aokihgathox4","school":"Roachdale Elementary","address":"305 S Indiana Street","geocode score":0.976,"state":"IN","geocode precision":"range"},"type":"Feature","geometry":{"type":"Point","coordinates":[-86.802198,39.854603]}},{"properties":{"city":"Fillmore","latitude":39.667937,"township":"South Putnam","zip code":"46128","agency id #":"01587BS","longitude":-86.753098,"id":"aokihg72rhqp","school":"Fillmore Elementary","address":"161 South Main Street","geocode score":1.0,"state":"IN","geocode precision":"range"},"type":"Feature","geometry":{"type":"Point","coordinates":[-86.753098,39.667937]}},{"properties":{"city":"Greencastle","latitude":39.585204,"township":"South Putnam","zip code":"46135","agency id #":"01524BS","longitude":-86.817444,"id":"aokihg9gqmo7","school":"Central Elementary School","address":"1888 E US Hwy 40","geocode score":1.0,"state":"IN","geocode precision":"range"},"type":"Feature","geometry":{"type":"Point","coordinates":[-86.817444,39.585204]}},{"properties":{"city":"Milan","latitude":39.120978,"township":"Ripley","zip code":"47031","agency id #":"01464BS","longitude":-85.126828,"id":"aokihgced9xr","school":"Milan Elementary School","address":"418 East Carr Street","geocode score":1.0,"state":"IN","geocode precision":"range"},"type":"Feature","geometry":{"type":"Point","coordinates":[-85.126828,39.120978]}},{"properties":{"city":"Versailles","latitude":38.990334,"township":"South Ripley Community","zip code":"47042","agency id #":"01479BS","longitude":-85.218568,"id":"aokihg2z33cn","school":"South Ripley Elementary","address":"1568 S Behnam Road","geocode score":0.585,"state":"IN","geocode precision":"zip"},"type":"Feature","geometry":{"type":"Point","coordinates":[-85.218568,38.990334]}},{"properties":{"city":"Sunman","latitude":39.244201,"township":"Sunman-Dearborn","zip code":"47041","agency id #":"01452BS","longitude":-85.09458,"id":"aokihg7oi89q","school":"Sunman Elementary School","address":"925 N Meridian Street","geocode score":1.0,"state":"IN","geocode precision":"range"},"type":"Feature","geometry":{"type":"Point","coordinates":[-85.09458,39.244201]}},{"properties":{"city":"Rusville","latitude":39.625496,"township":"Rush County Schools","zip code":"46173","agency id #":"01495BS","longitude":-85.448407,"id":"aokihgbi7qud","school":"Rushville Elementary West","address":"410 West 16th Street","geocode score":0.924,"state":"IN","geocode precision":"range"},"type":"Feature","geometry":{"type":"Point","coordinates":[-85.448407,39.625496]}},{"properties":{"city":"Rushivlle","latitude":39.625499,"township":"Rush County Schools","zip code":"46173","agency id #":"01496BS","longitude":-85.448197,"id":"aokihg1ec70k","school":"Rushville Elementary East","address":"390 West 16th Street","geocode score":0.924,"state":"IN","geocode precision":"range"},"type":"Feature","geometry":{"type":"Point","coordinates":[-85.448197,39.625499]}},{"properties":{"city":"Arlington","latitude":39.647068,"township":"Rush County Schools","zip code":"46104","agency id #":"01498BS","longitude":-85.576212,"id":"aokihg4vj3xx","school":"Arlington Elementary","address":"2533 N 700 W","geocode score":1.0,"state":"IN","geocode precision":"range"},"type":"Feature","geometry":{"type":"Point","coordinates":[-85.576212,39.647068]}},{"properties":{"city":"Anderson","latitude":39.499396,"township":"Rush County Schools","zip code":"46156","agency id #":"01497BS","longitude":-85.464402,"id":"aokihg6y78wn","school":"Milroy Elementary","address":"300 North Walnut Street","geocode score":0.927,"state":"IN","geocode precision":"range"},"type":"Feature","geometry":{"type":"Point","coordinates":[-85.464402,39.499396]}},{"properties":{"city":"Rushville","latitude":39.742581,"township":"Rush County Schools","zip code":"46155","agency id #":"01499BS","longitude":-85.429808,"id":"aokihge4h14z","school":"Mays Elementary","address":"929 E South Street","geocode score":0.415,"state":"IN","geocode precision":"street"},"type":"Feature","geometry":{"type":"Point","coordinates":[-85.429808,39.742581]}},{"properties":{"city":"Austin","latitude":38.739943,"township":"District 1","zip code":"47102","agency id #":"01586BS","longitude":-85.803078,"id":"aokihg49x47a","school":"Austin Elementary","address":"141 Highway 31 South","geocode score":0.837,"state":"IN","geocode precision":"range"},"type":"Feature","geometry":{"type":"Point","coordinates":[-85.803078,38.739943]}},{"properties":{"city":"Scottsburg","latitude":38.686641,"township":"Scott 2","zip code":"47170","agency id #":null,"longitude":-85.776133,"id":"aokihgbdgns0","school":"Scottsburg Elementary","address":"49 North Hyland Street","geocode score":1.0,"state":"IN","geocode precision":"range"},"type":"Feature","geometry":{"type":"Point","coordinates":[-85.776133,38.686641]}},{"properties":{"city":"Scottsburg","latitude":38.736755,"township":"Scott 2","zip code":"47170","agency id #":null,"longitude":-85.694247,"id":"aokihg051v5n","school":"Johnson Elementary","address":"4235 East State Road 256","geocode score":1.0,"state":"IN","geocode precision":"range"},"type":"Feature","geometry":{"type":"Point","coordinates":[-85.694247,38.736755]}},{"properties":{"city":"Scottsburg","latitude":38.649939,"township":"Scott 2","zip code":"47170","agency id #":null,"longitude":-85.766129,"id":"aokihg68rdsk","school":"Vienna-Finley Elem.","address":"445 Ivan Rogers Drive","geocode score":0.963,"state":"IN","geocode precision":"range"},"type":"Feature","geometry":{"type":"Point","coordinates":[-85.766129,38.649939]}},{"properties":{"city":"Lexington","latitude":38.652704,"township":"Scott 2","zip code":"47138","agency id #":null,"longitude":-85.627284,"id":"aokihg5uh9ve","school":"Lexington Elem.","address":"7980 East Walnut Street","geocode score":0.947,"state":"IN","geocode precision":"range"},"type":"Feature","geometry":{"type":"Point","coordinates":[-85.627284,38.652704]}},{"properties":{"city":"Fairland","latitude":39.610466,"township":"Northwestern Consolidated","zip code":"46126","agency id #":"01412BS","longitude":-85.873608,"id":"aokihg2kh1r3","school":"Triton Central Elementary","address":"4976 W 600 North","geocode score":1.0,"state":"IN","geocode precision":"range"},"type":"Feature","geometry":{"type":"Point","coordinates":[-85.873608,39.610466]}},{"properties":{"city":"Morristown","latitude":39.672846,"township":"Shelby Eastern","zip code":"46161","agency id #":"01456BS","longitude":-85.696416,"id":"aokihg4bl4rt","school":"Morristown Elementary","address":"307 W Main Street","geocode score":0.87,"state":"IN","geocode precision":"range"},"type":"Feature","geometry":{"type":"Point","coordinates":[-85.696416,39.672846]}},{"properties":{"city":"Waldron","latitude":39.701436,"township":"Shelby Eastern","zip code":"46182","agency id #":"01520BS","longitude":-86.399988,"id":"aokihgaey51s","school":"Waldron Elementary","address":"306 S East Street","geocode score":0.707,"state":"IN","geocode precision":"range"},"type":"Feature","geometry":{"type":"Point","coordinates":[-86.399988,39.701436]}},{"properties":{"city":"Shelbyville","latitude":39.511966,"township":"Shelbyville Central Schools","zip code":"46176","agency id #":"01410BS","longitude":-85.764879,"id":"aokihg57x0oa","school":"Loper Elementary","address":"901 Loper Drive","geocode score":1.0,"state":"IN","geocode precision":"range"},"type":"Feature","geometry":{"type":"Point","coordinates":[-85.764879,39.511966]}},{"properties":{"city":"Shelbyville","latitude":39.53938,"township":"Shelbyville Central Schools","zip code":"46176","agency id #":"01411BS","longitude":-86.09998,"id":"aokihgd1y284","school":"T. A. Hendricks Elementary","address":"1111 St. Joseph Street","geocode score":0.333,"state":"IN","geocode precision":"street"},"type":"Feature","geometry":{"type":"Point","coordinates":[-86.09998,39.53938]}},{"properties":{"city":"Shelbyville","latitude":39.460328,"township":"Shelbyville Central Schools","zip code":"46176","agency id #":"01408BS","longitude":-85.846649,"id":"aokihg78gj8j","school":"Coulston Elementary","address":"121 N Knightstown Road","geocode score":0.585,"state":"IN","geocode precision":"zip"},"type":"Feature","geometry":{"type":"Point","coordinates":[-85.846649,39.460328]}},{"properties":{"city":"Liberty","latitude":39.633407,"township":"Union County College Corner","zip code":"47353","agency id #":null,"longitude":-84.915127,"id":"aokihg6hejj5","school":"Liberty Elementary","address":"501 Eaton Street","geocode score":0.878,"state":"IN","geocode precision":"range"},"type":"Feature","geometry":{"type":"Point","coordinates":[-84.915127,39.633407]}},{"properties":{"city":"College Corner","latitude":39.571587,"township":"Union County College Corner","zip code":"45003","agency id #":null,"longitude":-84.816886,"id":"aokihg6kxq6m","school":"College Corner Union County School","address":"230 Ramsey Street","geocode score":0.71,"state":"OH","geocode precision":"street"},"type":"Feature","geometry":{"type":"Point","coordinates":[-84.816886,39.571587]}},{"properties":{"city":"Liberty","latitude":39.635385,"township":"Union County College Corner","zip code":"47353","agency id #":null,"longitude":-84.936096,"id":"aokihg2pppzn","school":"Union County Middle School","address":"488 State Road 44 East","geocode score":0.955,"state":"IN","geocode precision":"range"},"type":"Feature","geometry":{"type":"Point","coordinates":[-84.936096,39.635385]}},{"properties":{"city":"Centerville","latitude":39.81441,"township":"Centerville-Abington Community Schools","zip code":"47330","agency id #":"01577BS","longitude":-84.958072,"id":"aokihfykm0h2","school":"Rose Hamilton Elementary","address":"1281 S Round Barn Road","geocode score":0.805,"state":"IN","geocode precision":"range"},"type":"Feature","geometry":{"type":"Point","coordinates":[-84.958072,39.81441]}},{"properties":{"city":"Fountain City","latitude":39.933368,"township":"Northeastern Wayne","zip code":"47341","agency id #":"01536BS","longitude":-84.909483,"id":"aokihgd8pm8m","school":"Northeastern Elementary","address":"534 West Wallace Road","geocode score":1.0,"state":"IN","geocode precision":"range"},"type":"Feature","geometry":{"type":"Point","coordinates":[-84.909483,39.933368]}},{"properties":{"city":"Richmond","latitude":39.824518,"township":"Richmond","zip code":"47374","agency id #":null,"longitude":-84.883275,"id":"aokihfycuti4","school":"Vaile Elementary","address":"300 S 14th Street","geocode score":0.935,"state":"IN","geocode precision":"range"},"type":"Feature","geometry":{"type":"Point","coordinates":[-84.883275,39.824518]}},{"properties":{"city":"Richmond","latitude":39.856345,"township":"Richmond","zip code":"47374","agency id #":"01444BS","longitude":-84.893203,"id":"aokihg0nabjs","school":"Crestdale Elementary","address":"701 Crestdale Road","geocode score":0.976,"state":"IN","geocode precision":"range"},"type":"Feature","geometry":{"type":"Point","coordinates":[-84.893203,39.856345]}},{"properties":{"city":"Richmond","latitude":39.827518,"township":"Richmond","zip code":"47374","agency id #":null,"longitude":-84.896599,"id":"aokihg4fwygc","school":"Westview Elementary School","address":"1707 S. W. A Street","geocode score":0.643,"state":"IN","geocode precision":"street"},"type":"Feature","geometry":{"type":"Point","coordinates":[-84.896599,39.827518]}},{"properties":{"city":"Richmond","latitude":39.834387,"township":"Richmond","zip code":"47374","agency id #":"01583BS","longitude":-84.876424,"id":"aokihgdocnha","school":"Elizabeth Starr Academy","address":"301 North 19th Street","geocode score":0.935,"state":"IN","geocode precision":"range"},"type":"Feature","geometry":{"type":"Point","coordinates":[-84.876424,39.834387]}},{"properties":{"city":"Richmond","latitude":39.843767,"township":"Richmond","zip code":"47374","agency id #":"01575BS","longitude":-84.897838,"id":"aokihg20d0er","school":"Fairview Elementary","address":"60 NW L Street","geocode score":1.0,"state":"IN","geocode precision":"range"},"type":"Feature","geometry":{"type":"Point","coordinates":[-84.897838,39.843767]}},{"properties":{"city":"Richmond","latitude":39.832367,"township":"Richmond","zip code":"47374","agency id #":null,"longitude":-84.910939,"id":"aokihg1gfp1w","school":"Dennis Intermediate School","address":"222 N W 7th Street","geocode score":0.902,"state":"IN","geocode precision":"range"},"type":"Feature","geometry":{"type":"Point","coordinates":[-84.910939,39.832367]}}],"is_temporal":false,"author":{"url":"","metadata":null,"contact_name":null,"contact_address":null,"source":null,"contact_phone":null},"source":"","pagination":{"sort":null,"start":0,"total":226,"limit":1000000},"state":"complete","tags":"","published":"2014-08-17T23:51:33-04:00","id":481088}