{"type":"FeatureCollection","data_type":"Dataset","url_type":null,"permissions":[{"permissions":{"download":true,"view":true},"group_id":"everyone"}],"classification":null,"title":"HPC Addresses","count":60,"stream_id":481432,"contributor":{"url":"http://geocommons.com/users/21812","name":"okcalvin"},"data_attributes":null,"calculation_params":null,"icon_link":null,"link":"http://geocommons.com/overlays/481432.json","extent":[-97.7341,35.3076,-97.1831,35.884],"geometry_types":["point"],"unique_name":null,"name":"HPC Addresses","feature_count":60,"description":"","next_feature":null,"is_raster":false,"short_classification":"Y","stats":{},"features":[{"properties":{"city":"Edmond","geo_score":0.488,"street":"1665 Strayfox Crossing","id":"aolgncpk9rdc","geo_precision":"city","state":"OK"},"type":"Feature","geometry":{"type":"Point","coordinates":[-97.499681,35.674777]}},{"properties":{"city":"Edmond","geo_score":0.61,"street":"2221 South Broadway West #201","id":"aolgncpzcgio","geo_precision":"range","state":"OK"},"type":"Feature","geometry":{"type":"Point","coordinates":[-97.48164,35.652134]}},{"properties":{"city":"Edmond","geo_score":0.902,"street":"1109 Charlton Road","id":"aolgncj5ar1g","geo_precision":"range","state":"OK"},"type":"Feature","geometry":{"type":"Point","coordinates":[-97.499806,35.646053]}},{"properties":{"city":"Edmond","geo_score":0.873,"street":"813 Adams Trl","id":"aolgncj27o8z","geo_precision":"range","state":"OK"},"type":"Feature","geometry":{"type":"Point","coordinates":[-97.521555,35.663236]}},{"properties":{"city":"Oklahoma City","geo_score":0.844,"street":"2716 NW 33RD ST","id":"aolgncr2mbpx","geo_precision":"range","state":"OK"},"type":"Feature","geometry":{"type":"Point","coordinates":[-97.56309,35.504226]}},{"properties":{"city":"Oklahoma City","geo_score":0.844,"street":"501 NE 16TH ST","id":"aolgncijucf3","geo_precision":"range","state":"OK"},"type":"Feature","geometry":{"type":"Point","coordinates":[-97.503575,35.48549]}},{"properties":{"city":"Oklahoma City","geo_score":0.793,"street":"2609 Featherstone Rd Apt 293a","id":"aolgncg93f7s","geo_precision":"range","state":"OK"},"type":"Feature","geometry":{"type":"Point","coordinates":[-97.563184,35.605248]}},{"properties":{"city":"Oklahoma City","geo_score":0.902,"street":"7310 KINGS MANOR CT","id":"aolgnckrttsf","geo_precision":"range","state":"OK"},"type":"Feature","geometry":{"type":"Point","coordinates":[-97.62825,35.54618]}},{"properties":{"city":"MIDWEST CITY","geo_score":0.464,"street":"712 E. Frolich Drive","id":"aolgnckae4hc","geo_precision":"street","state":"OK"},"type":"Feature","geometry":{"type":"Point","coordinates":[-97.38852,35.459236]}},{"properties":{"city":"Oklahoma City","geo_score":0.902,"street":"10102 Ski Dr","id":"aolgnchvtw2e","geo_precision":"range","state":"OK"},"type":"Feature","geometry":{"type":"Point","coordinates":[-97.624872,35.575391]}},{"properties":{"city":"Oklahoma City","geo_score":0.902,"street":"4017 SPYGLASS RD","id":"aolgnch85ihw","geo_precision":"range","state":"OK"},"type":"Feature","geometry":{"type":"Point","coordinates":[-97.590915,35.605675]}},{"properties":{"city":"Weatherford","geo_score":0.586,"street":"909 Briarwood Ct","id":"aolgnceeaoau","geo_precision":"street","state":"OK"},"type":"Feature","geometry":{"type":"Point","coordinates":[-97.734082,35.513414]}},{"properties":{"city":"Edmond","geo_score":0.902,"street":"2504 Stamford Ct","id":"aolgnccgbilq","geo_precision":"range","state":"OK"},"type":"Feature","geometry":{"type":"Point","coordinates":[-97.447945,35.644058]}},{"properties":{"city":"Edmond","geo_score":0.902,"street":"723 Stonecroft Cir","id":"aolgncr3ldrl","geo_precision":"range","state":"OK"},"type":"Feature","geometry":{"type":"Point","coordinates":[-97.442157,35.646479]}},{"properties":{"city":"Edmond","geo_score":0.902,"street":"105 Lakeview Ct","id":"aolgncqrfp6b","geo_precision":"range","state":"OK"},"type":"Feature","geometry":{"type":"Point","coordinates":[-97.479437,35.689966]}},{"properties":{"city":"Edmond","geo_score":0.525,"street":"732 Real Quiet Circle","id":"aolgncb4h5tn","geo_precision":"street","state":"OK"},"type":"Feature","geometry":{"type":"Point","coordinates":[-97.490597,35.758981]}},{"properties":{"city":"Edmond","geo_score":0.902,"street":"8124 NE 140TH ST","id":"aolgnciz00q3","geo_precision":"range","state":"OK"},"type":"Feature","geometry":{"type":"Point","coordinates":[-97.382717,35.613417]}},{"properties":{"city":"Edmond","geo_score":0.902,"street":"3725 Coachlight Drive","id":"aolgncmpvmr9","geo_precision":"range","state":"OK"},"type":"Feature","geometry":{"type":"Point","coordinates":[-97.448195,35.619673]}},{"properties":{"city":"Edmond","geo_score":0.902,"street":"16132 Promontory Rd","id":"aolgncps3it0","geo_precision":"range","state":"OK"},"type":"Feature","geometry":{"type":"Point","coordinates":[-97.608263,35.63502]}},{"properties":{"city":"Oklahoma City","geo_score":0.902,"street":"3008 Cornwall Place","id":"aolgncnvr008","geo_precision":"range","state":"OK"},"type":"Feature","geometry":{"type":"Point","coordinates":[-97.569297,35.557523]}},{"properties":{"city":"Edmond","geo_score":0.902,"street":"2800 MILES DR","id":"aolgncko1xdb","geo_precision":"range","state":"OK"},"type":"Feature","geometry":{"type":"Point","coordinates":[-97.462719,35.683809]}},{"properties":{"city":"Edmond","geo_score":0.488,"street":"17105 WHIMBREL LN","id":"aolgncid54gh","geo_precision":"city","state":"OK"},"type":"Feature","geometry":{"type":"Point","coordinates":[-97.499681,35.674777]}},{"properties":{"city":"Oklahoma City","geo_score":0.61,"street":"14900 N Penn #832","id":"aolgncjiaskr","geo_precision":"range","state":"OK"},"type":"Feature","geometry":{"type":"Point","coordinates":[-97.50892,35.329469]}},{"properties":{"city":"Edmond","geo_score":0.61,"street":"2437 194th St","id":"aolgnceiit8h","geo_precision":"street","state":"OK"},"type":"Feature","geometry":{"type":"Point","coordinates":[-97.537274,35.66992]}},{"properties":{"city":"Oklahoma City","geo_score":0.902,"street":"11200 BLUE STEM DR","id":"aolgncd0slwd","geo_precision":"range","state":"OK"},"type":"Feature","geometry":{"type":"Point","coordinates":[-97.621551,35.582167]}},{"properties":{"city":"Edmond","geo_score":0.708,"street":"1936 NW 172nd St","id":"aolgncqrpidv","geo_precision":"street","state":"OK"},"type":"Feature","geometry":{"type":"Point","coordinates":[-97.529409,35.64638]}},{"properties":{"city":"Tinker AFB","geo_score":0.0,"street":"4009 Brown Drive","id":"aolgncksu6i0","geo_precision":"unmatched","state":"OK"},"type":"Feature","geometry":null},{"properties":{"city":"Midwest City","geo_score":0.805,"street":"9401 Rhythm Rd","id":"aolgncjqovw2","geo_precision":"range","state":"OK"},"type":"Feature","geometry":{"type":"Point","coordinates":[-97.36413,35.443769]}},{"properties":{"city":"Edmond","geo_score":0.902,"street":"618 SUNNY BROOK DR","id":"aolgncdril2u","geo_precision":"range","state":"OK"},"type":"Feature","geometry":{"type":"Point","coordinates":[-97.472453,35.675402]}},{"properties":{"city":"Oklahoma City","geo_score":0.902,"street":"11800 Edgemont Circle","id":"aolgncpq4ow2","geo_precision":"range","state":"OK"},"type":"Feature","geometry":{"type":"Point","coordinates":[-97.625227,35.590835]}},{"properties":{"city":"The Village","geo_score":0.902,"street":"2509 Ashley Drive","id":"aolgncltap64","geo_precision":"range","state":"OK"},"type":"Feature","geometry":{"type":"Point","coordinates":[-97.559115,35.568008]}},{"properties":{"city":"Edmond","geo_score":0.796,"street":"509 S SANTA FE AVE APT 120","id":"aolgncevlme9","geo_precision":"range","state":"OK"},"type":"Feature","geometry":{"type":"Point","coordinates":[-97.513973,35.649357]}},{"properties":{"city":"Edmond","geo_score":0.805,"street":"17508 Brass Drive","id":"aolgncfqnetk","geo_precision":"range","state":"OK"},"type":"Feature","geometry":{"type":"Point","coordinates":[-97.542,35.647755]}},{"properties":{"city":"Edmond","geo_score":0.902,"street":"1541 SABER LN","id":"aolgncjpow3d","geo_precision":"range","state":"OK"},"type":"Feature","geometry":{"type":"Point","coordinates":[-97.459459,35.700634]}},{"properties":{"city":"Edmond","geo_score":0.49,"street":"18001 Highland Park Rd, Apt 806","id":"aolgncp7a6um","geo_precision":"street","state":"OK"},"type":"Feature","geometry":{"type":"Point","coordinates":[-97.47769,35.761103]}},{"properties":{"city":"Edmond","geo_score":0.584,"street":"1408 NW 174th Ct","id":"aolgncbpmd1s","geo_precision":"street","state":"OK"},"type":"Feature","geometry":{"type":"Point","coordinates":[-97.542076,35.647667]}},{"properties":{"city":"Oklahoma City","geo_score":0.844,"street":"2646 NW 12TH ST","id":"aolgncbg2d94","geo_precision":"range","state":"OK"},"type":"Feature","geometry":{"type":"Point","coordinates":[-97.560366,35.481596]}},{"properties":{"city":"Oklahoma City","geo_score":0.61,"street":"10900 S. Pennsylvania Ave #518","id":"aolgncj6n4cy","geo_precision":"range","state":"OK"},"type":"Feature","geometry":{"type":"Point","coordinates":[-97.547875,35.457661]}},{"properties":{"city":"Edmond","geo_score":0.902,"street":"108 Berkshire Drive","id":"aolgncgf84nh","geo_precision":"range","state":"OK"},"type":"Feature","geometry":{"type":"Point","coordinates":[-97.427707,35.656985]}},{"properties":{"city":"Oklahoma City","geo_score":0.771,"street":"2201 NW 122ND ST APT 2613","id":"aolgncdugaqv","geo_precision":"range","state":"OK"},"type":"Feature","geometry":{"type":"Point","coordinates":[-97.549538,35.594708]}},{"properties":{"city":"Jones","geo_score":0.854,"street":"11601 N Chester St","id":"aolgncqehlw8","geo_precision":"range","state":"OK"},"type":"Feature","geometry":{"type":"Point","coordinates":[-97.382854,35.591409]}},{"properties":{"city":"Oklahoma City","geo_score":0.902,"street":"5601 NW 111th Street","id":"aolgncjdtcnn","geo_precision":"range","state":"OK"},"type":"Feature","geometry":{"type":"Point","coordinates":[-97.620007,35.583622]}},{"properties":{"city":"Edmond","geo_score":0.488,"street":"1717 Kamber Terrace","id":"aolgncfbfy6s","geo_precision":"city","state":"OK"},"type":"Feature","geometry":{"type":"Point","coordinates":[-97.499681,35.674777]}},{"properties":{"city":"Moore","geo_score":0.902,"street":"604 S Patterson Dr","id":"aolgnchj1p4b","geo_precision":"range","state":"OK"},"type":"Feature","geometry":{"type":"Point","coordinates":[-97.472714,35.331785]}},{"properties":{"city":"Edmond","geo_score":0.902,"street":"617 North Broadway","id":"aolgnchf310a","geo_precision":"range","state":"OK"},"type":"Feature","geometry":{"type":"Point","coordinates":[-97.480439,35.661811]}},{"properties":{"city":"Edmond","geo_score":0.902,"street":"5608 NORTHWOOD DR","id":"aolgncp2xhjy","geo_precision":"range","state":"OK"},"type":"Feature","geometry":{"type":"Point","coordinates":[-97.432977,35.712028]}},{"properties":{"city":"Oklahoma City","geo_score":0.902,"street":"3105 BROOKHOLLOW RD","id":"aolgncn1we5u","geo_precision":"range","state":"OK"},"type":"Feature","geometry":{"type":"Point","coordinates":[-97.570677,35.581914]}},{"properties":{"city":"Oklahoma City","geo_score":0.844,"street":"3913 NW 60th Street","id":"aolgnck0aqxm","geo_precision":"range","state":"OK"},"type":"Feature","geometry":{"type":"Point","coordinates":[-97.589016,35.533664]}},{"properties":{"city":"Oklahoma City","geo_score":0.902,"street":"3176 NW Expressway","id":"aolgncmjs6jb","geo_precision":"range","state":"OK"},"type":"Feature","geometry":{"type":"Point","coordinates":[-97.572615,35.52899]}},{"properties":{"city":"Oklahoma City","geo_score":0.844,"street":"4805 NW 68th Street","id":"aolgncdcqbzf","geo_precision":"range","state":"OK"},"type":"Feature","geometry":{"type":"Point","coordinates":[-97.609546,35.542158]}},{"properties":{"city":"Edmond","geo_score":0.902,"street":"1205 Briarwood Place","id":"aolgncfdyzu4","geo_precision":"range","state":"OK"},"type":"Feature","geometry":{"type":"Point","coordinates":[-97.464455,35.642056]}},{"properties":{"city":"Guthrie","geo_score":0.902,"street":"629 Hamill Ln","id":"aolgncjpbpsq","geo_precision":"range","state":"OK"},"type":"Feature","geometry":{"type":"Point","coordinates":[-97.414956,35.883997]}},{"properties":{"city":"Edmond","geo_score":0.902,"street":"1808 Deason Dr","id":"aolgnclb5864","geo_precision":"range","state":"OK"},"type":"Feature","geometry":{"type":"Point","coordinates":[-97.438184,35.635198]}},{"properties":{"city":"Oklahoma City","geo_score":0.844,"street":"5736 NW 86TH ST","id":"aolgnckgrt7g","geo_precision":"range","state":"OK"},"type":"Feature","geometry":{"type":"Point","coordinates":[-97.618853,35.558768]}},{"properties":{"city":"Edmond","geo_score":0.709,"street":"17509 Platinum Lane","id":"aolgncn7tpmq","geo_precision":"street","state":"OK"},"type":"Feature","geometry":{"type":"Point","coordinates":[-97.5439,35.648765]}},{"properties":{"city":"Edmond","geo_score":0.656,"street":"3813 WHISPERING HEIGHTS DR","id":"aolgncfomwep","geo_precision":"street","state":"OK"},"type":"Feature","geometry":{"type":"Point","coordinates":[-97.431942,35.718804]}},{"properties":{"city":"Oklahoma City","geo_score":0.844,"street":"901 NE 18th Street","id":"aolgncrjvcxo","geo_precision":"range","state":"OK"},"type":"Feature","geometry":{"type":"Point","coordinates":[-97.49637,35.488334]}},{"properties":{"city":"Oklahoma City","geo_score":0.536,"street":"2710 Indian Creek Blvd. #B","id":"aolgncpxjccj","geo_precision":"street","state":"OK"},"type":"Feature","geometry":{"type":"Point","coordinates":[-97.31342,35.307613]}},{"properties":{"city":"Luther","geo_score":0.902,"street":"10610 Lori Ln","id":"aolgncitrdsx","geo_precision":"range","state":"OK"},"type":"Feature","geometry":{"type":"Point","coordinates":[-97.183137,35.577272]}},{"properties":{"city":"Edmond","geo_score":0.902,"street":"100 Shelton Place","id":"aolgncotpd76","geo_precision":"range","state":"OK"},"type":"Feature","geometry":{"type":"Point","coordinates":[-97.449991,35.655755]}}],"is_temporal":false,"author":{"url":"","metadata":"","contact_name":"","contact_address":"","source":"","contact_phone":""},"source":"","pagination":{"sort":null,"start":0,"total":60,"limit":1000000},"state":"complete","tags":"#oklahoma,hpc","published":"2014-08-18T00:16:21-04:00","id":481432}