{"type":"FeatureCollection","data_type":"Dataset","url_type":null,"permissions":[{"permissions":{"download":true,"view":true},"group_id":"everyone"}],"classification":null,"title":"Oklahoma Dept of Corrections, Oklahoma State Adult Correctional Institutions, Oklahoma, 3.2008 ","count":17,"stream_id":487,"contributor":{"url":"http://geocommons.com/users/2","name":"data"},"data_attributes":null,"calculation_params":null,"icon_link":null,"link":"http://geocommons.com/overlays/487.json","extent":[-99.5569,34.1588,-94.6326,36.8057],"geometry_types":["point"],"unique_name":null,"name":"Oklahoma Dept of Corrections, Oklahoma State Adult Correctional Institutions, Oklahoma, 3.2008 ","feature_count":17,"description":"This dataset displays the locations of all the Adult Correctional Facilities in the state of Oklahoma as of 3.2008. This includes both female and male institutions.\n","next_feature":null,"is_raster":false,"short_classification":"Y","stats":{"lon":{"max":-94.632618,"mean":-96.736468,"variance":2.16151484944563,"stdev":1.47020911759029,"min":-99.556921,"median":-96.394258},"lat":{"max":36.805724,"mean":35.5201984705882,"variance":0.689356068840013,"stdev":0.830274694808901,"min":34.15879,"median":35.444224}},"features":[{"properties":{"city":"Alva","lon":-98.63236,"zip":"73717-3005","facility":"CHARLES E. \"BILL\" JOHNSON CORRECTIONAL CENTER","id":"a674xy8ukot9","address":"1856 E Flynn Street","lat":36.805724,"state":"OK"},"type":"Feature","geometry":{"type":"Point","coordinates":[-98.63236,36.805724]}},{"properties":{"city":"Hominy","lon":-96.394258,"zip":"74035-0220","facility":"DICK CONNER CORRECTIONAL CENTER","id":"a674xyagyc2u","address":"P.O. Box 220","lat":36.468497,"state":"OK"},"type":"Feature","geometry":{"type":"Point","coordinates":[-96.394258,36.468497]}},{"properties":{"city":"Taft","lon":-95.544564,"zip":"74463-0315","facility":"DR. EDDIE WARRIOR CORRECTIONAL CENTER","id":"a674xyae2r23","address":"P.O. Box 315","lat":35.767788,"state":"OK"},"type":"Feature","geometry":{"type":"Point","coordinates":[-95.544564,35.767788]}},{"properties":{"city":"Atoka","lon":-95.819769,"zip":"74525-8415","facility":"HOWARD McLEOD CORRECTIONAL CENTER","id":"a674xybjilen","address":"1970 E. Whippoorwill Lane","lat":34.15879,"state":"OK"},"type":"Feature","geometry":{"type":"Point","coordinates":[-95.819769,34.15879]}},{"properties":{"city":"McAlester","lon":-95.782995,"zip":"74502-1999","facility":"JACKIE BRANNON CORRECTIONAL CENTER","id":"a674xyat65ux","address":"P.O. Box 1999","lat":34.954344,"state":"OK"},"type":"Feature","geometry":{"type":"Point","coordinates":[-95.782995,34.954344]}},{"properties":{"city":"Helena","lon":-98.277914,"zip":"73741-9606","facility":"JAMES CRABTREE CORRECTIONAL CENTER","id":"a674xy8wc0p7","address":"Route 1","lat":36.546271,"state":"OK"},"type":"Feature","geometry":{"type":"Point","coordinates":[-98.277914,36.546271]}},{"properties":{"city":"Taft","lon":-95.555307,"zip":"74463-0316","facility":"JESS DUNN CORRECTIONAL CENTER","id":"a674xy3rfp6b","address":"P.O. Box 316","lat":35.754752,"state":"OK"},"type":"Feature","geometry":{"type":"Point","coordinates":[-95.555307,35.754752]}},{"properties":{"city":"Hodgen","lon":-94.632618,"zip":"74939-3064","facility":"JIM E. HAMILTON CORRECTIONAL CENTER","id":"a674xy2zjzb4","address":"53468 Mineral Springs Road","lat":34.749056,"state":"OK"},"type":"Feature","geometry":{"type":"Point","coordinates":[-94.632618,34.749056]}},{"properties":{"city":"Boley","lon":-96.472711,"zip":74829,"facility":"JOHN LILLEY CORRECTIONAL CENTER","id":"a674xy5coo3i","address":"P.O. Box 1908","lat":35.481263,"state":"OK"},"type":"Feature","geometry":{"type":"Point","coordinates":[-96.472711,35.481263]}},{"properties":{"city":"Lexington","lon":-97.220321,"zip":"73051-0548","facility":"JOSEPH HARP CORRECTIONAL CENTER","id":"a674xya72xbw","address":"P.O. Box 548","lat":35.016487,"state":"OK"},"type":"Feature","geometry":{"type":"Point","coordinates":[-97.220321,35.016487]}},{"properties":{"city":"Lexington","lon":-97.202993,"zip":"73051-0260","facility":"LEXINGTON ASSESSMENT AND RECEPTION CENTER","id":"a674xxxmggsu","address":"P.O. Box 260","lat":35.032055,"state":"OK"},"type":"Feature","geometry":{"type":"Point","coordinates":[-97.202993,35.032055]}},{"properties":{"city":"McLoud","lon":-97.130665,"zip":74851,"facility":"MABEL BASSETT CORRECTIONAL CENTER","id":"a674xyb252r7","address":"29501 Kickapoo","lat":35.444224,"state":"OK"},"type":"Feature","geometry":{"type":"Point","coordinates":[-97.130665,35.444224]}},{"properties":{"city":"Stringtown","lon":-96.03587,"zip":"74569-0220","facility":"MACK ALFORD CORRECTIONAL CENTER","id":"a674xy7dogag","address":"P.O. Box 220","lat":34.52476,"state":"OK"},"type":"Feature","geometry":{"type":"Point","coordinates":[-96.03587,34.52476]}},{"properties":{"city":"Vinita","lon":-95.121013,"zip":"74301-0887","facility":"NORTHEAST OKLAHOMA CORRECTIONAL CENTER","id":"a674xy2jfl7b","address":"P.O. Box 887","lat":36.659738,"state":"OK"},"type":"Feature","geometry":{"type":"Point","coordinates":[-95.121013,36.659738]}},{"properties":{"city":"McAlester","lon":-95.783216,"zip":"74502-0097","facility":"OKLAHOMA STATE PENITENTIARY","id":"a674xy96gnou","address":"P.O. Box 97","lat":34.950451,"state":"OK"},"type":"Feature","geometry":{"type":"Point","coordinates":[-95.783216,34.950451]}},{"properties":{"city":"Granite","lon":-99.356461,"zip":"73547-0514","facility":"OKLAHOMA STATE REFORMATORY","id":"a674xyauc9ah","address":"P.O. Box 514","lat":34.956003,"state":"OK"},"type":"Feature","geometry":{"type":"Point","coordinates":[-99.356461,34.956003]}},{"properties":{"city":"Fort Supply","lon":-99.556921,"zip":"73841-9718","facility":"WILLIAM S. KEY CORRECTIONAL CENTER","id":"a674xy46gt6m","address":"One William S. Key Boulevard","lat":36.573171,"state":"OK"},"type":"Feature","geometry":{"type":"Point","coordinates":[-99.556921,36.573171]}}],"is_temporal":false,"author":{"url":"http://www.doc.state.ok.us/","metadata":"","contact_name":"","contact_address":"","source":"Oklahoma Dept of Corrections","contact_phone":""},"source":"http://www.doc.state.ok.us/","pagination":{"sort":null,"start":0,"total":17,"limit":1000000},"state":"complete","tags":"correctional,corrections,enforcement,institution,law,oklahoma,prisons","published":"2008-05-07T12:00:00Z","id":487}