{"type":"FeatureCollection","state":"complete","icon_link":null,"title":"Ukraine Auto Dealers","count":63,"geometry_types":["point"],"unique_name":null,"pagination":{"sort":null,"start":0,"limit":1000000,"total":63},"feature_count":63,"data_type":"Dataset","stats":{},"next_feature":null,"is_raster":false,"link":"http://geocommons.com/overlays/493127.json","short_classification":"Y","name":"Ukraine Auto Dealers","is_temporal":false,"description":"","permissions":[{"group_id":"everyone","permissions":{"download":true,"view":true}}],"classification":null,"published":"2015-08-29T13:08:50-04:00","extent":[-130.487,-44.1183,168.75,55.0867],"features":[{"properties":{"name":"Radio SAMARA","city":"Pavlograd","region":"Dnipropetrovsk","media type":"radio","geo_score":0.714,"id":"amr3cf6b9d0d","geo_precision":"zip","location":"48.5334, 35.8705"},"type":"Feature","geometry":{"type":"Point","coordinates":[7.67034530639648,48.6439118155386]}},{"properties":{"name":"Chernivtsi","city":"Chenivtsi","region":"Chenivtsi","media type":"TV","geo_score":0.714,"id":"amr3cexcuhv9","geo_precision":"zip","location":"48.2915, 25.9403"},"type":"Feature","geometry":{"type":"Point","coordinates":[26.0333333,41.7166667]}},{"properties":{"name":"TBA","city":"Chenivtsi","region":"Chenivtsi","media type":"TV","geo_score":0.714,"id":"amr3cf1swsdz","geo_precision":"zip","location":"48.2915, 25.9404"},"type":"Feature","geometry":{"type":"Point","coordinates":[26.0333333,41.7166667]}},{"properties":{"name":"SIGMA","city":"Lozovaya","region":"Dnipropetrovsk","media type":"TV","geo_score":0.714,"id":"amr3cevlvmfl","geo_precision":"zip","location":"49.4629, 35.9181"},"type":"Feature","geometry":{"type":"Point","coordinates":[37.7041667,49.6727778]}},{"properties":{"name":"Channel 9","city":"Dnipropetrovsk","region":"Dnipropetrovsk","media type":"TV","geo_score":0.714,"id":"amr3cfa3k6jm","geo_precision":"zip","location":"48.4500, 34.9834"},"type":"Feature","geometry":{"type":"Point","coordinates":[2.33228,48.86922]}},{"properties":{"name":"TVK 41","city":"Dneprodzerzhinsk","region":"Dnipropetrovsk","media type":"TV","geo_score":0.714,"id":"amr3cfaytax0","geo_precision":"zip","location":"48.5113, 34.6021"},"type":"Feature","geometry":{"type":"Point","coordinates":[168.750082437,-44.118333328]}},{"properties":{"name":"Channel 34","city":"Dnipropetrovsk","region":"Dnipropetrovsk","media type":"TV","geo_score":0.714,"id":"amr3cfbjxsx9","geo_precision":"zip","location":"48.4500, 34.9836"},"type":"Feature","geometry":{"type":"Point","coordinates":[2.33228,48.86922]}},{"properties":{"name":"Angliyskyi Club TV","city":"Dnipropetrovsk","region":"Dnipropetrovsk","media type":"TV","geo_score":0.714,"id":"amr3cf3rlw35","geo_precision":"zip","location":"48.4500, 34.9837"},"type":"Feature","geometry":{"type":"Point","coordinates":[2.33228,48.86922]}},{"properties":{"name":"Channel 11","city":"Dnipropetrovsk","region":"Dnipropetrovsk","media type":"TV","geo_score":0.714,"id":"amr3cf2yhy4r","geo_precision":"zip","location":"48.4500, 34.9838"},"type":"Feature","geometry":{"type":"Point","coordinates":[2.33228,48.86922]}},{"properties":{"name":"Rating Agency","city":"Dnipropetrovsk","region":"Dnipropetrovsk","media type":"Production Studio","geo_score":0.714,"id":"amr3cezpbcov","geo_precision":"zip","location":"48.4500, 34.9839"},"type":"Feature","geometry":{"type":"Point","coordinates":[2.33228,48.86922]}},{"properties":{"name":"Mariupols'ke Telebachennia","city":"Mariuopl","region":"Donetsk","media type":"TV","geo_score":0.714,"id":"amr3cfaocl4q","geo_precision":"zip","location":"47.122595, 37.5819626"},"type":"Feature","geometry":{"type":"Point","coordinates":[-76.2036111,6.9147222]}},{"properties":{"name":"UNION","city":"Makeevka","region":"Donetsk","media type":"TV","geo_score":0.714,"id":"amr3cf0lg1et","geo_precision":"zip","location":"48.0478, 37.9258"},"type":"Feature","geometry":{"type":"Point","coordinates":[-59.1684150695801,55.0867191823004]}},{"properties":{"name":"TOR","city":"Slaviansk","region":"Donetsk","media type":"TV","geo_score":0.714,"id":"amr3cfai3vpw","geo_precision":"zip","location":"48.8552, 37.6245"},"type":"Feature","geometry":{"type":"Point","coordinates":[26.325,42.5861111]}},{"properties":{"name":"SAT-Plus","city":"Slaviansk","region":"Donetsk","media type":"TV","geo_score":0.714,"id":"amr3cf0b076k","geo_precision":"zip","location":"48.8552, 37.6246"},"type":"Feature","geometry":{"type":"Point","coordinates":[26.325,42.5861111]}},{"properties":{"name":"RAI","city":"Burshtyn","region":"Ivano-Frankivsk","media type":"radio","geo_score":0.714,"id":"amr3cewhm206","geo_precision":"zip","location":"49.2586, 24.6249"},"type":"Feature","geometry":{"type":"Point","coordinates":[-61.465242031,45.483446057]}},{"properties":{"name":"Siayvo radio","city":"Kolomyia","region":"Ivano-Frankivsk","media type":"radio","geo_score":0.714,"id":"amr3cf06opyc","geo_precision":"zip","location":"48.5258881, 25.0380912"},"type":"Feature","geometry":{"type":"Point","coordinates":[-65.9333333,-17.6833333]}},{"properties":{"name":"Zakhidnyi Polyus","city":"Ivano-Frankivsk","region":"Ivano-Frankivsk","media type":"radio","geo_score":0.714,"id":"amr3cf4x6eu7","geo_precision":"zip","location":"48.9225224, 24.7103188"},"type":"Feature","geometry":{"type":"Point","coordinates":[11.529389,46.057307]}},{"properties":{"name":"Avtoradio-Kherson","city":"Kherson","region":"Kherson","media type":"radio","geo_score":0.714,"id":"amr3cf1piq8q","geo_precision":"zip","location":"46.6558, 32.6178"},"type":"Feature","geometry":{"type":"Point","coordinates":[67.1575,34.0847222]}},{"properties":{"name":"VTV Plus","city":"Kherson","region":"Kherson","media type":"TV","geo_score":0.714,"id":"amr3cf9qvyex","geo_precision":"zip","location":"46.6558, 32.6179"},"type":"Feature","geometry":{"type":"Point","coordinates":[67.1575,34.0847222]}},{"properties":{"name":"VISION TV","city":"Kyiv","region":"Kyiv","media type":"TV","geo_score":0.714,"id":"amr3cewddkvn","geo_precision":"zip","location":"50.4328, 30.5189"},"type":"Feature","geometry":{"type":"Point","coordinates":[-110.5,27.5833333]}},{"properties":{"name":"Shuster Live","city":"Kyiv","region":"Kyiv","media type":"TV","geo_score":0.714,"id":"amr3cf255u0n","geo_precision":"zip","location":"50.4328, 30.5190"},"type":"Feature","geometry":{"type":"Point","coordinates":[-110.5,27.5833333]}},{"properties":{"name":"HIT FM","city":"Kyiv","region":"Kyiv","media type":"radio","geo_score":0.714,"id":"amr3cfbml0ee","geo_precision":"zip","location":"50.4328, 30.5191"},"type":"Feature","geometry":{"type":"Point","coordinates":[-110.5,27.5833333]}},{"properties":{"name":"CH-P INFO","city":"Kyiv","region":"Kyiv","media type":"TV","geo_score":0.714,"id":"amr3cf9w4zun","geo_precision":"zip","location":"50.4328, 30.5192"},"type":"Feature","geometry":{"type":"Point","coordinates":[-110.5,27.5833333]}},{"properties":{"name":"STB","city":"Kyiv","region":"Kyiv","media type":"TV","geo_score":0.714,"id":"amr3cezgv2yy","geo_precision":"zip","location":"50.4328, 30.5193"},"type":"Feature","geometry":{"type":"Point","coordinates":[-110.5,27.5833333]}},{"properties":{"name":"Russkoye Radio","city":"Kyiv","region":"Kyiv","media type":"radio","geo_score":0.714,"id":"amr3cf2izg8n","geo_precision":"zip","location":"50.4328, 30.5194"},"type":"Feature","geometry":{"type":"Point","coordinates":[-110.5,27.5833333]}},{"properties":{"name":"the Renaissance Radio","city":"Kyiv","region":"Kyiv","media type":"radio","geo_score":0.714,"id":"amr3ceyh99py","geo_precision":"zip","location":"50.4328, 30.5195"},"type":"Feature","geometry":{"type":"Point","coordinates":[-110.5,27.5833333]}},{"properties":{"name":"SES SIRIUS AB","city":"Kyiv","region":"Kyiv","media type":"research","geo_score":0.714,"id":"amr3cf1qodve","geo_precision":"zip","location":"50.4328, 30.5196"},"type":"Feature","geometry":{"type":"Point","coordinates":[-110.5,27.5833333]}},{"properties":{"name":"OPTA","city":"Kyiv","region":"Kyiv","media type":"Production Studio","geo_score":0.714,"id":"amr3cf0zkf29","geo_precision":"zip","location":"50.4328, 30.5197"},"type":"Feature","geometry":{"type":"Point","coordinates":[-110.5,27.5833333]}},{"properties":{"name":"Nashe Radio","city":"Kyiv","region":"Kyiv","media type":"radio","geo_score":0.714,"id":"amr3cexz1ruz","geo_precision":"zip","location":"50.4328, 30.5198"},"type":"Feature","geometry":{"type":"Point","coordinates":[-110.5,27.5833333]}},{"properties":{"name":"Narodnoye Radio","city":"Kyiv","region":"Kyiv","media type":"radio","geo_score":0.714,"id":"amr3cfa6plae","geo_precision":"zip","location":"50.4328, 30.5199"},"type":"Feature","geometry":{"type":"Point","coordinates":[-110.5,27.5833333]}},{"properties":{"name":"Menu-TV","city":"Kyiv","region":"Kyiv","media type":"TV","geo_score":0.714,"id":"amr3cf6ikv8f","geo_precision":"zip","location":"50.4328, 30.5200"},"type":"Feature","geometry":{"type":"Point","coordinates":[-110.5,27.5833333]}},{"properties":{"name":"Jam","city":"Kyiv","region":"Kyiv","media type":"radio","geo_score":0.714,"id":"amr3cf86f93z","geo_precision":"zip","location":"50.4328, 30.5201"},"type":"Feature","geometry":{"type":"Point","coordinates":[-110.5,27.5833333]}},{"properties":{"name":"Kiss FM","city":"Kyiv","region":"Kyiv","media type":"radio","geo_score":0.714,"id":"amr3cf6ziivq","geo_precision":"zip","location":"50.4328, 30.5202"},"type":"Feature","geometry":{"type":"Point","coordinates":[-110.5,27.5833333]}},{"properties":{"name":"Retro FM","city":"Kyiv","region":"Kyiv","media type":"radio","geo_score":0.714,"id":"amr3cf90hpvx","geo_precision":"zip","location":"50.4328, 30.5203"},"type":"Feature","geometry":{"type":"Point","coordinates":[-110.5,27.5833333]}},{"properties":{"name":"Novyi","city":"Kyiv","region":"Kyiv","media type":"TV","geo_score":0.714,"id":"amr3cf2umojp","geo_precision":"zip","location":"50.4328, 30.5204"},"type":"Feature","geometry":{"type":"Point","coordinates":[-110.5,27.5833333]}},{"properties":{"name":"Nashe Radio","city":"Kyiv","region":"Kyiv","media type":"radio","geo_score":0.714,"id":"amr3cex6ybw6","geo_precision":"zip","location":"50.4328, 30.5205"},"type":"Feature","geometry":{"type":"Point","coordinates":[-110.5,27.5833333]}},{"properties":{"name":"Dorosle Radio","city":"Kyiv","region":"Kyiv","media type":"radio","geo_score":0.714,"id":"amr3cexadeis","geo_precision":"zip","location":"50.4328, 30.5206"},"type":"Feature","geometry":{"type":"Point","coordinates":[-110.5,27.5833333]}},{"properties":{"name":"AvtoRadio","city":"Kyiv","region":"Kyiv","media type":"radio","geo_score":0.714,"id":"amr3cevyzo2v","geo_precision":"zip","location":"50.4328, 30.5207"},"type":"Feature","geometry":{"type":"Point","coordinates":[-110.5,27.5833333]}},{"properties":{"name":"RTV","city":"Roven'ki","region":"Luhansk","media type":"TRC","geo_score":0.714,"id":"amr3cew3gwt6","geo_precision":"zip","location":"48.0833, 39.3776"},"type":"Feature","geometry":{"type":"Point","coordinates":[70.5133333,38.1752778]}},{"properties":{"name":"LUCH","city":"Krasnyi Luch","region":"Luhansk","media type":"TV","geo_score":0.714,"id":"amr3ceyo4brl","geo_precision":"zip","location":"48.1428, 38.9206"},"type":"Feature","geometry":{"type":"Point","coordinates":[120.5269444,36.8591667]}},{"properties":{"name":"ZIK","city":"Lviv","region":"Lviv","media type":"TV","geo_score":0.714,"id":"amr3cey7l4ah","geo_precision":"zip","location":"49.8383, 24.0232"},"type":"Feature","geometry":{"type":"Point","coordinates":[25.5666667,-9.8666667]}},{"properties":{"name":"Lvivska Khvylia","city":"Lviv","region":"Lviv","media type":"radio","geo_score":0.714,"id":"amr3cf4vhp9u","geo_precision":"zip","location":"49.8383, 24.0233"},"type":"Feature","geometry":{"type":"Point","coordinates":[25.5666667,-9.8666667]}},{"properties":{"name":"4U radio","city":"Lviv","region":"Lviv","media type":"radio","geo_score":0.714,"id":"amr3cf1y1dng","geo_precision":"zip","location":"49.8383, 24.0234"},"type":"Feature","geometry":{"type":"Point","coordinates":[25.5666667,-9.8666667]}},{"properties":{"name":"Galychyna FM","city":"Lviv","region":"Lviv","media type":"radio","geo_score":0.714,"id":"amr3cexd0g00","geo_precision":"zip","location":"49.8383, 24.0235"},"type":"Feature","geometry":{"type":"Point","coordinates":[25.5666667,-9.8666667]}},{"properties":{"name":"Capital-Media","city":"Lviv","region":"Lviv","media type":"Production Studio","geo_score":0.714,"id":"amr3cez434lm","geo_precision":"zip","location":"49.8383, 24.0236"},"type":"Feature","geometry":{"type":"Point","coordinates":[25.5666667,-9.8666667]}},{"properties":{"name":"TRT channel; Tvoye Radio","city":"Truskavets","region":"Lviv","media type":"TV","geo_score":0.714,"id":"amr3cf5fy00w","geo_precision":"zip","location":"49.8383, 24.0237"},"type":"Feature","geometry":{"type":"Point","coordinates":[13.2941436767578,54.4031455888345]}},{"properties":{"name":"Radio Man 91.1","city":"Lviv","region":"Lviv","media type":"radio","geo_score":0.714,"id":"amr3cez0he4v","geo_precision":"zip","location":"49.8383, 24.0238"},"type":"Feature","geometry":{"type":"Point","coordinates":[25.5666667,-9.8666667]}},{"properties":{"name":"Lux FM","city":"Lviv","region":"Lviv","media type":"radio","geo_score":0.714,"id":"amr3cf2gz7oh","geo_precision":"zip","location":"49.8383, 24.0239"},"type":"Feature","geometry":{"type":"Point","coordinates":[25.5666667,-9.8666667]}},{"properties":{"name":"Moye Radio","city":"Odesa","region":"Odesa","media type":"radio","geo_score":0.714,"id":"amr3cf86yb7h","geo_precision":"zip","location":"46.4775, 30.7325"},"type":"Feature","geometry":{"type":"Point","coordinates":[17.7213889,44.0291667]}},{"properties":{"name":"Yuzhne Telebachennia","city":"Yuzhne","region":"Odesa","media type":"TRC","geo_score":0.714,"id":"amr3cewuszjr","geo_precision":"zip","location":"46.6242, 31.0961"},"type":"Feature","geometry":{"type":"Point","coordinates":[41.4291667,37.8402778]}},{"properties":{"name":"IT-3","city":"Illichevsk","region":"Odesa","media type":"TV","geo_score":0.714,"id":"amr3cevhm9ci","geo_precision":"zip","location":"46.2977945, 30.6458435"},"type":"Feature","geometry":{"type":"Point","coordinates":[57.7805556,-20.3794444]}},{"properties":{"name":"Channel 60 GRAD, Pervoye FM Radio Odessa","city":"Odesa","region":"Odesa","media type":"TV","geo_score":0.714,"id":"amr3cf64rjsz","geo_precision":"zip","location":"46.4775, 30.7325"},"type":"Feature","geometry":{"type":"Point","coordinates":[17.7213889,44.0291667]}},{"properties":{"name":"Studio Izmail, Center of aesthetic education","city":"Izmail","region":"Odesa","media type":"TV","geo_score":0.714,"id":"amr3cf8t11ug","geo_precision":"zip","location":"45.3421228, 28.8359886"},"type":"Feature","geometry":{"type":"Point","coordinates":[49.2086111,39.3663889]}},{"properties":{"name":"Rivne 1","city":"Rivne","region":"Rivne","media type":"TV","geo_score":0.714,"id":"amr3ceww2fyi","geo_precision":"zip","location":"50.6111, 26.2458"},"type":"Feature","geometry":{"type":"Point","coordinates":[-1.25,48.8]}},{"properties":{"name":"TV-4","city":"Ternopil","region":"Ternopil","media type":"TV","geo_score":0.714,"id":"amr3cewqkg7u","geo_precision":"zip","location":"49.5512, 25.5616"},"type":"Feature","geometry":{"type":"Point","coordinates":[31.2811111,52.8783333]}},{"properties":{"name":"TV-4","city":"Ternopil","region":"Ternopil","media type":"TV","geo_score":0.714,"id":"amr3cevcqd18","geo_precision":"zip","location":"49.5512, 25.5617"},"type":"Feature","geometry":{"type":"Point","coordinates":[31.2811111,52.8783333]}},{"properties":{"name":"Nova radio","city":"Lutsk","region":"Volyn (Lutsk)","media type":"radio","geo_score":0.714,"id":"amr3cex71jav","geo_precision":"zip","location":"50.7390, 25.3335"},"type":"Feature","geometry":{"type":"Point","coordinates":[11.7,52.3]}},{"properties":{"name":"Avers","city":"Lutsk","region":"Volyn (Lutsk)","media type":"TRC","geo_score":0.714,"id":"amr3cf4hkeob","geo_precision":"zip","location":"50.7390, 25.3336"},"type":"Feature","geometry":{"type":"Point","coordinates":[11.7,52.3]}},{"properties":{"name":"Chnnel 21","city":"Uzhgorod","region":"Zakarpattia (Uzhgorod)","media type":"TV","geo_score":0.714,"id":"amr3cfbi3iau","geo_precision":"zip","location":"48.6223502, 22.3021255"},"type":"Feature","geometry":{"type":"Point","coordinates":[22.3333333,48.5833333]}},{"properties":{"name":"Velykyi Lug","city":"Zaporizhzhia","region":"Zaporizhzhia","media type":"radio","geo_score":0.714,"id":"amr3ceyft2dx","geo_precision":"zip","location":"47.8538, 35.1779"},"type":"Feature","geometry":{"type":"Point","coordinates":[-130.486692565,54.049449241]}},{"properties":{"name":"ORION","city":"Energodar","region":"Zaporizhzhia","media type":"TV","geo_score":0.714,"id":"amr3cfa3u774","geo_precision":"zip","location":"47.4986, 34.6574"},"type":"Feature","geometry":{"type":"Point","coordinates":[34.4666667,47.5]}},{"properties":{"name":"YUG TRC","city":"Berdiansk","region":"Zaporizhzhia","media type":"TRC","geo_score":0.857,"id":"amr3cfa79s2f","geo_precision":"zip","location":"46.7206, 36.7959"},"type":"Feature","geometry":{"type":"Point","coordinates":[-88.7833333,28.6333333]}},{"properties":{"name":"NTM","city":"Kolomyia","region":null,"media type":"TRC","geo_score":0.0,"id":"amr3cf5nvfmg","geo_precision":"unmatched","location":"48.5258881, 25.0380912"},"type":"Feature","geometry":null}],"url_type":null,"author":{"metadata":"","url":"","contact_name":"","contact_address":"","contact_phone":"","source":""},"source":"","stream_id":493127,"tags":"","contributor":{"url":"http://geocommons.com/users/107017","name":"anamarauli"},"id":493127,"data_attributes":null,"calculation_params":null}