{"type":"FeatureCollection","data_type":"Dataset","url_type":null,"permissions":[{"permissions":{"download":true,"view":true},"group_id":"everyone"}],"classification":null,"title":"NewStuff","count":95,"stream_id":4931,"contributor":{"url":"http://geocommons.com/users/1346","name":"mmcleod"},"data_attributes":null,"calculation_params":null,"icon_link":null,"link":"http://geocommons.com/overlays/4931.json","extent":[-122.664,-43.7636,169.385,53.5663],"geometry_types":["point"],"unique_name":null,"name":"NewStuff","feature_count":95,"description":"","next_feature":null,"is_raster":false,"short_classification":"Y","stats":{"lat":{"max":53.566341,"mean":42.2183527473684,"variance":127.917838132101,"stdev":11.3100768402386,"min":-43.76363,"median":43.576084},"long":{"max":169.384872,"mean":-76.9665398526316,"variance":871.285666012067,"stdev":29.5175484417671,"min":-122.664139,"median":-79.666145}},"features":[{"properties":{"city":"Hornby","zip":"LOP IE0","company name":"Associated Paving Co Ltd","address 1":"","id":"a6ci27k8ygft","lat":-43.76363,"address":"7886 Winston Churchill Blvd","province":"ON","long":169.384872},"type":"Feature","geometry":{"type":"Point","coordinates":[169.384872,-43.76363]}},{"properties":{"city":"Barry s Bay","zip":"K0J 1B0","company name":"Township of Madawaska Valley","address 1":"","id":"a6ci278nacyk","lat":0,"address":"85 Bay Street","province":"ON","long":0},"type":"Feature","geometry":{"type":"Point","coordinates":[0.0,0.0]}},{"properties":{"city":"Acton","zip":"L7J2L8","company name":"Acton Precast","address 1":"","id":"a6ci27efmh9t","lat":0,"address":"Route #2","province":"ON","long":0},"type":"Feature","geometry":{"type":"Point","coordinates":[0.0,0.0]}},{"properties":{"city":"Monterrey","zip":64650,"company name":"EMMSA Co-Monterrey","address 1":"Col Santa Maria","id":"a6ci27lzyu6b","lat":25.661619,"address":"Blvd Diaz Ordaz 317","province":"NL","long":-100.312897},"type":"Feature","geometry":{"type":"Point","coordinates":[-100.312897,25.661619]}},{"properties":{"city":"Oldcastle","zip":"N0R 1L0","company name":"Underground Specialties","address 1":"","id":"a6ci27a40e9k","lat":42.23547,"address":"RR#1 5340 Walker Road","province":"ON","long":-82.963684},"type":"Feature","geometry":{"type":"Point","coordinates":[-82.963684,42.23547]}},{"properties":{"city":"Dresden","zip":"N0P 1M0","company name":"Babcock Supply Ltd","address 1":"","id":"a6ci27c8uibc","lat":42.57402,"address":"10357 Base Line","province":"ON","long":-82.178741},"type":"Feature","geometry":{"type":"Point","coordinates":[-82.178741,42.57402]}},{"properties":{"city":"Simcoe","zip":"N3Y 4T2","company name":"Anders Contracting","address 1":"","id":"a6ci27kb8oq4","lat":42.821331,"address":"P O Box 708","province":"ON","long":-80.299759},"type":"Feature","geometry":{"type":"Point","coordinates":[-80.299759,42.821331]}},{"properties":{"city":"Delhi","zip":"N4B 2M3","company name":"Norfolk County","address 1":"","id":"a6ci27nzdeci","lat":42.85434,"address":"183 Main Street","province":"ON","long":-80.498871},"type":"Feature","geometry":{"type":"Point","coordinates":[-80.498871,42.85434]}},{"properties":{"city":"Otterville","zip":"N0J 1R0","company name":"Township of Norwich","address 1":"","id":"a6ci27ntmkx0","lat":42.926746,"address":"210 Main Street","province":"ON","long":-80.602585},"type":"Feature","geometry":{"type":"Point","coordinates":[-80.602585,42.926746]}},{"properties":{"city":"London","zip":"N6A 4N7","company name":"Emco Limited-London","address 1":"P O Box 5300 Stn A","id":"a6ci27kf5ky9","lat":42.962097,"address":"944 Leathorne Street","province":"ON","long":-81.214706},"type":"Feature","geometry":{"type":"Point","coordinates":[-81.214706,42.962097]}},{"properties":{"city":"London","zip":"N6A 4N7","company name":"Emco Limited-Mississauga","address 1":"","id":"a6ci27d31orf","lat":42.985222,"address":"P O Box 5300 Stn A","province":"ON","long":-81.250343},"type":"Feature","geometry":{"type":"Point","coordinates":[-81.250343,42.985222]}},{"properties":{"city":"London","zip":"N6A 4N7","company name":"Emco Limited-Oshawa","address 1":"","id":"a6ci27o1zbxu","lat":42.985222,"address":"P O Box 5300 Stn A","province":"ON","long":-81.250343},"type":"Feature","geometry":{"type":"Point","coordinates":[-81.250343,42.985222]}},{"properties":{"city":"London","zip":"N6A 4V7","company name":"TCG Asphalt &amp; Construction","address 1":"","id":"a6ci27gq7cg8","lat":42.985222,"address":"P O Box 189","province":"ON","long":-81.250343},"type":"Feature","geometry":{"type":"Point","coordinates":[-81.250343,42.985222]}},{"properties":{"city":"London","zip":"N6A 4N7","company name":"Wamco Waterworks-Barrie","address 1":"P O Box 5300 Stn A","id":"a6ci27klu381","lat":42.985222,"address":"Emco Corporation","province":"ON","long":-81.250343},"type":"Feature","geometry":{"type":"Point","coordinates":[-81.250343,42.985222]}},{"properties":{"city":"London","zip":"N6A 4N7","company name":"Emco Limited-Burlington","address 1":"","id":"a6ci27jr6jes","lat":42.985222,"address":"P O Box 5300 Stn A","province":"ON","long":-81.250343},"type":"Feature","geometry":{"type":"Point","coordinates":[-81.250343,42.985222]}},{"properties":{"city":"London","zip":"N6A 4N7","company name":"Emco Limited-Guelph","address 1":"","id":"a6ci27m7opq4","lat":42.985222,"address":"P O Box 5300 Stn A","province":"ON","long":-81.250343},"type":"Feature","geometry":{"type":"Point","coordinates":[-81.250343,42.985222]}},{"properties":{"city":"Welland","zip":"L3B 6H8","company name":"Procon Niagara","address 1":"401 Enterprise Drive R.R.4","id":"a6ci27g79k9g","lat":42.990719,"address":"1149855 Ontario Inc","province":"ON","long":-79.250191},"type":"Feature","geometry":{"type":"Point","coordinates":[-79.250191,42.990719]}},{"properties":{"city":"London","zip":"N6A 4N7","company name":"Emco Limited-Kitchener","address 1":"P O Box 5300 Stn A","id":"a6ci27hf7fxp","lat":42.994236,"address":"1108 Dundas St","province":"ON","long":-81.213387},"type":"Feature","geometry":{"type":"Point","coordinates":[-81.213387,42.994236]}},{"properties":{"city":"London","zip":"N6A 4N7","company name":"Emco Limited-Thunder Bay","address 1":"P O Box 5300 Stn A","id":"a6ci27hemfkb","lat":42.994236,"address":"1108 Dundas Street","province":"ON","long":-81.213387},"type":"Feature","geometry":{"type":"Point","coordinates":[-81.213387,42.994236]}},{"properties":{"city":"London","zip":"N5W 2P7","company name":"Addaline Asphalt Maintenance","address 1":"","id":"a6ci27i1japk","lat":42.995319,"address":"74 Doulton St","province":"ON","long":-81.198814},"type":"Feature","geometry":{"type":"Point","coordinates":[-81.198814,42.995319]}},{"properties":{"city":"London","zip":"N5V 3P6","company name":"Southwold Diversified Ltd","address 1":"","id":"a6ci27ob04cg","lat":43.026012,"address":"2096 Jetstream Rd","province":"ON","long":-81.165825},"type":"Feature","geometry":{"type":"Point","coordinates":[-81.165825,43.026012]}},{"properties":{"city":"Scotland","zip":"N0E 1R0","company name":"Roswell Concrete Products LTD","address 1":"RR#3","id":"a6ci27nuuavt","lat":43.032162,"address":"218 Burford-Delhi Townline Rd","province":"ON","long":-80.366241},"type":"Feature","geometry":{"type":"Point","coordinates":[-80.366241,43.032162]}},{"properties":{"city":"Niagara Falls","zip":"L2E 6S4","company name":"The City of Niagara Falls","address 1":"","id":"a6ci27fq90yb","lat":43.10648,"address":"3200 Stanley Avenue","province":"ON","long":-79.068291},"type":"Feature","geometry":{"type":"Point","coordinates":[-79.068291,43.10648]}},{"properties":{"city":"Brantford","zip":"N3S 7V6","company name":"Subterra Inc","address 1":"","id":"a6ci27ks2x18","lat":43.158943,"address":"419 Henry Street","province":"ON","long":-80.21666},"type":"Feature","geometry":{"type":"Point","coordinates":[-80.21666,43.158943]}},{"properties":{"city":"St. Catharines","zip":"L2R 7A3","company name":"Rankin Construction Inc","address 1":"","id":"a6ci27fm35dg","lat":43.174034,"address":"222 Martindale Rd","province":"ON","long":-79.273972},"type":"Feature","geometry":{"type":"Point","coordinates":[-79.273972,43.174034]}},{"properties":{"city":"St. Catharines","zip":"L2M 6S6","company name":"Emco Limited-St. Catharines","address 1":"","id":"a6ci27ipb5ie","lat":43.17421,"address":"24 Seapark Dr.","province":"ON","long":-79.202965},"type":"Feature","geometry":{"type":"Point","coordinates":[-79.202965,43.17421]}},{"properties":{"city":"Paris","zip":"N3L 3E2","company name":"Paris Construction Company Ltd","address 1":"","id":"a6ci27dbbi7z","lat":43.18343,"address":"900 Keg Lane RR #2","province":"ON","long":-80.374847},"type":"Feature","geometry":{"type":"Point","coordinates":[-80.374847,43.18343]}},{"properties":{"city":"Hamilton","zip":"L8W 392","company name":"Emco Limited-Hamilton","address 1":"","id":"a6ci27bxy1jt","lat":43.188183,"address":"1660 Upper Ottawa St. Unit #5","province":"ON","long":-79.845169},"type":"Feature","geometry":{"type":"Point","coordinates":[-79.845169,43.188183]}},{"properties":{"city":"Beamsville","zip":"L0R 1B1","company name":"Town of Lincoln","address 1":"","id":"a6ci27owl8tp","lat":43.188358,"address":"4800 South Service Rd","province":"ON","long":-79.467155},"type":"Feature","geometry":{"type":"Point","coordinates":[-79.467155,43.188358]}},{"properties":{"city":"Grimsby","zip":"L3M 4G3","company name":"Town of Grimsby","address 1":"P O Box 159","id":"a6ci27bx74h5","lat":43.198864,"address":"160 Livingston Avenue","province":"ON","long":-79.583382},"type":"Feature","geometry":{"type":"Point","coordinates":[-79.583382,43.198864]}},{"properties":{"city":"Winona","zip":"L8E 5H8","company name":"Aesthetics Landscape Contr","address 1":"","id":"a6ci27hwrv10","lat":43.208847,"address":"1092 Highway 8","province":"ON","long":-79.666145},"type":"Feature","geometry":{"type":"Point","coordinates":[-79.666145,43.208847]}},{"properties":{"city":"Grimsby","zip":"L3M 4E8","company name":"Andrew Peller Limited","address 1":"","id":"a6ci27ekqjl1","lat":43.213089,"address":"697 South Service Road","province":"ON","long":-79.622307},"type":"Feature","geometry":{"type":"Point","coordinates":[-79.622307,43.213089]}},{"properties":{"city":"Virgil","zip":"L0S 1T0","company name":"Town of Niagara on the Lake","address 1":"","id":"a6ci27oxmd2x","lat":43.218769,"address":"P O Box 100","province":"ON","long":-79.132568},"type":"Feature","geometry":{"type":"Point","coordinates":[-79.132568,43.218769]}},{"properties":{"city":"Hamilton","zip":"L8V 4L5","company name":"The Barclay Construction Group","address 1":"","id":"a6ci279qrhuv","lat":43.224529,"address":"P O Box 4100 Station D","province":"ON","long":-79.84053},"type":"Feature","geometry":{"type":"Point","coordinates":[-79.84053,43.224529]}},{"properties":{"city":"St George","zip":"N0E 1N0","company name":"McCoy Construction Castings","address 1":"159 Sugar Maple","id":"a6ci27lmozx1","lat":43.235245,"address":"Canadian Construction Castings","province":"ON","long":-80.264053},"type":"Feature","geometry":{"type":"Point","coordinates":[-80.264053,43.235245]}},{"properties":{"city":"Hamilton","zip":"L8H 7K8","company name":"Samuel Son &amp; Company Ltd","address 1":"P O Box 3155 LCD 4","id":"a6ci27gepyrk","lat":43.241997,"address":"Samuel Flat Rolled Processing","province":"ON","long":-79.84967},"type":"Feature","geometry":{"type":"Point","coordinates":[-79.84967,43.241997]}},{"properties":{"city":"Dundas","zip":"L9H5E3","company name":"Adam s Plumbing and Pump","address 1":"","id":"a6ci27ifm70d","lat":43.265224,"address":"RR # 3 1413 Hwy 99","province":"ON","long":-79.944725},"type":"Feature","geometry":{"type":"Point","coordinates":[-79.944725,43.265224]}},{"properties":{"city":"Burlington Road","zip":"L7T 2X9","company name":"Phil Groves Sewer Services","address 1":"","id":"a6ci27fbfzhg","lat":43.324196,"address":"#4-633 Enfield Road","province":"ON","long":-79.834602},"type":"Feature","geometry":{"type":"Point","coordinates":[-79.834602,43.324196]}},{"properties":{"city":"Burlington","zip":"L7P 2J6","company name":"A-1 Asphalt Maintenance Ltd","address 1":"","id":"a6ci2791yxda","lat":43.348541,"address":"2233 Harold Road","province":"ON","long":-79.815819},"type":"Feature","geometry":{"type":"Point","coordinates":[-79.815819,43.348541]}},{"properties":{"city":"Stratford","zip":"N5A 6T5","company name":"Festival Hydro Inc","address 1":"P O Box 397","id":"a6ci27op2brz","lat":43.367706,"address":"187 Erie Street","province":"ON","long":-80.985779},"type":"Feature","geometry":{"type":"Point","coordinates":[-80.985779,43.367706]}},{"properties":{"city":"Kitchener","zip":"N2P 2X2","company name":"Ersman Construction Inc","address 1":"","id":"a6ci27m31i4b","lat":43.382889,"address":"44 Woodsmere Drive","province":"ON","long":-80.429863},"type":"Feature","geometry":{"type":"Point","coordinates":[-80.429863,43.382889]}},{"properties":{"city":"Oakville","zip":"L6M 3L1","company name":"Regional Municipality  Halton","address 1":"","id":"a6ci27l9tocy","lat":43.41383,"address":"1151 Bronte Rd","province":"ON","long":-79.745529},"type":"Feature","geometry":{"type":"Point","coordinates":[-79.745529,43.41383]}},{"properties":{"city":"Oakville","zip":"L6L 2X8","company name":"New-Alliance Ltd","address 1":"","id":"a6ci27ckme9u","lat":43.417213,"address":"2050 Speers Rd Unit 6","province":"ON","long":-79.718735},"type":"Feature","geometry":{"type":"Point","coordinates":[-79.718735,43.417213]}},{"properties":{"city":"Morrison","zip":"N0B 2C0","company name":"North America Construction Ltd","address 1":"","id":"a6ci27azw0tn","lat":43.449543,"address":"21 Queen Street","province":"ON","long":-80.118813},"type":"Feature","geometry":{"type":"Point","coordinates":[-80.118813,43.449543]}},{"properties":{"city":"Kitchener","zip":"N2K 2B7","company name":"Steed and Evans Limited","address 1":"","id":"a6ci27eywl06","lat":43.477104,"address":"300 Bridge St East","province":"ON","long":-80.466171},"type":"Feature","geometry":{"type":"Point","coordinates":[-80.466171,43.477104]}},{"properties":{"city":"Guelph","zip":"N1H 3Z6","company name":"T D I International Inc","address 1":"","id":"a6ci27obijwf","lat":43.549824,"address":"54 Cardigan Street","province":"ON","long":-80.253716},"type":"Feature","geometry":{"type":"Point","coordinates":[-80.253716,43.549824]}},{"properties":{"city":"Mississauga","zip":"L5E 1G9","company name":"Filamat Composites Inc","address 1":"","id":"a6ci27c0draf","lat":43.573032,"address":"880 Rangeview Road","province":"ON","long":-79.55912},"type":"Feature","geometry":{"type":"Point","coordinates":[-79.55912,43.573032]}},{"properties":{"city":"Mississauga","zip":"L5C 1T7","company name":"Lakeside Contracting Co. Ltd","address 1":"","id":"a6ci27j0x3zv","lat":43.576084,"address":"3513 Mavis Road","province":"ON","long":-79.646904},"type":"Feature","geometry":{"type":"Point","coordinates":[-79.646904,43.576084]}},{"properties":{"city":"Etobicoke","zip":"M8Z 5E7","company name":"TWD Roads Management-Etobicoke","address 1":"","id":"a6ci279ydry5","lat":43.608753,"address":"461 Kipling Avenue","province":"ON","long":-79.52108},"type":"Feature","geometry":{"type":"Point","coordinates":[-79.52108,43.608753]}},{"properties":{"city":"*","zip":"M8Z 5Z6","company name":"Toronto Cash","address 1":"","id":"a6ci27anarlj","lat":43.621632,"address":"*","province":"ON","long":-79.544228},"type":"Feature","geometry":{"type":"Point","coordinates":[-79.544228,43.621632]}},{"properties":{"city":"Mississauga","zip":"L4Z 1X2","company name":"Pave-Tar Construction Co Ltd","address 1":"","id":"a6ci27onxdig","lat":43.627617,"address":"366 Watline Ave","province":"ON","long":-79.663414},"type":"Feature","geometry":{"type":"Point","coordinates":[-79.663414,43.627617]}},{"properties":{"city":"Mississauga","zip":"L4W 2T7","company name":"Service Master of Canada Ltd","address 1":"","id":"a6ci27lxgop5","lat":43.633026,"address":"5462 Timberlea Blvd","province":"ON","long":-79.646774},"type":"Feature","geometry":{"type":"Point","coordinates":[-79.646774,43.633026]}},{"properties":{"city":"Mississauga","zip":"L5T 2V7","company name":"TWD Roads Management-Mississau","address 1":"","id":"a6ci27nazkun","lat":43.635921,"address":"6130 Edwards Blvd","province":"ON","long":-79.680527},"type":"Feature","geometry":{"type":"Point","coordinates":[-79.680527,43.635921]}},{"properties":{"city":"Toronto","zip":"M6K 3E3","company name":"Beanfield Technologies Inc","address 1":"Suite 506","id":"a6ci27heyjyt","lat":43.638386,"address":"77 Mowat Ave","province":"ON","long":-79.425507},"type":"Feature","geometry":{"type":"Point","coordinates":[-79.425507,43.638386]}},{"properties":{"city":"Toronto","zip":"M5B 1K5","company name":"Toronto Hydro Electric System","address 1":"","id":"a6ci27fxpyp3","lat":43.661503,"address":"14 Carlton Street","province":"ON","long":-79.382248},"type":"Feature","geometry":{"type":"Point","coordinates":[-79.382248,43.661503]}},{"properties":{"city":"Toronto","zip":"M9W 5R8","company name":"UCC Group Inc","address 1":"","id":"a6ci27ciuegp","lat":43.678425,"address":"262 Galaxy Blvd","province":"ON","long":-79.580818},"type":"Feature","geometry":{"type":"Point","coordinates":[-79.580818,43.678425]}},{"properties":{"city":"Toronto","zip":"M9W 7K6","company name":"Aecon Construction &amp; Materials","address 1":"Suite 800","id":"a6ci27juporh","lat":43.689648,"address":"20 Carlson Court","province":"ON","long":-79.586731},"type":"Feature","geometry":{"type":"Point","coordinates":[-79.586731,43.689648]}},{"properties":{"city":"Etobicoke","zip":"M9W 3A7","company name":"United Mechanical","address 1":"","id":"a6ci27mk9bnz","lat":43.718575,"address":"19 Taber Road","province":"ON","long":-79.573334},"type":"Feature","geometry":{"type":"Point","coordinates":[-79.573334,43.718575]}},{"properties":{"city":"Toronto","zip":"M2P 1A5","company name":"O. Browne Associates Inc","address 1":"","id":"a6ci27dkbqol","lat":43.740726,"address":"8 Green Valley Rd","province":"ON","long":-79.392944},"type":"Feature","geometry":{"type":"Point","coordinates":[-79.392944,43.740726]}},{"properties":{"city":"Etobicoke","zip":"M9W 5X3","company name":"Tormana Building Supplies Ltd","address 1":"","id":"a6ci27kkvtqs","lat":43.741154,"address":"333 Humberline Dr","province":"ON","long":-79.619423},"type":"Feature","geometry":{"type":"Point","coordinates":[-79.619423,43.741154]}},{"properties":{"city":"Brampton","zip":"L6S 5Z7","company name":"Metric Contracting Services","address 1":"","id":"a6ci27epbj9j","lat":43.744659,"address":"34 Bramtree Court","province":"ON","long":-79.712303},"type":"Feature","geometry":{"type":"Point","coordinates":[-79.712303,43.744659]}},{"properties":{"city":"Scarborough","zip":"M1P 3B3","company name":"Power Plant Supply Co","address 1":"","id":"a6ci278var27","lat":43.755711,"address":"140 Midwest Rd Unit 12","province":"ON","long":-79.269005},"type":"Feature","geometry":{"type":"Point","coordinates":[-79.269005,43.755711]}},{"properties":{"city":"Vaughan","zip":"L4L 1A5","company name":"Sentrex Communications Inc","address 1":"","id":"a6ci27ja2agl","lat":43.784489,"address":"6400 Langstaff Rd","province":"ON","long":-79.593468},"type":"Feature","geometry":{"type":"Point","coordinates":[-79.593468,43.784489]}},{"properties":{"city":"Markham","zip":"L3R 9W3","company name":"Town of Markham","address 1":"101 Town Boulevard","id":"a6ci27p0h985","lat":43.867912,"address":"Anthony Roman Centre","province":"ON","long":-79.318413},"type":"Feature","geometry":{"type":"Point","coordinates":[-79.318413,43.867912]}},{"properties":{"city":"Whity","zip":"L1N 5H8","company name":"Tee Line Products","address 1":"","id":"a6ci27aprtf1","lat":43.878166,"address":"126 Cochrane St","province":"ON","long":-78.952278},"type":"Feature","geometry":{"type":"Point","coordinates":[-78.952278,43.878166]}},{"properties":{"city":"Bolton","zip":"L7E 1R6","company name":"Underground Services(1983)Ltd","address 1":"","id":"a6ci27mghr4i","lat":43.885071,"address":"135 Commercial Road","province":"ON","long":-79.735733},"type":"Feature","geometry":{"type":"Point","coordinates":[-79.735733,43.885071]}},{"properties":{"city":"Markham","zip":"L3P 3J3","company name":"Sam Rabito Construction Ltd","address 1":"","id":"a6ci278wieib","lat":43.916634,"address":"10537 McCowan Rd","province":"ON","long":-79.295921},"type":"Feature","geometry":{"type":"Point","coordinates":[-79.295921,43.916634]}},{"properties":{"city":"King City","zip":"L7B 1KS","company name":"Robert B. Somerville","address 1":"","id":"a6ci27lprpq0","lat":43.938675,"address":"13176 Dufferin St","province":"ON","long":-79.506287},"type":"Feature","geometry":{"type":"Point","coordinates":[-79.506287,43.938675]}},{"properties":{"city":"Gormley","zip":"L0H 1G0","company name":"Mopal Construction Limited","address 1":"","id":"a6ci27hfuh56","lat":43.939499,"address":"P O Box 547","province":"ON","long":-79.382538},"type":"Feature","geometry":{"type":"Point","coordinates":[-79.382538,43.939499]}},{"properties":{"city":"Cobourg","zip":"K9A 2N7","company name":"Town of Cobourg","address 1":"Roads/Sewers Department","id":"a6ci27nau6ua","lat":43.95882,"address":"Public Works Division","province":"ON","long":-78.182083},"type":"Feature","geometry":{"type":"Point","coordinates":[-78.182083,43.95882]}},{"properties":{"city":"Lucknow","zip":"N0G 2H0","company name":"Porter s Division of J.A.","address 1":"R.R. #1 (4 Washington St )","id":"a6ci27dnthlm","lat":43.966461,"address":"Porter Holdings (Lucknow) Ltd","province":"ON","long":-81.516983},"type":"Feature","geometry":{"type":"Point","coordinates":[-81.516983,43.966461]}},{"properties":{"city":"Belleville","zip":"K8N 5B5","company name":"Emco Limited-Belleville","address 1":"","id":"a6ci27lcp2ui","lat":44.185448,"address":"97 Hanna Court South Unit B","province":"ON","long":-77.417465},"type":"Feature","geometry":{"type":"Point","coordinates":[-77.417465,44.185448]}},{"properties":{"city":"Kingston","zip":"K7L 4V4","company name":"Anchor Concrete Products Ltd","address 1":"","id":"a6ci27e5u2la","lat":44.290375,"address":"1645 Sydenham Road","province":"ON","long":-76.539803},"type":"Feature","geometry":{"type":"Point","coordinates":[-76.539803,44.290375]}},{"properties":{"city":"Peterborough","zip":"K9L 1P8","company name":"Peterborough Utilities Service","address 1":"","id":"a6ci27m49fot","lat":44.293327,"address":"1867 Ashburnham Drive","province":"ON","long":-78.298996},"type":"Feature","geometry":{"type":"Point","coordinates":[-78.298996,44.293327]}},{"properties":{"city":"Midland","zip":"L4R 1R2","company name":"Town of Midland","address 1":"","id":"a6ci27apeo4c","lat":44.749699,"address":"575 Dominion Avenue","province":"ON","long":-79.888634},"type":"Feature","geometry":{"type":"Point","coordinates":[-79.888634,44.749699]}},{"properties":{"city":"Lantz","zip":"B2S 3G4","company name":"The Shaw Group Ltd","address 1":"","id":"a6ci27di88tz","lat":44.983471,"address":"P O Box 2130","province":"NS","long":-63.486881},"type":"Feature","geometry":{"type":"Point","coordinates":[-63.486881,44.983471]}},{"properties":{"city":"Saint Remi","zip":"J0L 2LP","company name":"Lecuyer &amp; Fils Ltee","address 1":"","id":"a6ci27ln6bux","lat":45.262257,"address":"17 du Moulin","province":"QC","long":-73.614189},"type":"Feature","geometry":{"type":"Point","coordinates":[-73.614189,45.262257]}},{"properties":{"city":"Saint John","zip":"E2K 5L6","company name":"Strescon Limited","address 1":"","id":"a6ci27hkpp4z","lat":45.26405,"address":"400 Chesley Drive","province":"NB","long":-66.080376},"type":"Feature","geometry":{"type":"Point","coordinates":[-66.080376,45.26405]}},{"properties":{"city":"Nepean","zip":"K2E 6V2","company name":"Utility Structures Inc","address 1":"","id":"a6ci27dpyjwv","lat":45.331078,"address":"61 Bongard Ave","province":"ON","long":-75.716843},"type":"Feature","geometry":{"type":"Point","coordinates":[-75.716843,45.331078]}},{"properties":{"city":"Parry Sound","zip":"P2A 1B4","company name":"Town of Parry Sound","address 1":"52 Seguin St","id":"a6ci278llk5m","lat":45.343502,"address":"Municipal Offices","province":"ON","long":-80.035271},"type":"Feature","geometry":{"type":"Point","coordinates":[-80.035271,45.343502]}},{"properties":{"city":"Carp","zip":"K0A 1L0","company name":"M CON Products Inc","address 1":"","id":"a6ci278qro23","lat":45.36351,"address":"2150 Richardson Side Road","province":"ON","long":-76.03392},"type":"Feature","geometry":{"type":"Point","coordinates":[-76.03392,45.36351]}},{"properties":{"city":"Ottawa","zip":"K1Y 2J7","company name":"Beacon Lite Ltd","address 1":"","id":"a6ci27hyd57a","lat":45.404385,"address":"131 Loretta Ave N","province":"ON","long":-75.716225},"type":"Feature","geometry":{"type":"Point","coordinates":[-75.716225,45.404385]}},{"properties":{"city":"Gloucester","zip":"K1C 7G4","company name":"Laurent Leblanc Limited","address 1":"","id":"a6ci278n39qs","lat":45.465229,"address":"3000 Navan Rd","province":"ON","long":-75.544609},"type":"Feature","geometry":{"type":"Point","coordinates":[-75.544609,45.465229]}},{"properties":{"city":"Montreal","zip":"H3C4W8","company name":"Bell Canada","address 1":"PO Box 11033","id":"a6ci27j642nn","lat":45.486172,"address":"CP 11033","province":"QC","long":-73.549263},"type":"Feature","geometry":{"type":"Point","coordinates":[-73.549263,45.486172]}},{"properties":{"city":"Montreal","zip":"H2Z 1Z3","company name":"SNC-Lavalin Dominican Republic","address 1":"455 Rene-Levesque Blvd West","id":"a6ci27dndvui","lat":45.504459,"address":"Attn:Guy Lavoie/Accts Payable","province":"QC","long":-73.56562},"type":"Feature","geometry":{"type":"Point","coordinates":[-73.56562,45.504459]}},{"properties":{"city":"Saint-Hubert","zip":"J3Y 6T1","company name":"St-Germain Egouts et Aqueducs","address 1":"","id":"a6ci27dnyz6z","lat":45.506451,"address":"3800 Boul Sir-Wilfrid-Laurier","province":"QC","long":-73.446632},"type":"Feature","geometry":{"type":"Point","coordinates":[-73.446632,45.506451]}},{"properties":{"city":"Montreal","zip":"H2Y 1B5","company name":"Ville de Montreal","address 1":"paiement des factures","id":"a6ci27j7sfoz","lat":45.506512,"address":"Bureau de la verification et","province":"QC","long":-73.555992},"type":"Feature","geometry":{"type":"Point","coordinates":[-73.555992,45.506512]}},{"properties":{"city":"Sudbury","zip":"P3A 4R7","company name":"Wamco Waterworks North-Sudbury","address 1":"","id":"a6ci27b39jn5","lat":46.534546,"address":"1771 Old Falconbridge Road","province":"ON","long":-80.913033},"type":"Feature","geometry":{"type":"Point","coordinates":[-80.913033,46.534546]}},{"properties":{"city":"Chicoutimi","zip":"G7H 8B6","company name":"Produits BCM Ltee","address 1":"","id":"a6ci27hckwni","lat":48.388535,"address":"340 Emile Couture","province":"QC","long":-71.082726},"type":"Feature","geometry":{"type":"Point","coordinates":[-71.082726,48.388535]}},{"properties":{"city":"Langley","zip":"V3A 0B6","company name":"Langley Concrete Group","address 1":"","id":"a6ci27dm6v8c","lat":49.110313,"address":"20152 Logan Ave","province":"BC","long":-122.664139},"type":"Feature","geometry":{"type":"Point","coordinates":[-122.664139,49.110313]}},{"properties":{"city":"Winnipeg","zip":"R3C 3U6","company name":"MTS Allstream Inc","address 1":"","id":"a6ci27epbeuu","lat":49.894726,"address":"333 Main Street","province":"MB","long":-97.137672},"type":"Feature","geometry":{"type":"Point","coordinates":[-97.137672,49.894726]}},{"properties":{"city":"Redcliff","zip":"T0J 2PO","company name":"Fox Safety","address 1":"","id":"a6ci27d55krn","lat":50.077026,"address":"4-1611 Broadway Ave East","province":"AB","long":-110.789124},"type":"Feature","geometry":{"type":"Point","coordinates":[-110.789124,50.077026]}},{"properties":{"city":"Calgary","zip":"T2G 4S7","company name":"ENMAX Corporation","address 1":"","id":"a6ci27f3g5x5","lat":51.008575,"address":"141-50 Avenue SE","province":"AB","long":-114.06324},"type":"Feature","geometry":{"type":"Point","coordinates":[-114.06324,51.008575]}},{"properties":{"city":"Edmonton","zip":"T6E 4T3","company name":"Alliance Excavating Ltd","address 1":"","id":"a6ci27hbaxy8","lat":53.515888,"address":"P O Box 4347","province":"AB","long":-113.497887},"type":"Feature","geometry":{"type":"Point","coordinates":[-113.497887,53.515888]}},{"properties":{"city":"Edmonton","zip":"T5M 1W9","company name":"Martech Marketing","address 1":"","id":"a6ci27h1dtop","lat":53.566341,"address":"11565 - 149 Street","province":"AB","long":-113.576942},"type":"Feature","geometry":{"type":"Point","coordinates":[-113.576942,53.566341]}}],"is_temporal":false,"author":{"url":"","metadata":"","contact_name":"","contact_address":"","source":"","contact_phone":""},"source":"","pagination":{"sort":null,"start":0,"total":95,"limit":1000000},"state":"complete","tags":"","published":"2014-08-11T05:03:38-04:00","id":4931}