{"type":"FeatureCollection","data_type":"Dataset","url_type":null,"permissions":[{"permissions":{"download":true,"view":true},"group_id":"everyone"}],"classification":null,"title":"Test 1","count":408,"stream_id":4956,"contributor":{"url":"http://geocommons.com/users/104","name":"tracy"},"data_attributes":null,"calculation_params":null,"icon_link":null,"link":"http://geocommons.com/overlays/4956.json","extent":[-117.279,32.7437,-117.007,32.9759],"geometry_types":["point"],"unique_name":null,"name":"Test 1","feature_count":408,"description":"","next_feature":null,"is_raster":false,"short_classification":"Y","stats":{"latitude":{"max":32.975854,"mean":32.8073910147059,"variance":0.00133905694507104,"stdev":0.036593127019579,"min":32.743693,"median":32.803442},"id":{"max":76318,"mean":68135.4975490196,"variance":269168334.402942,"stdev":16406.3504291156,"min":851,"median":72672},"zip code":{"max":92131,"mean":92118.7794117647,"variance":139.887339210867,"stdev":11.8273978207747,"min":92014,"median":92120},"longitude":{"max":-117.006729,"mean":-117.075258436274,"variance":0.00200390398013844,"stdev":0.0447649860955908,"min":-117.278836,"median":-117.075778}},"features":[{"properties":{"latitude":32.941453,"id":"a6mmcggrbbz3","zip code":92130,"longitude":-117.226207,"address":"3947 Santa Nella Pl","state":"CA"},"type":"Feature","geometry":{"type":"Point","coordinates":[-117.226207,32.941453]}},{"properties":{"latitude":32.950472,"id":"a6mmcg9yxylj","zip code":92129,"longitude":-117.147485,"address":"8187 Via Escalada","state":"CA"},"type":"Feature","geometry":{"type":"Point","coordinates":[-117.147485,32.950472]}},{"properties":{"latitude":32.848053,"id":"a6mmcgfmssm7","zip code":92122,"longitude":-117.185327,"address":"5124 Via Cinta","state":"CA"},"type":"Feature","geometry":{"type":"Point","coordinates":[-117.185327,32.848053]}},{"properties":{"latitude":32.935491,"id":"a6mmcgcb65bn","zip code":92014,"longitude":-117.254053,"address":"12863 Caminito Del Canto","state":"CA"},"type":"Feature","geometry":{"type":"Point","coordinates":[-117.254053,32.935491]}},{"properties":{"latitude":32.853685,"id":"a6mmcgg7av19","zip code":92037,"longitude":-117.252538,"address":"2345 Avenida De La Play","state":"CA"},"type":"Feature","geometry":{"type":"Point","coordinates":[-117.252538,32.853685]}},{"properties":{"latitude":32.858345,"id":"a6mmcg7yc37n","zip code":92037,"longitude":-117.239745,"address":"8355 N La Jolla Scenic Dr","state":"CA"},"type":"Feature","geometry":{"type":"Point","coordinates":[-117.239745,32.858345]}},{"properties":{"latitude":32.867576,"id":"a6mmcg80rb7x","zip code":92122,"longitude":-117.211335,"address":"8949 Lombard Pl","state":"CA"},"type":"Feature","geometry":{"type":"Point","coordinates":[-117.211335,32.867576]}},{"properties":{"latitude":32.849533,"id":"a6mmcgdapary","zip code":92122,"longitude":-117.190622,"address":"6113 Gullstrand St","state":"CA"},"type":"Feature","geometry":{"type":"Point","coordinates":[-117.190622,32.849533]}},{"properties":{"latitude":32.936276,"id":"a6mmcg4xm2dh","zip code":92014,"longitude":-117.248599,"address":"13084 Via Grimaldi","state":"CA"},"type":"Feature","geometry":{"type":"Point","coordinates":[-117.248599,32.936276]}},{"properties":{"latitude":32.944129,"id":"a6mmcgjtrszw","zip code":92129,"longitude":-117.131605,"address":"9196 Buckwheat St","state":"CA"},"type":"Feature","geometry":{"type":"Point","coordinates":[-117.131605,32.944129]}},{"properties":{"latitude":32.856312,"id":"a6mmcgfphj3j","zip code":92122,"longitude":-117.199299,"address":"6678 Lipmann St","state":"CA"},"type":"Feature","geometry":{"type":"Point","coordinates":[-117.199299,32.856312]}},{"properties":{"latitude":32.853417,"id":"a6mmcgdepr9a","zip code":92122,"longitude":-117.204488,"address":"6350 Genesee Ave","state":"CA"},"type":"Feature","geometry":{"type":"Point","coordinates":[-117.204488,32.853417]}},{"properties":{"latitude":32.847052,"id":"a6mmcgl10rel","zip code":92122,"longitude":-117.22785,"address":"2653 Lange Ave","state":"CA"},"type":"Feature","geometry":{"type":"Point","coordinates":[-117.22785,32.847052]}},{"properties":{"latitude":32.918435,"id":"a6mmcgcxe4sp","zip code":92130,"longitude":-117.226319,"address":"11112 Corte Pleno Verano","state":"CA"},"type":"Feature","geometry":{"type":"Point","coordinates":[-117.226319,32.918435]}},{"properties":{"latitude":32.926058,"id":"a6mmcgflpr39","zip code":92130,"longitude":-117.216116,"address":"4838 Fairport Way","state":"CA"},"type":"Feature","geometry":{"type":"Point","coordinates":[-117.216116,32.926058]}},{"properties":{"latitude":32.928395,"id":"a6mmcgcp2zq8","zip code":92130,"longitude":-117.195911,"address":"10698 Briarlake Woods Dr","state":"CA"},"type":"Feature","geometry":{"type":"Point","coordinates":[-117.195911,32.928395]}},{"properties":{"latitude":32.865933,"id":"a6mmcg63mxyq","zip code":92122,"longitude":-117.224562,"address":"3395 Lebon Dr","state":"CA"},"type":"Feature","geometry":{"type":"Point","coordinates":[-117.224562,32.865933]}},{"properties":{"latitude":32.925222,"id":"a6mmcgby8fz4","zip code":92130,"longitude":-117.21866,"address":"4530 Shorepointe Way","state":"CA"},"type":"Feature","geometry":{"type":"Point","coordinates":[-117.21866,32.925222]}},{"properties":{"latitude":32.957167,"id":"a6mmcg5h0f9o","zip code":92130,"longitude":-117.231597,"address":"3818 Quarter Mile Dr","state":"CA"},"type":"Feature","geometry":{"type":"Point","coordinates":[-117.231597,32.957167]}},{"properties":{"latitude":32.865279,"id":"a6mmcgk1cl4c","zip code":92122,"longitude":-117.221438,"address":"8222 Regents Rd","state":"CA"},"type":"Feature","geometry":{"type":"Point","coordinates":[-117.221438,32.865279]}},{"properties":{"latitude":32.832145,"id":"a6mmcg80746e","zip code":92037,"longitude":-117.278836,"address":"357 Westbourne St","state":"CA"},"type":"Feature","geometry":{"type":"Point","coordinates":[-117.278836,32.832145]}},{"properties":{"latitude":32.852662,"id":"a6mmcgcm2bbf","zip code":92037,"longitude":-117.255582,"address":"8001 El Paseo Grande","state":"CA"},"type":"Feature","geometry":{"type":"Point","coordinates":[-117.255582,32.852662]}},{"properties":{"latitude":32.975854,"id":"a6mmcg5wtn1p","zip code":92129,"longitude":-117.134763,"address":"14249 Barrymore St","state":"CA"},"type":"Feature","geometry":{"type":"Point","coordinates":[-117.134763,32.975854]}},{"properties":{"latitude":32.922796,"id":"a6mmcggv4wj9","zip code":92131,"longitude":-117.050451,"address":"11358 Merritage Ct","state":"CA"},"type":"Feature","geometry":{"type":"Point","coordinates":[-117.050451,32.922796]}},{"properties":{"latitude":32.82067,"id":"a6mmcgbv8pew","zip code":92124,"longitude":-117.109862,"address":"10035 Keppler Dr","state":"CA"},"type":"Feature","geometry":{"type":"Point","coordinates":[-117.109862,32.82067]}},{"properties":{"latitude":32.817054,"id":"a6mmcggnjuoy","zip code":92124,"longitude":-117.078335,"address":"11676 Cacao Ct","state":"CA"},"type":"Feature","geometry":{"type":"Point","coordinates":[-117.078335,32.817054]}},{"properties":{"latitude":32.834693,"id":"a6mmcg5mvnk1","zip code":92124,"longitude":-117.101551,"address":"10540 Hermanos Ct","state":"CA"},"type":"Feature","geometry":{"type":"Point","coordinates":[-117.101551,32.834693]}},{"properties":{"latitude":32.83728,"id":"a6mmcg853dvm","zip code":92124,"longitude":-117.101973,"address":"10458 Orozco Rd","state":"CA"},"type":"Feature","geometry":{"type":"Point","coordinates":[-117.101973,32.83728]}},{"properties":{"latitude":32.836752,"id":"a6mmcgdzr2jb","zip code":92124,"longitude":-117.107407,"address":"10268 Perez Ct","state":"CA"},"type":"Feature","geometry":{"type":"Point","coordinates":[-117.107407,32.836752]}},{"properties":{"latitude":32.833607,"id":"a6mmcg93s5ym","zip code":92124,"longitude":-117.092746,"address":"10896 Avenida Play Vrcrz","state":"CA"},"type":"Feature","geometry":{"type":"Point","coordinates":[-117.092746,32.833607]}},{"properties":{"latitude":32.828757,"id":"a6mmcg863ois","zip code":92124,"longitude":-117.077086,"address":"4858 Renovo Way","state":"CA"},"type":"Feature","geometry":{"type":"Point","coordinates":[-117.077086,32.828757]}},{"properties":{"latitude":32.835273,"id":"a6mmcg5jlzxv","zip code":92124,"longitude":-117.080195,"address":"5030 Playa Catalina","state":"CA"},"type":"Feature","geometry":{"type":"Point","coordinates":[-117.080195,32.835273]}},{"properties":{"latitude":32.839597,"id":"a6mmcgdlhawk","zip code":92124,"longitude":-117.084163,"address":"11316 Camino Playa Cancn","state":"CA"},"type":"Feature","geometry":{"type":"Point","coordinates":[-117.084163,32.839597]}},{"properties":{"latitude":32.822706,"id":"a6mmcg8ucs0t","zip code":92124,"longitude":-117.08887,"address":"4282 Cartulina Rd","state":"CA"},"type":"Feature","geometry":{"type":"Point","coordinates":[-117.08887,32.822706]}},{"properties":{"latitude":32.816699,"id":"a6mmcg6uo5cz","zip code":92119,"longitude":-117.014389,"address":"8332 Morning Mist Ct","state":"CA"},"type":"Feature","geometry":{"type":"Point","coordinates":[-117.014389,32.816699]}},{"properties":{"latitude":32.796243,"id":"a6mmcg60ause","zip code":92119,"longitude":-117.028511,"address":"7839 Lake Andrita Ave","state":"CA"},"type":"Feature","geometry":{"type":"Point","coordinates":[-117.028511,32.796243]}},{"properties":{"latitude":32.792576,"id":"a6mmcg5cmra9","zip code":92119,"longitude":-117.034474,"address":"6223 Lake Lomond Dr","state":"CA"},"type":"Feature","geometry":{"type":"Point","coordinates":[-117.034474,32.792576]}},{"properties":{"latitude":32.780631,"id":"a6mmcgd8ixyg","zip code":92120,"longitude":-117.05686,"address":"6554 Altair Ct","state":"CA"},"type":"Feature","geometry":{"type":"Point","coordinates":[-117.05686,32.780631]}},{"properties":{"latitude":32.798103,"id":"a6mmcgjs38qg","zip code":92120,"longitude":-117.06866,"address":"7149 Eldridge St","state":"CA"},"type":"Feature","geometry":{"type":"Point","coordinates":[-117.06866,32.798103]}},{"properties":{"latitude":32.791379,"id":"a6mmcg55kyzz","zip code":92120,"longitude":-117.084764,"address":"5060 Orcutt Ave","state":"CA"},"type":"Feature","geometry":{"type":"Point","coordinates":[-117.084764,32.791379]}},{"properties":{"latitude":32.764196,"id":"a6mmcgk0cfgn","zip code":92115,"longitude":-117.081602,"address":"4759 Baylor Dr","state":"CA"},"type":"Feature","geometry":{"type":"Point","coordinates":[-117.081602,32.764196]}},{"properties":{"latitude":32.756099,"id":"a6mmcg8s22ny","zip code":92115,"longitude":-117.058789,"address":"4301 Lerida Dr","state":"CA"},"type":"Feature","geometry":{"type":"Point","coordinates":[-117.058789,32.756099]}},{"properties":{"latitude":32.755765,"id":"a6mmcg8zfhgm","zip code":92115,"longitude":-117.057327,"address":"6483 Malcolm Dr","state":"CA"},"type":"Feature","geometry":{"type":"Point","coordinates":[-117.057327,32.755765]}},{"properties":{"latitude":32.923536,"id":"a6mmcgjjvekm","zip code":92131,"longitude":-117.05029,"address":"11412 Merritage Ct","state":"CA"},"type":"Feature","geometry":{"type":"Point","coordinates":[-117.05029,32.923536]}},{"properties":{"latitude":32.92495,"id":"a6mmcg8qg7rj","zip code":92131,"longitude":-117.014378,"address":"15542 Camden Pl","state":"CA"},"type":"Feature","geometry":{"type":"Point","coordinates":[-117.014378,32.92495]}},{"properties":{"latitude":32.92327,"id":"a6mmcgivy2if","zip code":92131,"longitude":-117.052542,"address":"11375 Fortino Pt","state":"CA"},"type":"Feature","geometry":{"type":"Point","coordinates":[-117.052542,32.92327]}},{"properties":{"latitude":32.926226,"id":"a6mmcg4xq0oi","zip code":92131,"longitude":-117.016536,"address":"16241 Stonebridge Pkwy","state":"CA"},"type":"Feature","geometry":{"type":"Point","coordinates":[-117.016536,32.926226]}},{"properties":{"latitude":32.892915,"id":"a6mmcg5tm4fi","zip code":92126,"longitude":-117.132021,"address":"1467 Sun King Rd","state":"CA"},"type":"Feature","geometry":{"type":"Point","coordinates":[-117.132021,32.892915]}},{"properties":{"latitude":32.804861,"id":"a6mmcgcdri3v","zip code":92124,"longitude":-117.107898,"address":"10250 Bridget Ct","state":"CA"},"type":"Feature","geometry":{"type":"Point","coordinates":[-117.107898,32.804861]}},{"properties":{"latitude":32.809077,"id":"a6mmcgbxzgyb","zip code":92124,"longitude":-117.111221,"address":"3542 Kelsey St","state":"CA"},"type":"Feature","geometry":{"type":"Point","coordinates":[-117.111221,32.809077]}},{"properties":{"latitude":32.808123,"id":"a6mmcgj0rnew","zip code":92124,"longitude":-117.10579,"address":"3425 Taussig St","state":"CA"},"type":"Feature","geometry":{"type":"Point","coordinates":[-117.10579,32.808123]}},{"properties":{"latitude":32.815806,"id":"a6mmcga44zr5","zip code":92124,"longitude":-117.103751,"address":"10487 Shields Ct","state":"CA"},"type":"Feature","geometry":{"type":"Point","coordinates":[-117.103751,32.815806]}},{"properties":{"latitude":32.819683,"id":"a6mmcgb6g5yz","zip code":92124,"longitude":-117.098681,"address":"10863 Baroque Ln","state":"CA"},"type":"Feature","geometry":{"type":"Point","coordinates":[-117.098681,32.819683]}},{"properties":{"latitude":32.816379,"id":"a6mmcg641koj","zip code":92124,"longitude":-117.098098,"address":"10962 Baroque Ln","state":"CA"},"type":"Feature","geometry":{"type":"Point","coordinates":[-117.098098,32.816379]}},{"properties":{"latitude":32.814202,"id":"a6mmcg9y09lv","zip code":92124,"longitude":-117.099204,"address":"4535 La Cuenta Dr","state":"CA"},"type":"Feature","geometry":{"type":"Point","coordinates":[-117.099204,32.814202]}},{"properties":{"latitude":32.816027,"id":"a6mmcg6v80po","zip code":92124,"longitude":-117.099679,"address":"4632 La Cuenta Dr","state":"CA"},"type":"Feature","geometry":{"type":"Point","coordinates":[-117.099679,32.816027]}},{"properties":{"latitude":32.818076,"id":"a6mmcg8l1t7j","zip code":92124,"longitude":-117.09956,"address":"4759 La Cuenta Dr","state":"CA"},"type":"Feature","geometry":{"type":"Point","coordinates":[-117.09956,32.818076]}},{"properties":{"latitude":32.819022,"id":"a6mmcgh8200u","zip code":92124,"longitude":-117.09719,"address":"4969 Paguera Ct","state":"CA"},"type":"Feature","geometry":{"type":"Point","coordinates":[-117.09719,32.819022]}},{"properties":{"latitude":32.818807,"id":"a6mmcg646i3t","zip code":92124,"longitude":-117.097094,"address":"4992 Paguera Ct","state":"CA"},"type":"Feature","geometry":{"type":"Point","coordinates":[-117.097094,32.818807]}},{"properties":{"latitude":32.816828,"id":"a6mmcgek3j6q","zip code":92124,"longitude":-117.098971,"address":"10975 Valldemosa Ln","state":"CA"},"type":"Feature","geometry":{"type":"Point","coordinates":[-117.098971,32.816828]}},{"properties":{"latitude":32.817138,"id":"a6mmcg9i7d57","zip code":92124,"longitude":-117.094618,"address":"10920 Viacha Ct","state":"CA"},"type":"Feature","geometry":{"type":"Point","coordinates":[-117.094618,32.817138]}},{"properties":{"latitude":32.80925,"id":"a6mmcg624zw9","zip code":92124,"longitude":-117.097618,"address":"10365 Viacha Dr","state":"CA"},"type":"Feature","geometry":{"type":"Point","coordinates":[-117.097618,32.80925]}},{"properties":{"latitude":32.814032,"id":"a6mmcgf3mj03","zip code":92124,"longitude":-117.096308,"address":"10676 Viacha Dr","state":"CA"},"type":"Feature","geometry":{"type":"Point","coordinates":[-117.096308,32.814032]}},{"properties":{"latitude":32.81268,"id":"a6mmcgact2qo","zip code":92124,"longitude":-117.081679,"address":"11395 Cascada Way","state":"CA"},"type":"Feature","geometry":{"type":"Point","coordinates":[-117.081679,32.81268]}},{"properties":{"latitude":32.812456,"id":"a6mmcgc7z9n0","zip code":92124,"longitude":-117.0808,"address":"11449 Cascada Way","state":"CA"},"type":"Feature","geometry":{"type":"Point","coordinates":[-117.0808,32.812456]}},{"properties":{"latitude":32.792889,"id":"a6mmcgck2nty","zip code":92124,"longitude":-117.107494,"address":"6569 Reflection Dr","state":"CA"},"type":"Feature","geometry":{"type":"Point","coordinates":[-117.107494,32.792889]}},{"properties":{"latitude":32.811598,"id":"a6mmcgcz3bv9","zip code":92124,"longitude":-117.108152,"address":"10325 Bordelon St","state":"CA"},"type":"Feature","geometry":{"type":"Point","coordinates":[-117.108152,32.811598]}},{"properties":{"latitude":32.811129,"id":"a6mmcgjkckad","zip code":92124,"longitude":-117.107685,"address":"10357 Bordelon St","state":"CA"},"type":"Feature","geometry":{"type":"Point","coordinates":[-117.107685,32.811129]}},{"properties":{"latitude":32.81725,"id":"a6mmcge9e6zf","zip code":92124,"longitude":-117.078228,"address":"11665 Cacao Ct","state":"CA"},"type":"Feature","geometry":{"type":"Point","coordinates":[-117.078228,32.81725]}},{"properties":{"latitude":32.814649,"id":"a6mmcgfuc31g","zip code":92124,"longitude":-117.078296,"address":"11606 Joyas Ct","state":"CA"},"type":"Feature","geometry":{"type":"Point","coordinates":[-117.078296,32.814649]}},{"properties":{"latitude":32.816244,"id":"a6mmcginf619","zip code":92124,"longitude":-117.078147,"address":"11687 Papagallo Ct","state":"CA"},"type":"Feature","geometry":{"type":"Point","coordinates":[-117.078147,32.816244]}},{"properties":{"latitude":32.829904,"id":"a6mmcggj8sj8","zip code":92124,"longitude":-117.111121,"address":"5435 Oakleaf Pt","state":"CA"},"type":"Feature","geometry":{"type":"Point","coordinates":[-117.111121,32.829904]}},{"properties":{"latitude":32.829606,"id":"a6mmcg8qg6wg","zip code":92124,"longitude":-117.110068,"address":"5391 Outlook Pt","state":"CA"},"type":"Feature","geometry":{"type":"Point","coordinates":[-117.110068,32.829606]}},{"properties":{"latitude":32.829253,"id":"a6mmcgcmlc1u","zip code":92124,"longitude":-117.11274,"address":"9944 Pineknoll Ln","state":"CA"},"type":"Feature","geometry":{"type":"Point","coordinates":[-117.11274,32.829253]}},{"properties":{"latitude":32.828975,"id":"a6mmcg8ukgec","zip code":92124,"longitude":-117.11118,"address":"5365 Rim View Way","state":"CA"},"type":"Feature","geometry":{"type":"Point","coordinates":[-117.11118,32.828975]}},{"properties":{"latitude":32.824006,"id":"a6mmcghx0n89","zip code":92124,"longitude":-117.101699,"address":"10611 Escobar Dr","state":"CA"},"type":"Feature","geometry":{"type":"Point","coordinates":[-117.101699,32.824006]}},{"properties":{"latitude":32.825566,"id":"a6mmcgcxa019","zip code":92124,"longitude":-117.101959,"address":"10641 Porto Ct","state":"CA"},"type":"Feature","geometry":{"type":"Point","coordinates":[-117.101959,32.825566]}},{"properties":{"latitude":32.831216,"id":"a6mmcgfq2m6s","zip code":92124,"longitude":-117.09991,"address":"10641 Gabacho Dr","state":"CA"},"type":"Feature","geometry":{"type":"Point","coordinates":[-117.09991,32.831216]}},{"properties":{"latitude":32.831221,"id":"a6mmcgehk3ct","zip code":92124,"longitude":-117.098603,"address":"10730 Gabacho Dr","state":"CA"},"type":"Feature","geometry":{"type":"Point","coordinates":[-117.098603,32.831221]}},{"properties":{"latitude":32.829156,"id":"a6mmcggmfvxs","zip code":92124,"longitude":-117.09527,"address":"10907 Hijos Way","state":"CA"},"type":"Feature","geometry":{"type":"Point","coordinates":[-117.09527,32.829156]}},{"properties":{"latitude":32.827827,"id":"a6mmcgfuvixk","zip code":92124,"longitude":-117.094876,"address":"5332 Jazmin Ct","state":"CA"},"type":"Feature","geometry":{"type":"Point","coordinates":[-117.094876,32.827827]}},{"properties":{"latitude":32.82785,"id":"a6mmcg8uwc87","zip code":92124,"longitude":-117.09602,"address":"5360 La Cuenta Dr","state":"CA"},"type":"Feature","geometry":{"type":"Point","coordinates":[-117.09602,32.82785]}},{"properties":{"latitude":32.828507,"id":"a6mmcghrzhjx","zip code":92124,"longitude":-117.093455,"address":"10966 Montego Dr","state":"CA"},"type":"Feature","geometry":{"type":"Point","coordinates":[-117.093455,32.828507]}},{"properties":{"latitude":32.829884,"id":"a6mmcgdn3w7z","zip code":92124,"longitude":-117.099233,"address":"5495 Por Techo Ct","state":"CA"},"type":"Feature","geometry":{"type":"Point","coordinates":[-117.099233,32.829884]}},{"properties":{"latitude":32.835776,"id":"a6mmcgl10yhz","zip code":92124,"longitude":-117.104499,"address":"10376 El Honcho Pl","state":"CA"},"type":"Feature","geometry":{"type":"Point","coordinates":[-117.104499,32.835776]}},{"properties":{"latitude":32.83324,"id":"a6mmcg9ixfix","zip code":92124,"longitude":-117.10647,"address":"10351 Matador Ct","state":"CA"},"type":"Feature","geometry":{"type":"Point","coordinates":[-117.10647,32.83324]}},{"properties":{"latitude":32.83173,"id":"a6mmcgjale7k","zip code":92124,"longitude":-117.106469,"address":"10366 Veracruz Ct","state":"CA"},"type":"Feature","geometry":{"type":"Point","coordinates":[-117.106469,32.83173]}},{"properties":{"latitude":32.837994,"id":"a6mmcgdauwpn","zip code":92124,"longitude":-117.102048,"address":"10448 El Comal Dr","state":"CA"},"type":"Feature","geometry":{"type":"Point","coordinates":[-117.102048,32.837994]}},{"properties":{"latitude":32.836183,"id":"a6mmcg6hc3wd","zip code":92124,"longitude":-117.102743,"address":"5775 Guincho Rd","state":"CA"},"type":"Feature","geometry":{"type":"Point","coordinates":[-117.102743,32.836183]}},{"properties":{"latitude":32.837378,"id":"a6mmcgaxha30","zip code":92124,"longitude":-117.103541,"address":"10410 Orozco Rd","state":"CA"},"type":"Feature","geometry":{"type":"Point","coordinates":[-117.103541,32.837378]}},{"properties":{"latitude":32.837291,"id":"a6mmcgbnggrj","zip code":92124,"longitude":-117.102253,"address":"10446 Orozco Rd","state":"CA"},"type":"Feature","geometry":{"type":"Point","coordinates":[-117.102253,32.837291]}},{"properties":{"latitude":32.839408,"id":"a6mmcg9288hn","zip code":92124,"longitude":-117.100052,"address":"5870 Salacot Ct","state":"CA"},"type":"Feature","geometry":{"type":"Point","coordinates":[-117.100052,32.839408]}},{"properties":{"latitude":32.839345,"id":"a6mmcg9rhc8h","zip code":92124,"longitude":-117.099287,"address":"5881 Torca Ct","state":"CA"},"type":"Feature","geometry":{"type":"Point","coordinates":[-117.099287,32.839345]}},{"properties":{"latitude":32.814835,"id":"a6mmcggxv9d7","zip code":92124,"longitude":-117.086428,"address":"11233 Tierrasanta Blvd","state":"CA"},"type":"Feature","geometry":{"type":"Point","coordinates":[-117.086428,32.814835]}},{"properties":{"latitude":32.833524,"id":"a6mmcgh3gadh","zip code":92124,"longitude":-117.097597,"address":"6116 Calle Mariselda","state":"CA"},"type":"Feature","geometry":{"type":"Point","coordinates":[-117.097597,32.833524]}},{"properties":{"latitude":32.837124,"id":"a6mmcggv3wqq","zip code":92124,"longitude":-117.093069,"address":"10986 Corte Playa Barcln","state":"CA"},"type":"Feature","geometry":{"type":"Point","coordinates":[-117.093069,32.837124]}},{"properties":{"latitude":32.840385,"id":"a6mmcgduendj","zip code":92124,"longitude":-117.093655,"address":"5959 El Escorial Way","state":"CA"},"type":"Feature","geometry":{"type":"Point","coordinates":[-117.093655,32.840385]}},{"properties":{"latitude":32.83732,"id":"a6mmcgahulex","zip code":92124,"longitude":-117.096983,"address":"5849 Menorca Dr","state":"CA"},"type":"Feature","geometry":{"type":"Point","coordinates":[-117.096983,32.83732]}},{"properties":{"latitude":32.840377,"id":"a6mmcg93juts","zip code":92124,"longitude":-117.095501,"address":"6122 Portobelo Ct","state":"CA"},"type":"Feature","geometry":{"type":"Point","coordinates":[-117.095501,32.840377]}},{"properties":{"latitude":32.833768,"id":"a6mmcg8gxjqb","zip code":92124,"longitude":-117.093267,"address":"10866 Avenida Play Vrcrz","state":"CA"},"type":"Feature","geometry":{"type":"Point","coordinates":[-117.093267,32.833768]}},{"properties":{"latitude":32.836771,"id":"a6mmcgjf6zq1","zip code":92124,"longitude":-117.087531,"address":"5181 Camino Playa De Or","state":"CA"},"type":"Feature","geometry":{"type":"Point","coordinates":[-117.087531,32.836771]}},{"properties":{"latitude":32.834504,"id":"a6mmcg7o6qr8","zip code":92124,"longitude":-117.090209,"address":"5282 Camino Playa Malag","state":"CA"},"type":"Feature","geometry":{"type":"Point","coordinates":[-117.090209,32.834504]}},{"properties":{"latitude":32.82885,"id":"a6mmcgfjcbdr","zip code":92124,"longitude":-117.114251,"address":"9864 Apple Tree Dr","state":"CA"},"type":"Feature","geometry":{"type":"Point","coordinates":[-117.114251,32.82885]}},{"properties":{"latitude":32.825855,"id":"a6mmcg5x395d","zip code":92124,"longitude":-117.115215,"address":"9774 Caminito Del Marfl","state":"CA"},"type":"Feature","geometry":{"type":"Point","coordinates":[-117.115215,32.825855]}},{"properties":{"latitude":32.827699,"id":"a6mmcg7nsk3q","zip code":92124,"longitude":-117.11648,"address":"5314 Caminito Velasquez","state":"CA"},"type":"Feature","geometry":{"type":"Point","coordinates":[-117.11648,32.827699]}},{"properties":{"latitude":32.828286,"id":"a6mmcgjnc3ek","zip code":92124,"longitude":-117.116363,"address":"5340 Caminito Velasquez","state":"CA"},"type":"Feature","geometry":{"type":"Point","coordinates":[-117.116363,32.828286]}},{"properties":{"latitude":32.828222,"id":"a6mmcgja7i75","zip code":92124,"longitude":-117.114683,"address":"9859 Guisante Ter","state":"CA"},"type":"Feature","geometry":{"type":"Point","coordinates":[-117.114683,32.828222]}},{"properties":{"latitude":32.831642,"id":"a6mmcg7680zg","zip code":92124,"longitude":-117.112301,"address":"5460 Repecho Dr","state":"CA"},"type":"Feature","geometry":{"type":"Point","coordinates":[-117.112301,32.831642]}},{"properties":{"latitude":32.83346,"id":"a6mmcgg8nwen","zip code":92124,"longitude":-117.083218,"address":"5032 Alejo St","state":"CA"},"type":"Feature","geometry":{"type":"Point","coordinates":[-117.083218,32.83346]}},{"properties":{"latitude":32.827348,"id":"a6mmcgasmvfj","zip code":92124,"longitude":-117.07678,"address":"4816 Seda Dr","state":"CA"},"type":"Feature","geometry":{"type":"Point","coordinates":[-117.07678,32.827348]}},{"properties":{"latitude":32.827917,"id":"a6mmcgakvta5","zip code":92124,"longitude":-117.076291,"address":"4855 Seda Dr","state":"CA"},"type":"Feature","geometry":{"type":"Point","coordinates":[-117.076291,32.827917]}},{"properties":{"latitude":32.829659,"id":"a6mmcgatfbsa","zip code":92124,"longitude":-117.078859,"address":"4893 Tinasa Way","state":"CA"},"type":"Feature","geometry":{"type":"Point","coordinates":[-117.078859,32.829659]}},{"properties":{"latitude":32.827103,"id":"a6mmcgfwmjgg","zip code":92124,"longitude":-117.078633,"address":"4729 Valdina Way","state":"CA"},"type":"Feature","geometry":{"type":"Point","coordinates":[-117.078633,32.827103]}},{"properties":{"latitude":32.834705,"id":"a6mmcgfp572y","zip code":92124,"longitude":-117.08212,"address":"5218 Belardo Dr","state":"CA"},"type":"Feature","geometry":{"type":"Point","coordinates":[-117.08212,32.834705]}},{"properties":{"latitude":32.837627,"id":"a6mmcgkdzxav","zip code":92124,"longitude":-117.08157,"address":"5383 Belardo Dr","state":"CA"},"type":"Feature","geometry":{"type":"Point","coordinates":[-117.08157,32.837627]}},{"properties":{"latitude":32.834911,"id":"a6mmcg83uyfr","zip code":92124,"longitude":-117.078523,"address":"5042 Corte Playa Cataln","state":"CA"},"type":"Feature","geometry":{"type":"Point","coordinates":[-117.078523,32.834911]}},{"properties":{"latitude":32.835736,"id":"a6mmcgazlk3e","zip code":92124,"longitude":-117.084283,"address":"11452 Via Playa De Corts","state":"CA"},"type":"Feature","geometry":{"type":"Point","coordinates":[-117.084283,32.835736]}},{"properties":{"latitude":32.835299,"id":"a6mmcga2e6an","zip code":92124,"longitude":-117.085826,"address":"5014 Avenida Playa Cncn","state":"CA"},"type":"Feature","geometry":{"type":"Point","coordinates":[-117.085826,32.835299]}},{"properties":{"latitude":32.837135,"id":"a6mmcgex1mo1","zip code":92124,"longitude":-117.0846,"address":"5129 Avenida Playa Cncn","state":"CA"},"type":"Feature","geometry":{"type":"Point","coordinates":[-117.0846,32.837135]}},{"properties":{"latitude":32.841184,"id":"a6mmcg5prol9","zip code":92124,"longitude":-117.085753,"address":"11340 Portobelo Dr","state":"CA"},"type":"Feature","geometry":{"type":"Point","coordinates":[-117.085753,32.841184]}},{"properties":{"latitude":32.838561,"id":"a6mmcg83km5y","zip code":92124,"longitude":-117.083609,"address":"13373 Terraza Playa Cncn","state":"CA"},"type":"Feature","geometry":{"type":"Point","coordinates":[-117.083609,32.838561]}},{"properties":{"latitude":32.837878,"id":"a6mmcgkbfqzj","zip code":92124,"longitude":-117.091436,"address":"11016 Camino Playa Carml","state":"CA"},"type":"Feature","geometry":{"type":"Point","coordinates":[-117.091436,32.837878]}},{"properties":{"latitude":32.838428,"id":"a6mmcgfvslr8","zip code":92124,"longitude":-117.091247,"address":"11087 Corte Playa Merida","state":"CA"},"type":"Feature","geometry":{"type":"Point","coordinates":[-117.091247,32.838428]}},{"properties":{"latitude":32.840859,"id":"a6mmcgi789sa","zip code":92124,"longitude":-117.088453,"address":"11070 Portobelo Dr","state":"CA"},"type":"Feature","geometry":{"type":"Point","coordinates":[-117.088453,32.840859]}},{"properties":{"latitude":32.840928,"id":"a6mmcgh4ew22","zip code":92124,"longitude":-117.088088,"address":"11106 Portobelo Dr","state":"CA"},"type":"Feature","geometry":{"type":"Point","coordinates":[-117.088088,32.840928]}},{"properties":{"latitude":32.84097,"id":"a6mmcgeeik59","zip code":92124,"longitude":-117.087864,"address":"11128 Portobelo Dr","state":"CA"},"type":"Feature","geometry":{"type":"Point","coordinates":[-117.087864,32.84097]}},{"properties":{"latitude":32.841238,"id":"a6mmcgcqf0u5","zip code":92124,"longitude":-117.086129,"address":"11288 Portobelo Dr","state":"CA"},"type":"Feature","geometry":{"type":"Point","coordinates":[-117.086129,32.841238]}},{"properties":{"latitude":32.839693,"id":"a6mmcg9bt6zr","zip code":92124,"longitude":-117.084763,"address":"5128 Via Valarta","state":"CA"},"type":"Feature","geometry":{"type":"Point","coordinates":[-117.084763,32.839693]}},{"properties":{"latitude":32.823023,"id":"a6mmcgkp0szv","zip code":92124,"longitude":-117.097254,"address":"5025 Abuela Dr","state":"CA"},"type":"Feature","geometry":{"type":"Point","coordinates":[-117.097254,32.823023]}},{"properties":{"latitude":32.823123,"id":"a6mmcg4y9rh0","zip code":92124,"longitude":-117.097191,"address":"5033 Abuela Dr","state":"CA"},"type":"Feature","geometry":{"type":"Point","coordinates":[-117.097191,32.823123]}},{"properties":{"latitude":32.824182,"id":"a6mmcgfyh89c","zip code":92124,"longitude":-117.097461,"address":"10789 Cariuto Ct","state":"CA"},"type":"Feature","geometry":{"type":"Point","coordinates":[-117.097461,32.824182]}},{"properties":{"latitude":32.820248,"id":"a6mmcg6fkpf0","zip code":92124,"longitude":-117.096576,"address":"5026 Ducos Pl","state":"CA"},"type":"Feature","geometry":{"type":"Point","coordinates":[-117.096576,32.820248]}},{"properties":{"latitude":32.825937,"id":"a6mmcghxfyp3","zip code":92124,"longitude":-117.09575,"address":"10811 Lamentin Ct","state":"CA"},"type":"Feature","geometry":{"type":"Point","coordinates":[-117.09575,32.825937]}},{"properties":{"latitude":32.822458,"id":"a6mmcgkex3vp","zip code":92124,"longitude":-117.095742,"address":"10845 Macouba Pl","state":"CA"},"type":"Feature","geometry":{"type":"Point","coordinates":[-117.095742,32.822458]}},{"properties":{"latitude":32.822425,"id":"a6mmcgggbc2k","zip code":92124,"longitude":-117.095701,"address":"10849 Macouba Pl","state":"CA"},"type":"Feature","geometry":{"type":"Point","coordinates":[-117.095701,32.822425]}},{"properties":{"latitude":32.818638,"id":"a6mmcg4jbt71","zip code":92124,"longitude":-117.093466,"address":"4023 Rueda Dr","state":"CA"},"type":"Feature","geometry":{"type":"Point","coordinates":[-117.093466,32.818638]}},{"properties":{"latitude":32.819266,"id":"a6mmcgjucaxz","zip code":92124,"longitude":-117.092355,"address":"4113 Rueda Dr","state":"CA"},"type":"Feature","geometry":{"type":"Point","coordinates":[-117.092355,32.819266]}},{"properties":{"latitude":32.822306,"id":"a6mmcg52t317","zip code":92124,"longitude":-117.090661,"address":"4219 Rueda Dr","state":"CA"},"type":"Feature","geometry":{"type":"Point","coordinates":[-117.090661,32.822306]}},{"properties":{"latitude":32.82116,"id":"a6mmcgdtbebr","zip code":92124,"longitude":-117.085918,"address":"4295 Tambor Ct","state":"CA"},"type":"Feature","geometry":{"type":"Point","coordinates":[-117.085918,32.82116]}},{"properties":{"latitude":32.819754,"id":"a6mmcgkqynnt","zip code":92124,"longitude":-117.089524,"address":"4114 Tambor Rd","state":"CA"},"type":"Feature","geometry":{"type":"Point","coordinates":[-117.089524,32.819754]}},{"properties":{"latitude":32.822241,"id":"a6mmcg4jphkq","zip code":92124,"longitude":-117.091516,"address":"10816 Cascajo Ct","state":"CA"},"type":"Feature","geometry":{"type":"Point","coordinates":[-117.091516,32.822241]}},{"properties":{"latitude":32.822206,"id":"a6mmcgk4hg35","zip code":92124,"longitude":-117.091441,"address":"10828 Cascajo Ct","state":"CA"},"type":"Feature","geometry":{"type":"Point","coordinates":[-117.091441,32.822206]}},{"properties":{"latitude":32.819591,"id":"a6mmcgk588na","zip code":92124,"longitude":-117.093244,"address":"10827 Maestria Ct","state":"CA"},"type":"Feature","geometry":{"type":"Point","coordinates":[-117.093244,32.819591]}},{"properties":{"latitude":32.823149,"id":"a6mmcgj25via","zip code":92124,"longitude":-117.090253,"address":"4244 Rueda Dr","state":"CA"},"type":"Feature","geometry":{"type":"Point","coordinates":[-117.090253,32.823149]}},{"properties":{"latitude":32.824174,"id":"a6mmcgipmvmp","zip code":92124,"longitude":-117.087399,"address":"4335 Calle De Vida","state":"CA"},"type":"Feature","geometry":{"type":"Point","coordinates":[-117.087399,32.824174]}},{"properties":{"latitude":32.823559,"id":"a6mmcgcned28","zip code":92124,"longitude":-117.081852,"address":"11325 Seda Pl","state":"CA"},"type":"Feature","geometry":{"type":"Point","coordinates":[-117.081852,32.823559]}},{"properties":{"latitude":32.82361,"id":"a6mmcg7s9ajm","zip code":92124,"longitude":-117.08172,"address":"11337 Seda Pl","state":"CA"},"type":"Feature","geometry":{"type":"Point","coordinates":[-117.08172,32.82361]}},{"properties":{"latitude":32.825126,"id":"a6mmcgdxib9k","zip code":92124,"longitude":-117.084259,"address":"4602 Terraza Cir","state":"CA"},"type":"Feature","geometry":{"type":"Point","coordinates":[-117.084259,32.825126]}},{"properties":{"latitude":32.825503,"id":"a6mmcggzhtf2","zip code":92124,"longitude":-117.089868,"address":"4390 Via Sorpresa","state":"CA"},"type":"Feature","geometry":{"type":"Point","coordinates":[-117.089868,32.825503]}},{"properties":{"latitude":32.807994,"id":"a6mmcg6h3nlm","zip code":92119,"longitude":-117.046966,"address":"7424 Rondel Ct","state":"CA"},"type":"Feature","geometry":{"type":"Point","coordinates":[-117.046966,32.807994]}},{"properties":{"latitude":32.809144,"id":"a6mmcg7gq1wz","zip code":92119,"longitude":-117.048705,"address":"6867 Tuxedo Rd","state":"CA"},"type":"Feature","geometry":{"type":"Point","coordinates":[-117.048705,32.809144]}},{"properties":{"latitude":32.806088,"id":"a6mmcg8nhe37","zip code":92119,"longitude":-117.039465,"address":"7362 Birchcreek Rd","state":"CA"},"type":"Feature","geometry":{"type":"Point","coordinates":[-117.039465,32.806088]}},{"properties":{"latitude":32.8151,"id":"a6mmcgko7mub","zip code":92119,"longitude":-117.053955,"address":"6588 Bell Bluff Ave","state":"CA"},"type":"Feature","geometry":{"type":"Point","coordinates":[-117.053955,32.8151]}},{"properties":{"latitude":32.81293,"id":"a6mmcg8knqpi","zip code":92119,"longitude":-117.050932,"address":"6704 Monte Verde Dr","state":"CA"},"type":"Feature","geometry":{"type":"Point","coordinates":[-117.050932,32.81293]}},{"properties":{"latitude":32.817437,"id":"a6mmcgl12gjd","zip code":92119,"longitude":-117.046512,"address":"7865 Golfcrest Dr","state":"CA"},"type":"Feature","geometry":{"type":"Point","coordinates":[-117.046512,32.817437]}},{"properties":{"latitude":32.813862,"id":"a6mmcg4zpc0x","zip code":92119,"longitude":-117.043089,"address":"7594 Jennite Dr","state":"CA"},"type":"Feature","geometry":{"type":"Point","coordinates":[-117.043089,32.813862]}},{"properties":{"latitude":32.815277,"id":"a6mmcga1vdrq","zip code":92119,"longitude":-117.043873,"address":"7172 Ruane St","state":"CA"},"type":"Feature","geometry":{"type":"Point","coordinates":[-117.043873,32.815277]}},{"properties":{"latitude":32.815013,"id":"a6mmcghzdtxr","zip code":92119,"longitude":-117.043436,"address":"7179 Ruane St","state":"CA"},"type":"Feature","geometry":{"type":"Point","coordinates":[-117.043436,32.815013]}},{"properties":{"latitude":32.810586,"id":"a6mmcgijufnn","zip code":92119,"longitude":-117.040636,"address":"7412 Stoneview Ct","state":"CA"},"type":"Feature","geometry":{"type":"Point","coordinates":[-117.040636,32.810586]}},{"properties":{"latitude":32.814969,"id":"a6mmcgeyt27g","zip code":92119,"longitude":-117.048757,"address":"8117 El Extenso Ct","state":"CA"},"type":"Feature","geometry":{"type":"Point","coordinates":[-117.048757,32.814969]}},{"properties":{"latitude":32.815013,"id":"a6mmcgaxo55p","zip code":92119,"longitude":-117.048754,"address":"8126 El Extenso Ct","state":"CA"},"type":"Feature","geometry":{"type":"Point","coordinates":[-117.048754,32.815013]}},{"properties":{"latitude":32.810694,"id":"a6mmcgbgz93e","zip code":92120,"longitude":-117.068466,"address":"3484 Mission Mesa Way","state":"CA"},"type":"Feature","geometry":{"type":"Point","coordinates":[-117.068466,32.810694]}},{"properties":{"latitude":32.811694,"id":"a6mmcgg1jgf4","zip code":92120,"longitude":-117.067669,"address":"3564 Mission Mesa Way","state":"CA"},"type":"Feature","geometry":{"type":"Point","coordinates":[-117.067669,32.811694]}},{"properties":{"latitude":32.812671,"id":"a6mmcgiw4sjk","zip code":92120,"longitude":-117.067711,"address":"3670 Mission Montana Dr","state":"CA"},"type":"Feature","geometry":{"type":"Point","coordinates":[-117.067711,32.812671]}},{"properties":{"latitude":32.814971,"id":"a6mmcgb26v2u","zip code":92119,"longitude":-117.013921,"address":"7455 Ballinger Ave","state":"CA"},"type":"Feature","geometry":{"type":"Point","coordinates":[-117.013921,32.814971]}},{"properties":{"latitude":32.811766,"id":"a6mmcg7snh5k","zip code":92119,"longitude":-117.014137,"address":"7150 Bobhird Dr","state":"CA"},"type":"Feature","geometry":{"type":"Point","coordinates":[-117.014137,32.811766]}},{"properties":{"latitude":32.812342,"id":"a6mmcg4n1tg5","zip code":92119,"longitude":-117.014626,"address":"7190 Bobhird Dr","state":"CA"},"type":"Feature","geometry":{"type":"Point","coordinates":[-117.014626,32.812342]}},{"properties":{"latitude":32.810459,"id":"a6mmcgfb40oe","zip code":92119,"longitude":-117.012406,"address":"8649 Frazier Dr","state":"CA"},"type":"Feature","geometry":{"type":"Point","coordinates":[-117.012406,32.810459]}},{"properties":{"latitude":32.810212,"id":"a6mmcg4rokdg","zip code":92119,"longitude":-117.014194,"address":"8561 Jackie Dr","state":"CA"},"type":"Feature","geometry":{"type":"Point","coordinates":[-117.014194,32.810212]}},{"properties":{"latitude":32.814646,"id":"a6mmcg9hvv8q","zip code":92119,"longitude":-117.011836,"address":"8806 Jackie Dr","state":"CA"},"type":"Feature","geometry":{"type":"Point","coordinates":[-117.011836,32.814646]}},{"properties":{"latitude":32.812706,"id":"a6mmcg9wdgf6","zip code":92119,"longitude":-117.008807,"address":"9280 Lake Murray Blvd","state":"CA"},"type":"Feature","geometry":{"type":"Point","coordinates":[-117.008807,32.812706]}},{"properties":{"latitude":32.814025,"id":"a6mmcgfjzrho","zip code":92119,"longitude":-117.012206,"address":"7431 Rainswept Ln","state":"CA"},"type":"Feature","geometry":{"type":"Point","coordinates":[-117.012206,32.814025]}},{"properties":{"latitude":32.811322,"id":"a6mmcggfnixk","zip code":92119,"longitude":-117.00701,"address":"8905 Idyllwild Ln","state":"CA"},"type":"Feature","geometry":{"type":"Point","coordinates":[-117.00701,32.811322]}},{"properties":{"latitude":32.805587,"id":"a6mmcg60pq97","zip code":92119,"longitude":-117.007148,"address":"6755 Mewall Dr","state":"CA"},"type":"Feature","geometry":{"type":"Point","coordinates":[-117.007148,32.805587]}},{"properties":{"latitude":32.809862,"id":"a6mmcg5jpoyx","zip code":92119,"longitude":-117.009038,"address":"8754 Mulvaney Dr","state":"CA"},"type":"Feature","geometry":{"type":"Point","coordinates":[-117.009038,32.809862]}},{"properties":{"latitude":32.795965,"id":"a6mmcgipxnug","zip code":92119,"longitude":-117.007341,"address":"6335 Lake Apopka Pl","state":"CA"},"type":"Feature","geometry":{"type":"Point","coordinates":[-117.007341,32.795965]}},{"properties":{"latitude":32.798948,"id":"a6mmcgiribgo","zip code":92119,"longitude":-117.011846,"address":"6425 Lake Arrowhead Dr","state":"CA"},"type":"Feature","geometry":{"type":"Point","coordinates":[-117.011846,32.798948]}},{"properties":{"latitude":32.797885,"id":"a6mmcgh91zwe","zip code":92119,"longitude":-117.012432,"address":"8654 Lake Ashmere Dr","state":"CA"},"type":"Feature","geometry":{"type":"Point","coordinates":[-117.012432,32.797885]}},{"properties":{"latitude":32.799296,"id":"a6mmcg7qzrcb","zip code":92119,"longitude":-117.007834,"address":"6470 Lake Mere Ct","state":"CA"},"type":"Feature","geometry":{"type":"Point","coordinates":[-117.007834,32.799296]}},{"properties":{"latitude":32.801594,"id":"a6mmcgbewr0s","zip code":92119,"longitude":-117.007553,"address":"6571 Lake Ashmere Ct","state":"CA"},"type":"Feature","geometry":{"type":"Point","coordinates":[-117.007553,32.801594]}},{"properties":{"latitude":32.799023,"id":"a6mmcgijaz6n","zip code":92119,"longitude":-117.011094,"address":"8714 Lake Ashmere Dr","state":"CA"},"type":"Feature","geometry":{"type":"Point","coordinates":[-117.011094,32.799023]}},{"properties":{"latitude":32.800147,"id":"a6mmcgh8vo8s","zip code":92119,"longitude":-117.009816,"address":"8762 Lake Ashmere Dr","state":"CA"},"type":"Feature","geometry":{"type":"Point","coordinates":[-117.009816,32.800147]}},{"properties":{"latitude":32.801981,"id":"a6mmcg7eyf8z","zip code":92119,"longitude":-117.010832,"address":"8761 Lake Murray Blvd","state":"CA"},"type":"Feature","geometry":{"type":"Point","coordinates":[-117.010832,32.801981]}},{"properties":{"latitude":32.795011,"id":"a6mmcghmxj57","zip code":92119,"longitude":-117.006729,"address":"6314 E Lake Dr","state":"CA"},"type":"Feature","geometry":{"type":"Point","coordinates":[-117.006729,32.795011]}},{"properties":{"latitude":32.795341,"id":"a6mmcghe0e4k","zip code":92119,"longitude":-117.006758,"address":"6326 E Lake Dr","state":"CA"},"type":"Feature","geometry":{"type":"Point","coordinates":[-117.006758,32.795341]}},{"properties":{"latitude":32.793927,"id":"a6mmcgcgboch","zip code":92119,"longitude":-117.018755,"address":"6370 Lake Alamor Ave","state":"CA"},"type":"Feature","geometry":{"type":"Point","coordinates":[-117.018755,32.793927]}},{"properties":{"latitude":32.796554,"id":"a6mmcgdnbiy3","zip code":92119,"longitude":-117.018269,"address":"8304 Lake Artemus Ave","state":"CA"},"type":"Feature","geometry":{"type":"Point","coordinates":[-117.018269,32.796554]}},{"properties":{"latitude":32.795777,"id":"a6mmcgaky9vh","zip code":92119,"longitude":-117.018352,"address":"8320 Lake Ashwood Ave","state":"CA"},"type":"Feature","geometry":{"type":"Point","coordinates":[-117.018352,32.795777]}},{"properties":{"latitude":32.800795,"id":"a6mmcg7b2y3s","zip code":92119,"longitude":-117.01957,"address":"8223 San Carlos Dr","state":"CA"},"type":"Feature","geometry":{"type":"Point","coordinates":[-117.01957,32.800795]}},{"properties":{"latitude":32.799162,"id":"a6mmcga71jvc","zip code":92119,"longitude":-117.017116,"address":"8337 Lake Baca Dr","state":"CA"},"type":"Feature","geometry":{"type":"Point","coordinates":[-117.017116,32.799162]}},{"properties":{"latitude":32.808411,"id":"a6mmcgemi4w3","zip code":92119,"longitude":-117.012117,"address":"6921 Regner Rd","state":"CA"},"type":"Feature","geometry":{"type":"Point","coordinates":[-117.012117,32.808411]}},{"properties":{"latitude":32.804474,"id":"a6mmcgi5s7du","zip code":92119,"longitude":-117.012567,"address":"8548 Verlane Dr","state":"CA"},"type":"Feature","geometry":{"type":"Point","coordinates":[-117.012567,32.804474]}},{"properties":{"latitude":32.805743,"id":"a6mmcgc3cnih","zip code":92119,"longitude":-117.009462,"address":"8739 Verlane Dr","state":"CA"},"type":"Feature","geometry":{"type":"Point","coordinates":[-117.009462,32.805743]}},{"properties":{"latitude":32.809871,"id":"a6mmcghuunws","zip code":92119,"longitude":-117.018762,"address":"7032 Ballinger Ave","state":"CA"},"type":"Feature","geometry":{"type":"Point","coordinates":[-117.018762,32.809871]}},{"properties":{"latitude":32.809871,"id":"a6mmcg56upxw","zip code":92119,"longitude":-117.018762,"address":"7032 Ballinger Ave","state":"CA"},"type":"Feature","geometry":{"type":"Point","coordinates":[-117.018762,32.809871]}},{"properties":{"latitude":32.810395,"id":"a6mmcg4riops","zip code":92119,"longitude":-117.015542,"address":"7038 Gain Dr","state":"CA"},"type":"Feature","geometry":{"type":"Point","coordinates":[-117.015542,32.810395]}},{"properties":{"latitude":32.810981,"id":"a6mmcgizvc3x","zip code":92119,"longitude":-117.014914,"address":"7086 Gain Dr","state":"CA"},"type":"Feature","geometry":{"type":"Point","coordinates":[-117.014914,32.810981]}},{"properties":{"latitude":32.809093,"id":"a6mmcg6or23v","zip code":92119,"longitude":-117.014258,"address":"6983 Lalley Ln","state":"CA"},"type":"Feature","geometry":{"type":"Point","coordinates":[-117.014258,32.809093]}},{"properties":{"latitude":32.809292,"id":"a6mmcgg7ek2l","zip code":92119,"longitude":-117.018232,"address":"7018 Renkrib Ave","state":"CA"},"type":"Feature","geometry":{"type":"Point","coordinates":[-117.018232,32.809292]}},{"properties":{"latitude":32.812938,"id":"a6mmcg6ckiw4","zip code":92119,"longitude":-117.017724,"address":"7261 Barker Way","state":"CA"},"type":"Feature","geometry":{"type":"Point","coordinates":[-117.017724,32.812938]}},{"properties":{"latitude":32.816429,"id":"a6mmcgkgjn29","zip code":92119,"longitude":-117.014518,"address":"8325 Morning Mist Ct","state":"CA"},"type":"Feature","geometry":{"type":"Point","coordinates":[-117.014518,32.816429]}},{"properties":{"latitude":32.803442,"id":"a6mmcg4qzhfq","zip code":92119,"longitude":-117.025501,"address":"6604 Cowles Mountain Blvd","state":"CA"},"type":"Feature","geometry":{"type":"Point","coordinates":[-117.025501,32.803442]}},{"properties":{"latitude":32.803638,"id":"a6mmcgehpdui","zip code":92119,"longitude":-117.028559,"address":"7809 Eagle Ridge Dr","state":"CA"},"type":"Feature","geometry":{"type":"Point","coordinates":[-117.028559,32.803638]}},{"properties":{"latitude":32.805279,"id":"a6mmcg88o4ek","zip code":92119,"longitude":-117.026772,"address":"7804 Tommy Dr","state":"CA"},"type":"Feature","geometry":{"type":"Point","coordinates":[-117.026772,32.805279]}},{"properties":{"latitude":32.806885,"id":"a6mmcgag2jwv","zip code":92119,"longitude":-117.023805,"address":"7885 Whelan Dr","state":"CA"},"type":"Feature","geometry":{"type":"Point","coordinates":[-117.023805,32.806885]}},{"properties":{"latitude":32.807818,"id":"a6mmcghvtne1","zip code":92119,"longitude":-117.023151,"address":"7960 Whelan Dr","state":"CA"},"type":"Feature","geometry":{"type":"Point","coordinates":[-117.023151,32.807818]}},{"properties":{"latitude":32.806089,"id":"a6mmcgkvl2pj","zip code":92119,"longitude":-117.022071,"address":"6767 Ballinger Ave","state":"CA"},"type":"Feature","geometry":{"type":"Point","coordinates":[-117.022071,32.806089]}},{"properties":{"latitude":32.80635,"id":"a6mmcg8zdbcy","zip code":92119,"longitude":-117.019513,"address":"6753 Bardonia St","state":"CA"},"type":"Feature","geometry":{"type":"Point","coordinates":[-117.019513,32.80635]}},{"properties":{"latitude":32.80467,"id":"a6mmcgb79qqj","zip code":92119,"longitude":-117.021414,"address":"8059 Hudson Dr","state":"CA"},"type":"Feature","geometry":{"type":"Point","coordinates":[-117.021414,32.80467]}},{"properties":{"latitude":32.799214,"id":"a6mmcgc77hxm","zip code":92119,"longitude":-117.022723,"address":"8059 Lake Cayuga Dr","state":"CA"},"type":"Feature","geometry":{"type":"Point","coordinates":[-117.022723,32.799214]}},{"properties":{"latitude":32.792082,"id":"a6mmcg888m5k","zip code":92119,"longitude":-117.014066,"address":"6204 Anvil Lake Ave","state":"CA"},"type":"Feature","geometry":{"type":"Point","coordinates":[-117.014066,32.792082]}},{"properties":{"latitude":32.792528,"id":"a6mmcgecpulq","zip code":92119,"longitude":-117.016951,"address":"6233 Lake Alamor Ave","state":"CA"},"type":"Feature","geometry":{"type":"Point","coordinates":[-117.016951,32.792528]}},{"properties":{"latitude":32.792226,"id":"a6mmcggm6z73","zip code":92119,"longitude":-117.013285,"address":"6208 Lake Aral Dr","state":"CA"},"type":"Feature","geometry":{"type":"Point","coordinates":[-117.013285,32.792226]}},{"properties":{"latitude":32.796043,"id":"a6mmcg7pd6cz","zip code":92119,"longitude":-117.027718,"address":"7901 Lake Andrita Ave","state":"CA"},"type":"Feature","geometry":{"type":"Point","coordinates":[-117.027718,32.796043]}},{"properties":{"latitude":32.795958,"id":"a6mmcghpgwjh","zip code":92119,"longitude":-117.025813,"address":"6311 Lake Dora Ave","state":"CA"},"type":"Feature","geometry":{"type":"Point","coordinates":[-117.025813,32.795958]}},{"properties":{"latitude":32.795413,"id":"a6mmcg6fm6xl","zip code":92119,"longitude":-117.024187,"address":"6309 Lake Kathleen Ave","state":"CA"},"type":"Feature","geometry":{"type":"Point","coordinates":[-117.024187,32.795413]}},{"properties":{"latitude":32.795641,"id":"a6mmcg4t1v3a","zip code":92119,"longitude":-117.024053,"address":"6333 Lake Kathleen Ave","state":"CA"},"type":"Feature","geometry":{"type":"Point","coordinates":[-117.024053,32.795641]}},{"properties":{"latitude":32.795774,"id":"a6mmcg9hlu39","zip code":92119,"longitude":-117.023956,"address":"6349 Lake Kathleen Ave","state":"CA"},"type":"Feature","geometry":{"type":"Point","coordinates":[-117.023956,32.795774]}},{"properties":{"latitude":32.802241,"id":"a6mmcgfzdbf1","zip code":92119,"longitude":-117.042201,"address":"6827 Caminito Mundo","state":"CA"},"type":"Feature","geometry":{"type":"Point","coordinates":[-117.042201,32.802241]}},{"properties":{"latitude":32.803363,"id":"a6mmcgh9felc","zip code":92119,"longitude":-117.036202,"address":"6981 Caminito Perico","state":"CA"},"type":"Feature","geometry":{"type":"Point","coordinates":[-117.036202,32.803363]}},{"properties":{"latitude":32.802204,"id":"a6mmcgkpb374","zip code":92119,"longitude":-117.039307,"address":"6888 Golfcrest Dr","state":"CA"},"type":"Feature","geometry":{"type":"Point","coordinates":[-117.039307,32.802204]}},{"properties":{"latitude":32.802204,"id":"a6mmcghk2x36","zip code":92119,"longitude":-117.039307,"address":"6888 Golfcrest Dr","state":"CA"},"type":"Feature","geometry":{"type":"Point","coordinates":[-117.039307,32.802204]}},{"properties":{"latitude":32.802204,"id":"a6mmcgh818q4","zip code":92119,"longitude":-117.039307,"address":"6888 Golfcrest Dr","state":"CA"},"type":"Feature","geometry":{"type":"Point","coordinates":[-117.039307,32.802204]}},{"properties":{"latitude":32.803391,"id":"a6mmcgj4726z","zip code":92119,"longitude":-117.038529,"address":"6960 Golfcrest Dr","state":"CA"},"type":"Feature","geometry":{"type":"Point","coordinates":[-117.038529,32.803391]}},{"properties":{"latitude":32.804334,"id":"a6mmcge8427i","zip code":92119,"longitude":-117.04279,"address":"7119 Navajo Rd","state":"CA"},"type":"Feature","geometry":{"type":"Point","coordinates":[-117.04279,32.804334]}},{"properties":{"latitude":32.791876,"id":"a6mmcgah0c0a","zip code":92119,"longitude":-117.030949,"address":"7803 Blue Lake Dr","state":"CA"},"type":"Feature","geometry":{"type":"Point","coordinates":[-117.030949,32.791876]}},{"properties":{"latitude":32.793313,"id":"a6mmcgeu38g8","zip code":92119,"longitude":-117.03196,"address":"7723 Gloria Lake Ave","state":"CA"},"type":"Feature","geometry":{"type":"Point","coordinates":[-117.03196,32.793313]}},{"properties":{"latitude":32.793312,"id":"a6mmcgemiwiy","zip code":92119,"longitude":-117.031661,"address":"7743 Gloria Lake Ave","state":"CA"},"type":"Feature","geometry":{"type":"Point","coordinates":[-117.031661,32.793312]}},{"properties":{"latitude":32.795387,"id":"a6mmcggiij6m","zip code":92119,"longitude":-117.028904,"address":"6822 Jackson Dr","state":"CA"},"type":"Feature","geometry":{"type":"Point","coordinates":[-117.028904,32.795387]}},{"properties":{"latitude":32.795961,"id":"a6mmcg65yv3k","zip code":92119,"longitude":-117.032915,"address":"6385 Lake Leven Dr","state":"CA"},"type":"Feature","geometry":{"type":"Point","coordinates":[-117.032915,32.795961]}},{"properties":{"latitude":32.795316,"id":"a6mmcg9jefda","zip code":92119,"longitude":-117.030152,"address":"7804 Topaz Lake Ave","state":"CA"},"type":"Feature","geometry":{"type":"Point","coordinates":[-117.030152,32.795316]}},{"properties":{"latitude":32.791824,"id":"a6mmcg587bxd","zip code":92119,"longitude":-117.035655,"address":"7549 Blue Lake Dr","state":"CA"},"type":"Feature","geometry":{"type":"Point","coordinates":[-117.035655,32.791824]}},{"properties":{"latitude":32.794446,"id":"a6mmcgclf8hp","zip code":92119,"longitude":-117.035172,"address":"7566 Lake Ree Ave","state":"CA"},"type":"Feature","geometry":{"type":"Point","coordinates":[-117.035172,32.794446]}},{"properties":{"latitude":32.781186,"id":"a6mmcgg1arus","zip code":92120,"longitude":-117.057047,"address":"6515 Del Cerro Blvd","state":"CA"},"type":"Feature","geometry":{"type":"Point","coordinates":[-117.057047,32.781186]}},{"properties":{"latitude":32.786429,"id":"a6mmcg9akwuq","zip code":92120,"longitude":-117.052088,"address":"5871 Ridgemoor Dr","state":"CA"},"type":"Feature","geometry":{"type":"Point","coordinates":[-117.052088,32.786429]}},{"properties":{"latitude":32.782828,"id":"a6mmcgbevi2f","zip code":92120,"longitude":-117.050698,"address":"6738 Tema St","state":"CA"},"type":"Feature","geometry":{"type":"Point","coordinates":[-117.050698,32.782828]}},{"properties":{"latitude":32.7959,"id":"a6mmcg68ov34","zip code":92119,"longitude":-117.043668,"address":"6561 Green Gables Ave","state":"CA"},"type":"Feature","geometry":{"type":"Point","coordinates":[-117.043668,32.7959]}},{"properties":{"latitude":32.793329,"id":"a6mmcgcf5kmq","zip code":92119,"longitude":-117.043566,"address":"7136 Murray Park Dr","state":"CA"},"type":"Feature","geometry":{"type":"Point","coordinates":[-117.043566,32.793329]}},{"properties":{"latitude":32.79971,"id":"a6mmcg74zkrv","zip code":92119,"longitude":-117.047903,"address":"6947 Casselberry Way","state":"CA"},"type":"Feature","geometry":{"type":"Point","coordinates":[-117.047903,32.79971]}},{"properties":{"latitude":32.80024,"id":"a6mmcggxf7md","zip code":92119,"longitude":-117.043782,"address":"7062 Glenflora Ave","state":"CA"},"type":"Feature","geometry":{"type":"Point","coordinates":[-117.043782,32.80024]}},{"properties":{"latitude":32.800753,"id":"a6mmcgfb9vw0","zip code":92119,"longitude":-117.047891,"address":"6816 Hyde Park Dr","state":"CA"},"type":"Feature","geometry":{"type":"Point","coordinates":[-117.047891,32.800753]}},{"properties":{"latitude":32.800783,"id":"a6mmcghqbtd5","zip code":92119,"longitude":-117.047786,"address":"6832 Hyde Park Dr","state":"CA"},"type":"Feature","geometry":{"type":"Point","coordinates":[-117.047786,32.800783]}},{"properties":{"latitude":32.800937,"id":"a6mmcgatmr14","zip code":92119,"longitude":-117.04751,"address":"6868 Hyde Park Dr","state":"CA"},"type":"Feature","geometry":{"type":"Point","coordinates":[-117.04751,32.800937]}},{"properties":{"latitude":32.801518,"id":"a6mmcg8gi2d8","zip code":92119,"longitude":-117.046596,"address":"6924 Hyde Park Dr","state":"CA"},"type":"Feature","geometry":{"type":"Point","coordinates":[-117.046596,32.801518]}},{"properties":{"latitude":32.802068,"id":"a6mmcg8gqhhm","zip code":92119,"longitude":-117.045687,"address":"6960 Hyde Park Dr","state":"CA"},"type":"Feature","geometry":{"type":"Point","coordinates":[-117.045687,32.802068]}},{"properties":{"latitude":32.801432,"id":"a6mmcg88j7sl","zip code":92119,"longitude":-117.042539,"address":"7320 Jackson Dr","state":"CA"},"type":"Feature","geometry":{"type":"Point","coordinates":[-117.042539,32.801432]}},{"properties":{"latitude":32.797511,"id":"a6mmcgh8ixbr","zip code":92119,"longitude":-117.040128,"address":"7275 Glenflora Ave","state":"CA"},"type":"Feature","geometry":{"type":"Point","coordinates":[-117.040128,32.797511]}},{"properties":{"latitude":32.799639,"id":"a6mmcg9m0osb","zip code":92119,"longitude":-117.045537,"address":"6937 Tuckaway St","state":"CA"},"type":"Feature","geometry":{"type":"Point","coordinates":[-117.045537,32.799639]}},{"properties":{"latitude":32.803221,"id":"a6mmcgg9bvvp","zip code":92120,"longitude":-117.049794,"address":"6754 Caminito Del Greco","state":"CA"},"type":"Feature","geometry":{"type":"Point","coordinates":[-117.049794,32.803221]}},{"properties":{"latitude":32.807965,"id":"a6mmcghke736","zip code":92120,"longitude":-117.050348,"address":"7815 Hemingway Ave","state":"CA"},"type":"Feature","geometry":{"type":"Point","coordinates":[-117.050348,32.807965]}},{"properties":{"latitude":32.808387,"id":"a6mmcginwiba","zip code":92120,"longitude":-117.051087,"address":"7875 Hemingway Ave","state":"CA"},"type":"Feature","geometry":{"type":"Point","coordinates":[-117.051087,32.808387]}},{"properties":{"latitude":32.80832,"id":"a6mmcgdpeg5o","zip code":92120,"longitude":-117.051538,"address":"7896 Hemingway Ave","state":"CA"},"type":"Feature","geometry":{"type":"Point","coordinates":[-117.051538,32.80832]}},{"properties":{"latitude":32.806658,"id":"a6mmcggk8yr4","zip code":92120,"longitude":-117.055796,"address":"6224 Cabaret St","state":"CA"},"type":"Feature","geometry":{"type":"Point","coordinates":[-117.055796,32.806658]}},{"properties":{"latitude":32.803887,"id":"a6mmcg79oazp","zip code":92120,"longitude":-117.053749,"address":"6393 Cibola Rd","state":"CA"},"type":"Feature","geometry":{"type":"Point","coordinates":[-117.053749,32.803887]}},{"properties":{"latitude":32.801804,"id":"a6mmcggzmjvf","zip code":92120,"longitude":-117.053189,"address":"6625 Amberly St","state":"CA"},"type":"Feature","geometry":{"type":"Point","coordinates":[-117.053189,32.801804]}},{"properties":{"latitude":32.809315,"id":"a6mmcg5bq7i1","zip code":92120,"longitude":-117.061566,"address":"8315 High Winds Way","state":"CA"},"type":"Feature","geometry":{"type":"Point","coordinates":[-117.061566,32.809315]}},{"properties":{"latitude":32.80815,"id":"a6mmcgew7gwy","zip code":92120,"longitude":-117.058828,"address":"8230 Laurelridge Rd","state":"CA"},"type":"Feature","geometry":{"type":"Point","coordinates":[-117.058828,32.80815]}},{"properties":{"latitude":32.809557,"id":"a6mmcgk9gjsm","zip code":92120,"longitude":-117.061159,"address":"6831 Lazy Clouds Pt","state":"CA"},"type":"Feature","geometry":{"type":"Point","coordinates":[-117.061159,32.809557]}},{"properties":{"latitude":32.811638,"id":"a6mmcgh5o0gb","zip code":92120,"longitude":-117.059796,"address":"7878 Deerfield St","state":"CA"},"type":"Feature","geometry":{"type":"Point","coordinates":[-117.059796,32.811638]}},{"properties":{"latitude":32.81472,"id":"a6mmcgcl8npo","zip code":92120,"longitude":-117.060674,"address":"6843 Deerrun Pl","state":"CA"},"type":"Feature","geometry":{"type":"Point","coordinates":[-117.060674,32.81472]}},{"properties":{"latitude":32.81384,"id":"a6mmcg5r7i2n","zip code":92120,"longitude":-117.056369,"address":"6606 Hemingway Dr","state":"CA"},"type":"Feature","geometry":{"type":"Point","coordinates":[-117.056369,32.81384]}},{"properties":{"latitude":32.815469,"id":"a6mmcgh6928x","zip code":92120,"longitude":-117.057861,"address":"8208 Hillandale Dr","state":"CA"},"type":"Feature","geometry":{"type":"Point","coordinates":[-117.057861,32.815469]}},{"properties":{"latitude":32.814978,"id":"a6mmcgagx900","zip code":92120,"longitude":-117.057952,"address":"8231 Hillandale Dr","state":"CA"},"type":"Feature","geometry":{"type":"Point","coordinates":[-117.057952,32.814978]}},{"properties":{"latitude":32.810877,"id":"a6mmcgf7plm9","zip code":92120,"longitude":-117.064801,"address":"7787 Hillandale Dr","state":"CA"},"type":"Feature","geometry":{"type":"Point","coordinates":[-117.064801,32.810877]}},{"properties":{"latitude":32.806947,"id":"a6mmcgd3826q","zip code":92120,"longitude":-117.070692,"address":"5682 Lone Star Dr","state":"CA"},"type":"Feature","geometry":{"type":"Point","coordinates":[-117.070692,32.806947]}},{"properties":{"latitude":32.80785,"id":"a6mmcg4s6784","zip code":92120,"longitude":-117.066778,"address":"7720 Margerum Ave","state":"CA"},"type":"Feature","geometry":{"type":"Point","coordinates":[-117.066778,32.80785]}},{"properties":{"latitude":32.809716,"id":"a6mmcgi82nnx","zip code":92120,"longitude":-117.067449,"address":"7707 Mission Gorge Rd","state":"CA"},"type":"Feature","geometry":{"type":"Point","coordinates":[-117.067449,32.809716]}},{"properties":{"latitude":32.801888,"id":"a6mmcgcbguo6","zip code":92120,"longitude":-117.078004,"address":"5350 Fontaine St","state":"CA"},"type":"Feature","geometry":{"type":"Point","coordinates":[-117.078004,32.801888]}},{"properties":{"latitude":32.803626,"id":"a6mmcgfsxkt3","zip code":92120,"longitude":-117.07892,"address":"7331 Princess View Dr","state":"CA"},"type":"Feature","geometry":{"type":"Point","coordinates":[-117.07892,32.803626]}},{"properties":{"latitude":32.794993,"id":"a6mmcg7x2n91","zip code":92120,"longitude":-117.070577,"address":"5649 Barclay Ave","state":"CA"},"type":"Feature","geometry":{"type":"Point","coordinates":[-117.070577,32.794993]}},{"properties":{"latitude":32.794541,"id":"a6mmcggjn5r7","zip code":92120,"longitude":-117.071925,"address":"5662 Delano Ave","state":"CA"},"type":"Feature","geometry":{"type":"Point","coordinates":[-117.071925,32.794541]}},{"properties":{"latitude":32.796377,"id":"a6mmcgcql17e","zip code":92120,"longitude":-117.056351,"address":"6808 Bluefield Ct","state":"CA"},"type":"Feature","geometry":{"type":"Point","coordinates":[-117.056351,32.796377]}},{"properties":{"latitude":32.799385,"id":"a6mmcg7e0lla","zip code":92120,"longitude":-117.058709,"address":"6312 Camino Largo","state":"CA"},"type":"Feature","geometry":{"type":"Point","coordinates":[-117.058709,32.799385]}},{"properties":{"latitude":32.79719,"id":"a6mmcg8d3wy4","zip code":92120,"longitude":-117.057024,"address":"6416 Del Paso Ave","state":"CA"},"type":"Feature","geometry":{"type":"Point","coordinates":[-117.057024,32.79719]}},{"properties":{"latitude":32.796834,"id":"a6mmcgdwoi84","zip code":92120,"longitude":-117.059612,"address":"6875 Ridge Manor Ave","state":"CA"},"type":"Feature","geometry":{"type":"Point","coordinates":[-117.059612,32.796834]}},{"properties":{"latitude":32.798024,"id":"a6mmcg8knswh","zip code":92120,"longitude":-117.061831,"address":"6180 Camino Largo","state":"CA"},"type":"Feature","geometry":{"type":"Point","coordinates":[-117.061831,32.798024]}},{"properties":{"latitude":32.786804,"id":"a6mmcg7k0r24","zip code":92120,"longitude":-117.061428,"address":"5927 Caminito De La Taz","state":"CA"},"type":"Feature","geometry":{"type":"Point","coordinates":[-117.061428,32.786804]}},{"properties":{"latitude":32.791453,"id":"a6mmcghr3o00","zip code":92120,"longitude":-117.062681,"address":"6409 Caminito Estrellad","state":"CA"},"type":"Feature","geometry":{"type":"Point","coordinates":[-117.062681,32.791453]}},{"properties":{"latitude":32.794808,"id":"a6mmcgc06ivy","zip code":92119,"longitude":-117.048274,"address":"6509 Casselberry Way","state":"CA"},"type":"Feature","geometry":{"type":"Point","coordinates":[-117.048274,32.794808]}},{"properties":{"latitude":32.792474,"id":"a6mmcgjvzhrq","zip code":92120,"longitude":-117.052708,"address":"6660 Murray Park Dr","state":"CA"},"type":"Feature","geometry":{"type":"Point","coordinates":[-117.052708,32.792474]}},{"properties":{"latitude":32.792495,"id":"a6mmcg89s1jt","zip code":92120,"longitude":-117.059443,"address":"6443 Pasatiempo Ave","state":"CA"},"type":"Feature","geometry":{"type":"Point","coordinates":[-117.059443,32.792495]}},{"properties":{"latitude":32.776762,"id":"a6mmcghgt4fa","zip code":92120,"longitude":-117.050112,"address":"6921 Airoso Ave","state":"CA"},"type":"Feature","geometry":{"type":"Point","coordinates":[-117.050112,32.776762]}},{"properties":{"latitude":32.777075,"id":"a6mmcgfjlw6i","zip code":92120,"longitude":-117.048754,"address":"5430 Pennsylvania Pl","state":"CA"},"type":"Feature","geometry":{"type":"Point","coordinates":[-117.048754,32.777075]}},{"properties":{"latitude":32.781904,"id":"a6mmcgaf6klb","zip code":92120,"longitude":-117.071462,"address":"5664 Adobe Falls Pl","state":"CA"},"type":"Feature","geometry":{"type":"Point","coordinates":[-117.071462,32.781904]}},{"properties":{"latitude":32.782695,"id":"a6mmcgidezev","zip code":92120,"longitude":-117.072794,"address":"5908 Adobe Falls Rd","state":"CA"},"type":"Feature","geometry":{"type":"Point","coordinates":[-117.072794,32.782695]}},{"properties":{"latitude":32.782342,"id":"a6mmcgej826h","zip code":92120,"longitude":-117.079798,"address":"5432 Adobe Falls Rd","state":"CA"},"type":"Feature","geometry":{"type":"Point","coordinates":[-117.079798,32.782342]}},{"properties":{"latitude":32.782265,"id":"a6mmcgcyroc3","zip code":92120,"longitude":-117.07825,"address":"5533 Adobe Falls Rd","state":"CA"},"type":"Feature","geometry":{"type":"Point","coordinates":[-117.07825,32.782265]}},{"properties":{"latitude":32.782357,"id":"a6mmcgh15ssb","zip code":92120,"longitude":-117.077828,"address":"5581 Adobe Falls Rd","state":"CA"},"type":"Feature","geometry":{"type":"Point","coordinates":[-117.077828,32.782357]}},{"properties":{"latitude":32.784637,"id":"a6mmcgkpwofm","zip code":92120,"longitude":-117.067739,"address":"6110 Romany Dr","state":"CA"},"type":"Feature","geometry":{"type":"Point","coordinates":[-117.067739,32.784637]}},{"properties":{"latitude":32.784244,"id":"a6mmcggkh3vt","zip code":92120,"longitude":-117.065813,"address":"5779 Theta Pl","state":"CA"},"type":"Feature","geometry":{"type":"Point","coordinates":[-117.065813,32.784244]}},{"properties":{"latitude":32.784123,"id":"a6mmcgf6evgv","zip code":92120,"longitude":-117.062818,"address":"5762 Vinley Pl","state":"CA"},"type":"Feature","geometry":{"type":"Point","coordinates":[-117.062818,32.784123]}},{"properties":{"latitude":32.79222,"id":"a6mmcgfi6e0g","zip code":92120,"longitude":-117.071325,"address":"5845 Bounty St","state":"CA"},"type":"Feature","geometry":{"type":"Point","coordinates":[-117.071325,32.79222]}},{"properties":{"latitude":32.790201,"id":"a6mmcgib4oet","zip code":92120,"longitude":-117.073368,"address":"5712 Lance St","state":"CA"},"type":"Feature","geometry":{"type":"Point","coordinates":[-117.073368,32.790201]}},{"properties":{"latitude":32.786475,"id":"a6mmcg8yx831","zip code":92120,"longitude":-117.065491,"address":"5984 Wenrich Dr","state":"CA"},"type":"Feature","geometry":{"type":"Point","coordinates":[-117.065491,32.786475]}},{"properties":{"latitude":32.791245,"id":"a6mmcgdnqh94","zip code":92120,"longitude":-117.069196,"address":"6301 Wenrich Dr","state":"CA"},"type":"Feature","geometry":{"type":"Point","coordinates":[-117.069196,32.791245]}},{"properties":{"latitude":32.787136,"id":"a6mmcgiavk96","zip code":92120,"longitude":-117.064513,"address":"6028 College Ave","state":"CA"},"type":"Feature","geometry":{"type":"Point","coordinates":[-117.064513,32.787136]}},{"properties":{"latitude":32.798516,"id":"a6mmcgh1m37b","zip code":92120,"longitude":-117.073284,"address":"5481 Brunswick Ave","state":"CA"},"type":"Feature","geometry":{"type":"Point","coordinates":[-117.073284,32.798516]}},{"properties":{"latitude":32.797938,"id":"a6mmcgcrqhl3","zip code":92120,"longitude":-117.075109,"address":"5426 Waring Rd","state":"CA"},"type":"Feature","geometry":{"type":"Point","coordinates":[-117.075109,32.797938]}},{"properties":{"latitude":32.802999,"id":"a6mmcg5pyotp","zip code":92120,"longitude":-117.063291,"address":"7520 Clear Sky Rd","state":"CA"},"type":"Feature","geometry":{"type":"Point","coordinates":[-117.063291,32.802999]}},{"properties":{"latitude":32.802399,"id":"a6mmcgh0iebi","zip code":92120,"longitude":-117.070362,"address":"5698 Fontaine St","state":"CA"},"type":"Feature","geometry":{"type":"Point","coordinates":[-117.070362,32.802399]}},{"properties":{"latitude":32.799619,"id":"a6mmcg7ovtkx","zip code":92120,"longitude":-117.081456,"address":"7052 Keighley St","state":"CA"},"type":"Feature","geometry":{"type":"Point","coordinates":[-117.081456,32.799619]}},{"properties":{"latitude":32.799548,"id":"a6mmcgila0xk","zip code":92120,"longitude":-117.082275,"address":"7035 Leicester St","state":"CA"},"type":"Feature","geometry":{"type":"Point","coordinates":[-117.082275,32.799548]}},{"properties":{"latitude":32.802032,"id":"a6mmcg9v166i","zip code":92120,"longitude":-117.080425,"address":"7184 Romford Ct","state":"CA"},"type":"Feature","geometry":{"type":"Point","coordinates":[-117.080425,32.802032]}},{"properties":{"latitude":32.798579,"id":"a6mmcg88x0w5","zip code":92120,"longitude":-117.075361,"address":"5402 Brunswick Ave","state":"CA"},"type":"Feature","geometry":{"type":"Point","coordinates":[-117.075361,32.798579]}},{"properties":{"latitude":32.799372,"id":"a6mmcg58izry","zip code":92120,"longitude":-117.075486,"address":"7012 Glenroy St","state":"CA"},"type":"Feature","geometry":{"type":"Point","coordinates":[-117.075486,32.799372]}},{"properties":{"latitude":32.800472,"id":"a6mmcgcsjzfl","zip code":92120,"longitude":-117.075437,"address":"7040 Hillsboro St","state":"CA"},"type":"Feature","geometry":{"type":"Point","coordinates":[-117.075437,32.800472]}},{"properties":{"latitude":32.793896,"id":"a6mmcgapyax4","zip code":92120,"longitude":-117.078455,"address":"6752 Birchwood St","state":"CA"},"type":"Feature","geometry":{"type":"Point","coordinates":[-117.078455,32.793896]}},{"properties":{"latitude":32.79633,"id":"a6mmcg6am6v7","zip code":92120,"longitude":-117.075571,"address":"6891 Birchwood St","state":"CA"},"type":"Feature","geometry":{"type":"Point","coordinates":[-117.075571,32.79633]}},{"properties":{"latitude":32.79654,"id":"a6mmcgahlg60","zip code":92120,"longitude":-117.075778,"address":"6892 Birchwood St","state":"CA"},"type":"Feature","geometry":{"type":"Point","coordinates":[-117.075778,32.79654]}},{"properties":{"latitude":32.791467,"id":"a6mmcgf3iikn","zip code":92120,"longitude":-117.078179,"address":"6611 Delfern St","state":"CA"},"type":"Feature","geometry":{"type":"Point","coordinates":[-117.078179,32.791467]}},{"properties":{"latitude":32.789937,"id":"a6mmcgj786ex","zip code":92120,"longitude":-117.083274,"address":"5073 Waring Rd","state":"CA"},"type":"Feature","geometry":{"type":"Point","coordinates":[-117.083274,32.789937]}},{"properties":{"latitude":32.784063,"id":"a6mmcgi5yi8b","zip code":92120,"longitude":-117.081444,"address":"5472 Del Cerro Blvd","state":"CA"},"type":"Feature","geometry":{"type":"Point","coordinates":[-117.081444,32.784063]}},{"properties":{"latitude":32.793163,"id":"a6mmcgf7a5ur","zip code":92120,"longitude":-117.088804,"address":"6611 Clara Lee Ave","state":"CA"},"type":"Feature","geometry":{"type":"Point","coordinates":[-117.088804,32.793163]}},{"properties":{"latitude":32.793932,"id":"a6mmcggz9h2q","zip code":92120,"longitude":-117.086334,"address":"6672 Winona Ave","state":"CA"},"type":"Feature","geometry":{"type":"Point","coordinates":[-117.086334,32.793932]}},{"properties":{"latitude":32.793011,"id":"a6mmcgex4txo","zip code":92120,"longitude":-117.085746,"address":"4914 Zion Ave","state":"CA"},"type":"Feature","geometry":{"type":"Point","coordinates":[-117.085746,32.793011]}},{"properties":{"latitude":32.796628,"id":"a6mmcgcxfuhu","zip code":92120,"longitude":-117.083728,"address":"6824 51St St","state":"CA"},"type":"Feature","geometry":{"type":"Point","coordinates":[-117.083728,32.796628]}},{"properties":{"latitude":32.797791,"id":"a6mmcg9spzx9","zip code":92120,"longitude":-117.085364,"address":"4951 Alfred Ct","state":"CA"},"type":"Feature","geometry":{"type":"Point","coordinates":[-117.085364,32.797791]}},{"properties":{"latitude":32.796833,"id":"a6mmcg8odkhr","zip code":92120,"longitude":-117.077462,"address":"6839 Glenroy St","state":"CA"},"type":"Feature","geometry":{"type":"Point","coordinates":[-117.077462,32.796833]}},{"properties":{"latitude":32.796176,"id":"a6mmcgk4xjzz","zip code":92120,"longitude":-117.085833,"address":"4933 Havenwood Ave","state":"CA"},"type":"Feature","geometry":{"type":"Point","coordinates":[-117.085833,32.796176]}},{"properties":{"latitude":32.799753,"id":"a6mmcgf8lke5","zip code":92120,"longitude":-117.089073,"address":"4896 Old Cliffs Rd","state":"CA"},"type":"Feature","geometry":{"type":"Point","coordinates":[-117.089073,32.799753]}},{"properties":{"latitude":32.796326,"id":"a6mmcgbvh3pf","zip code":92120,"longitude":-117.090874,"address":"6825 Cartwright St","state":"CA"},"type":"Feature","geometry":{"type":"Point","coordinates":[-117.090874,32.796326]}},{"properties":{"latitude":32.797192,"id":"a6mmcggrwigi","zip code":92120,"longitude":-117.088741,"address":"6863 Clara Lee Ave","state":"CA"},"type":"Feature","geometry":{"type":"Point","coordinates":[-117.088741,32.797192]}},{"properties":{"latitude":32.79747,"id":"a6mmcg72lodv","zip code":92120,"longitude":-117.089058,"address":"6874 Clara Lee Ave","state":"CA"},"type":"Feature","geometry":{"type":"Point","coordinates":[-117.089058,32.79747]}},{"properties":{"latitude":32.796666,"id":"a6mmcgf6nsyl","zip code":92120,"longitude":-117.092787,"address":"4730 Greenbrier Ave","state":"CA"},"type":"Feature","geometry":{"type":"Point","coordinates":[-117.092787,32.796666]}},{"properties":{"latitude":32.79737,"id":"a6mmcgbjk726","zip code":92120,"longitude":-117.087164,"address":"6894 Halifax St","state":"CA"},"type":"Feature","geometry":{"type":"Point","coordinates":[-117.087164,32.79737]}},{"properties":{"latitude":32.798102,"id":"a6mmcgf5bub2","zip code":92120,"longitude":-117.092747,"address":"6867 Mission Gorge Rd","state":"CA"},"type":"Feature","geometry":{"type":"Point","coordinates":[-117.092747,32.798102]}},{"properties":{"latitude":32.797065,"id":"a6mmcg63lotc","zip code":92120,"longitude":-117.089772,"address":"6857 Newberry St","state":"CA"},"type":"Feature","geometry":{"type":"Point","coordinates":[-117.089772,32.797065]}},{"properties":{"latitude":32.797112,"id":"a6mmcga51oro","zip code":92120,"longitude":-117.094036,"address":"6780 Mission Gorge Rd","state":"CA"},"type":"Feature","geometry":{"type":"Point","coordinates":[-117.094036,32.797112]}},{"properties":{"latitude":32.793192,"id":"a6mmcgbnlg1v","zip code":92120,"longitude":-117.090745,"address":"6631 Cartwright St","state":"CA"},"type":"Feature","geometry":{"type":"Point","coordinates":[-117.090745,32.793192]}},{"properties":{"latitude":32.794576,"id":"a6mmcg5qwns3","zip code":92120,"longitude":-117.096244,"address":"6675 Mission Gorge Rd","state":"CA"},"type":"Feature","geometry":{"type":"Point","coordinates":[-117.096244,32.794576]}},{"properties":{"latitude":32.79309,"id":"a6mmcgdwfaty","zip code":92120,"longitude":-117.095302,"address":"4620 Zion Ave","state":"CA"},"type":"Feature","geometry":{"type":"Point","coordinates":[-117.095302,32.79309]}},{"properties":{"latitude":32.788097,"id":"a6mmcg4t9x1d","zip code":92120,"longitude":-117.093707,"address":"6239 Crawford St","state":"CA"},"type":"Feature","geometry":{"type":"Point","coordinates":[-117.093707,32.788097]}},{"properties":{"latitude":32.790247,"id":"a6mmcg9irjcr","zip code":92120,"longitude":-117.090792,"address":"6474 Delbarton St","state":"CA"},"type":"Feature","geometry":{"type":"Point","coordinates":[-117.090792,32.790247]}},{"properties":{"latitude":32.787776,"id":"a6mmcgbqqhoe","zip code":92120,"longitude":-117.09316,"address":"4742 Vandever Ave","state":"CA"},"type":"Feature","geometry":{"type":"Point","coordinates":[-117.09316,32.787776]}},{"properties":{"latitude":32.787737,"id":"a6mmcgiwykeo","zip code":92120,"longitude":-117.086079,"address":"6405 50Th St","state":"CA"},"type":"Feature","geometry":{"type":"Point","coordinates":[-117.086079,32.787737]}},{"properties":{"latitude":32.789993,"id":"a6mmcg7tehwg","zip code":92120,"longitude":-117.086637,"address":"6387 Winona Ave","state":"CA"},"type":"Feature","geometry":{"type":"Point","coordinates":[-117.086637,32.789993]}},{"properties":{"latitude":32.783002,"id":"a6mmcg9ij4wk","zip code":92120,"longitude":-117.088824,"address":"6001 Fenimore Way","state":"CA"},"type":"Feature","geometry":{"type":"Point","coordinates":[-117.088824,32.783002]}},{"properties":{"latitude":32.787014,"id":"a6mmcg5ep6ay","zip code":92120,"longitude":-117.093271,"address":"4752 Tobey St","state":"CA"},"type":"Feature","geometry":{"type":"Point","coordinates":[-117.093271,32.787014]}},{"properties":{"latitude":32.785054,"id":"a6mmcgh4pxsq","zip code":92120,"longitude":-117.092257,"address":"4762 Twain Ave","state":"CA"},"type":"Feature","geometry":{"type":"Point","coordinates":[-117.092257,32.785054]}},{"properties":{"latitude":32.784517,"id":"a6mmcg9j4rb7","zip code":92120,"longitude":-117.090971,"address":"4817 Twain Ave","state":"CA"},"type":"Feature","geometry":{"type":"Point","coordinates":[-117.090971,32.784517]}},{"properties":{"latitude":32.786675,"id":"a6mmcg94chce","zip code":92120,"longitude":-117.087517,"address":"6259 Winona Ave","state":"CA"},"type":"Feature","geometry":{"type":"Point","coordinates":[-117.087517,32.786675]}},{"properties":{"latitude":32.785869,"id":"a6mmcgeh5r52","zip code":92120,"longitude":-117.094093,"address":"6110 Crawford St","state":"CA"},"type":"Feature","geometry":{"type":"Point","coordinates":[-117.094093,32.785869]}},{"properties":{"latitude":32.766343,"id":"a6mmcgi1sgii","zip code":92115,"longitude":-117.08351,"address":"4891 Collwood Blvd","state":"CA"},"type":"Feature","geometry":{"type":"Point","coordinates":[-117.08351,32.766343]}},{"properties":{"latitude":32.774064,"id":"a6mmcg88rkyf","zip code":92115,"longitude":-117.085344,"address":"5016 College Gardens Ct","state":"CA"},"type":"Feature","geometry":{"type":"Point","coordinates":[-117.085344,32.774064]}},{"properties":{"latitude":32.773175,"id":"a6mmcgfsslk3","zip code":92115,"longitude":-117.081224,"address":"5303 Hewlett Dr","state":"CA"},"type":"Feature","geometry":{"type":"Point","coordinates":[-117.081224,32.773175]}},{"properties":{"latitude":32.778633,"id":"a6mmcg7qsw5v","zip code":92115,"longitude":-117.085071,"address":"5194 Bixel Dr","state":"CA"},"type":"Feature","geometry":{"type":"Point","coordinates":[-117.085071,32.778633]}},{"properties":{"latitude":32.777247,"id":"a6mmcg8c1p6b","zip code":92115,"longitude":-117.082018,"address":"5433 Redding Rd","state":"CA"},"type":"Feature","geometry":{"type":"Point","coordinates":[-117.082018,32.777247]}},{"properties":{"latitude":32.76004,"id":"a6mmcgbqbpxi","zip code":92115,"longitude":-117.08067,"address":"4501 Collwood Blvd","state":"CA"},"type":"Feature","geometry":{"type":"Point","coordinates":[-117.08067,32.76004]}},{"properties":{"latitude":32.760297,"id":"a6mmcggnpkv6","zip code":92115,"longitude":-117.080913,"address":"4545 Collwood Blvd","state":"CA"},"type":"Feature","geometry":{"type":"Point","coordinates":[-117.080913,32.760297]}},{"properties":{"latitude":32.763579,"id":"a6mmcg88xcg0","zip code":92115,"longitude":-117.077666,"address":"5450 Collier Ave","state":"CA"},"type":"Feature","geometry":{"type":"Point","coordinates":[-117.077666,32.763579]}},{"properties":{"latitude":32.76469,"id":"a6mmcgbh19d4","zip code":92115,"longitude":-117.078257,"address":"5490 New Mills Rd","state":"CA"},"type":"Feature","geometry":{"type":"Point","coordinates":[-117.078257,32.76469]}},{"properties":{"latitude":32.765589,"id":"a6mmcg4z3f36","zip code":92115,"longitude":-117.077918,"address":"5415 Redland Pl","state":"CA"},"type":"Feature","geometry":{"type":"Point","coordinates":[-117.077918,32.765589]}},{"properties":{"latitude":32.767405,"id":"a6mmcgjqq81f","zip code":92115,"longitude":-117.071751,"address":"4950 Campanile Dr","state":"CA"},"type":"Feature","geometry":{"type":"Point","coordinates":[-117.071751,32.767405]}},{"properties":{"latitude":32.761343,"id":"a6mmcg7shw3u","zip code":92115,"longitude":-117.068642,"address":"4637 60Th St","state":"CA"},"type":"Feature","geometry":{"type":"Point","coordinates":[-117.068642,32.761343]}},{"properties":{"latitude":32.775263,"id":"a6mmcg8us8t8","zip code":92115,"longitude":-117.066038,"address":"5352 W Falls View Dr","state":"CA"},"type":"Feature","geometry":{"type":"Point","coordinates":[-117.066038,32.775263]}},{"properties":{"latitude":32.769002,"id":"a6mmcg5jlmz6","zip code":92115,"longitude":-117.063618,"address":"6312 Connie Dr","state":"CA"},"type":"Feature","geometry":{"type":"Point","coordinates":[-117.063618,32.769002]}},{"properties":{"latitude":32.770195,"id":"a6mmcga1ptxo","zip code":92115,"longitude":-117.063674,"address":"6319 Montezuma Rd","state":"CA"},"type":"Feature","geometry":{"type":"Point","coordinates":[-117.063674,32.770195]}},{"properties":{"latitude":32.767448,"id":"a6mmcgidrgsm","zip code":92115,"longitude":-117.05742,"address":"4881 Rolando Ct","state":"CA"},"type":"Feature","geometry":{"type":"Point","coordinates":[-117.05742,32.767448]}},{"properties":{"latitude":32.771632,"id":"a6mmcgbzmsbg","zip code":92115,"longitude":-117.061249,"address":"5143 Ewing St","state":"CA"},"type":"Feature","geometry":{"type":"Point","coordinates":[-117.061249,32.771632]}},{"properties":{"latitude":32.770567,"id":"a6mmcgj21frs","zip code":92115,"longitude":-117.060638,"address":"6431 Gary Ct","state":"CA"},"type":"Feature","geometry":{"type":"Point","coordinates":[-117.060638,32.770567]}},{"properties":{"latitude":32.771908,"id":"a6mmcgkleo87","zip code":92115,"longitude":-117.062633,"address":"5161 Tipton St","state":"CA"},"type":"Feature","geometry":{"type":"Point","coordinates":[-117.062633,32.771908]}},{"properties":{"latitude":32.775558,"id":"a6mmcg6vfs7b","zip code":92115,"longitude":-117.06134,"address":"6344 Cleo St","state":"CA"},"type":"Feature","geometry":{"type":"Point","coordinates":[-117.06134,32.775558]}},{"properties":{"latitude":32.774502,"id":"a6mmcg9r1btw","zip code":92115,"longitude":-117.06051,"address":"5260 Gary St","state":"CA"},"type":"Feature","geometry":{"type":"Point","coordinates":[-117.06051,32.774502]}},{"properties":{"latitude":32.771626,"id":"a6mmcgiayrt6","zip code":92115,"longitude":-117.059127,"address":"5134 La Dorna St","state":"CA"},"type":"Feature","geometry":{"type":"Point","coordinates":[-117.059127,32.771626]}},{"properties":{"latitude":32.772006,"id":"a6mmcgl0u0e5","zip code":92115,"longitude":-117.059137,"address":"5162 La Dorna St","state":"CA"},"type":"Feature","geometry":{"type":"Point","coordinates":[-117.059137,32.772006]}},{"properties":{"latitude":32.773617,"id":"a6mmcgcpxig3","zip code":92115,"longitude":-117.059503,"address":"6407 Richard St","state":"CA"},"type":"Feature","geometry":{"type":"Point","coordinates":[-117.059503,32.773617]}},{"properties":{"latitude":32.771471,"id":"a6mmcg5l9ihi","zip code":92115,"longitude":-117.056286,"address":"5155 Alumni Pl","state":"CA"},"type":"Feature","geometry":{"type":"Point","coordinates":[-117.056286,32.771471]}},{"properties":{"latitude":32.770976,"id":"a6mmcgitwg5r","zip code":92115,"longitude":-117.05879,"address":"5065 La Dorna St","state":"CA"},"type":"Feature","geometry":{"type":"Point","coordinates":[-117.05879,32.770976]}},{"properties":{"latitude":32.773604,"id":"a6mmcgefhvb9","zip code":92115,"longitude":-117.055264,"address":"5204 Lenore Dr","state":"CA"},"type":"Feature","geometry":{"type":"Point","coordinates":[-117.055264,32.773604]}},{"properties":{"latitude":32.773634,"id":"a6mmcgh2ugi1","zip code":92115,"longitude":-117.054368,"address":"6657 Richard St","state":"CA"},"type":"Feature","geometry":{"type":"Point","coordinates":[-117.054368,32.773634]}},{"properties":{"latitude":32.773996,"id":"a6mmcgkuebjw","zip code":92115,"longitude":-117.051055,"address":"5225 Bocaw Pl","state":"CA"},"type":"Feature","geometry":{"type":"Point","coordinates":[-117.051055,32.773996]}},{"properties":{"latitude":32.769576,"id":"a6mmcg5sfhm8","zip code":92115,"longitude":-117.049952,"address":"6875 Mohawk St","state":"CA"},"type":"Feature","geometry":{"type":"Point","coordinates":[-117.049952,32.769576]}},{"properties":{"latitude":32.773828,"id":"a6mmcgah9i2r","zip code":92115,"longitude":-117.050468,"address":"6828 Richard St","state":"CA"},"type":"Feature","geometry":{"type":"Point","coordinates":[-117.050468,32.773828]}},{"properties":{"latitude":32.754509,"id":"a6mmcgfso7i8","zip code":92115,"longitude":-117.091014,"address":"4283 48Th St","state":"CA"},"type":"Feature","geometry":{"type":"Point","coordinates":[-117.091014,32.754509]}},{"properties":{"latitude":32.753782,"id":"a6mmcghamfjf","zip code":92115,"longitude":-117.089915,"address":"4235 Estrella Ave","state":"CA"},"type":"Feature","geometry":{"type":"Point","coordinates":[-117.089915,32.753782]}},{"properties":{"latitude":32.745667,"id":"a6mmcg6gg0dv","zip code":92105,"longitude":-117.090719,"address":"4802 Lantana Dr","state":"CA"},"type":"Feature","geometry":{"type":"Point","coordinates":[-117.090719,32.745667]}},{"properties":{"latitude":32.74435,"id":"a6mmcgieyog7","zip code":92105,"longitude":-117.089966,"address":"4916 Lantana Dr","state":"CA"},"type":"Feature","geometry":{"type":"Point","coordinates":[-117.089966,32.74435]}},{"properties":{"latitude":32.746437,"id":"a6mmcghgsyq0","zip code":92105,"longitude":-117.090401,"address":"4845 Wightman St","state":"CA"},"type":"Feature","geometry":{"type":"Point","coordinates":[-117.090401,32.746437]}},{"properties":{"latitude":32.745365,"id":"a6mmcgaxid6j","zip code":92105,"longitude":-117.083153,"address":"3663 Hondo St","state":"CA"},"type":"Feature","geometry":{"type":"Point","coordinates":[-117.083153,32.745365]}},{"properties":{"latitude":32.745385,"id":"a6mmcgfkjl1d","zip code":92105,"longitude":-117.084183,"address":"3659 Lemona Ave","state":"CA"},"type":"Feature","geometry":{"type":"Point","coordinates":[-117.084183,32.745385]}},{"properties":{"latitude":32.748301,"id":"a6mmcgep4kz6","zip code":92105,"longitude":-117.082386,"address":"5260 Rex Ave","state":"CA"},"type":"Feature","geometry":{"type":"Point","coordinates":[-117.082386,32.748301]}},{"properties":{"latitude":32.748301,"id":"a6mmcgbkq38f","zip code":92105,"longitude":-117.082386,"address":"5260 Rex Ave","state":"CA"},"type":"Feature","geometry":{"type":"Point","coordinates":[-117.082386,32.748301]}},{"properties":{"latitude":32.748746,"id":"a6mmcggjflu9","zip code":92105,"longitude":-117.08642,"address":"5069 University Ave","state":"CA"},"type":"Feature","geometry":{"type":"Point","coordinates":[-117.08642,32.748746]}},{"properties":{"latitude":32.759678,"id":"a6mmcgdpa98i","zip code":92115,"longitude":-117.070258,"address":"5885 El Cajon Blvd","state":"CA"},"type":"Feature","geometry":{"type":"Point","coordinates":[-117.070258,32.759678]}},{"properties":{"latitude":32.758325,"id":"a6mmcgf8ismp","zip code":92115,"longitude":-117.067506,"address":"6033 Estelle St","state":"CA"},"type":"Feature","geometry":{"type":"Point","coordinates":[-117.067506,32.758325]}},{"properties":{"latitude":32.755741,"id":"a6mmcgfvbq8g","zip code":92115,"longitude":-117.0748,"address":"4345 56Th St","state":"CA"},"type":"Feature","geometry":{"type":"Point","coordinates":[-117.0748,32.755741]}},{"properties":{"latitude":32.758547,"id":"a6mmcg5c57cy","zip code":92115,"longitude":-117.073413,"address":"5721 El Cajon Blvd","state":"CA"},"type":"Feature","geometry":{"type":"Point","coordinates":[-117.073413,32.758547]}},{"properties":{"latitude":32.751558,"id":"a6mmcgcdlr7s","zip code":92115,"longitude":-117.077097,"address":"4022 Mandarin Pl","state":"CA"},"type":"Feature","geometry":{"type":"Point","coordinates":[-117.077097,32.751558]}},{"properties":{"latitude":32.756583,"id":"a6mmcggjrsks","zip code":92115,"longitude":-117.073663,"address":"5729 Meade Ave","state":"CA"},"type":"Feature","geometry":{"type":"Point","coordinates":[-117.073663,32.756583]}},{"properties":{"latitude":32.74794,"id":"a6mmcgho0hc7","zip code":92105,"longitude":-117.076341,"address":"5622 University Ave","state":"CA"},"type":"Feature","geometry":{"type":"Point","coordinates":[-117.076341,32.74794]}},{"properties":{"latitude":32.753826,"id":"a6mmcg65k6cg","zip code":92115,"longitude":-117.077666,"address":"5447 Vale Way","state":"CA"},"type":"Feature","geometry":{"type":"Point","coordinates":[-117.077666,32.753826]}},{"properties":{"latitude":32.744178,"id":"a6mmcg7jy76b","zip code":92105,"longitude":-117.078487,"address":"5410 Dwight St","state":"CA"},"type":"Feature","geometry":{"type":"Point","coordinates":[-117.078487,32.744178]}},{"properties":{"latitude":32.744145,"id":"a6mmcg631r1x","zip code":92105,"longitude":-117.078155,"address":"5442 Dwight St","state":"CA"},"type":"Feature","geometry":{"type":"Point","coordinates":[-117.078155,32.744145]}},{"properties":{"latitude":32.750595,"id":"a6mmcg5naxxh","zip code":92115,"longitude":-117.066852,"address":"3926 60Th St","state":"CA"},"type":"Feature","geometry":{"type":"Point","coordinates":[-117.066852,32.750595]}},{"properties":{"latitude":32.75093,"id":"a6mmcgh2v2ta","zip code":92115,"longitude":-117.066811,"address":"3992 60Th St","state":"CA"},"type":"Feature","geometry":{"type":"Point","coordinates":[-117.066811,32.75093]}},{"properties":{"latitude":32.74822,"id":"a6mmcgitq7am","zip code":92115,"longitude":-117.0685,"address":"5985 Dandridge Ln","state":"CA"},"type":"Feature","geometry":{"type":"Point","coordinates":[-117.0685,32.74822]}},{"properties":{"latitude":32.748197,"id":"a6mmcg828cf2","zip code":92115,"longitude":-117.068437,"address":"5995 Dandridge Ln","state":"CA"},"type":"Feature","geometry":{"type":"Point","coordinates":[-117.068437,32.748197]}},{"properties":{"latitude":32.753989,"id":"a6mmcg5w2x93","zip code":92115,"longitude":-117.072134,"address":"4227 58Th St","state":"CA"},"type":"Feature","geometry":{"type":"Point","coordinates":[-117.072134,32.753989]}},{"properties":{"latitude":32.75364,"id":"a6mmcg8r9f41","zip code":92115,"longitude":-117.07364,"address":"4202 Spartan Cir","state":"CA"},"type":"Feature","geometry":{"type":"Point","coordinates":[-117.07364,32.75364]}},{"properties":{"latitude":32.755408,"id":"a6mmcgdsvotd","zip code":92115,"longitude":-117.069014,"address":"4319 Athens St","state":"CA"},"type":"Feature","geometry":{"type":"Point","coordinates":[-117.069014,32.755408]}},{"properties":{"latitude":32.758204,"id":"a6mmcg6kc565","zip code":92115,"longitude":-117.06371,"address":"6152 Lorca Dr","state":"CA"},"type":"Feature","geometry":{"type":"Point","coordinates":[-117.06371,32.758204]}},{"properties":{"latitude":32.759043,"id":"a6mmcgctcm15","zip code":92115,"longitude":-117.065263,"address":"6111 Madeline St","state":"CA"},"type":"Feature","geometry":{"type":"Point","coordinates":[-117.065263,32.759043]}},{"properties":{"latitude":32.748833,"id":"a6mmcg4uo65i","zip code":92115,"longitude":-117.063087,"address":"3847 Boren St","state":"CA"},"type":"Feature","geometry":{"type":"Point","coordinates":[-117.063087,32.748833]}},{"properties":{"latitude":32.74753,"id":"a6mmcg6l74e7","zip code":92115,"longitude":-117.064417,"address":"6159 Hughes St","state":"CA"},"type":"Feature","geometry":{"type":"Point","coordinates":[-117.064417,32.74753]}},{"properties":{"latitude":32.750136,"id":"a6mmcgatobzn","zip code":92115,"longitude":-117.066323,"address":"4004 Marron St","state":"CA"},"type":"Feature","geometry":{"type":"Point","coordinates":[-117.066323,32.750136]}},{"properties":{"latitude":32.744477,"id":"a6mmcg7mryrp","zip code":92115,"longitude":-117.06485,"address":"6096 Streamview Dr","state":"CA"},"type":"Feature","geometry":{"type":"Point","coordinates":[-117.06485,32.744477]}},{"properties":{"latitude":32.743693,"id":"a6mmcgg8hfzb","zip code":92105,"longitude":-117.069045,"address":"5922 Dwight St","state":"CA"},"type":"Feature","geometry":{"type":"Point","coordinates":[-117.069045,32.743693]}},{"properties":{"latitude":32.743771,"id":"a6mmcgay36v2","zip code":92115,"longitude":-117.059402,"address":"3464 Hershey St","state":"CA"},"type":"Feature","geometry":{"type":"Point","coordinates":[-117.059402,32.743771]}}],"is_temporal":false,"author":{"url":"","metadata":"","contact_name":"","contact_address":"","source":"","contact_phone":""},"source":"","pagination":{"sort":null,"start":0,"total":408,"limit":1000000},"state":"complete","tags":"","published":"2014-08-11T05:04:44-04:00","id":4956}