{"type":"FeatureCollection","data_type":"Dataset","url_type":null,"permissions":[{"permissions":{"download":true,"view":true},"group_id":"everyone"}],"classification":null,"title":"All final data moscow  decimal","count":130,"stream_id":51268,"contributor":{"url":"http://geocommons.com/users/13326","name":"saurabhbittu"},"data_attributes":null,"calculation_params":null,"icon_link":null,"link":"http://geocommons.com/overlays/51268.json","extent":[37.1841,55.2519,38.749,55.9727],"geometry_types":["point"],"unique_name":null,"name":"All final data moscow  decimal","feature_count":130,"description":"","next_feature":null,"is_raster":false,"short_classification":"Y","stats":{"latitude":{"max":55.97273611,"mean":55.7532541453846,"variance":0.00646126673802815,"stdev":0.0803820050634976,"min":55.25194444,"median":55.75961944},"longitude":{"max":38.74902222,"mean":37.6342239595385,"variance":0.0244979727060011,"stdev":0.156518282337883,"min":37.18412778,"median":37.62258056}},"features":[{"properties":{"address russian":"???????????????????? ?? ?. 17 ???? 1","city":"Moscow","city russian":"??????","latitude":55.83734167,"category":"Pharmacies &amp; Pharmaceuticals/Pharmacies","company name":"drugstore chain","website":"http://www.yell.ru/sun","fax":"+7 (499) 1877154","phone":"+7 (495) 9604963","longitude":37.63645556,"id":"a622kzwj58ud","email id":"NA","address":"Agricultural st 17, Bldg 1 1","company name russain":"???????? ???? ????? SOLNYSHKO","category russian":"?????? ? ????????????"},"type":"Feature","geometry":{"type":"Point","coordinates":[37.63645556,55.83734167]}},{"properties":{"address russian":"????????? ??? ?? ? 5","city":"Moscow","city russian":"??????","latitude":55.76985556,"category":"Pharmacies &amp; Pharmaceuticals/Pharmacies","company name":"1 MOSCOW GSP Moscow branch of OAO RZD","website":"NA","fax":"NA","phone":"+7 (495) 2621791","longitude":37.65415556,"id":"a622kznegy52","email id":"NA","address":"Basmannaya new. ?? ?. 5 st. 5","company name russain":"# 1 ? ?????? ??? ?????????? ??????? ??? ???","category russian":"?????? ? ????????????"},"type":"Feature","geometry":{"type":"Point","coordinates":[37.65415556,55.76985556]}},{"properties":{"address russian":"??? ??????? ? ??????????? ????? ? 191/2","city":"Moscow","city russian":"??????","latitude":55.6783,"category":"Pharmacies &amp; Pharmaceuticals/Pharmacies","company name":"1 LYUBFARM Ltd.","website":"NA","fax":"+7 (495) 5548187","phone":"+7 (495) 5548196","longitude":37.89638333,"id":"a622kzoibxj8","email id":"NA","address":"Lyubertsy Oktyabrskaya Str d. 191 / 2","company name russain":"1 ??????? ???","category russian":"?????? ? ????????????"},"type":"Feature","geometry":{"type":"Point","coordinates":[37.89638333,55.6783]}},{"properties":{"address russian":"???? ????? ? 124 ????. 4","city":"Moscow","city russian":"??????","latitude":55.81587778,"category":"Pharmacies &amp; Pharmaceuticals/Pharmacies","company name":"109 Yaroslavna","website":"NA","fax":"+7 (495) 6830785","phone":"+7 (495) 6830573","longitude":37.63954722,"id":"a622kzz58k37","email id":"NA","address":"Mira Prosp., D. 124, Bldg. 4 4","company name russain":"109 ?????????","category russian":"?????? ? ????????????"},"type":"Feature","geometry":{"type":"Point","coordinates":[37.63954722,55.81587778]}},{"properties":{"address russian":"????????? ?? ? 2/23 ???? 1","city":"Moscow","city russian":"??????","latitude":55.7973,"category":"Pharmacies &amp; Pharmaceuticals/Pharmacies","company name":"100 IN KOROLENKO","website":"NA","fax":"+7 (495) 9641173","phone":"+7 (495) 9641089","longitude":37.68771944,"id":"a622kzv7r6c1","email id":"NA","address":"Korolenko Str 2 / 23 Bldg 1 1","company name russain":"100 ?? ?????????","category russian":"?????? ? ????????????"},"type":"Feature","geometry":{"type":"Point","coordinates":[37.68771944,55.7973]}},{"properties":{"address russian":"????????????? ?? ? 23","city":"Moscow","city russian":"??????","latitude":55.81368333,"category":"Pharmacies &amp; Pharmaceuticals/Pharmacies","company name":"14 PHARMACY Farmakon-MED","website":"http://www.valerianka.ru","fax":"NA","phone":"+7 (495) 6113494","longitude":37.56531944,"id":"a622kzrdxxmh","email id":"info@valerianka.ru","address":"Timiryazevskaya st 23","company name russain":"14 ?????? ????????-???","category russian":"?????? ? ????????????"},"type":"Feature","geometry":{"type":"Point","coordinates":[37.56531944,55.81368333]}},{"properties":{"address russian":"????????? ? ? 16","city":"Moscow","city russian":"??????","latitude":55.66181389,"category":"Pharmacies &amp; Pharmaceuticals/Pharmacies","company name":"141 Kashirke","website":"NA","fax":"+7 (499) 6117806","phone":"NA","longitude":37.6322,"id":"a622kzol9fq5","email id":"NA","address":"Kashirskoye sh 16","company name russain":"141 ???????","category russian":"?????? ? ????????????"},"type":"Feature","geometry":{"type":"Point","coordinates":[37.6322,55.66181389]}},{"properties":{"address russian":"???? ?????., ?. 108","city":"Moscow","city russian":"??????","latitude":55.80393611,"category":"Pharmacies &amp; Pharmaceuticals/Pharmacies","company name":"146 ALEXEEVSKY","website":"NA","fax":"NA","phone":"+7 (495) 6876229","longitude":37.63710556,"id":"a622kzy36to8","email id":"NA","address":"Mira Prosp D 108","company name russain":"146 ????????????","category russian":"?????? ? ????????????"},"type":"Feature","geometry":{"type":"Point","coordinates":[37.63710556,55.80393611]}},{"properties":{"address russian":"?????????? ?? ? 17 ???? 1","city":"Moscow","city russian":"??????","latitude":55.68806111,"category":"Pharmacies &amp; Pharmaceuticals/Pharmacies","company name":"152 UNIVERSITY","website":"NA","fax":"+7 (499) 1312009","phone":"+7 (499) 1313077","longitude":37.53199722,"id":"a622kznvngfw","email id":"NA","address":"Builders st 17 Bldg 1 1","company name russain":"152 ???????????????","category russian":"?????? ? ????????????"},"type":"Feature","geometry":{"type":"Point","coordinates":[37.53199722,55.68806111]}},{"properties":{"address russian":"????????? ??? ? 18","city":"Moscow","city russian":"??????","latitude":55.75507778,"category":"Pharmacies &amp; Pharmaceuticals/Pharmacies","company name":"159 on Novinsky Ltd","website":"http://www.apteka-159.ru http://www.farmir.ru","fax":"NA","phone":"+7 (495) 6906429","longitude":37.58475,"id":"a622l01b0ohe","email id":"apt_159@mail.ru","address":"Novinsky Blvd 18","company name russain":"159 ?? ????????? ???","category russian":"?????? ? ????????????"},"type":"Feature","geometry":{"type":"Point","coordinates":[37.58475,55.75507778]}},{"properties":{"address russian":"Novocherkassk Blvd., 20, Bldg. 1 1","city":"Moscow","city russian":"??????","latitude":55.64568889,"category":"Pharmacies &amp; Pharmaceuticals/Pharmacies","company name":"16 MEDICINE FOR YOU LLC QUADRO","website":"NA","fax":"NA","phone":"+7 (495) 3490991","longitude":37.719475,"id":"a622kzxqym61","email id":"NA","address":"Novocherkassk Blvd 20 Bldg 1 1","company name russain":"16 ???????? ??? ??? ??? ??????","category russian":"?????? ? ????????????"},"type":"Feature","geometry":{"type":"Point","coordinates":[37.719475,55.64568889]}},{"properties":{"address russian":"????????????? 2-? ??., ?. 3?","city":"Moscow","city russian":"??????","latitude":55.70650833,"category":"Pharmacies &amp; Pharmaceuticals/Pharmacies","company name":"162 PHOENIX","website":"NA","fax":"+7 (495) 6750748","phone":"+7 (495) 6750268","longitude":37.65880278,"id":"a622kzxyy59y","email id":"NA","address":"Avtozavodsky 2-nd pr 3A","company name russain":"162 ??????","category russian":"?????? ? ????????????"},"type":"Feature","geometry":{"type":"Point","coordinates":[37.65880278,55.70650833]}},{"properties":{"address russian":"????????????? ????? ? 17","city":"Moscow","city russian":"??????","latitude":55.72861111,"category":"Pharmacies &amp; Pharmaceuticals/Pharmacies","company name":"168 pharmacy in Volgograd JSC","website":"NA","fax":"NA","phone":"+7 (495) 6709341","longitude":37.67873889,"id":"a622l0016pu6","email id":"NA","address":"Volgograd Ave 17","company name russain":"168 ?????? ?? ????????????? ???","category russian":"?????? ? ????????????"},"type":"Feature","geometry":{"type":"Point","coordinates":[37.67873889,55.72861111]}},{"properties":{"address russian":"????? ???. ??., ?. 31/12, ???. 1","city":"Moscow","city russian":"??????","latitude":55.75139444,"category":"Pharmacies &amp; Pharmaceuticals/Pharmacies","company name":"18 PHARMACY STOLICHNAYA","website":"http://www.apteka18.ru","fax":"NA","phone":"+7 (495) 6057545","longitude":37.57577778,"id":"a622l015zrzl","email id":"apt18@mail.ru","address":"New Arbat Street. ?? ? 31/12 ???. 1 st 31/12 page 1","company name russain":"18 ?????? ?????????","category russian":"?????? ? ????????????"},"type":"Feature","geometry":{"type":"Point","coordinates":[37.57577778,55.75139444]}},{"properties":{"address russian":"????????? ??., ?. 8, ????. 1","city":"Moscow","city russian":"??????","latitude":55.71935,"category":"Pharmacies &amp; Pharmaceuticals/Pharmacies","company name":"183 Setun Ltd.","website":"NA","fax":"+7 (495) 4481405","phone":"+7 (495) 4481385","longitude":37.40183611,"id":"a622kzy6vh4s","email id":"NA","address":"Tolbukhina st., 8, Bldg. 1 1","company name russain":"183 ?????? ???","category russian":"?????? ? ????????????"},"type":"Feature","geometry":{"type":"Point","coordinates":[37.40183611,55.71935]}},{"properties":{"address russian":"???????? ??., ?. 12","city":"Moscow","city russian":"??????","latitude":55.86898056,"category":"Pharmacies &amp; Pharmaceuticals/Pharmacies","company name":"192 at Klin","website":"NA","fax":"+7 (495) 4552233","phone":"+7 (495) 4550175","longitude":37.49581944,"id":"a622kzxf8gr1","email id":"NA","address":"Klin Str., 12","company name russain":"192 ?? ????????","category russian":"?????? ? ????????????"},"type":"Feature","geometry":{"type":"Point","coordinates":[37.49581944,55.86898056]}},{"properties":{"address russian":"????????? ??., ?. 22, ????. 4","city":"Moscow","city russian":"??????","latitude":55.74184167,"category":"Pharmacies &amp; Pharmaceuticals/Pharmacies","company name":"2 PHARMACY","website":"NA","fax":"NA","phone":"+7 (495) 3681010","longitude":37.76714722,"id":"a622kzzfxsob","email id":"NA","address":"Plekhanov Str., 22, Bldg. 4 4","company name russain":"2 ??????","category russian":"?????? ? ????????????"},"type":"Feature","geometry":{"type":"Point","coordinates":[37.76714722,55.74184167]}},{"properties":{"address russian":"?????????? 4-? ??., ?. 10","city":"Moscow","city russian":"??????","latitude":55.82079444,"category":"Pharmacies &amp; Pharmaceuticals/Pharmacies","company name":"2 PHARMACY","website":"NA","fax":"NA","phone":"+7 (499) 1508851","longitude":37.49061944,"id":"a622kzoljq1w","email id":"NA","address":"Voykovskaya 4 th Ave, 10","company name russain":"2 ??????","category russian":"?????? ? ????????????"},"type":"Feature","geometry":{"type":"Point","coordinates":[37.49061944,55.82079444]}},{"properties":{"address russian":"??????????????? ???., ?. 25/15","city":"Moscow","city russian":"??????","latitude":55.74706944,"category":"Pharmacies &amp; Pharmaceuticals/Pharmacies","company name":"2 MEDICINE FOR YOU LLC INIART","website":"NA","fax":"NA","phone":"+7 (499) 2418355","longitude":37.59408056,"id":"a622kzzrkw0q","email id":"NA","address":"Starokonyushenny per., 25/15","company name russain":"2 ???????? ??? ??? ??? ??????","category russian":"?????? ? ????????????"},"type":"Feature","geometry":{"type":"Point","coordinates":[37.59408056,55.74706944]}},{"properties":{"address russian":"Ryazan Ave., 71, Bldg. 1 1","city":"Moscow","city russian":"??????","latitude":55.71855833,"category":"Pharmacies &amp; Pharmaceuticals/Pharmacies","company name":"206 at the Ryazan AVENUE","website":"NA","fax":"+7 (499) 1703483","phone":"+7 (499) 1703483","longitude":37.78725556,"id":"a622l0128pk2","email id":"NA","address":"Ryazan Ave., 71, Bldg. 1 1","company name russain":"206 ?? ????????? ?????????","category russian":"?????? ? ????????????"},"type":"Feature","geometry":{"type":"Point","coordinates":[37.78725556,55.71855833]}},{"properties":{"address russian":"????. ???., ???????????? ?., ????????? ??., ?. 24/14","city":"Moscow","city russian":"??????","latitude":55.78438333,"category":"Pharmacies &amp; Pharmaceuticals/Pharmacies","company name":"21 PHARMACY","website":"NA","fax":"NA","phone":"+7 (49657) 42231","longitude":38.440725,"id":"a622kzo938wz","email id":"NA","address":"Mosk. ???., ???????????? ?., ????????? ??., ?. 24/14 region., Elektrostal PM, Koreshkova st., 24/14","company name russain":"21 ??????","category russian":"?????? ? ????????????"},"type":"Feature","geometry":{"type":"Point","coordinates":[38.440725,55.78438333]}},{"properties":{"address russian":"?????????????? ??., ?. 20?","city":"Moscow","city russian":"??????","latitude":55.82805556,"category":"Pharmacies &amp; Pharmaceuticals/Pharmacies","company name":"21 Pharmacy SIA INTERNATIONAL","website":"NA","fax":"NA","phone":"+7 (495) 4500659","longitude":37.52723889,"id":"a622kzoiee0o","email id":"NA","address":"Novopetrivs'ke st., 20A","company name russain":"21 ???????? ????? SIA INTERNATIONAL","category russian":"?????? ? ????????????"},"type":"Feature","geometry":{"type":"Point","coordinates":[37.52723889,55.82805556]}},{"properties":{"address russian":"festival st., 12/20","city":"Moscow","city russian":"??????","latitude":55.85892222,"category":"Pharmacies &amp; Pharmaceuticals/Pharmacies","company name":"225 PHARMACY","website":"NA","fax":"+7 (495) 4548085","phone":"+7 (495) 4563205","longitude":37.49408611,"id":"a622kztb6w5m","email id":"NA","address":"festival st., 12/20","company name russain":"225 ??????","category russian":"?????? ? ????????????"},"type":"Feature","geometry":{"type":"Point","coordinates":[37.49408611,55.85892222]}},{"properties":{"address russian":"???? ???????? ??., ?. 73, ????. 1","city":"Moscow","city russian":"??????","latitude":55.69990278,"category":"Pharmacies &amp; Pharmaceuticals/Pharmacies","company name":"238 SALVITA","website":"NA","fax":"NA","phone":"+7 (499) 1727931","longitude":37.76861111,"id":"a622kzxg9t76","email id":"NA","address":"Lenintsev st., 73, Bldg. 1 1","company name russain":"238 ????????","category russian":"?????? ? ????????????"},"type":"Feature","geometry":{"type":"Point","coordinates":[37.76861111,55.69990278]}},{"properties":{"address russian":"?????????? ?. ??., ?. 4","city":"Moscow","city russian":"??????","latitude":55.83121944,"category":"Pharmacies &amp; Pharmaceuticals/Pharmacies","company name":"246 OSTANKINO","website":"NA","fax":"NA","phone":"+7 (495) 6184116","longitude":37.59305556,"id":"a622kzoqr66m","email id":"NA","address":"Marfinskiy B. Str., 4","company name russain":"246 ?????????","category russian":"?????? ? ????????????"},"type":"Feature","geometry":{"type":"Point","coordinates":[37.59305556,55.83121944]}},{"properties":{"address russian":"??????????? ??., ?. 9?","city":"Moscow","city russian":"??????","latitude":55.82407222,"category":"Pharmacies &amp; Pharmaceuticals/Pharmacies","company name":"254 Simplex","website":"http://www.apteka.ru","fax":"+7 (495) 979740","phone":"+7 (495) 6105393","longitude":37.58424444,"id":"a622l01wyr9e","email id":"NA","address":"Milashenkova st., 9A","company name russain":"254 ????????","category russian":"?????? ? ????????????"},"type":"Feature","geometry":{"type":"Point","coordinates":[37.58424444,55.82407222]}},{"properties":{"address russian":"???????????? ??., ?. 49","city":"Moscow","city russian":"??????","latitude":55.78910278,"category":"Pharmacies &amp; Pharmaceuticals/Pharmacies","company name":"264 on Trifonovskaya Ltd.","website":"NA","fax":"NA","phone":"+7 (495) 6817112","longitude":37.62776944,"id":"a622l02g7gx3","email id":"apt264@farmir.ru","address":"Trifonovskaya st., 49","company name russain":"264 ?? ???????????? ???","category russian":"?????? ? ????????????"},"type":"Feature","geometry":{"type":"Point","coordinates":[37.62776944,55.78910278]}},{"properties":{"address russian":"?? ? ?????????? ??????????????? ??., ?. 31/3","city":"Moscow","city russian":"??????","latitude":55.82422778,"category":"Pharmacies &amp; Pharmaceuticals/Pharmacies","company name":"Koptevskaya # 294","website":"http://www.kremlewka.ru","fax":"NA","phone":"+7 (495) 4500630","longitude":37.52251389,"id":"a622kzsvqfgi","email id":"kremlewka@yandex.ru","address":"Zoe and Alexandra Kosmodem'yanskii st., 31 / 3","company name russain":"294 ??????????","category russian":"?????? ? ????????????"},"type":"Feature","geometry":{"type":"Point","coordinates":[37.52251389,55.82422778]}},{"properties":{"address russian":"???? ?????., ?. 182","city":"Moscow","city russian":"??????","latitude":55.82578056,"category":"Pharmacies &amp; Pharmaceuticals/Pharmacies","company name":"335 At VDNKh","website":"NA","fax":"NA","phone":"+7 (495) 6861549","longitude":37.64723333,"id":"a622kzvc3t2t","email id":"NA","address":"Mira Prosp., D. 182","company name russain":"335 ? ????","category russian":"?????? ? ????????????"},"type":"Feature","geometry":{"type":"Point","coordinates":[37.64723333,55.82578056]}},{"properties":{"address russian":"????????????????? ?? ???? 11","city":"Moscow","city russian":"??????","latitude":55.76059167,"category":"Pharmacies &amp; Pharmaceuticals/Pharmacies","company name":"Just in case","website":"http://www.yell.ru/nvc","fax":"NA","phone":"+7 (901) 5224142","longitude":37.68879444,"id":"a622kzul7fws","email id":"nvc-07@mail.ru","address":"Lenina pr Vlad 11 11","company name russain":"?? ?????? ??????","category russian":"?????? ? ????????????"},"type":"Feature","geometry":{"type":"Point","coordinates":[37.68879444,55.76059167]}},{"properties":{"address russian":"????????? ??., ???. 2","city":"Moscow","city russian":"??????","latitude":55.79931389,"category":"Cars/Stations, garages, parking/Gasoline stations","company name":"ESA # 18 (AI-92, AI-95)","website":"NA","fax":"NA","phone":"+7 (499) 1983030","longitude":37.50140278,"id":"a622kzqfpcrz","email id":"NA","address":"Panfilov Str., P. 2","company name russain":"??? # 18 (??-92, ??-95)","category russian":"?????????? /??????, ??????? /??????????????? ???????"},"type":"Feature","geometry":{"type":"Point","coordinates":[37.50140278,55.79931389]}},{"properties":{"address russian":"????????? ???., ?. 17","city":"Moscow","city russian":"??????","latitude":55.75511389,"category":"Cars/Stations, garages, parking/Gasoline stations","company name":"Vector Oil Company","website":"NA","fax":"NA","phone":"+7 (495) 6050101","longitude":37.58289167,"id":"a622kzx33lon","email id":"NA","address":"Novinsky Blvd., 17","company name russain":"?????? ??? ???","category russian":"?????????? /??????, ??????? /??????????????? ???????"},"type":"Feature","geometry":{"type":"Point","coordinates":[37.58289167,55.75511389]}},{"properties":{"address russian":"?????????? ?., ????????? ??., ?. 38","city":"Moscow","city russian":"??????","latitude":55.97273611,"category":"Cars/Stations, garages, parking/Gasoline stations","company name":"VISA PETROLEUM Ltd","website":"NA","fax":"NA","phone":"+7 (499) 7333711","longitude":37.18412778,"id":"a622kzz9k8fm","email id":"NA","address":"Zelenograd PM, Factory Street., 38","company name russain":"???? ????????? ???","category russian":"?????????? /??????, ??????? /??????????????? ???????"},"type":"Feature","geometry":{"type":"Point","coordinates":[37.18412778,55.97273611]}},{"properties":{"address russian":"???????? ??., ?. 2, ????. 12","city":"Moscow","city russian":"??????","latitude":55.60563889,"category":"Cars/Stations, garages, parking/Gasoline stations","company name":"VLATIKA (AI-80, AI-92, AI-95, DT)","website":"NA","fax":"NA","phone":"+7 (495) 3273600","longitude":37.66740361,"id":"a622l000bdpd","email id":"NA","address":"Lipetsk st., 2, Bldg. 12 12","company name russain":"??????? (??-80, ??-92, ??-95, ??)","category russian":"?????????? /??????, ??????? /??????????????? ???????"},"type":"Feature","geometry":{"type":"Point","coordinates":[37.66740361,55.60563889]}},{"properties":{"address russian":"???., ??????? ?., ?????????????? ??., ?. 8?","city":"Moscow","city russian":"??????","latitude":55.67255556,"category":"Cars/Stations, garages, parking/Gasoline stations","company name":"Irrigation Office (AI-80, AI-92 AI-95, DT)","website":"NA","fax":"NA","phone":"+7 (495) 5549546","longitude":37.90065556,"id":"a622kzuokz4h","email id":"NA","address":"???., ??????? ?., ?????????????? ??., ?. 8? region., Lyubertsy PM, Kotelnicheskaya","company name russain":"???????? (??-80, ??-92, ??-95, ??)","category russian":"?????????? /??????, ??????? /??????????????? ???????"},"type":"Feature","geometry":{"type":"Point","coordinates":[37.90065556,55.67255556]}},{"properties":{"address russian":"??????? ??., ?. 19, ???. 11","city":"Moscow","city russian":"??????","latitude":55.65412778,"category":"Cars/Stations, garages, parking/Gasoline stations","company name":"Gazpromneft-Center gas station # 3 (AI-80, AI-92 AI-95, DT)","website":"NA","fax":"NA","phone":"+7 (495) 3490460","longitude":37.73203889,"id":"a622kzw2f3dv","email id":"NA","address":"Pererva st., 19, p. 11","company name russain":"????????????-????? ??? # 3 (??-80, ??-92, ??-95, ??)","category russian":"?????????? /??????, ??????? /??????????????? ???????"},"type":"Feature","geometry":{"type":"Point","coordinates":[37.73203889,55.65412778]}},{"properties":{"address russian":"?????????? ???., ?. 7?","city":"Moscow","city russian":"??????","latitude":55.73753056,"category":"Cars/Stations, garages, parking/Gasoline stations","company name":"Heine OIL # 1 (AI-92 AI-95, EURO-95)","website":"NA","fax":"NA","phone":"+7 (499) 2480551","longitude":37.56969722,"id":"a622kztazhnc","email id":"NA","address":"Savvinskaya Nab., 7A","company name russain":"???? ??? # 1 (??-92, ??-95, ????-95)","category russian":"?????????? /??????, ??????? /??????????????? ???????"},"type":"Feature","geometry":{"type":"Point","coordinates":[37.56969722,55.73753056]}},{"properties":{"address russian":"?????? 4-? ???., ????. 2","city":"Moscow","city russian":"??????","latitude":55.77905,"category":"Cars/Stations, garages, parking/Gasoline stations","company name":"Heine OIL # 2 (AI-92, AI-95)","website":"NA","fax":"NA","phone":"+7 (499) 9732322","longitude":37.58751667,"id":"a622kzyug3ej","email id":"NA","address":"Forest 4 th per., Vlad. 2 2","company name russain":"???? ??? # 2 (??-92, ??-95,)","category russian":"?????????? /??????, ??????? /??????????????? ???????"},"type":"Feature","geometry":{"type":"Point","coordinates":[37.58751667,55.77905]}},{"properties":{"address russian":"???? , 7 ??","city":"Moscow","city russian":"??????","latitude":55.7198,"category":"Cars/Stations, garages, parking/Gasoline stations","company name":"Heine OIL # 5 (AI-80, AI-92 AI-95, D / T)","website":"NA","fax":"NA","phone":"+7 (495) 9508316","longitude":37.83830556,"id":"a622kzy8jjiy","email id":"NA","address":"Moscow Ring Road, 7 km","company name russain":"???? ??? # 5 (??-80, ??-92, ??-95, ?/?)","category russian":"?????????? /??????, ??????? /??????????????? ???????"},"type":"Feature","geometry":{"type":"Point","coordinates":[37.83830556,55.7198]}},{"properties":{"address russian":"????????? ???., ?. 17","city":"Moscow","city russian":"??????","latitude":55.75513889,"category":"Cars/Stations, garages, parking/Gasoline stations","company name":"GLESKO INDUSTRIES LTD","website":"NA","fax":"+7 (495) 6050044","phone":"+7 (495) 6050101","longitude":37.58296389,"id":"a622kzvdyzaq","email id":"NA","address":"Novinsky Blvd., 17","company name russain":"?????? ????????? ???","category russian":"?????????? /??????, ??????? /??????????????? ???????"},"type":"Feature","geometry":{"type":"Point","coordinates":[37.58296389,55.75513889]}},{"properties":{"address russian":"??????????? ?., ????. 33","city":"Moscow","city russian":"??????","latitude":55.69857778,"category":"Cars/Stations, garages, parking/Gasoline stations","company name":"GRINERDZHI M (AI-80, AI-92 AI-95)","website":"NA","fax":"NA","phone":"+7 (495) 4407192","longitude":37.46213056,"id":"a622kznhuh0j","email id":"NA","address":"Aminievskoye sh. Vlad. 33","company name russain":"????????? ? (??-80, ??-92, ??-95 )","category russian":"?????????? /??????, ??????? /??????????????? ???????"},"type":"Feature","geometry":{"type":"Point","coordinates":[37.46213056,55.69857778]}},{"properties":{"address russian":"???., ??????????? ?., ???????? ??., ?. 5","city":"Moscow","city russian":"??????","latitude":55.25194444,"category":"Cars/Stations, garages, parking/Gasoline stations","company name":"DETDOMSTROY Ltd AZS # 2","website":"NA","fax":"NA","phone":"+7 (49644) 30090","longitude":38.74902222,"id":"a622kzvf5zmq","email id":"NA","address":"???., ??????????? ?., ???????? ??., ?. 5 region., Voskresensk PM, Suvorov Str., 5","company name russain":"??????????? ??? ??? # 2","category russian":"?????????? /??????, ??????? /??????????????? ???????"},"type":"Feature","geometry":{"type":"Point","coordinates":[38.74902222,55.25194444]}},{"properties":{"address russian":"????????? ??., ?. 26, ????. 1","city":"Moscow","city russian":"??????","latitude":55.78873889,"category":"Cars/Stations, garages, parking/Gasoline stations","company name":"Dushechkin SM PI (AI-92, AI-95)","website":"NA","fax":"NA","phone":"+7 (499) 1921342","longitude":37.47630556,"id":"a622kznp831d","email id":"NA","address":"Berzarina st., 26, Bldg. 1 1","company name russain":"???????? ?. ?. ?? (??-92, ??-95)","category russian":"?????????? /??????, ??????? /??????????????? ???????"},"type":"Feature","geometry":{"type":"Point","coordinates":[37.47630556,55.78873889]}},{"properties":{"address russian":"????????????? ?????., ?. 172, ???. 1","city":"Moscow","city russian":"??????","latitude":55.69361389,"category":"Cars/Stations, garages, parking/Gasoline stations","company name":"ESA # 113 (AI-80, AI-92 AI-95, D / T)","website":"NA","fax":"NA","phone":"+7 (495) 3768786","longitude":37.81201944,"id":"a622kzxd424v","email id":"NA","address":"Volgograd Ave., D. 172, page 1","company name russain":"??? # 113 (??-80, ??-92, ??-95, ?/?)","category russian":"?????????? /??????, ??????? /??????????????? ???????"},"type":"Feature","geometry":{"type":"Point","coordinates":[37.81201944,55.69361389]}},{"properties":{"address russian":"????????????? ?., ????. 122","city":"Moscow","city russian":"??????","latitude":55.81806944,"category":"Cars/Stations, garages, parking/Gasoline stations","company name":"ESA # 116 (AI-80, AI-92 AI-95, AI-98, D / T)","website":"NA","fax":"NA","phone":"+7 (495) 4918183","longitude":37.46238889,"id":"a622kzvghxgo","email id":"NA","address":"Volokolam sh. Vlad. 122 122","company name russain":"??? # 116 (??-80, ??-92, ??-95, ??-98, ?/?)","category russian":"?????????? /??????, ??????? /??????????????? ???????"},"type":"Feature","geometry":{"type":"Point","coordinates":[37.46238889,55.81806944]}},{"properties":{"address russian":"????????????? ?????., ?. 185, ????. 2","city":"Moscow","city russian":"??????","latitude":55.69461111,"category":"Cars/Stations, garages, parking/Gasoline stations","company name":"ESA # 117 (AI-80, AI-92 AI-95, D / T)","website":"NA","fax":"NA","phone":"+7 (495) 3768761","longitude":37.81263333,"id":"a622kzrfur3h","email id":"NA","address":"Volgograd Ave., D. 185, Bldg. 2 2","company name russain":"??? # 117 (??-80, ??-92, ??-95, ?/?)","category russian":"?????????? /??????, ??????? /??????????????? ???????"},"type":"Feature","geometry":{"type":"Point","coordinates":[37.81263333,55.69461111]}},{"properties":{"address russian":"???????? ??., ?. 32?","city":"Moscow","city russian":"??????","latitude":55.64339167,"category":"Cars/Stations, garages, parking/Gasoline stations","company name":"ESA # 118 (AI-80, AI-92 AI-95, D / T)","website":"NA","fax":"NA","phone":"+7 (495) 3181618","longitude":37.59252222,"id":"a622kzy2716t","email id":"NA","address":"Azovs'ka st. 32A","company name russain":"??? # 118 (??-80, ??-92, ??-95, ?/?)","category russian":"?????????? /??????, ??????? /??????????????? ???????"},"type":"Feature","geometry":{"type":"Point","coordinates":[37.59252222,55.64339167]}},{"properties":{"address russian":"??????????? ??????? ??., ?. 2?, ???. 1","city":"Moscow","city russian":"??????","latitude":55.677125,"category":"Cars/Stations, garages, parking/Gasoline stations","company name":"ESA # 122 (AI-80, AI-92 AI-95, D / T)","website":"NA","fax":"NA","phone":"+7 (499) 1203562","longitude":37.54967222,"id":"a622l0151ncs","email id":"NA","address":"Architect Vlasov street., D. 2B, page 1","company name russain":"??? # 122 (??-80, ??-92, ??-95, ?/?)","category russian":"?????????? /??????, ??????? /??????????????? ???????"},"type":"Feature","geometry":{"type":"Point","coordinates":[37.54967222,55.677125]}},{"properties":{"address russian":"?????????? ??., ????. 4","city":"Moscow","city russian":"??????","latitude":55.84835556,"category":"Cars/Stations, garages, parking/Gasoline stations","company name":"ESA # 140 (AI-80, AI-92 AI-95, DT)","website":"NA","fax":"NA","phone":"+7 (499) 2018990","longitude":37.58849444,"id":"a622l01unwmh","email id":"NA","address":"signaling, etc., Vlad. 4 4","company name russain":"??? # 140 (??-80, ??-92, ??-95, ??)","category russian":"?????????? /??????, ??????? /??????????????? ???????"},"type":"Feature","geometry":{"type":"Point","coordinates":[37.58849444,55.84835556]}},{"properties":{"address russian":"???????????? ?????., ????. 14?","city":"Moscow","city russian":"??????","latitude":55.647725,"category":"Cars/Stations, garages, parking/Gasoline stations","company name":"ESA # 161 (AI-92, AI-95, DT)","website":"NA","fax":"NA","phone":"+7 (495) 3254477","longitude":37.65531667,"id":"a622kzs3jqxm","email id":"NA","address":"Proletarian Ave., Vlad. 14? 14A","company name russain":"??? # 161 (??-92, ??-95,??)","category russian":"?????????? /??????, ??????? /??????????????? ???????"},"type":"Feature","geometry":{"type":"Point","coordinates":[37.65531667,55.647725]}},{"properties":{"address russian":"????????????? ?????., ?. 22, ???. 2","city":"Moscow","city russian":"??????","latitude":55.728075,"category":"Cars/Stations, garages, parking/Gasoline stations","company name":"ESA # 2 (AI-80, AI-92 AI-95)","website":"NA","fax":"NA","phone":"+7 (495) 6769172","longitude":37.67840556,"id":"a622l026urt6","email id":"NA","address":"Volgograd Ave., 22, page 2","company name russain":"??? # 2 (??-80, ??-92, ??-95)","category russian":"?????????? /??????, ??????? /??????????????? ???????"},"type":"Feature","geometry":{"type":"Point","coordinates":[37.67840556,55.728075]}},{"properties":{"address russian":"???????? ???????? ??., ???. 8","city":"Moscow","city russian":"??????","latitude":55.70745833,"category":"Cars/Stations, garages, parking/Gasoline stations","company name":"ESA # 203 (AI-80, AI-92, D / T)","website":"NA","fax":"NA","phone":"+7 (495) 4441774","longitude":37.44701389,"id":"a622kzv30lu4","email id":"NA","address":"General Dorokhov str., P. 8","company name russain":"??? # 203 (??-80, ??-92, ?/?)","category russian":"?????????? /??????, ??????? /??????????????? ???????"},"type":"Feature","geometry":{"type":"Point","coordinates":[37.44701389,55.70745833]}},{"properties":{"address russian":"????????????? ??., ?. 2","city":"Moscow","city russian":"??????","latitude":55.71058333,"category":"Entertainment/Hobby/Astrology, Spirituality, Esoterica","company name":"ACADEMY OF WORLD ACADEMY OF ASTROLOGY and meta-information","website":"http://www.astrol.ru","fax":"+7 (495) 3927606","phone":"+7 (495) 3927606","longitude":37.66365278,"id":"a622kzt3bvwh","email id":"astrol@astrol.ru","address":"Avtozavodskaya str., 2","company name russain":"???????? ??????? ?????????? ? ?????????????? ????????","category russian":"????? ? ???????????/?????, ?????????/??????????, ???????? ????????, ?????????"},"type":"Feature","geometry":{"type":"Point","coordinates":[37.66365278,55.71058333]}},{"properties":{"address russian":"????????????????? ??., ?. 15","city":"Moscow","city russian":"??????","latitude":55.75633056,"category":"Entertainment/Hobby/Astrology, Spirituality, Esoterica","company name":"Arctis COMMUNITY Avestan culture (schools PP GLOBE)","website":"NA","fax":"NA","phone":"+7 (499) 1684645","longitude":37.70602222,"id":"a622kzyvg6yy","email id":"NA","address":"Lenina pr., 15","company name russain":"??????? ???????? ??????????? ???????? (????? ?.?. ?????)","category russian":"????? ? ???????????/?????, ?????????/??????????, ???????? ????????, ?????????"},"type":"Feature","geometry":{"type":"Point","coordinates":[37.70602222,55.75633056]}},{"properties":{"address russian":"???????? 7-? ??., ?. 26, ??. 307","city":"Moscow","city russian":"??????","latitude":55.80042222,"category":"Entertainment/Hobby/Astrology, Spirituality, Esoterica","company name":"ASTROLOGY ACADEMY","website":"http://www.astro-academia.ru","fax":"NA","phone":"+7 (495) 1649734","longitude":37.79412222,"id":"a622kzqej5or","email id":"astro-academia@astro-academia.ru","address":"Park 7 th st., 26, of. 307 307","company name russain":"?????????? ????????","category russian":"????? ? ???????????/?????, ?????????/??????????, ???????? ????????, ?????????"},"type":"Feature","geometry":{"type":"Point","coordinates":[37.79412222,55.80042222]}},{"properties":{"address russian":"????????? ??., ?. 3/1","city":"Moscow","city russian":"??????","latitude":55.78093611,"category":"Entertainment/Hobby/Astrology, Spirituality, Esoterica","company name":"Astrological PSYCHOANALYSIS CENTER","website":"NA","fax":"NA","phone":"+7 (499) 2647347","longitude":37.67198333,"id":"a622kzrtpiwq","email id":"NA","address":"Gavrikova st., 3 / 1","company name russain":"???????????????? ???????????? ?????","category russian":"????? ? ???????????/?????, ?????????/??????????, ???????? ????????, ?????????"},"type":"Feature","geometry":{"type":"Point","coordinates":[37.67198333,55.78093611]}},{"properties":{"address russian":"????????? ???., ?. 7","city":"Moscow","city russian":"??????","latitude":55.73887222,"category":"Entertainment/Hobby/Astrology, Spirituality, Esoterica","company name":"ASTROSHKOLA VLADIMIR Pogudina","website":"http://www.astroschool.ru","fax":"NA","phone":"+7 (495) 5173915","longitude":37.62086667,"id":"a622kzxrhjcy","email id":"NA","address":"Pyzhevsky., 7","company name russain":"?????????? ????????? ????????","category russian":"????? ? ???????????/?????, ?????????/??????????, ???????? ????????, ?????????"},"type":"Feature","geometry":{"type":"Point","coordinates":[37.62086667,55.73887222]}},{"properties":{"address russian":"??????????? ??., ?. 64, ????. 1, ??. 147","city":"Moscow","city russian":"??????","latitude":55.62289444,"category":"Entertainment/Hobby/Astrology, Spirituality, Esoterica","company name":"HOROSCOPE GOLD LTD","website":"http://www.goroskopgold.com","fax":"NA","phone":"+7 (495) 6468912","longitude":37.75297778,"id":"a622kznxaqxi","email id":"NA","address":"Shipilovskaya st., 64, Bldg. 1, ??. 1, office. 147 147","company name russain":"???????? ???? ???","category russian":"????? ? ???????????/?????, ?????????/??????????, ???????? ????????, ?????????"},"type":"Feature","geometry":{"type":"Point","coordinates":[37.75297778,55.62289444]}},{"properties":{"address russian":"???????????? ???., ?. 23","city":"Moscow","city russian":"??????","latitude":55.76031944,"category":"Entertainment/Hobby/Astrology, Spirituality, Esoterica","company name":"Good thing ULYANA ROSS","website":"http://www.ulianaross.com","fax":"NA","phone":"+7 (495) 6242906","longitude":37.64680278,"id":"a622kzwuak6i","email id":"NA","address":"Chistoprudniy Blvd., 23","company name russain":"?????? ???? ?????? ????","category russian":"????? ? ???????????/?????, ?????????/??????????, ???????? ????????, ?????????"},"type":"Feature","geometry":{"type":"Point","coordinates":[37.64680278,55.76031944]}},{"properties":{"address russian":"?????????? 2-? ??., ?. 7, ???. 1?, ??. 308","city":"Moscow","city russian":"??????","latitude":55.76456389,"category":"Entertainment/Hobby/Astrology, Spirituality, Esoterica","company name":"HIGHER SCHOOL OF CLASSICAL ASTROLOGY","website":"http://www.astrolog.ru","fax":"NA","phone":"+7 (495) 7712686","longitude":37.68255556,"id":"a622l01ojxcn","email id":"astrol-school@mtu-net.ru","address":"Bauman 2-nd st., 7, p. 1A, of. 308 308","company name russain":"?????? ????? ???????????? ??????????","category russian":"????? ? ???????????/?????, ?????????/??????????, ???????? ????????, ?????????"},"type":"Feature","geometry":{"type":"Point","coordinates":[37.68255556,55.76456389]}},{"properties":{"address russian":"???????? ??., ?. 24, ????. 2, ??. 685","city":"Moscow","city russian":"??????","latitude":55.65084722,"category":"Entertainment/Hobby/Astrology, Spirituality, Esoterica","company name":"Clairvoyant ANAS","website":"http://www.gluba.by.ru","fax":"NA","phone":"+7 (495) 3199679","longitude":37.59743333,"id":"a622kzs2nbwt","email id":"NA","address":"Azovs'ka st., 24, Bldg. 2, ??. 2, of. 685 685","company name russain":"??????????? ????","category russian":"????? ? ???????????/?????, ?????????/??????????, ???????? ????????, ?????????"},"type":"Feature","geometry":{"type":"Point","coordinates":[37.59743333,55.65084722]}},{"properties":{"address russian":"??????????? ??., ?. 2","city":"Moscow","city russian":"??????","latitude":55.7828,"category":"Entertainment/Hobby/Astrology, Spirituality, Esoterica","company name":"SCHOOL OF SCIENTIFIC ASTROLOGY","website":"http://www.astroshkola.ru","fax":"NA","phone":"+7 (903) 7102476","longitude":37.61379722,"id":"a622kzwcc3zx","email id":"astroshkola@mail.ru","address":"Suvorovskaya Sq., 2","company name russain":"????? ??????? ??????????","category russian":"????? ? ???????????/?????, ?????????/??????????, ???????? ????????, ?????????"},"type":"Feature","geometry":{"type":"Point","coordinates":[37.61379722,55.7828]}},{"properties":{"address russian":"????????? ??., ?. 7","city":"Moscow","city russian":"??????","latitude":55.728575,"category":"Entertainment/Hobby/Astrology, Spirituality, Esoterica","company name":"CHURCH OF THE MOON FE","website":"NA","fax":"NA","phone":"+7 (495) 6742215","longitude":37.65884167,"id":"a622kzttt7gt","email id":"NA","address":"Krutitskaya st., 7","company name russain":"??????? ???? ??","category russian":"????? ? ???????????/?????, ?????????/??????????, ???????? ????????, ?????????"},"type":"Feature","geometry":{"type":"Point","coordinates":[37.65884167,55.728575]}},{"properties":{"address russian":"????????????? ???., ?. 7","city":"Moscow","city russian":"??????","latitude":55.74351667,"category":"Entertainment/Hobby/Astrology, Spirituality, Esoterica","company name":"CENTER FOR PRACTICAL ASSISTANCE IN HERMAN","website":"http://www.igerman.ru","fax":"NA","phone":"+7 (495) 5109202","longitude":37.59347778,"id":"a622l00545at","email id":"NA","address":"Prechistenskiy lane., 7","company name russain":"????? ???????????? ?????? ?.?.???????","category russian":"????? ? ???????????/?????, ?????????/??????????, ???????? ????????, ?????????"},"type":"Feature","geometry":{"type":"Point","coordinates":[37.59347778,55.74351667]}},{"properties":{"address russian":"???????????? ??., ?. 9","city":"Moscow","city russian":"??????","latitude":55.73496667,"category":"Entertainment/Hobby/Astrology, Spirituality, Esoterica","company name":"ROOM MAGIC TATIANA Chernetsky","website":"http://www.chernetskaya.ru","fax":"NA","phone":"+7 (495) 5177361","longitude":37.66777778,"id":"a622l01kpsjo","email id":"NA","address":"Marxist street., 9","company name russain":"????? ????? ??????? ?????????","category russian":"????? ? ???????????/?????, ?????????/??????????, ???????? ????????, ?????????"},"type":"Feature","geometry":{"type":"Point","coordinates":[37.66777778,55.73496667]}},{"properties":{"address russian":"????????? ????????????? ??., ?. 18","city":"Moscow","city russian":"??????","latitude":55.66720278,"category":"Entertainment/Hobby/Astrology, Spirituality, Esoterica","company name":"TALISMANRUN.RU","website":"http://www.talismanrun.ru","fax":"NA","phone":"+7 (916) 0654894","longitude":37.6436,"id":"a622l01gy19p","email id":"NA","address":"Akademika Millionshtchikov st., 18","company name russain":"???????????.??","category russian":"????? ? ???????????/?????, ?????????/??????????, ???????? ????????, ?????????"},"type":"Feature","geometry":{"type":"Point","coordinates":[37.6436,55.66720278]}},{"properties":{"address russian":"????????? ?. ??., ?. 9, ???. 8","city":"Moscow","city russian":"??????","latitude":55.76107222,"category":"Entertainment/Hobby/Astrology, Spirituality, Esoterica","company name":"Secret revealed parapsychological SALON FE","website":"NA","fax":"NA","phone":"+7 (495) 6922723","longitude":37.61321111,"id":"a622kzt75yyd","email id":"NA","address":"B. Dmitrovka Str., 9, p. 8","company name russain":"?????? ?????? ????? ??????????????????? ????? ??","category russian":"????? ? ???????????/?????, ?????????/??????????, ???????? ????????, ?????????"},"type":"Feature","geometry":{"type":"Point","coordinates":[37.61321111,55.76107222]}},{"properties":{"address russian":"????????? ??., ?. 7","city":"Moscow","city russian":"??????","latitude":55.74268889,"category":"Entertainment/Hobby/Astrology, Spirituality, Esoterica","company name":"Secret revealed parapsychological SALON","website":"NA","fax":"NA","phone":"+7 (495) 6951761","longitude":37.60074444,"id":"a622kzpt6c9e","email id":"NA","address":"Ostozhenka street., 7","company name russain":"?????? ?????? ????? ??????????????????? ?????","category russian":"????? ? ???????????/?????, ?????????/??????????, ???????? ????????, ?????????"},"type":"Feature","geometry":{"type":"Point","coordinates":[37.60074444,55.74268889]}},{"properties":{"address russian":"??????????? ???., ?. 44","city":"Moscow","city russian":"??????","latitude":55.73637778,"category":"Entertainment/Hobby/Astrology, Spirituality, Esoterica","company name":"NORTH OM esoteric shop","website":"http://www.severniy-om.narod.ru","fax":"NA","phone":"+7 (495) 9537509","longitude":37.639225,"id":"a622kzpz3vum","email id":"NA","address":"Ozerkovskaya nab., 44","company name russain":"???????? ?? ????????????? ???????","category russian":"????? ? ???????????/?????, ?????????/??????????, ???????? ????????, ?????????"},"type":"Feature","geometry":{"type":"Point","coordinates":[37.639225,55.73637778]}},{"properties":{"address russian":"??????????? ?. ???., ?. 13, ???. 1","city":"Moscow","city russian":"??????","latitude":55.77120833,"category":"Entertainment/Hobby/Astrology, Spirituality, Esoterica","company name":"JOY","website":"NA","fax":"NA","phone":"+7 (916) 8120717","longitude":37.62806667,"id":"a622kzqx4zgh","email id":"NA","address":"Sukharevskii B. per., 13, page 1","company name russain":"???????","category russian":"????? ? ???????????/?????, ?????????/??????????, ???????? ????????, ?????????"},"type":"Feature","geometry":{"type":"Point","coordinates":[37.62806667,55.77120833]}},{"properties":{"address russian":"?????? ??., ?. 17/19","city":"Moscow","city russian":"??????","latitude":55.78693889,"category":"Entertainment/Hobby/Astrology, Spirituality, Esoterica","company name":"PAUL SVIRIDOV SCHOOL OF ASTROLOGY","website":"http://www.astrotele.com","fax":"NA","phone":"+7 (495) 7894488","longitude":37.57953889,"id":"a622kzw3zfx9","email id":"NA","address":"Pravda st., 17/19","company name russain":"????? ????????? ????? ??????????","category russian":"????? ? ???????????/?????, ?????????/??????????, ???????? ????????, ?????????"},"type":"Feature","geometry":{"type":"Point","coordinates":[37.57953889,55.78693889]}},{"properties":{"address russian":"???????????????? ??., ?. 2?","city":"Moscow","city russian":"??????","latitude":55.6219,"category":"Entertainment/Hobby/Astrology, Spirituality, Esoterica","company name":"SCIENCE AND MAGIC","website":"http://www.master-777.ru","fax":"NA","phone":"+7 (917) 5284432","longitude":37.607175,"id":"a622kzoe2ybc","email id":"NA","address":"Dnepropetrovsk st., 2A","company name russain":"????? ? ?????","category russian":"????? ? ???????????/?????, ?????????/??????????, ???????? ????????, ?????????"},"type":"Feature","geometry":{"type":"Point","coordinates":[37.607175,55.6219]}},{"properties":{"address russian":"?????????-??????????? ??., ?. 16, ???. 8","city":"Moscow","city russian":"??????","latitude":55.79817778,"category":"Entertainment/Hobby/Astrology, Spirituality, Esoterica","company name":"Moscow School of Hypnosis","website":"http://www.goncharov.ru","fax":"+7 (495) 6851947","phone":"+7 (495) 6851947","longitude":37.568625,"id":"a622l01u8s5w","email id":"info@goncharov.ru","address":"Petrovsko-Razumovsky Pr, 16, ed. 8 8","company name russain":"?????????? ????? ???????","category russian":"????? ? ???????????/?????, ?????????/??????????, ???????? ????????, ?????????"},"type":"Feature","geometry":{"type":"Point","coordinates":[37.568625,55.79817778]}},{"properties":{"address russian":"???????????????? ?. ???., ?. 6, ??. 8","city":"Moscow","city russian":"??????","latitude":55.75078889,"category":"Entertainment/Hobby/Astrology, Spirituality, Esoterica","company name":"MARY VELENY CENTER","website":"NA","fax":"NA","phone":"+7 (499) 2417709","longitude":37.59067222,"id":"a622kztivxd4","email id":"NA","address":"Nikolopeskovsky B. per., 6, of. 8 8","company name russain":"????? ?????? ?????","category russian":"????? ? ???????????/?????, ?????????/??????????, ???????? ????????, ?????????"},"type":"Feature","geometry":{"type":"Point","coordinates":[37.59067222,55.75078889]}},{"properties":{"address russian":"??????, ??????? ??., ?. 7","city":"Moscow","city russian":"??????","latitude":55.89039444,"category":"Entertainment/Hobby/Astrology, Spirituality, Esoterica","company name":"MAGIC","website":"http://www.magic-privorot.ru","fax":"NA","phone":"+7 (495) 4798220","longitude":37.66103611,"id":"a622kzpbdbc2","email id":"magic-power@mail.ru","address":"St. Grekov., 7","company name russain":"?????","category russian":"????? ? ???????????/?????, ?????????/??????????, ???????? ????????, ?????????"},"type":"Feature","geometry":{"type":"Point","coordinates":[37.66103611,55.89039444]}},{"properties":{"address russian":"????????? ??., ?. 27","city":"Moscow","city russian":"??????","latitude":55.65135,"category":"Entertainment/Hobby/Astrology, Spirituality, Esoterica","company name":"GANG PUBLISHING HOUSE","website":"http://www.ganga.ru","fax":"NA","phone":"+7 (499) 6139418","longitude":37.62510833,"id":"a622kzq2tw84","email id":"ganga@ganga.ru","address":"Kashirskii Ave, 27","company name russain":"????? ????????????","category russian":"????? ? ???????????/?????, ?????????/??????????, ???????? ????????, ?????????"},"type":"Feature","geometry":{"type":"Point","coordinates":[37.62510833,55.65135]}},{"properties":{"address russian":"?????????? ?., ?. 142, ????. 2","city":"Moscow","city russian":"??????","latitude":55.60719444,"category":"Entertainment/Hobby/Astrology, Spirituality, Esoterica","company name":"MS LYUBA","website":"http://www.gluba.by.ru","fax":"7 (495) 3870980","phone":"+7 (495) 3863842","longitude":37.60571944,"id":"a622kzwmt217","email id":"g-luba@list.ru","address":"Warsaw highway., D. 142, Bldg. 2 2","company name russain":"??????? ????","category russian":"????? ? ???????????/?????, ?????????/??????????, ???????? ????????, ?????????"},"type":"Feature","geometry":{"type":"Point","coordinates":[37.60571944,55.60719444]}},{"properties":{"address russian":"???????????? 1-? ??., ?. 41","city":"Moscow","city russian":"??????","latitude":55.74911667,"category":"Entertainment/Hobby/Astrology, Spirituality, Esoterica","company name":"Ladies' Club","website":"NA","fax":"NA","phone":"+7 (495) 5177407","longitude":37.78136111,"id":"a622l007wap1","email id":"NA","address":"Vladimir 1-ya ul., 41","company name russain":"??????? ????","category russian":"????? ? ???????????/?????, ?????????/??????????, ???????? ????????, ?????????"},"type":"Feature","geometry":{"type":"Point","coordinates":[37.78136111,55.74911667]}},{"properties":{"address russian":"???????? ??., ?. 3","city":"Moscow","city russian":"??????","latitude":55.85617222,"category":"Entertainment/Hobby/Medals, coins, badges - manufacturing, restoration, sales","company name":"INTERZNAK Ltd.","website":"http://www.leaderco.ru","fax":"+7 (499) 1892330","phone":"+7 (499) 1892330","longitude":37.65922778,"id":"a622l00wattk","email id":"NA","address":"Bering Ave, 3","company name russain":"????????? ???","category russian":"????? ? ???????????/?????, ?????????/??????, ??????, ?????? - ????????????, ???????????, ???????"},"type":"Feature","geometry":{"type":"Point","coordinates":[37.65922778,55.85617222]}},{"properties":{"address russian":"????????? ??., ?. 6","city":"Moscow","city russian":"??????","latitude":55.88249722,"category":"Entertainment/Hobby/Medals, coins, badges - manufacturing, restoration, sales","company name":"Coffer-C Ltd.","website":"http://www.kofr-s.ru","fax":"NA","phone":"+7 (495) 4770341","longitude":37.62973889,"id":"a622l006n2vz","email id":"kofr-s@mail.ru","address":"Viluiskaya st., 6","company name russain":"????-? ???","category russian":"????? ? ???????????/?????, ?????????/??????, ??????, ?????? - ????????????, ???????????, ???????"},"type":"Feature","geometry":{"type":"Point","coordinates":[37.62973889,55.88249722]}},{"properties":{"address russian":"????????? ????????? ??., ?. 34, ???. 3","city":"Moscow","city russian":"??????","latitude":55.78596111,"category":"Entertainment/Hobby/Medals, coins, badges - manufacturing, restoration, sales","company name":"LEADER LTD","website":"http://www.leaderco.ru","fax":"NA","phone":"+7 (495) 3800804","longitude":37.48536667,"id":"a622kzm4fa0p","email id":"NA","address":"the People's Militia st., 34, p. 3","company name russain":"????? ???","category russian":"????? ? ???????????/?????, ?????????/??????, ??????, ?????? - ????????????, ???????????, ???????"},"type":"Feature","geometry":{"type":"Point","coordinates":[37.48536667,55.78596111]}},{"properties":{"address russian":"???????????????? ??., ?. 21","city":"Moscow","city russian":"??????","latitude":55.787,"category":"Entertainment/Hobby/Medals, coins, badges - manufacturing, restoration, sales","company name":"Marquis JEWELLERY FACTORY","website":"http://www.markiz-gold.ru","fax":"+7 (495) 9627437","phone":"+7 (495) 7883986","longitude":37.70380833,"id":"a622kzzjopaa","email id":"markiz-ud@mail.ru","address":"Elektrozavodskaya st., 21","company name russain":"?????? ????????? ???????","category russian":"????? ? ???????????/?????, ?????????/??????, ??????, ?????? - ????????????, ???????????, ???????"},"type":"Feature","geometry":{"type":"Point","coordinates":[37.70380833,55.787]}},{"properties":{"address russian":"????????? ??., ?. 3/14","city":"Moscow","city russian":"??????","latitude":55.74381667,"category":"Entertainment/Hobby/Medals, coins, badges - manufacturing, restoration, sales","company name":"EMPIRE AUCTION HOUSE","website":"http://www.auction-imperia.ru","fax":"NA","phone":"+7 (495) 6952723","longitude":37.60194167,"id":"a622kzmoxq2r","email id":"NA","address":"Ostozhenka st., 3 / 14","company name russain":"??????? ?????????? ???","category russian":"????? ? ???????????/?????, ?????????/??????, ??????, ?????? - ????????????, ???????????, ???????"},"type":"Feature","geometry":{"type":"Point","coordinates":[37.60194167,55.74381667]}},{"properties":{"address russian":"??????????? ??., ?. 68","city":"Moscow","city russian":"??????","latitude":55.72256111,"category":"Entertainment/Hobby/Medals, coins, badges - manufacturing, restoration, sales","company name":"IVANYCH Ltd.","website":"http://www.znachki.ru","fax":"NA","phone":"+7 (495) 5081103","longitude":37.63575,"id":"a622kzy6cjvd","email id":"NA","address":"Dubininskaya st., 68","company name russain":"??????? ???","category russian":"????? ? ???????????/?????, ?????????/??????, ??????, ?????? - ????????????, ???????????, ???????"},"type":"Feature","geometry":{"type":"Point","coordinates":[37.63575,55.72256111]}},{"properties":{"address russian":"??????????? ??? ??., ?. 17, ???. 1","city":"Moscow","city russian":"??????","latitude":55.77073611,"category":"Entertainment/Hobby/Medals, coins, badges - manufacturing, restoration, sales","company name":"GOLD SIGN","website":"http://www.zznak.com","fax":"+7 (495) 9409577","phone":"+7 (495) 9409577","longitude":37.56728333,"id":"a622kzmcomad","email id":"info@zznak.com","address":"Presnensky Val st., 17, page 1","company name russain":"??????? ????","category russian":"????? ? ???????????/?????, ?????????/??????, ??????, ?????? - ????????????, ???????????, ???????"},"type":"Feature","geometry":{"type":"Point","coordinates":[37.56728333,55.77073611]}},{"properties":{"address russian":"??????????? ??., ?. 68, ????. 5","city":"Moscow","city russian":"??????","latitude":55.81061667,"category":"Entertainment/Hobby/Medals, coins, badges - manufacturing, restoration, sales","company name":"DIALOGUE Converse","website":"http://www.dialcon.ru","fax":"NA","phone":"+7 (495) 7354453","longitude":37.45372778,"id":"a622kzmxaah8","email id":"info@dialcon.ru","address":"Aviation st., 68, Bldg. 5 5","company name russain":"??????-?????????","category russian":"????? ? ???????????/?????, ?????????/??????, ??????, ?????? - ????????????, ???????????, ???????"},"type":"Feature","geometry":{"type":"Point","coordinates":[37.45372778,55.81061667]}},{"properties":{"address russian":"??????????? ??., ?. 5","city":"Moscow","city russian":"??????","latitude":55.75961944,"category":"Entertainment/Hobby/Medals, coins, badges - manufacturing, restoration, sales","company name":"ICE Ltd","website":"http://www.mosznak.ru","fax":"+7 (495) 6734507","phone":"+7 (495) 7308564","longitude":37.71975556,"id":"a622kzoml8mh","email id":"mail@mosznak.ru","address":"Enthusiasts Ave, 5","company name russain":"??? ???","category russian":"????? ? ???????????/?????, ?????????/??????, ??????, ?????? - ????????????, ???????????, ???????"},"type":"Feature","geometry":{"type":"Point","coordinates":[37.71975556,55.75961944]}},{"properties":{"address russian":"????????? ??., ?. 10, ??. 2, 3 ????","city":"Moscow","city russian":"??????","latitude":55.76019722,"category":"Entertainment/Hobby/Medals, coins, badges - manufacturing, restoration, sales","company name":"Engraving WORKSHOP RSM","website":"http://www.aj-rsm.ru","fax":"NA","phone":"+7 (495) 5458333","longitude":37.63173333,"id":"a622kzq9q583","email id":"gravirovka@yandex.ru","address":"Miasnitskaya st., 10, of. 2, 3 ???? 2, 3 floor","company name russain":"????????? ?????????? ???","category russian":"????? ? ???????????/?????, ?????????/??????, ??????, ?????? - ????????????, ???????????, ???????"},"type":"Feature","geometry":{"type":"Point","coordinates":[37.63173333,55.76019722]}},{"properties":{"address russian":"?????????? ?., ?. 132","city":"Moscow","city russian":"??????","latitude":55.61921667,"category":"Entertainment/Hobby/Medals, coins, badges - manufacturing, restoration, sales","company name":"Engraver","website":"http://www.yellow-pages.ru/graverovka","fax":"+7 (495) 7722339","phone":"+7 (495) 7722339","longitude":37.610025,"id":"a622kzyt064c","email id":"metalart@rambler.ru","address":"Warsaw highway., D. 132","company name russain":"??????","category russian":"????? ? ???????????/?????, ?????????/??????, ??????, ?????? - ????????????, ???????????, ???????"},"type":"Feature","geometry":{"type":"Point","coordinates":[37.610025,55.61921667]}},{"properties":{"address russian":"????????????? ???., ?. 2","city":"Moscow","city russian":"??????","latitude":55.76653056,"category":"Entertainment/Hobby/Medals, coins, badges - manufacturing, restoration, sales","company name":"TOWN H","website":"http://www.gorod-n.com","fax":"NA","phone":"+7 (495) 6506513","longitude":37.60343889,"id":"a622l0023j7d","email id":"NA","address":"Nastasyinsky per., 2","company name russain":"????? ?","category russian":"????? ? ???????????/?????, ?????????/??????, ??????, ?????? - ????????????, ???????????, ???????"},"type":"Feature","geometry":{"type":"Point","coordinates":[37.60343889,55.76653056]}},{"properties":{"address russian":"????????????? ??., ?. 1","city":"Moscow","city russian":"??????","latitude":55.73941111,"category":"Entertainment/Hobby/Medals, coins, badges - manufacturing, restoration, sales","company name":"GOLD Present","website":"http://www.goldprezent.ru","fax":"NA","phone":"+7 (495) 5108557","longitude":37.67426667,"id":"a622kzow5342","email id":"NA","address":"Nizhny Novgorod Str., 1","company name russain":"???? ???????","category russian":"????? ? ???????????/?????, ?????????/??????, ??????, ?????? - ????????????, ???????????, ???????"},"type":"Feature","geometry":{"type":"Point","coordinates":[37.67426667,55.73941111]}},{"properties":{"address russian":"????????????? ??., ?. 11","city":"Moscow","city russian":"??????","latitude":55.76400556,"category":"Entertainment/Hobby/Medals, coins, badges - manufacturing, restoration, sales","company name":"Vladimirov Nikolay FE","website":"http://www.midas-a.ru","fax":"NA","phone":"+7 (495) 5002861","longitude":37.58101111,"id":"a622kzv24d3d","email id":"info@midas-a.ru","address":"Zoological str., 11","company name russain":"?????????? ??????? ????????????? ??","category russian":"????? ? ???????????/?????, ?????????/??????, ??????, ?????? - ????????????, ???????????, ???????"},"type":"Feature","geometry":{"type":"Point","coordinates":[37.58101111,55.76400556]}},{"properties":{"address russian":"???????-?????? ??., ?. 57, ????. 1","city":"Moscow","city russian":"??????","latitude":55.64097222,"category":"Entertainment/Hobby/Medals, coins, badges - manufacturing, restoration, sales","company name":"BAHOLDING COMPANY","website":"http://www.b777.ru","fax":"NA","phone":"+7 (495) 2225101","longitude":37.53594722,"id":"a622kzvb7g3j","email id":"NA","address":"Miklukho-Maclay str., 57, Bldg. 1 1","company name russain":"BAHOLDING COMPANY","category russian":"????? ? ???????????/?????, ?????????/??????, ??????, ?????? - ????????????, ???????????, ???????"},"type":"Feature","geometry":{"type":"Point","coordinates":[37.53594722,55.64097222]}},{"properties":{"address russian":"?????????? ??., ?. 17, ???. 2, ??. 2.2","city":"Moscow","city russian":"??????","latitude":55.75801111,"category":"Entertainment/Hobby/Medals, coins, badges - manufacturing, restoration, sales","company name":"AW COMPANY","website":"http://www.ay-company.ru","fax":"NA","phone":"+7 (495) 5029465","longitude":37.62258056,"id":"a622kzu5n33t","email id":"mow@ay-company.ru","address":"Nikolskaya str., 17, page 2, of. 2.2 2.2","company name russain":"?? ????????","category russian":"????? ? ???????????/?????, ?????????/??????, ??????, ?????? - ????????????, ???????????, ???????"},"type":"Feature","geometry":{"type":"Point","coordinates":[37.62258056,55.75801111]}},{"properties":{"address russian":"????????? ?????., ?. 29, ???. 2, ??. 210","city":"Moscow","city russian":"??????","latitude":55.71400833,"category":"Entertainment/Hobby/Medals, coins, badges - manufacturing, restoration, sales","company name":"ASTRIS From Company","website":"http://www.astris.ru","fax":"+7 (495) 9585756","phone":"+7 (495) 9554118","longitude":37.59116667,"id":"a622kzouao9x","email id":"design@astris.ru","address":"Leninsky prosp., 29, p. 2, of. 210 210","company name russain":"?????? ? ???","category russian":"????? ? ???????????/?????, ?????????/??????, ??????, ?????? - ????????????, ???????????, ???????"},"type":"Feature","geometry":{"type":"Point","coordinates":[37.59116667,55.71400833]}},{"properties":{"address russian":"????????? ??., ?. 25, ???. 1","city":"Moscow","city russian":"??????","latitude":55.78271667,"category":"Entertainment/Hobby/Medals, coins, badges - manufacturing, restoration, sales","company name":"ARTANS","website":"http://www.artans.ru","fax":"+7 (495) 7305148","phone":"+7 (495) 7305148","longitude":37.60121667,"id":"a622kzx056qe","email id":"NA","address":"Sushchevskaya st., 25, page 1","company name russain":"??????","category russian":"????? ? ???????????/?????, ?????????/??????, ??????, ?????? - ????????????, ???????????, ???????"},"type":"Feature","geometry":{"type":"Point","coordinates":[37.60121667,55.78271667]}},{"properties":{"address russian":"????? ???. ??., ?. 21, ???. 1","city":"Moscow","city russian":"??????","latitude":55.75196667,"category":"Entertainment/Hobby/Medals, coins, badges - manufacturing, restoration, sales","company name":"ART METALLOGRAFIKA","website":"NA","fax":"+7 (495) 7838552","phone":"+7 (495) 7877552","longitude":37.58515278,"id":"a622kzubz4f5","email id":"metallo-grafika@mtu-net.ru","address":"New Arbat Street. ??., ?. 21, ???. 1 st., 21, page 1","company name russain":"???-??????????????","category russian":"????? ? ???????????/?????, ?????????/??????, ??????, ?????? - ????????????, ???????????, ???????"},"type":"Feature","geometry":{"type":"Point","coordinates":[37.58515278,55.75196667]}},{"properties":{"address russian":"????????? ??., ?. 8-12","city":"Moscow","city russian":"??????","latitude":55.78039722,"category":"Entertainment/Hobby/Medals, coins, badges - manufacturing, restoration, sales","company name":"ART SOUVENIR Ltd","website":"http://www.artsuvenir.com","fax":"+7 (495) 9888123","phone":"+7 (495) 9888123","longitude":37.60236111,"id":"a622kzmo0ljg","email id":"art@artsuvenir.com","address":"Sushchevskaya st., 8-12","company name russain":"??? ??????? ???","category russian":"????? ? ???????????/?????, ?????????/??????, ??????, ?????? - ????????????, ???????????, ???????"},"type":"Feature","geometry":{"type":"Point","coordinates":[37.60236111,55.78039722]}},{"properties":{"address russian":"???? ?????., ?. 102, ????. 2","city":"Moscow","city russian":"??????","latitude":55.80155,"category":"Entertainment/Hobby/Medals, coins, badges - manufacturing, restoration, sales","company name":"Alvito COMPANY LLC","website":"http://www.alvita-a.ru","fax":"NA","phone":"+7 (495) 741-48-12","longitude":37.63665556,"id":"a622kzn5w8y6","email id":"alvita_a@mail.ru","address":"Mira Prosp., D. 102, Bldg. 2 2","company name russain":"??????? ????? ???","category russian":"????? ? ???????????/?????, ?????????/??????, ??????, ?????? - ????????????, ???????????, ???????"},"type":"Feature","geometry":{"type":"Point","coordinates":[37.63665556,55.80155]}},{"properties":{"address russian":"?????????? ?. ???., ?. 9","city":"Moscow","city russian":"??????","latitude":55.73523889,"category":"Entertainment/Hobby/Medals, coins, badges - manufacturing, restoration, sales","company name":"DIAMOND CERTIFICATION","website":"NA","fax":"+7 (499) 2483637","phone":"+7 (499) 2482049","longitude":37.56923333,"id":"a622kztupvjv","email id":"alba@maverick.ru","address":"Savvinsky B. per., 9","company name russain":"????????????? ??????????","category russian":"????? ? ???????????/?????, ?????????/??????, ??????, ?????? - ????????????, ???????????, ???????"},"type":"Feature","geometry":{"type":"Point","coordinates":[37.56923333,55.73523889]}},{"properties":{"address russian":"????????? ??????? ??., ?. 23, ????. 1","city":"Moscow","city russian":"??????","latitude":55.64597778,"category":"Entertainment/Hobby/Philately","company name":"PHILATELY SHOP","website":"NA","fax":"+7 (495) 3358910","phone":"+7 (495) 3358910","longitude":37.51115833,"id":"a622kzvbf4oh","email id":"NA","address":"Akademika Volgin st., 23, Bldg. 1 1","company name russain":"????????? ???????","category russian":"????? ? ???????????/?????, ?????????/?????????"},"type":"Feature","geometry":{"type":"Point","coordinates":[37.51115833,55.64597778]}},{"properties":{"address russian":"???????? ??., ?. 12, ???. 2","city":"Moscow","city russian":"??????","latitude":55.76378056,"category":"Entertainment/Hobby/Philately","company name":"Federation of Philately RUSSIA","website":"NA","fax":"+7 (495) 6502466","phone":"+7 (495) 6503452","longitude":37.60745833,"id":"a622kzzwk47l","email id":"NA","address":"Tverskaya st., 12, page 2","company name russain":"???? ???????????? ??????","category russian":"????? ? ???????????/?????, ?????????/?????????"},"type":"Feature","geometry":{"type":"Point","coordinates":[37.60745833,55.76378056]}},{"properties":{"address russian":"????????? ???., ?. 13","city":"Moscow","city russian":"??????","latitude":55.75855,"category":"Entertainment/Hobby/Philately","company name":"UNION MOSCOW Stamp","website":"NA","fax":"NA","phone":"+7 (495) 6211005","longitude":37.63845556,"id":"a622kzoyfjgu","email id":"NA","address":"Armenian lane., 13","company name russain":"???? ?????????? ????????????","category russian":"????? ? ???????????/?????, ?????????/?????????"},"type":"Feature","geometry":{"type":"Point","coordinates":[37.63845556,55.75855]}},{"properties":{"address russian":"?????????? ?. ??., ?. 4/6, ???. 9","city":"Moscow","city russian":"??????","latitude":55.76171389,"category":"Entertainment/Hobby/Philately","company name":"MARK Publishing SHOPPING CENTER","website":"http://www.marka-art.ru","fax":"+7 (495) 2548584","phone":"+7 (495) 2540328","longitude":37.57965556,"id":"a622kzmm5we7","email id":"office@marka-art.ru","address":"Georgian B. st., 4 / 6, p. 9","company name russain":"????? ???????????-???????? ?????","category russian":"????? ? ???????????/?????, ?????????/?????????"},"type":"Feature","geometry":{"type":"Point","coordinates":[37.57965556,55.76171389]}},{"properties":{"address russian":"????????? ??., ?. 26","city":"Moscow","city russian":"??????","latitude":55.76399444,"category":"Entertainment/Hobby/Philately","company name":"ART-MARK","website":"NA","fax":"+7 (495) 6252504","phone":"+7 (495) 6252504","longitude":37.63716944,"id":"a622kzncwy9t","email id":"postfil@yandex.ru","address":"Myasnitskaya st., 26","company name russain":"???-????","category russian":"????? ? ???????????/?????, ?????????/?????????"},"type":"Feature","geometry":{"type":"Point","coordinates":[37.63716944,55.76399444]}},{"properties":{"address russian":"???????? ??., ?. 21","city":"Moscow","city russian":"??????","latitude":55.76613611,"category":"Entertainment/Hobby/Philately","company name":"Quadra-A","website":"http://www.philatelist.ru","fax":"+7 (495) 6991695","phone":"+7 (495) 6991695","longitude":37.60158611,"id":"a622kzpyey23","email id":"kwadra@dol.ru","address":"Tverskaya st., 21","company name russain":"??????-?","category russian":"????? ? ???????????/?????, ?????????/?????????"},"type":"Feature","geometry":{"type":"Point","coordinates":[37.60158611,55.76613611]}},{"properties":{"address russian":"?????????????? ??., ?. 40","city":"Moscow","city russian":"??????","latitude":55.77858333,"category":"Entertainment/Hobby/Philately","company name":"COLLECTOR","website":"http://www.filateliamag.ru","fax":"NA","phone":"+7 (499) 9782603","longitude":37.60210833,"id":"a622kzx553xn","email id":"NA","address":"Dolgorukovskaya st., 40","company name russain":"????????????","category russian":"????? ? ???????????/?????, ?????????/?????????"},"type":"Feature","geometry":{"type":"Point","coordinates":[37.60210833,55.77858333]}},{"properties":{"address russian":"????????? ??., ?. 8/40","city":"Moscow","city russian":"??????","latitude":55.74025,"category":"Entertainment/Hobby/Shop for numismatists","company name":"Numismatist Ltd.","website":"NA","fax":"NA","phone":"+7 (495) 9156563","longitude":37.65080278,"id":"a622kzmzrqtu","email id":"NA","address":"Potter Ave, 8 / 40","company name russain":"???????? ???","category russian":"????? ? ???????????/?????, ?????????/???????? ??? ??????????"},"type":"Feature","geometry":{"type":"Point","coordinates":[37.65080278,55.74025]}},{"properties":{"address russian":"????????? ???? ??., ?. 21/5, ??. 5015, ???. 1","city":"Moscow","city russian":"??????","latitude":55.76266667,"category":"Entertainment/Hobby/Shop for numismatists","company name":"ZNAK AUCTION HOUSE","website":"http://www.znak-auction.ru","fax":"NA","phone":"+7 (495) 744-08-31","longitude":37.62684722,"id":"a622kztnc4hb","email id":"NA","address":"Kuznetsk Bridge st., 21 / 5, of. 5015, ???. 5015, ed. 1 1","company name russain":"????? ?????????? ???","category russian":"????? ? ???????????/?????, ?????????/???????? ??? ??????????"},"type":"Feature","geometry":{"type":"Point","coordinates":[37.62684722,55.76266667]}},{"properties":{"address russian":"????????????? ?????., ?. 24","city":"Moscow","city russian":"??????","latitude":55.7826,"category":"Entertainment/Hobby/Shop for numismatists","company name":"CATHERINE ANTIQUARIAN SHOP","website":"NA","fax":"+7 (499) 2574146","phone":"+7 (499) 2574146","longitude":37.57359444,"id":"a622l011jeg7","email id":"NA","address":"Leningrad Ave., 24","company name russain":"????????? ??????????? ?????","category russian":"????? ? ???????????/?????, ?????????/???????? ??? ??????????"},"type":"Feature","geometry":{"type":"Point","coordinates":[37.57359444,55.7826]}},{"properties":{"address russian":"????????????????? ??., ?. 2","city":"Moscow","city russian":"??????","latitude":55.81521944,"category":"Entertainment/Hobby/Shop for numismatists","company name":"DENGO","website":"NA","fax":"NA","phone":"+7 (495) 7485125","longitude":37.69043889,"id":"a622l02h2tgn","email id":"NA","address":"Krasnobogatyrskaya st., 2","company name russain":"?????","category russian":"????? ? ???????????/?????, ?????????/???????? ??? ??????????"},"type":"Feature","geometry":{"type":"Point","coordinates":[37.69043889,55.81521944]}},{"properties":{"address russian":"????????????? ??., ?. 18, ???. 1","city":"Moscow","city russian":"??????","latitude":55.75317778,"category":"Entertainment/Hobby/Shop for numismatists","company name":"WORLD-COINS.RU","website":"http://www.world-coins.ru","fax":"NA","phone":"+7 (495) 9797574","longitude":37.48305556,"id":"a622kzrrm33c","email id":"nfo@world-coins.ru","address":"Novozavodskaya st., 18, page 1","company name russain":"WORLD-COINS.RU","category russian":"????? ? ???????????/?????, ?????????/???????? ??? ??????????"},"type":"Feature","geometry":{"type":"Point","coordinates":[37.48305556,55.75317778]}},{"properties":{"address russian":"???????????? 1-? ??., ?. 55, ??","city":"Moscow","city russian":"??????","latitude":55.82431389,"category":"Trade /Retail (shops) /Stores - Clothing","company name":"21SHOP","website":"NA","fax":"NA","phone":"+7 (495) 6379206","longitude":37.63453889,"id":"a622kzx933bg","email id":"NA","address":"Ostankino 1-st Str., 55, TC Ostankino","company name russain":"21SHOP","category russian":"Trade /????????? ???????? (????????) /???????? - ??????"},"type":"Feature","geometry":{"type":"Point","coordinates":[37.63453889,55.82431389]}},{"properties":{"address russian":"??????????? ???., ?. 48","city":"Moscow","city russian":"??????","latitude":55.718,"category":"Trade /Retail (shops) /Stores - Clothing","company name":"1001 DIRECTORY LTD","website":"http://www.1001katalog.com","fax":"NA","phone":"+7 (495) 9213942","longitude":37.57951944,"id":"a622kzpbn66v","email id":"NA","address":"Frunzenskaya nab., 48","company name russain":"1001 ??????? ???","category russian":"Trade /????????? ???????? (????????) /???????? - ??????"},"type":"Feature","geometry":{"type":"Point","coordinates":[37.57951944,55.718]}},{"properties":{"address russian":"????????? 3-? ???., ?. 13","city":"Moscow","city russian":"??????","latitude":55.73068333,"category":"Trade /Retail (shops) /Stores - Clothing","company name":"1001 JACKET","website":"http://www.1001kurtka.ru/","fax":"NA","phone":"+7 (495) 9211001","longitude":37.66345278,"id":"a622kzs0vvcc","email id":"NA","address":"Krutitskii third lane., 13","company name russain":"1001 ??????","category russian":"Trade /????????? ???????? (????????) /???????? - ??????"},"type":"Feature","geometry":{"type":"Point","coordinates":[37.66345278,55.73068333]}},{"properties":{"address russian":"60-????? ??????? ?????., ?. 14","city":"Moscow","city russian":"??????","latitude":55.691425,"category":"Trade /Retail (shops) /Stores - Clothing","company name":"1001 JACKET","website":"http://www.1001kurtka.ru","fax":"NA","phone":"+7 (495) 9211001","longitude":37.57480833,"id":"a622l017phel","email id":"NA","address":"60-years of October ave., 14","company name russain":"1001 ??????","category russian":"Trade /????????? ???????? (????????) /???????? - ??????"},"type":"Feature","geometry":{"type":"Point","coordinates":[37.57480833,55.691425]}},{"properties":{"address russian":"???? ?????., ??? , ?-? 70","city":"Moscow","city russian":"??????","latitude":55.77547222,"category":"Trade /Retail (shops) /Stores - Clothing","company name":"12 HOLIDAYS","website":"http://www.12praz.ru","fax":"NA","phone":"+7 (910) 4088175","longitude":37.63425,"id":"a622kzmzk7bg","email id":"NA","address":"Mira Prosp. VVC, n-n 70","company name russain":"12 ??????????","category russian":"Trade /????????? ???????? (????????) /???????? - ??????"},"type":"Feature","geometry":{"type":"Point","coordinates":[37.63425,55.77547222]}},{"properties":{"address russian":"????????????? ???., ?. 7","city":"Moscow","city russian":"??????","latitude":55.84111111,"category":"Trade /Retail (shops) /Stores - Clothing","company name":"12 HOLIDAYS","website":"http://www.12praz.ru","fax":"NA","phone":"+7 (915) 4640065","longitude":37.48692222,"id":"a622kzv47kfl","email id":"NA","address":"Kronstadt Blvd., 7","company name russain":"12 ??????????","category russian":"Trade /????????? ???????? (????????) /???????? - ??????"},"type":"Feature","geometry":{"type":"Point","coordinates":[37.48692222,55.84111111]}},{"properties":{"address russian":"?????? ??., ?. 13, ????. 1","city":"Moscow","city russian":"??????","latitude":55.85185556,"category":"Trade /Retail (shops) /Stores - Clothing","company name":"100 ODEZHEK Ltd.","website":"NA","fax":"NA","phone":"+7 (495) 6566173","longitude":37.63823889,"id":"a622kzrkcpg2","email id":"NA","address":"Sedova st., 13, Bldg. 1 1","company name russain":"100 ?????? ???","category russian":"Trade /????????? ???????? (????????) /???????? - ??????"},"type":"Feature","geometry":{"type":"Point","coordinates":[37.63823889,55.85185556]}},{"properties":{"address russian":"????????? ??????? ??., ?. 2, ??? ???????????","city":"Moscow","city russian":"??????","latitude":55.74450278,"category":"Trade /Retail (shops) /Stores - Clothing","company name":"4 YOU","website":"http://www.4youmen.ru","fax":"NA","phone":"+7 (495) 2291979","longitude":37.56623056,"id":"a622l025crl1","email id":"NA","address":"Kiev railway station square., 2, SEC","company name russain":"4 YOU","category russian":"Trade /????????? ???????? (????????) /???????? - ??????"},"type":"Feature","geometry":{"type":"Point","coordinates":[37.56623056,55.74450278]}},{"properties":{"address russian":"????????? ?????., ?. 2, ?? ?????","city":"Moscow","city russian":"??????","latitude":55.73073333,"category":"Trade /Retail (shops) /Stores - Clothing","company name":"4 YOU","website":"http://www.4youmen.ru","fax":"NA","phone":"+7 (495) 7755933","longitude":37.73580833,"id":"a622kzqzihs2","email id":"NA","address":"Ryazan Ave., 2, TC City","company name russain":"4 YOU","category russian":"Trade /????????? ???????? (????????) /???????? - ??????"},"type":"Feature","geometry":{"type":"Point","coordinates":[37.73580833,55.73073333]}},{"properties":{"address russian":"??????????? ??., ?. 32, ?? ??????","city":"Moscow","city russian":"??????","latitude":55.86961111,"category":"Trade /Retail (shops) /Stores - Clothing","company name":"May Your Pocket","website":"http://www.5karmanov.ru","fax":"NA","phone":"+7 (495) 2234155","longitude":37.66666389,"id":"a622kzsga5yg","email id":"NA","address":"Menzhinsky st., 32, TC Condor","company name russain":"5 ????????","category russian":"Trade /????????? ???????? (????????) /???????? - ??????"},"type":"Feature","geometry":{"type":"Point","coordinates":[37.66666389,55.86961111]}},{"properties":{"address russian":"????????? ??., ?. 34/29, ??? ?????","city":"Moscow","city russian":"??????","latitude":55.84626667,"category":"Trade /Retail (shops) /Stores - Clothing","company name":"May Your Pocket","website":"http://www.5karmanov.ru","fax":"NA","phone":"+7 (495) 7878584","longitude":37.35802778,"id":"a622kzvx19nc","email id":"NA","address":"St. Dubravnaya., D. 34/29, SEC Rook","company name russain":"5 ????????","category russian":"Trade /????????? ???????? (????????) /???????? - ??????"},"type":"Feature","geometry":{"type":"Point","coordinates":[37.35802778,55.84626667]}},{"properties":{"address russian":"??????????? ?., ?. 89, ??? XL","city":"Moscow","city russian":"??????","latitude":55.8637,"category":"Trade /Retail (shops) /Stores - Clothing","company name":"May Your Pocket","website":"http://www.5karmanov.ru","fax":"NA","phone":"+7 (495) 7758685","longitude":37.54611389,"id":"a622kzrai3x6","email id":"NA","address":"Dmitrov sh., 89, SEC XL","company name russain":"5 ????????","category russian":"Trade /????????? ???????? (????????) /???????? - ??????"},"type":"Feature","geometry":{"type":"Point","coordinates":[37.54611389,55.8637]}},{"properties":{"address russian":"??????? ??????? ??., ?. 1, ?? ?????","city":"Moscow","city russian":"??????","latitude":55.70486111,"category":"Trade /Retail (shops) /Stores - Clothing","company name":"May Your Pocket","website":"http://www.5karmanov.ru","fax":"NA","phone":"+7 (495) 9263472","longitude":37.76475833,"id":"a622kzzn96vt","email id":"NA","address":"Marshal Chuikova st., 1, SC Area","company name russain":"5 ????????","category russian":"Trade /????????? ???????? (????????) /???????? - ??????"},"type":"Feature","geometry":{"type":"Point","coordinates":[37.76475833,55.70486111]}},{"properties":{"address russian":"??????????? ?., ?. 54, ?? ???????","city":"Moscow","city russian":"??????","latitude":55.86550278,"category":"Trade /Retail (shops) /Stores - Clothing","company name":"May Your Pocket","website":"http://www.5karmanov.ru","fax":"NA","phone":"7 (495) 7237328","longitude":37.70487778,"id":"a622kzovudgl","email id":"NA","address":"Yaroslavskoye sh., 54, TC Mosmart","company name russain":"5 ????????","category russian":"Trade /????????? ???????? (????????) /???????? - ??????"},"type":"Feature","geometry":{"type":"Point","coordinates":[37.70487778,55.86550278]}},{"properties":{"address russian":"????????????? ??., ?. 6, ???. 1,","city":"Moscow","city russian":"??????","latitude":55.77587778,"category":"Trade /Retail (shops) /Stores - Clothing","company name":"May Your Pocket","website":"http://www.5karmanov.ru","fax":"NA","phone":"+7 (495) 6070242","longitude":37.66039167,"id":"a622kzr2s031","email id":"NA","address":"Komsomolskaya Sq., 6, p. 1, Moscow","company name russain":"5 ????????","category russian":"Trade /????????? ???????? (????????) /???????? - ??????"},"type":"Feature","geometry":{"type":"Point","coordinates":[37.66039167,55.77587778]}},{"properties":{"address russian":"??????? ??., ?. 43, ????. 1, ??? ???","city":"Moscow","city russian":"??????","latitude":55.65973611,"category":"Trade /Retail (shops) /Stores - Clothing","company name":"May Your Pocket","website":"http://www.5karmanov.ru","fax":"NA","phone":"+7 (495) 7753091","longitude":37.74968889,"id":"a622l027vhzp","email id":"NA","address":"Leninsky district, Kaluga sh., 21","company name russain":"5 ????????","category russian":"Trade /????????? ???????? (????????) /???????? - ??????"},"type":"Feature","geometry":{"type":"Point","coordinates":[37.74968889,55.65973611]}},{"properties":{"address russian":"???????? ??., ?. 22, ?? ?????????-????","city":"Moscow","city russian":"??????","latitude":55.88532222,"category":"Trade /Retail (shops) /Stores - Clothing","company name":"May Your Pocket","website":"http://www.5karmanov.ru","fax":"NA","phone":"+7 (495) 9791090","longitude":37.60240278,"id":"a622kzweylf4","email id":"NA","address":"Prishvin st., 22, TC Alexander-Land","company name russain":"5 ????????","category russian":"Trade /????????? ???????? (????????) /???????? - ??????"},"type":"Feature","geometry":{"type":"Point","coordinates":[37.60240278,55.88532222]}},{"properties":{"address russian":"??????????? ??., ?. 12, ?? ???????","city":"Moscow","city russian":"??????","latitude":55.86317778,"category":"Trade /Retail (shops) /Stores - Clothing","company name":"May Your Pocket","website":"http://www.5karmanov.ru","fax":"NA","phone":"+7 (495) 7458514","longitude":37.60191944,"id":"a622kzrgwddn","email id":"NA","address":"Decembrists street., 12, TC Golden","company name russain":"5 ????????","category russian":"Trade /????????? ???????? (????????) /???????? - ??????"},"type":"Feature","geometry":{"type":"Point","coordinates":[37.60191944,55.86317778]}}],"is_temporal":false,"author":{"url":"","metadata":"","contact_name":"","contact_address":"","source":"","contact_phone":""},"source":"","pagination":{"sort":null,"start":0,"total":130,"limit":1000000},"state":"complete","tags":"","published":"2014-08-10T11:54:07-04:00","id":51268}