{"type":"FeatureCollection","data_type":"Dataset","url_type":null,"permissions":[{"permissions":{"download":true,"view":true},"group_id":"everyone"}],"classification":null,"title":"SsangYong UK Dealers","count":34,"stream_id":5313,"contributor":{"url":"http://geocommons.com/users/1993","name":"mdmltd"},"data_attributes":null,"calculation_params":null,"icon_link":null,"link":"http://geocommons.com/overlays/5313.json","extent":[-7.63045,50.9853,1.33074,56.4685],"geometry_types":["point"],"unique_name":null,"name":"SsangYong UK Dealers","feature_count":34,"description":"SsangYong UK Dealership network","next_feature":null,"is_raster":false,"short_classification":"Y","stats":{"lat":{"max":56.468456,"mean":53.5751495294118,"variance":2.54875409257383,"stdev":1.59648178585721,"min":50.985265,"median":53.682505},"long":{"max":1.33074,"mean":-2.80013394117647,"variance":5.93922994891272,"stdev":2.43705353837636,"min":-7.63045,"median":-2.247829}},"features":[{"properties":{"address1":"72-76 Monifieth Road","address2":"","address3":"","postcode":"DD5 2RZ","dealer":"Auto Ecosse","county":"Dundee","marketingfirst":"Iain","marketingsurname":"Sommerville","town":"Broughty Ferry","phone":"01382 477992","fax":"","dpfirstname":"Richard","dpsurname":"Lawson","id":"a67tjeuujcwe","lat":56.468456,"long":-2.863209},"type":"Feature","geometry":{"type":"Point","coordinates":[-2.863209,56.468456]}},{"properties":{"address1":"The Parker Centre","address2":"Mansfield Road","address3":"","postcode":"DE21 4SZ","dealer":"Beechdale Motor Group Ltd (Derby)","county":"Derbyshire","marketingfirst":"Gary","marketingsurname":"Siddall","town":"Derby","phone":"01332 372555","fax":"","dpfirstname":"Les","dpsurname":"Waterfall","id":"a67tjf4sx931","lat":52.935809,"long":-1.467233},"type":"Feature","geometry":{"type":"Point","coordinates":[-1.467233,52.935809]}},{"properties":{"address1":"113 Campbell Street","address2":"","address3":"","postcode":"KA1 4HR","dealer":"Bickets SsangYong","county":"Ayrshire","marketingfirst":"Craig","marketingsurname":"Jordon","town":"Kilmarnock","phone":"01563 527525","fax":"","dpfirstname":"","dpsurname":"","id":"a67tjes8x77q","lat":55.59302,"long":-4.499419},"type":"Feature","geometry":{"type":"Point","coordinates":[-4.499419,55.59302]}},{"properties":{"address1":"209 Westgate Street","address2":"","address3":"","postcode":"GL1 2RN","dealer":"Blade Specialist Cars","county":"","marketingfirst":"Colin","marketingsurname":"Hobby","town":"Gloucester","phone":"01452 387000","fax":"01452 381300","dpfirstname":"Jerry","dpsurname":"Martin","id":"a67tjey63lgq","lat":51.8664,"long":-2.247829},"type":"Feature","geometry":{"type":"Point","coordinates":[-2.247829,51.8664]}},{"properties":{"address1":"Chalk Hill (A5 North)","address2":"","address3":"","postcode":"LU6 1RS","dealer":"Chalk Hill Garage Ltd","county":"Bedfordshire","marketingfirst":"Lance","marketingsurname":"Blackledge","town":"Dunstable","phone":"01582 476868","fax":"","dpfirstname":"Lance","dpsurname":"Blackledge","id":"a67tjez9n4uc","lat":51.90239,"long":-0.545431},"type":"Feature","geometry":{"type":"Point","coordinates":[-0.545431,51.90239]}},{"properties":{"address1":"Main Road","address2":"Belton","address3":"","postcode":"NG32 2LX","dealer":"Chandlers, Grantham","county":"Lincolnshire","marketingfirst":"Mark","marketingsurname":"Colclough","town":"Grantham","phone":"01476 590077","fax":"","dpfirstname":"Mark","dpsurname":"Colclough","id":"a67tjey2y6lo","lat":52.965612,"long":-0.613434},"type":"Feature","geometry":{"type":"Point","coordinates":[-0.613434,52.965612]}},{"properties":{"address1":"60 London Road","address2":"Little Clacton","address3":"","postcode":"CO16 9RB","dealer":"Cherrytree Garage Ltd","county":"Essex","marketingfirst":"Carmel","marketingsurname":"Button","town":"Clacton-on-Sea","phone":"01255 862667","fax":"","dpfirstname":"Carmel","dpsurname":"Button","id":"a67tjeyvnq7n","lat":51.814993,"long":1.148572},"type":"Feature","geometry":{"type":"Point","coordinates":[1.148572,51.814993]}},{"properties":{"address1":"Station Road","address2":"","address3":"","postcode":"TN32 5DG","dealer":"Culverwells","county":"East Sussex","marketingfirst":"Mathew","marketingsurname":"Commons","town":"Robertsbridge","phone":"01580 880567","fax":"","dpfirstname":"Richard","dpsurname":"Cole","id":"a67tjf48phhi","lat":50.985265,"long":0.473265},"type":"Feature","geometry":{"type":"Point","coordinates":[0.473265,50.985265]}},{"properties":{"address1":"Grenada Park Motors","address2":"Llangattock","address3":"","postcode":"NP8 1HL","dealer":"David Taylor","county":"Powys","marketingfirst":"Jason","marketingsurname":"","town":"Crickhowell","phone":"01873 810304","fax":"01873 811320","dpfirstname":"Gene","dpsurname":"Taylor","id":"a67tjf4r0eke","lat":51.861624,"long":-3.138122},"type":"Feature","geometry":{"type":"Point","coordinates":[-3.138122,51.861624]}},{"properties":{"address1":"West Road Garage","address2":"Longframlington","address3":"","postcode":"NE65 8HX","dealer":"Dennis Common","county":"Northumberland","marketingfirst":"Paul","marketingsurname":"Smith","town":"Morpeth","phone":"01665 570542","fax":"","dpfirstname":"Rod","dpsurname":"Cardi","id":"a67tjf1bftqo","lat":55.246155,"long":-1.769134},"type":"Feature","geometry":{"type":"Point","coordinates":[-1.769134,55.246155]}},{"properties":{"address1":"Campsie Industrial Estate","address2":"","address3":"","postcode":"BT47 3DN","dealer":"Donnelly Campsie","county":"Londonderry","marketingfirst":"Eddie","marketingsurname":"Murrey","town":"Eglington","phone":2871812191,"fax":"","dpfirstname":"","dpsurname":"","id":"a67tjeu5lnvd","lat":54.983785,"long":-7.295149},"type":"Feature","geometry":{"type":"Point","coordinates":[-7.295149,54.983785]}},{"properties":{"address1":"59 Moy Road","address2":"Dungannon","address3":"","postcode":"BT71 7DT","dealer":"Donnelly Dungannon","county":"Northern Ireland","marketingfirst":"David","marketingsurname":"Hannah","town":"County Tyrone","phone":"028 87722887","fax":"","dpfirstname":"Raymond","dpsurname":"Donnelly","id":"a67tjf2ggfcj","lat":54.412262,"long":-6.746974},"type":"Feature","geometry":{"type":"Point","coordinates":[-6.746974,54.412262]}},{"properties":{"address1":"101 Irvinestown Road","address2":"Enniskillen","address3":"","postcode":"BT74 6AJ","dealer":"Donnelly Enniskillen","county":"N. Ireland","marketingfirst":"Gerry","marketingsurname":"Mcnamee","town":"County Fermanagh","phone":2866324411,"fax":"","dpfirstname":"Bob","dpsurname":"McNamee","id":"a67tjewg2cu8","lat":54.345348,"long":-7.63045},"type":"Feature","geometry":{"type":"Point","coordinates":[-7.63045,54.345348]}},{"properties":{"address1":"Mallusk Way","address2":"Mallusk Road","address3":"Newtownabbey","postcode":"BT36 4AA","dealer":"Donnelly Mallusk","county":"","marketingfirst":"Nigel","marketingsurname":"Cole","town":"Belfast","phone":"02890 842000","fax":"","dpfirstname":"Eddie","dpsurname":"Black","id":"a67tjeuqap94","lat":54.675152,"long":-5.98863},"type":"Feature","geometry":{"type":"Point","coordinates":[-5.98863,54.675152]}},{"properties":{"address1":"77 Gilmour Street","address2":"Eaglesham","address3":"","postcode":"G76 0LH","dealer":"Eaglesham Garage Ltd","county":"","marketingfirst":"Tommy","marketingsurname":"Docherty","town":"Glasgow","phone":"01355 302685","fax":"","dpfirstname":"Bob","dpsurname":"McGlone","id":"a67tjeyb3bz7","lat":55.741824,"long":-4.275258},"type":"Feature","geometry":{"type":"Point","coordinates":[-4.275258,55.741824]}},{"properties":{"address1":"Unit 2 Barkston Road","address2":"","address3":"","postcode":"S71 3HU","dealer":"F &amp; G Commercials","county":"South Yorkshire","marketingfirst":"","marketingsurname":"","town":"Barnsley","phone":"01226 731870","fax":"","dpfirstname":"","dpsurname":"","id":"a67tjerjgxt4","lat":53.575685,"long":-1.453229},"type":"Feature","geometry":{"type":"Point","coordinates":[-1.453229,53.575685]}},{"properties":{"address1":"Bradley Junction Industrial Estate","address2":"Leeds Road","address3":"","postcode":"HD2 1UR","dealer":"F&amp;G Commercials","county":"West Yorkshire","marketingfirst":"","marketingsurname":"","town":"Hudderesfield","phone":"01484 300550","fax":"01484 300202","dpfirstname":"","dpsurname":"","id":"a67tjf0hwwv5","lat":53.682505,"long":-1.747334},"type":"Feature","geometry":{"type":"Point","coordinates":[-1.747334,53.682505]}},{"properties":{"address1":"Bittern Close","address2":"Silverlink","address3":"","postcode":"NE28 9ND","dealer":"Gainmanor","county":"North Tyneside","marketingfirst":"David","marketingsurname":"Banks","town":"Wallsend","phone":"0191 2623300","fax":"","dpfirstname":"David","dpsurname":"Banks","id":"a67tjeuyjq6i","lat":55.012238,"long":-1.497757},"type":"Feature","geometry":{"type":"Point","coordinates":[-1.497757,55.012238]}},{"properties":{"address1":"High Noon","address2":"","address3":"","postcode":"SA32 7EN","dealer":"Geraint Jones 4 x 4","county":"Carmarthen","marketingfirst":"Beryl","marketingsurname":"Jones","town":"White Mill","phone":"01267 290900","fax":"","dpfirstname":"Geraint","dpsurname":"Jones","id":"a67tjf3kwdxl","lat":51.870399,"long":-4.23298},"type":"Feature","geometry":{"type":"Point","coordinates":[-4.23298,51.870399]}},{"properties":{"address1":"Central Garage","address2":"Water Street","address3":"","postcode":"OL16 1UH","dealer":"H Robinson &amp; Sons","county":"Lancashire","marketingfirst":"Matthew","marketingsurname":"Robinson","town":"Rochdale","phone":"01706 716650","fax":"","dpfirstname":"David","dpsurname":"Dearden","id":"a67tjf57f57j","lat":53.616539,"long":-2.15212},"type":"Feature","geometry":{"type":"Point","coordinates":[-2.15212,53.616539]}},{"properties":{"address1":"29 Old Warrenpoint Road","address2":"","address3":"","postcode":"BT34 2PF","dealer":"Kehoe Kars Ltd","county":"County Down","marketingfirst":"John","marketingsurname":"Kehoe","town":"Newry","phone":"028 30261036","fax":"","dpfirstname":"Liam","dpsurname":"Kehoe","id":"a67tjexj9s6x","lat":54.15355,"long":-6.320509},"type":"Feature","geometry":{"type":"Point","coordinates":[-6.320509,54.15355]}},{"properties":{"address1":"39-41 South End","address2":"","address3":"","postcode":"CR0 1BE","dealer":"Kinghams Limited","county":"Surrey","marketingfirst":"Keith","marketingsurname":"Kingham","town":"Croydon","phone":"0208 6804300","fax":"","dpfirstname":"Keith","dpsurname":"","id":"a67tjez2teio","lat":51.366901,"long":-0.098842},"type":"Feature","geometry":{"type":"Point","coordinates":[-0.098842,51.366901]}},{"properties":{"address1":"Mappleton","address2":"","address3":"","postcode":"HU18 1XT","dealer":"Maple Garage","county":"East Yorkshire","marketingfirst":"Steve","marketingsurname":"Wardlow","town":"Hornsea","phone":"01964 534144","fax":"01964 536244","dpfirstname":"Graham","dpsurname":"Burton","id":"a67tjeut1wwt","lat":53.908235,"long":-0.171839},"type":"Feature","geometry":{"type":"Point","coordinates":[-0.171839,53.908235]}},{"properties":{"address1":"208 Wigan Road","address2":"Hindley","address3":"","postcode":"WN2 3BU","dealer":"Michael Edwards Car Sales Ltd","county":"","marketingfirst":"Mike","marketingsurname":"Latimer","town":"Wigan","phone":"01942 246688","fax":"01942 248866","dpfirstname":"Mike","dpsurname":"Latimer","id":"a67tjf5uy2ny","lat":53.561775,"long":-2.598669},"type":"Feature","geometry":{"type":"Point","coordinates":[-2.598669,53.561775]}},{"properties":{"address1":"1 Wroxham Road","address2":"","address3":"","postcode":"NR7 8TN","dealer":"Norfolk Motor Group Ltd","county":"Norfolk","marketingfirst":"Matt","marketingsurname":"","town":"Norwich","phone":"01603 401044","fax":"","dpfirstname":"","dpsurname":"","id":"a67tjf4sj65d","lat":52.66115,"long":1.33074},"type":"Feature","geometry":{"type":"Point","coordinates":[1.33074,52.66115]}},{"properties":{"address1":"35-37 Railway Street","address2":"","address3":"","postcode":"BT82 8EQ","dealer":"Pat Kirk Ltd","county":"County Tyrone","marketingfirst":"Terry","marketingsurname":"Parker","town":"Strabane","phone":"02871 382339","fax":"","dpfirstname":"Pat","dpsurname":"Kirk","id":"a67tjf2iw2eu","lat":54.828055,"long":-7.465999},"type":"Feature","geometry":{"type":"Point","coordinates":[-7.465999,54.828055]}},{"properties":{"address1":"21-23 Victoria Road","address2":"","address3":"","postcode":"DL10 4AS","dealer":"S G Petch Ltd (Richmond)","county":"North Yorks","marketingfirst":"Les","marketingsurname":"Rudd","town":"Richmond","phone":"01748 825757","fax":"","dpfirstname":"Les","dpsurname":"Rudd","id":"a67tjeu31uyl","lat":54.404467,"long":-1.741884},"type":"Feature","geometry":{"type":"Point","coordinates":[-1.741884,54.404467]}},{"properties":{"address1":"Auchinleck Drive","address2":"Rosehill Trading Est","address3":"","postcode":"CA1 2UR","dealer":"Stan Palmer","county":"Cumbria","marketingfirst":"Mike","marketingsurname":"Griffiths","town":"Carlisle","phone":"01228 525051","fax":"01228 592311","dpfirstname":"Ian","dpsurname":"Armstrong","id":"a67tjf2s1ukl","lat":54.89428,"long":-2.896839},"type":"Feature","geometry":{"type":"Point","coordinates":[-2.896839,54.89428]}},{"properties":{"address1":"Pentrebach Road","address2":"","address3":"","postcode":"CF48 1YB","dealer":"Thomas &amp; Davies","county":"Mid Glamorgan","marketingfirst":"Jason","marketingsurname":"Thomas","town":"Merthyr Tydfil","phone":"01685 722773","fax":"01685 389317","dpfirstname":"Sharron","dpsurname":"Horrigan","id":"a67tjetbx1gu","lat":51.732995,"long":-3.368889},"type":"Feature","geometry":{"type":"Point","coordinates":[-3.368889,51.732995]}},{"properties":{"address1":"Hartcliffe Way","address2":"","address3":"","postcode":"BS3 5SD","dealer":"Tiley of Bristol","county":"Avon and Somerset","marketingfirst":"Janie","marketingsurname":"Richardson","town":"Bristol","phone":"0117 923 1231","fax":"","dpfirstname":"Janie","dpsurname":"Richardson","id":"a67tjesagvga","lat":51.428851,"long":-2.60437},"type":"Feature","geometry":{"type":"Point","coordinates":[-2.60437,51.428851]}},{"properties":{"address1":"29 Dalmarnock Road","address2":"Rutherglen","address3":"","postcode":"G73 1BL","dealer":"Verve Glasgow","county":"Strathclyde","marketingfirst":"Scott","marketingsurname":"Robertson","town":"Glasgow","phone":"0141 647 0511","fax":"","dpfirstname":"Charlie","dpsurname":"Adair","id":"a67tjeu9cn3l","lat":55.835147,"long":-4.208532},"type":"Feature","geometry":{"type":"Point","coordinates":[-4.208532,55.835147]}},{"properties":{"address1":"Main Street","address2":"Bogside","address3":"","postcode":"ML2 9PS","dealer":"Verve Wishaw","county":"Newmains","marketingfirst":"Archie","marketingsurname":"Miller","town":"Wishaw","phone":"01698 358221","fax":"01698 350333","dpfirstname":"Charlie","dpsurname":"Adair","id":"a67tjf5bh50t","lat":55.778715,"long":-3.880254},"type":"Feature","geometry":{"type":"Point","coordinates":[-3.880254,55.778715]}},{"properties":{"address1":"Priory Garage","address2":"Priory Road","address3":"","postcode":"B49 5DY","dealer":"Warwickshire SsangYong","county":"Warwickshire","marketingfirst":"Gary","marketingsurname":"Roberson","town":"Alcester","phone":"01789 400499","fax":"","dpfirstname":"Mark","dpsurname":"Hughs","id":"a67tjf7vifbh","lat":52.215167,"long":-1.873959},"type":"Feature","geometry":{"type":"Point","coordinates":[-1.873959,52.215167]}},{"properties":{"address1":"Unit 10","address2":"Farnham Trading Estate","address3":"Farnham","postcode":"GU9 9NN","dealer":"Wiltshire and Sons","county":"","marketingfirst":"Barry","marketingsurname":"Wiltshire","town":"Surrey","phone":"01252 726378","fax":"01252 747919","dpfirstname":"","dpsurname":"","id":"a67tjevndcc6","lat":51.230335,"long":-0.762854},"type":"Feature","geometry":{"type":"Point","coordinates":[-0.762854,51.230335]}}],"is_temporal":false,"author":{"url":"","metadata":"","contact_name":"","contact_address":"","source":"","contact_phone":""},"source":"","pagination":{"sort":null,"start":0,"total":34,"limit":1000000},"state":"complete","tags":"ssangyong","published":"2008-10-13T12:00:00Z","id":5313}