{"type":"FeatureCollection","data_type":"Dataset","url_type":null,"permissions":[{"permissions":{"download":true,"view":true},"group_id":"everyone"}],"classification":null,"title":"padds","count":23,"stream_id":53352,"contributor":{"url":"http://geocommons.com/users/13634","name":"findaspot"},"data_attributes":null,"calculation_params":null,"icon_link":null,"link":"http://geocommons.com/overlays/53352.json","extent":[-76.9004,39.0508,-76.7071,39.2344],"geometry_types":["point"],"unique_name":null,"name":"padds","feature_count":23,"description":"","next_feature":null,"is_raster":false,"short_classification":"Y","stats":{"lon":{"max":-76.707132,"mean":-76.8140692608696,"variance":0.0042027176194743,"stdev":0.0648283704829475,"min":-76.900399,"median":-76.84457},"1 bed price":{"max":1428,"mean":1199.5652173913,"variance":19406.1660079051,"stdev":139.306015691732,"min":946,"median":1215},"lat":{"max":39.234365,"mean":39.156242173913,"variance":0.00355964818042288,"stdev":0.059662787233106,"min":39.050823,"median":39.166642}},"features":[{"properties":{"lon":-76.891313,"city":"Columbia","name":"Avalon Cedar Place","zip":"21044","weblink":"http://avaloncommunities.com/avaloncore/nfloor.asp?comm=313&amp;source=aptscom","1 bed price":1145,"id":"a6yomvdfhy5a","lat":39.221528,"address":"5458 Harpers Farm Rd","state":"MD"},"type":"Feature","geometry":{"type":"Point","coordinates":[-76.891313,39.221528]}},{"properties":{"lon":-76.890291,"city":"Columbia","name":"Avalon Columbia","zip":"21044","weblink":"http://avaloncommunities.com/avaloncore/nfloor.asp?comm=246&amp;source=aptscom","1 bed price":1215,"id":"a6yomvd8egus","lat":39.230206,"address":"5320 Cedar Lane","state":"MD"},"type":"Feature","geometry":{"type":"Point","coordinates":[-76.890291,39.230206]}},{"properties":{"lon":-76.846155,"city":"Columbia","name":"Avalon at Fairway Hills","zip":"21044","weblink":"http://avaloncommunities.com/avaloncore/nfloor.asp?comm=32&amp;source=aptscom","1 bed price":1020,"id":"a6yomvjhktjx","lat":39.233274,"address":"5441 Columbia Rd","state":"MD"},"type":"Feature","geometry":{"type":"Point","coordinates":[-76.846155,39.233274]}},{"properties":{"lon":-76.866439,"city":"Columbia","name":"Beech's Farm","zip":"21046","weblink":"http://www.gables.com/gablesliving/community.aspx?Region=23&amp;CommunityId=176","1 bed price":1110,"id":"a6yomvdzisx0","lat":39.170149,"address":"7260 Eden Brook Dr","state":"MD"},"type":"Feature","geometry":{"type":"Point","coordinates":[-76.866439,39.170149]}},{"properties":{"lon":-76.800743,"city":"Laurel","name":"Camden Russett","zip":"20724","weblink":"http://apartments.camdenliving.com/dc-metro-washington-dc-apartments/camden-russett/AptPropertyDetail.aspx","1 bed price":1230,"id":"a6yomvkwdn69","lat":39.103069,"address":"8500 Summit View Rd","state":"MD"},"type":"Feature","geometry":{"type":"Point","coordinates":[-76.800743,39.103069]}},{"properties":{"lon":-76.850463,"city":"Columbia","name":"Columbia Commons","zip":"21046","weblink":"http://www.columbiacommons.com/ColumbiaProperty/index.aspx","1 bed price":1202,"id":"a6yomv5g5eyb","lat":39.162885,"address":"7601 Woodpark Ln","state":"MD"},"type":"Feature","geometry":{"type":"Point","coordinates":[-76.850463,39.162885]}},{"properties":{"lon":-76.856465,"city":"Columbia","name":"Columbia Town Center","zip":"21044","weblink":"http://www.gables.com/gablesliving/community.aspx?Region=23&amp;CommunityId=98","1 bed price":1300,"id":"a6yomver0hzv","lat":39.209875,"address":"10360 Swift Stream Pl","state":"MD"},"type":"Feature","geometry":{"type":"Point","coordinates":[-76.856465,39.209875]}},{"properties":{"lon":-76.795107,"city":"Laurel","name":"Concord Park at Russett","zip":"20724","weblink":"http://www.concordparkapts.com/","1 bed price":1400,"id":"a6yomvjpwofh","lat":39.107461,"address":"7903 Orion Circle","state":"MD"},"type":"Feature","geometry":{"type":"Point","coordinates":[-76.795107,39.107461]}},{"properties":{"lon":-76.849701,"city":"Columbia","name":"Dominion Kings Place","zip":"21046","weblink":"http://www.udr.com/community94.htm?wt.srch1&amp;wt.mc_id=Apartments-DominionKingsPlace","1 bed price":1025,"id":"a6yomvjvdear","lat":39.165016,"address":"7525 Murray Hill Rd","state":"MD"},"type":"Feature","geometry":{"type":"Point","coordinates":[-76.849701,39.165016]}},{"properties":{"lon":-76.868687,"city":"Columbia","name":"Dominion at Eden Brook","zip":"21046","weblink":"http://www.udr.com/community116.htm?wt.srch1&amp;wt.mc_id=Apartments-DominionatEdenBrook","1 bed price":946,"id":"a6yomv7388v5","lat":39.167856,"address":"7310 Eden Brook Dr","state":"MD"},"type":"Feature","geometry":{"type":"Point","coordinates":[-76.868687,39.167856]}},{"properties":{"lon":-76.707132,"city":"Odenton","name":"Fieldstone Farm","zip":"21113","weblink":"http://www.fieldstonefarmapts.com/","1 bed price":1390,"id":"a6yomvd1a85h","lat":39.050823,"address":"800 Hydric Court","state":"MD"},"type":"Feature","geometry":{"type":"Point","coordinates":[-76.707132,39.050823]}},{"properties":{"lon":-76.714581,"city":"Odenton","name":"Groves at Piney Orchard","zip":"21113","weblink":"http://www.grovesatpineyorchard.com/","1 bed price":1300,"id":"a6yomv57i6ru","lat":39.066772,"address":"2404 Ash Grove Ln","state":"MD"},"type":"Feature","geometry":{"type":"Point","coordinates":[-76.714581,39.066772]}},{"properties":{"lon":-76.84457,"city":"Columbia","name":"Island Club","zip":"21044","weblink":"http://www.gables.com/gablesliving/community.aspx?Region=23&amp;CommunityId=177","1 bed price":1200,"id":"a6yomv745nrb","lat":39.234365,"address":"5331 Columbia Rd","state":"MD"},"type":"Feature","geometry":{"type":"Point","coordinates":[-76.84457,39.234365]}},{"properties":{"lon":-76.804517,"city":"Columbia","name":"Kendall Ridge","zip":"21045","weblink":"http://www.kendallridge-apts.com/KendallRidgeMD/Index.aspx","1 bed price":1005,"id":"a6yomv76iofi","lat":39.205797,"address":"8399 Tamar Dr","state":"MD"},"type":"Feature","geometry":{"type":"Point","coordinates":[-76.804517,39.205797]}},{"properties":{"lon":-76.853805,"city":"Columbia","name":"King's Crossing","zip":"21046","weblink":"http://www.gables.com/gablesliving/community.aspx?Region=23&amp;CommunityId=178","1 bed price":1190,"id":"a6yomvkh0r4v","lat":39.166642,"address":"8909 Early April Way","state":"MD"},"type":"Feature","geometry":{"type":"Point","coordinates":[-76.853805,39.166642]}},{"properties":{"lon":-76.715166,"city":"Odenton","name":"Lodge at Seven Oaks","zip":"21113","weblink":"http://www.lodgeatsevenoaks.com/","1 bed price":1280,"id":"a6yomvdrz2y0","lat":39.097765,"address":"2027 Odens Station Ln","state":"MD"},"type":"Feature","geometry":{"type":"Point","coordinates":[-76.715166,39.097765]}},{"properties":{"lon":-76.863985,"city":"Laurel","name":"Marymount","zip":"20707","weblink":"http://www.equityapartments.com/Brochure.aspx?PropertyId=600","1 bed price":950,"id":"a6yomvgasfdd","lat":39.088773,"address":"8220 Marymount Dr","state":"MD"},"type":"Feature","geometry":{"type":"Point","coordinates":[-76.863985,39.088773]}},{"properties":{"lon":-76.900399,"city":"Columbia","name":"Reflections","zip":"21044","weblink":"http://www.reflectionsapts.com/","1 bed price":1310,"id":"a6yomvcx3cic","lat":39.211402,"address":"12020 Little Patuxent Pkwy","state":"MD"},"type":"Feature","geometry":{"type":"Point","coordinates":[-76.900399,39.211402]}},{"properties":{"lon":-76.724716,"city":"Odenton","name":"Riverscape at Piney Orchard","zip":"21113","weblink":"http://www.riverscapeapts.com/","1 bed price":1300,"id":"a6yomvh4rsos","lat":39.062355,"address":"2600 Midway Branch Dr","state":"MD"},"type":"Feature","geometry":{"type":"Point","coordinates":[-76.724716,39.062355]}},{"properties":{"lon":-76.717001,"city":"Odenton","name":"Seven Oaks","zip":"21113","weblink":"http://www.sevenoaks-apts.com/SevenOaksIMD/Index.aspx","1 bed price":1144,"id":"a6yomvelpwu4","lat":39.099193,"address":"2100 Sentry Court","state":"MD"},"type":"Feature","geometry":{"type":"Point","coordinates":[-76.717001,39.099193]}},{"properties":{"lon":-76.82584,"city":"Columbia","name":"Stonehaven","zip":"21046","weblink":"http://www.tgmassociates.com/properties/stonehaven-apartments/","1 bed price":1220,"id":"a6yomv704kh8","lat":39.179277,"address":"7030 Gentle Shade","state":"MD"},"type":"Feature","geometry":{"type":"Point","coordinates":[-76.82584,39.179277]}},{"properties":{"lon":-76.810669,"city":"Columbia","name":"Tamar Meadow","zip":"21045","weblink":"http://www.udr.com/community297.htm?wt.srch1&amp;wt.mc_id=Apartments-TamarMeadow","1 bed price":1280,"id":"a6yomvhrehk1","lat":39.208068,"address":"8600 Cobblefield Dr","state":"MD"},"type":"Feature","geometry":{"type":"Point","coordinates":[-76.810669,39.208068]}},{"properties":{"lon":-76.725848,"city":"Hanover","name":"The Elms at Stoney Run Village","zip":"21076","weblink":"http://www.stoneyrunapts.com/","1 bed price":1428,"id":"a6yomv7xtbvm","lat":39.151019,"address":"7581 Stoney Run Dr","state":"MD"},"type":"Feature","geometry":{"type":"Point","coordinates":[-76.725848,39.151019]}}],"is_temporal":false,"author":{"url":"","metadata":"","contact_name":"","contact_address":"","source":"","contact_phone":""},"source":"","pagination":{"sort":null,"start":0,"total":23,"limit":1000000},"state":"complete","tags":"","published":"2014-08-10T13:21:54-04:00","id":53352}