{"type":"FeatureCollection","data_type":"Dataset","url_type":null,"permissions":[{"permissions":{"download":true,"view":true},"group_id":"everyone"}],"classification":null,"title":"Domino's Pizza Locations, India by City, 2008","count":43,"stream_id":5385,"contributor":{"url":"http://geocommons.com/users/185","name":"emily"},"data_attributes":null,"calculation_params":null,"icon_link":null,"link":"http://geocommons.com/overlays/5385.json","extent":[72.566,8.5037,88.4246,32.7081],"geometry_types":["point"],"unique_name":null,"name":"Domino's Pizza Locations, India by City, 2008","feature_count":43,"description":"This dataset provides the locations of cities in India where there are Domino's Pizza outlets and provides the number of Domino's in that city.","next_feature":null,"is_raster":false,"short_classification":"Y","stats":{"latitude":{"max":32.70813,"mean":23.844330744186,"variance":53.7192860074706,"stdev":7.3293441730806,"min":8.503696,"median":26.905109},"number":{"max":40,"mean":4.97674418604651,"variance":68.6899224806201,"stdev":8.28793837336042,"min":1,"median":2},"longitude":{"max":88.424583,"mean":77.0441572558139,"variance":10.1980551286646,"stdev":3.19343938860042,"min":72.56602,"median":76.967438}},"features":[{"properties":{"city":"Agra","latitude":27.177719,"number":2,"country":"India","longitude":78.0093,"id":"a62itg9y6yxz","state":"Uttar Pradesh"},"type":"Feature","geometry":{"type":"Point","coordinates":[78.0093,27.177719]}},{"properties":{"city":"Ahmedabad","latitude":23.039574,"number":5,"country":"India","longitude":72.56602,"id":"a62itg22yjfi","state":"Gujarat"},"type":"Feature","geometry":{"type":"Point","coordinates":[72.56602,23.039574]}},{"properties":{"city":"Amritsar","latitude":31.63089,"number":3,"country":"India","longitude":74.871552,"id":"a62itg9izszu","state":"Punjab"},"type":"Feature","geometry":{"type":"Point","coordinates":[74.871552,31.63089]}},{"properties":{"city":"Bangalore","latitude":12.971606,"number":26,"country":"India","longitude":77.594376,"id":"a62itg8n0b8p","state":"Karnataka"},"type":"Feature","geometry":{"type":"Point","coordinates":[77.594376,12.971606]}},{"properties":{"city":"Chandigarh","latitude":30.73778,"number":2,"country":"India","longitude":76.784439,"id":"a62itgash161","state":"Punjab"},"type":"Feature","geometry":{"type":"Point","coordinates":[76.784439,30.73778]}},{"properties":{"city":"Chennai","latitude":13.060416,"number":14,"country":"India","longitude":80.249634,"id":"a62itfulg9zs","state":"Tamil Nadu"},"type":"Feature","geometry":{"type":"Point","coordinates":[80.249634,13.060416]}},{"properties":{"city":"Coimbatore","latitude":11.0052,"number":1,"country":"India","longitude":76.970711,"id":"a62itg0jk8wl","state":"Tamil Nadu"},"type":"Feature","geometry":{"type":"Point","coordinates":[76.970711,11.0052]}},{"properties":{"city":"Dehradun","latitude":30.33357,"number":1,"country":"India","longitude":78.04776,"id":"a62itfuuj9ct","state":"Uttaranchal"},"type":"Feature","geometry":{"type":"Point","coordinates":[78.04776,30.33357]}},{"properties":{"city":"Delhi","latitude":28.635308,"number":30,"country":"India","longitude":77.22496,"id":"a62itg0j7s9k","state":"Delhi"},"type":"Feature","geometry":{"type":"Point","coordinates":[77.22496,28.635308]}},{"properties":{"city":"Faridabad","latitude":28.382219,"number":2,"country":"India","longitude":77.303093,"id":"a62itg8hytu4","state":"Haryana"},"type":"Feature","geometry":{"type":"Point","coordinates":[77.303093,28.382219]}},{"properties":{"city":"Gandhi Nagar","latitude":9.977374,"number":1,"country":"India","longitude":76.29787,"id":"a62itfwukt4p","state":"Kerala"},"type":"Feature","geometry":{"type":"Point","coordinates":[76.29787,9.977374]}},{"properties":{"city":"Ghaziabad","latitude":28.661221,"number":3,"country":"India","longitude":77.424461,"id":"a62itg2adpjl","state":"Uttar Pradesh"},"type":"Feature","geometry":{"type":"Point","coordinates":[77.424461,28.661221]}},{"properties":{"city":"Greater Noida","latitude":28.495572,"number":1,"country":"India","longitude":77.418063,"id":"a62itg4p8htp","state":""},"type":"Feature","geometry":{"type":"Point","coordinates":[77.418063,28.495572]}},{"properties":{"city":"Gurgaon","latitude":28.46385,"number":8,"country":"India","longitude":77.017838,"id":"a62itg7sffln","state":"Haryana"},"type":"Feature","geometry":{"type":"Point","coordinates":[77.017838,28.46385]}},{"properties":{"city":"Hyderabad","latitude":17.385044,"number":11,"country":"India","longitude":78.486671,"id":"a62itg41j8hf","state":"Andhra Pradesh"},"type":"Feature","geometry":{"type":"Point","coordinates":[78.486671,17.385044]}},{"properties":{"city":"Jaipur","latitude":26.905109,"number":2,"country":"India","longitude":75.801277,"id":"a62itg8610fj","state":"Rajasthan"},"type":"Feature","geometry":{"type":"Point","coordinates":[75.801277,26.905109]}},{"properties":{"city":"Jalandhar","latitude":31.31883,"number":1,"country":"India","longitude":75.579163,"id":"a62itg0ksnqp","state":"Punjab"},"type":"Feature","geometry":{"type":"Point","coordinates":[75.579163,31.31883]}},{"properties":{"city":"Jammu","latitude":32.70813,"number":1,"country":"India","longitude":74.852547,"id":"a62itfw21wwu","state":"Jammu"},"type":"Feature","geometry":{"type":"Point","coordinates":[74.852547,32.70813]}},{"properties":{"city":"Kanpur","latitude":26.45783,"number":2,"country":"India","longitude":80.317863,"id":"a62itfya3wcs","state":"Uttar Pradesh"},"type":"Feature","geometry":{"type":"Point","coordinates":[80.317863,26.45783]}},{"properties":{"city":"Karnal","latitude":29.68952,"number":1,"country":"India","longitude":76.981857,"id":"a62itfx6kitq","state":"Haryana"},"type":"Feature","geometry":{"type":"Point","coordinates":[76.981857,29.68952]}},{"properties":{"city":"Kolkata","latitude":22.572646,"number":10,"country":"India","longitude":88.363895,"id":"a62itg177ihu","state":"West Bengal"},"type":"Feature","geometry":{"type":"Point","coordinates":[88.363895,22.572646]}},{"properties":{"city":"Lucknow","latitude":26.84943,"number":3,"country":"India","longitude":80.919724,"id":"a62itg7aom39","state":"Uttar Pradesh"},"type":"Feature","geometry":{"type":"Point","coordinates":[80.919724,26.84943]}},{"properties":{"city":"Ludhiana","latitude":30.90609,"number":2,"country":"India","longitude":75.846786,"id":"a62itg1emqud","state":"Punjab"},"type":"Feature","geometry":{"type":"Point","coordinates":[75.846786,30.90609]}},{"properties":{"city":"Mangalore","latitude":12.86936,"number":1,"country":"India","longitude":74.84256,"id":"a62itg0t7kvw","state":"Karnataka"},"type":"Feature","geometry":{"type":"Point","coordinates":[74.84256,12.86936]}},{"properties":{"city":"Manipal","latitude":13.360226,"number":1,"country":"India","longitude":74.862213,"id":"a62itfyq2f1o","state":""},"type":"Feature","geometry":{"type":"Point","coordinates":[74.862213,13.360226]}},{"properties":{"city":"Meerut","latitude":28.99161,"number":2,"country":"India","longitude":77.703697,"id":"a62itg5f8dqc","state":"Uttar Pradesh"},"type":"Feature","geometry":{"type":"Point","coordinates":[77.703697,28.99161]}},{"properties":{"city":"Mohali","latitude":30.679947,"number":2,"country":"India","longitude":76.722108,"id":"a62itg7gm3w2","state":"Punjab"},"type":"Feature","geometry":{"type":"Point","coordinates":[76.722108,30.679947]}},{"properties":{"city":"Mumbai","latitude":19.017656,"number":40,"country":"India","longitude":72.856178,"id":"a62itfx519pq","state":"Maharashtra"},"type":"Feature","geometry":{"type":"Point","coordinates":[72.856178,19.017656]}},{"properties":{"city":"Mussoorie","latitude":30.462,"number":1,"country":"India","longitude":78.071037,"id":"a62itg03nb77","state":"Uttarakhand"},"type":"Feature","geometry":{"type":"Point","coordinates":[78.071037,30.462]}},{"properties":{"city":"Mysore","latitude":12.3033,"number":2,"country":"India","longitude":76.645866,"id":"a62itgae7qre","state":"Karnataka"},"type":"Feature","geometry":{"type":"Point","coordinates":[76.645866,12.3033]}},{"properties":{"city":"NA","latitude":15.425379,"number":6,"country":"India","longitude":73.983003,"id":"a62itg39ozfs","state":"Goa"},"type":"Feature","geometry":{"type":"Point","coordinates":[73.983003,15.425379]}},{"properties":{"city":"Nasik","latitude":20.00066,"number":1,"country":"India","longitude":73.780853,"id":"a62itg7ev08v","state":"Maharashtra"},"type":"Feature","geometry":{"type":"Point","coordinates":[73.780853,20.00066]}},{"properties":{"city":"Noida","latitude":28.58,"number":5,"country":"India","longitude":77.33,"id":"a62itg8jl5v4","state":"Uttar Pradesh"},"type":"Feature","geometry":{"type":"Point","coordinates":[77.33,28.58]}},{"properties":{"city":"Panchkula","latitude":30.694209,"number":1,"country":"India","longitude":76.860565,"id":"a62itfza4m0q","state":"Chandigarh"},"type":"Feature","geometry":{"type":"Point","coordinates":[76.860565,30.694209]}},{"properties":{"city":"Panipat","latitude":29.385389,"number":1,"country":"India","longitude":76.967438,"id":"a62itfxazkvu","state":"Haryana"},"type":"Feature","geometry":{"type":"Point","coordinates":[76.967438,29.385389]}},{"properties":{"city":"Patiala","latitude":30.32062,"number":1,"country":"India","longitude":76.395126,"id":"a62itg7slv9l","state":"Punjab"},"type":"Feature","geometry":{"type":"Point","coordinates":[76.395126,30.32062]}},{"properties":{"city":"Pune","latitude":18.520469,"number":11,"country":"India","longitude":73.856621,"id":"a62itfz4g6pz","state":"Maharashtra"},"type":"Feature","geometry":{"type":"Point","coordinates":[73.856621,18.520469]}},{"properties":{"city":"Secundrabad","latitude":17.501236,"number":1,"country":"India","longitude":78.54337,"id":"a62itg8basyw","state":"Andhra Pradesh"},"type":"Feature","geometry":{"type":"Point","coordinates":[78.54337,17.501236]}},{"properties":{"city":"Siliguri","latitude":26.720249,"number":1,"country":"India","longitude":88.424583,"id":"a62itfw33ptx","state":"West Bengal"},"type":"Feature","geometry":{"type":"Point","coordinates":[88.424583,26.720249]}},{"properties":{"city":"Simla","latitude":31.10373,"number":1,"country":"India","longitude":77.164394,"id":"a62itg1arn33","state":"Himachal Pradesh"},"type":"Feature","geometry":{"type":"Point","coordinates":[77.164394,31.10373]}},{"properties":{"city":"Surat","latitude":21.195009,"number":1,"country":"India","longitude":72.819527,"id":"a62itg7o1qys","state":"Gujarat"},"type":"Feature","geometry":{"type":"Point","coordinates":[72.819527,21.195009]}},{"properties":{"city":"Trivandrum","latitude":8.503696,"number":1,"country":"India","longitude":76.952187,"id":"a62itfudckcl","state":"Kerala"},"type":"Feature","geometry":{"type":"Point","coordinates":[76.952187,8.503696]}},{"properties":{"city":"Vadodara","latitude":22.306549,"number":2,"country":"India","longitude":73.187576,"id":"a62itg1opbsn","state":"Gujarat"},"type":"Feature","geometry":{"type":"Point","coordinates":[73.187576,22.306549]}}],"is_temporal":false,"author":{"url":"http://www.dominos.co.in/find_dominos.jsp","metadata":"","contact_name":"","contact_address":"","source":"Domino's Pizza India","contact_phone":""},"source":"http://www.dominos.co.in/find_dominos.jsp","pagination":{"sort":null,"start":0,"total":43,"limit":1000000},"state":"complete","tags":"dominos,food,india,resturants","published":"2008-01-01T12:00:00Z","id":5385}