{"type":"FeatureCollection","data_type":"Dataset","url_type":null,"permissions":[{"permissions":{"download":true,"view":true},"group_id":"everyone"}],"classification":null,"title":"DC Public Charter Schools, 2010","count":97,"stream_id":54043,"contributor":{"url":"http://geocommons.com/users/139","name":"Burkey"},"data_attributes":null,"calculation_params":null,"icon_link":null,"link":"http://geocommons.com/overlays/54043.json","extent":[-77.045,38.8291,-76.9213,38.9657],"geometry_types":["point"],"unique_name":null,"name":"DC Public Charter Schools, 2010","feature_count":97,"description":"This dataset displays the locations of all the DC Public Charter School in the District of Columbia in 2010.\n\nThe Board’s mission is to provide quality public school options for DC students, families, and communities through:\n\n    Comprehensive application review process – ensures that the PCSB only approves charter school applicants with thorough applications, research-based programs, experienced leadership and community support.\n     \n    Effective oversight– holds schools to high standards for results, with extensive reviews and data collection, and makes oversight decisions with the best interests of students in mind. \n     \n    Meaningful support – provides clear feedback and increased oversight to struggling schools, and rewards consistently high-performing schools with more autonomy.  \n     \n    Active Engagement of our stakeholders – solicits community input and strives to be responsive to and transparent with all who are impacted by and impact the PCSB and public charter schools. ","next_feature":null,"is_raster":false,"short_classification":"Y","stats":{"lon":{"max":-76.921256,"mean":-76.9993377628866,"variance":0.000943439712286952,"stdev":0.0307154637322465,"min":-77.045025,"median":-77.000395},"lat":{"max":38.965652,"mean":38.9076988556701,"variance":0.00132197617693732,"stdev":0.0363589903179025,"min":38.829057,"median":38.91418},"ward":{"max":8,"mean":4.69072164948454,"variance":5.29918384879725,"stdev":2.30199562310558,"min":1,"median":5}},"features":[{"properties":{"lon":-76.982739,"city":"Washington","name":"Academy for Learning through the Arts PCS","zip":"20009","street address":"1600 Taylor Street, NE","id":"a68g3zyx4vfs","lat":38.940893,"state":"DC","grades":"PK,K,1,2,3,4,5,6,","ward":1,"quadrant":"NW"},"type":"Feature","geometry":{"type":"Point","coordinates":[-76.982739,38.940893]}},{"properties":{"lon":-76.992486,"city":"Washington","name":"Achievement Preparatory Academy PCS","zip":"20032","street address":"908 Wahler Place, SE","id":"a68g3zqzoz8a","lat":38.834025,"state":"DC","grades":"4,5,6,","ward":8,"quadrant":"SE"},"type":"Feature","geometry":{"type":"Point","coordinates":[-76.992486,38.834025]}},{"properties":{"lon":-77.01769,"city":"Washington","name":"Apple Tree Early Learning PCS - Amidon","zip":"20024","street address":"401 I Street, SW","id":"a68g3zujskeh","lat":38.879383,"state":"DC","grades":"PS,PK,","ward":6,"quadrant":"SW"},"type":"Feature","geometry":{"type":"Point","coordinates":[-77.01769,38.879383]}},{"properties":{"lon":-77.032303,"city":"Washington","name":"Apple Tree Early Learning PCS - Columbia Heights","zip":"20009","street address":"2750 14th Street, NW","id":"a68g3zt0yxd5","lat":38.92484,"state":"DC","grades":"PS,PK,","ward":1,"quadrant":"NW"},"type":"Feature","geometry":{"type":"Point","coordinates":[-77.032303,38.92484]}},{"properties":{"lon":-77.020553,"city":"Washington","name":"Apple Tree Early Learning PCS - Riverside","zip":"20024","street address":"680 I Street, SW","id":"a68g3zpghurq","lat":38.879142,"state":"DC","grades":"PS,PK,","ward":6,"quadrant":"SW"},"type":"Feature","geometry":{"type":"Point","coordinates":[-77.020553,38.879142]}},{"properties":{"lon":-76.925647,"city":"Washington","name":"Arts &amp; Technology Academy PCS","zip":"20019","street address":"5300 Blaine Street, NE","id":"a68g3zo0xhhb","lat":38.891834,"state":"DC","grades":"PK,K,1,2,3,4,5,6,","ward":7,"quadrant":"NE"},"type":"Feature","geometry":{"type":"Point","coordinates":[-76.925647,38.891834]}},{"properties":{"lon":-77.030683,"city":"Washington","name":"Booker T. Washington PCS","zip":"20009","street address":"1346 Florida Avenue, NW","id":"a68g3zrz2ivs","lat":38.92017,"state":"DC","grades":"9,10,11,12,","ward":1,"quadrant":"NW"},"type":"Feature","geometry":{"type":"Point","coordinates":[-77.030683,38.92017]}},{"properties":{"lon":-77.028242,"city":"Washington","name":"Bridges PCS","zip":"20011","street address":"1250 Taylor Street, NW","id":"a68g400fhh0g","lat":38.94066,"state":"DC","grades":"PS,PK,","ward":4,"quadrant":"NW"},"type":"Feature","geometry":{"type":"Point","coordinates":[-77.028242,38.94066]}},{"properties":{"lon":-77.035674,"city":"Washington","name":"Capital City PCS - Lower School","zip":"20009","street address":"3047 15th Street, NW","id":"a68g3zyjlt1r","lat":38.92789,"state":"DC","grades":"PK,K,1,2,3,4,5,6,7,8,","ward":1,"quadrant":"NW"},"type":"Feature","geometry":{"type":"Point","coordinates":[-77.035674,38.92789]}},{"properties":{"lon":-77.036615,"city":"Washington","name":"Capital City PCS - Upper School","zip":"20010","street address":"3220 16th Street, NW","id":"a68g3zqdqdy0","lat":38.93088,"state":"DC","grades":"6,7,8,9,10,","ward":1,"quadrant":"NW"},"type":"Feature","geometry":{"type":"Point","coordinates":[-77.036615,38.93088]}},{"properties":{"lon":-77.027281,"city":"Washington","name":"Carlos Rosario International PCS","zip":"20009","street address":"1100 Harvard Street, NW","id":"a68g3ztpwb7v","lat":38.926604,"state":"DC","grades":"Adult/Voc Ed,","ward":1,"quadrant":"NW"},"type":"Feature","geometry":{"type":"Point","coordinates":[-77.027281,38.926604]}},{"properties":{"lon":-77.035688,"city":"Washington","name":"Carlos Rosario International PCS - Baptist Church","zip":"20009","street address":"1501 Columbia Road, NW","id":"a68g3zvv2qxx","lat":38.927114,"state":"DC","grades":"Adult/Voc Ed,","ward":1,"quadrant":"NW"},"type":"Feature","geometry":{"type":"Point","coordinates":[-77.035688,38.927114]}},{"properties":{"lon":-77.028046,"city":"Washington","name":"Center City PCS - Brightwood","zip":"20011","street address":"6008 Georgia Ave., NW","id":"a68g3zvpen5x","lat":38.962893,"state":"DC","grades":"PK,K,1,2,3,4,5,6,7,8,","ward":4,"quadrant":"NW"},"type":"Feature","geometry":{"type":"Point","coordinates":[-77.028046,38.962893]}},{"properties":{"lon":-76.983481,"city":"Washington","name":"Center City PCS - Capitol Hill","zip":"20003","street address":"1503 East Capitol Street, SE","id":"a68g3zs3m4i2","lat":38.889705,"state":"DC","grades":"PK,K,1,2,3,4,5,6,7,8,","ward":6,"quadrant":"SE"},"type":"Feature","geometry":{"type":"Point","coordinates":[-76.983481,38.889705]}},{"properties":{"lon":-77.004364,"city":"Washington","name":"Center City PCS - Congress Heights","zip":"20032","street address":"220 Highview Place, SE","id":"a68g3zmylbf4","lat":38.841833,"state":"DC","grades":"PK,K,1,2,3,4,5,6,7,8,","ward":8,"quadrant":"SE"},"type":"Feature","geometry":{"type":"Point","coordinates":[-77.004364,38.841833]}},{"properties":{"lon":-77.020074,"city":"Washington","name":"Center City PCS - Petworth","zip":"20011","street address":"510 Webster Street, NW","id":"a68g3zp1qzgh","lat":38.944036,"state":"DC","grades":"PK,K,1,2,3,4,5,6,7,8,","ward":4,"quadrant":"NW"},"type":"Feature","geometry":{"type":"Point","coordinates":[-77.020074,38.944036]}},{"properties":{"lon":-77.022097,"city":"Washington","name":"Center City PCS - Shaw","zip":"20001","street address":"711 N Street, NW","id":"a68g3zofgos9","lat":38.90734,"state":"DC","grades":"PK,K,1,2,3,4,5,6,7,8,","ward":2,"quadrant":"NW"},"type":"Feature","geometry":{"type":"Point","coordinates":[-77.022097,38.90734]}},{"properties":{"lon":-76.991856,"city":"Washington","name":"Center City PCS - Trinidad","zip":"20002","street address":"1217 West Virginia Ave., NE","id":"a68g3ztxyxem","lat":38.90487,"state":"DC","grades":"PK,K,1,2,3,4,5,6,7,8,","ward":5,"quadrant":"NE"},"type":"Feature","geometry":{"type":"Point","coordinates":[-76.991856,38.90487]}},{"properties":{"lon":-76.990409,"city":"Washington","name":"Cesar Chavez PCHS - Capitol Hill","zip":"20003","street address":"709 12th Street, SE","id":"a68g3zp37ji1","lat":38.880981,"state":"DC","grades":"9,10,11,12,","ward":6,"quadrant":"SE"},"type":"Feature","geometry":{"type":"Point","coordinates":[-76.990409,38.880981]}},{"properties":{"lon":-76.949172,"city":"Washington","name":"Cesar Chavez PCMS - Parkside","zip":"20019","street address":"3701 Hayes St, NE","id":"a68g3zwoqcgc","lat":38.902011,"state":"DC","grades":"6,7,8,9,10,11,12","ward":4,"quadrant":"NW"},"type":"Feature","geometry":{"type":"Point","coordinates":[-76.949172,38.902011]}},{"properties":{"lon":-77.024217,"city":"Washington","name":"Cesar Chavez PCS - Bruce Prep","zip":"20009","street address":"770 Kenyon Street, NW","id":"a68g3zvz2ul6","lat":38.929864,"state":"DC","grades":"6,7,8,","ward":1,"quadrant":"NW"},"type":"Feature","geometry":{"type":"Point","coordinates":[-77.024217,38.929864]}},{"properties":{"lon":-77.029861,"city":"Washington","name":"Childrens Studio School PCS","zip":"20009","street address":"1301 V Street, NW 20009","id":"a68g3zt2agy0","lat":38.918252,"state":"DC","grades":"PS,PK,K,1,2,3,4,5,6,","ward":1,"quadrant":"NW"},"type":"Feature","geometry":{"type":"Point","coordinates":[-77.029861,38.918252]}},{"properties":{"lon":-77.045025,"city":"Washington","name":"City Collegiate PCS","zip":"20007","street address":"2001 S Street, NW","id":"a68g3zyogd52","lat":38.91418,"state":"DC","grades":"6,7,8,","ward":2,"quadrant":"NW"},"type":"Feature","geometry":{"type":"Point","coordinates":[-77.045025,38.91418]}},{"properties":{"lon":-77.031722,"city":"Washington","name":"Community Academy PCS - Amos II","zip":"20011","street address":"1351 Nicholson Street, NW","id":"a68g3zwakxi4","lat":38.960353,"state":"DC","grades":"PS,PK,","ward":4,"quadrant":"NW"},"type":"Feature","geometry":{"type":"Point","coordinates":[-77.031722,38.960353]}},{"properties":{"lon":-77.012268,"city":"Washington","name":"Community Academy PCS - Amos III","zip":"20001","street address":"1400 First Street, NW","id":"a68g3zlzewmm","lat":38.908694,"state":"DC","grades":"PS,PK,1,2,3,4,5,","ward":2,"quadrant":"NW"},"type":"Feature","geometry":{"type":"Point","coordinates":[-77.012268,38.908694]}},{"properties":{"lon":-77.031722,"city":"Washington","name":"Community Academy PCS - Online","zip":"20011","street address":"1351 Nicholson Street, NW","id":"a68g3zzbmc3c","lat":38.960353,"state":"DC","grades":"K,1,2,3,4,5,6,7,8,","ward":4,"quadrant":"NW"},"type":"Feature","geometry":{"type":"Point","coordinates":[-77.031722,38.960353]}},{"properties":{"lon":-77.007181,"city":"Washington","name":"Community Academy PCS - Rand Technology","zip":"20011","street address":"33 Riggs Road, NE","id":"a68g3zxy3211","lat":38.955114,"state":"DC","grades":"PS,PK,K,1,2,4,5,6,7,8,","ward":5,"quadrant":"NE"},"type":"Feature","geometry":{"type":"Point","coordinates":[-77.007181,38.955114]}},{"properties":{"lon":-77.02995,"city":"Washington","name":"Community PCS - Amos I","zip":"20011","street address":"1300 Allison Street, NW","id":"a68g3zpedzjh","lat":38.944877,"state":"DC","grades":"PS,PK,1,2,3,4,5,","ward":4,"quadrant":"NW"},"type":"Feature","geometry":{"type":"Point","coordinates":[-77.02995,38.944877]}},{"properties":{"lon":-77.032164,"city":"Washington","name":"Community PCS - Butler","zip":"20005","street address":"5 Thomas Circle, NW","id":"a68g3zojv0p1","lat":38.905994,"state":"DC","grades":"PK,K,1,2,3,","ward":2,"quadrant":"NW"},"type":"Feature","geometry":{"type":"Point","coordinates":[-77.032164,38.905994]}},{"properties":{"lon":-76.944663,"city":"Washington","name":"DC Prep PCS - Benning Elementary","zip":"20019","street address":"100 41st Street, NE","id":"a68g3zm12f68","lat":38.890989,"state":"DC","grades":"PS,PK,K,","ward":7,"quadrant":"NE"},"type":"Feature","geometry":{"type":"Point","coordinates":[-76.944663,38.890989]}},{"properties":{"lon":-76.99573,"city":"Washington","name":"DC Prep PCS - Edgewood Elementary","zip":"20017","street address":"707 Edgewood Street, NE","id":"a68g3zt5oh5k","lat":38.924185,"state":"DC","grades":"PK,K,1,2,3,","ward":5,"quadrant":"NE"},"type":"Feature","geometry":{"type":"Point","coordinates":[-76.99573,38.924185]}},{"properties":{"lon":-76.995563,"city":"Washington","name":"DC Prep PCS - Edgewood Middle","zip":"20017","street address":"701 Edgewood Street, NE","id":"a68g3zthfqmm","lat":38.925303,"state":"DC","grades":"4,5,6,7,8,","ward":5,"quadrant":"NE"},"type":"Feature","geometry":{"type":"Point","coordinates":[-76.995563,38.925303]}},{"properties":{"lon":-77.033439,"city":"Washington","name":"District of Columbia Bilingual PCS","zip":"20009","street address":"1420 Columbia Road, NW","id":"a68g3zqzpkfm","lat":38.927373,"state":"DC","grades":"PS,PK,1,2,3,4,5,","ward":1,"quadrant":"NW"},"type":"Feature","geometry":{"type":"Point","coordinates":[-77.033439,38.927373]}},{"properties":{"lon":-77.024042,"city":"Washington","name":"E.L. Haynes PCS","zip":"20010","street address":"3600 Georgia Ave, NW","id":"a68g3zkot8fl","lat":38.934228,"state":"DC","grades":"PS,PK,K,1,2,3,4,5,6,7,","ward":1,"quadrant":"NW"},"type":"Feature","geometry":{"type":"Point","coordinates":[-77.024042,38.934228]}},{"properties":{"lon":-76.995351,"city":"Washington","name":"Eagle Academy PCS","zip":"20003","street address":"770 M Street, SE","id":"a68g3zr6142a","lat":38.876643,"state":"DC","grades":"PS,PK,K,1,","ward":6,"quadrant":"NW"},"type":"Feature","geometry":{"type":"Point","coordinates":[-76.995351,38.876643]}},{"properties":{"lon":-76.990869,"city":"Washington","name":"Early Childhood Academy PCS - Main Campus","zip":"20032","street address":"4025 9th Street SE","id":"a68g3zzp0gpd","lat":38.83215,"state":"DC","grades":"PK,K,1,2,3,","ward":8,"quadrant":"SE"},"type":"Feature","geometry":{"type":"Point","coordinates":[-76.990869,38.83215]}},{"properties":{"lon":-77.039924,"city":"Washington","name":"Education Strengthens Families PCS","zip":"20009","street address":"2355 Ontario Road, NW","id":"a68g3znb8m9k","lat":38.921233,"state":"DC","grades":"Adult/Voc Ed,","ward":1,"quadrant":"NW"},"type":"Feature","geometry":{"type":"Point","coordinates":[-77.039924,38.921233]}},{"properties":{"lon":-76.990095,"city":"Washington","name":"Elsie Whitlow Stokes Community Freedom PCS","zip":"20017","street address":"3700 Oakview Terrace NE","id":"a68g3zsybpci","lat":38.935349,"state":"DC","grades":"PK,K,1,2,3,4,5,6,","ward":5,"quadrant":"NE"},"type":"Feature","geometry":{"type":"Point","coordinates":[-76.990095,38.935349]}},{"properties":{"lon":-76.993892,"city":"Washington","name":"Excel Academy PCS","zip":"20020","street address":"2501 Martin Luther King Ave., SE","id":"a68g3zlkmn3s","lat":38.861469,"state":"DC","grades":"PS,PK,K,1,","ward":8,"quadrant":"SW"},"type":"Feature","geometry":{"type":"Point","coordinates":[-76.993892,38.861469]}},{"properties":{"lon":-76.946805,"city":"Washington","name":"Friendship Collegiate Academy PCS - Woodson Campus","zip":"20019","street address":"4095 Minnesota Avenue, NE","id":"a68g3zomngno","lat":38.897518,"state":"DC","grades":"9,10,11,12,","ward":7,"quadrant":"NE"},"type":"Feature","geometry":{"type":"Point","coordinates":[-76.946805,38.897518]}},{"properties":{"lon":-76.976474,"city":"Washington","name":"Friendship Junior Academy PCS - Blow-Pierce Campus","zip":"20002","street address":"725 19th Street, NE","id":"a68g3zxn6ml4","lat":38.898225,"state":"DC","grades":"4,5,6,7,8,","ward":7,"quadrant":"NE"},"type":"Feature","geometry":{"type":"Point","coordinates":[-76.976474,38.898225]}},{"properties":{"lon":-76.987011,"city":"Washington","name":"Friendship PCS - Chamberlain Campus","zip":"20003","street address":"1345 Potomac Avenue, SE","id":"a68g3zvwdcgh","lat":38.879579,"state":"DC","grades":"PS,PK,K,1,2,3,4,5,6,7,","ward":6,"quadrant":"SE"},"type":"Feature","geometry":{"type":"Point","coordinates":[-76.987011,38.879579]}},{"properties":{"lon":-76.997017,"city":"Washington","name":"Friendship PCS - Tech Prep Campus","zip":"20031","street address":"620 Milwaukee Pl, SE","id":"a68g3zvpzrc0","lat":38.848223,"state":"DC","grades":"6,7,","ward":5,"quadrant":"NW"},"type":"Feature","geometry":{"type":"Point","coordinates":[-76.997017,38.848223]}},{"properties":{"lon":-76.967227,"city":"Washington","name":"Friendship PCS - Woodridge Campus","zip":"20018","street address":"2959 Carlton Avenue, NE","id":"a68g3zzmukxh","lat":38.929306,"state":"DC","grades":"PS,PK,K,1,2,3,4,5,6,7,8,","ward":5,"quadrant":"NE"},"type":"Feature","geometry":{"type":"Point","coordinates":[-76.967227,38.929306]}},{"properties":{"lon":-76.996758,"city":"Washington","name":"Friendship Southeast PCS - Elementary Campus","zip":"20032","street address":"645 Milwaukee PL, SE","id":"a68g3zm15vi4","lat":38.847877,"state":"DC","grades":"PS,PK,K,2,3,4,5,6,","ward":8,"quadrant":"SE"},"type":"Feature","geometry":{"type":"Point","coordinates":[-76.996758,38.847877]}},{"properties":{"lon":-77.008358,"city":"Washington","name":"Hope Community PCS - Lamond Campus","zip":"20011","street address":"6200 Kansas Ave., NE","id":"a68g3zveckwc","lat":38.965652,"state":"DC","grades":"PS,PK,K,1,2,3,4,5,","ward":4,"quadrant":"NE"},"type":"Feature","geometry":{"type":"Point","coordinates":[-77.008358,38.965652]}},{"properties":{"lon":-76.994772,"city":"Washington","name":"Hope Community PCS - Tolson Campus","zip":"20017","street address":"2917 8th Street, NE","id":"a68g3zz0twz7","lat":38.926606,"state":"DC","grades":"PK,K,1,2,3,4,5,6,7,8,","ward":5,"quadrant":"NE"},"type":"Feature","geometry":{"type":"Point","coordinates":[-76.994772,38.926606]}},{"properties":{"lon":-77.029564,"city":"Washington","name":"Hospitality PCS","zip":"20011","street address":"4301 13th Street, NW","id":"a68g3zqpl0fa","lat":38.943044,"state":"DC","grades":"9,10,11,12,","ward":4,"quadrant":"NW"},"type":"Feature","geometry":{"type":"Point","coordinates":[-77.029564,38.943044]}},{"properties":{"lon":-76.934973,"city":"Washington","name":"Howard Road Academy PCS - G Street Campus","zip":"20019","street address":"4625 G Street, SE","id":"a68g400irhyk","lat":38.88055,"state":"DC","grades":"3,4,5,6,","ward":7,"quadrant":"SE"},"type":"Feature","geometry":{"type":"Point","coordinates":[-76.934973,38.88055]}},{"properties":{"lon":-76.992557,"city":"Washington","name":"Howard Road Academy PCS - MLK Ave Campus","zip":"20003","street address":"2405 Martin Luther King Ave., SE","id":"a68g3zwwokw0","lat":38.862763,"state":"DC","grades":"7,8,","ward":7,"quadrant":"SE"},"type":"Feature","geometry":{"type":"Point","coordinates":[-76.992557,38.862763]}},{"properties":{"lon":-76.999611,"city":"Washington","name":"Howard Road Academy PCS - Main Campus","zip":"20020","street address":"701 Howard Road, SE","id":"a68g3zkwt1f7","lat":38.86451,"state":"DC","grades":"K,1,2,3,4,5,6,","ward":8,"quadrant":"SE"},"type":"Feature","geometry":{"type":"Point","coordinates":[-76.999611,38.86451]}},{"properties":{"lon":-76.96467,"city":"Washington","name":"Howard Road Academy PCS - Penn Ave. Campus","zip":"20020","street address":"3000 Pennsylvania Ave, SE","id":"a68g3zl68fuf","lat":38.871103,"state":"DC","grades":"PK,K,1,2,3,","ward":7,"quadrant":"SE"},"type":"Feature","geometry":{"type":"Point","coordinates":[-76.96467,38.871103]}},{"properties":{"lon":-77.021079,"city":"Washington","name":"Howard University PCMS","zip":"20059","street address":"405 Howard Place, NW","id":"a68g3zubso6q","lat":38.92246,"state":"DC","grades":"6,7,8,","ward":1,"quadrant":"NW"},"type":"Feature","geometry":{"type":"Point","coordinates":[-77.021079,38.92246]}},{"properties":{"lon":-77.005705,"city":"Washington","name":"Hyde Leadership Academy PCS","zip":"20002","street address":"101 T Street, NE","id":"a68g3zo7o85s","lat":38.915377,"state":"DC","grades":"PK,K,1,2,3,4,5,6,8,9,10,11,12,","ward":5,"quadrant":"NW"},"type":"Feature","geometry":{"type":"Point","coordinates":[-77.005705,38.915377]}},{"properties":{"lon":-77.009249,"city":"Washington","name":"Ideal Academy PCS - North Capitol Street","zip":"20011","street address":"6130 North Capital St., NW","id":"a68g3zmd3cht","lat":38.965279,"state":"DC","grades":"PK,K,1,2,3,4,5,6,7,8,","ward":4,"quadrant":"NW"},"type":"Feature","geometry":{"type":"Point","coordinates":[-77.009249,38.965279]}},{"properties":{"lon":-77.011162,"city":"Washington","name":"Ideal Academy PCS - Peabody Street","zip":"20011","street address":"100 Peabody Street, NW","id":"a68g3zla6gsd","lat":38.962566,"state":"DC","grades":"9,10,11,","ward":4,"quadrant":"NW"},"type":"Feature","geometry":{"type":"Point","coordinates":[-77.011162,38.962566]}},{"properties":{"lon":-77.000005,"city":"Washington","name":"Imagine Southeast PCS","zip":"20032","street address":"421 Alabama Ave., SE","id":"a68g3zxhi38m","lat":38.842889,"state":"DC","grades":"K,1,2,3,4,","ward":8,"quadrant":"SE"},"type":"Feature","geometry":{"type":"Point","coordinates":[-77.000005,38.842889]}},{"properties":{"lon":-76.937482,"city":"Washington","name":"Integrated Design &amp; Electronic Academy PCS (IDEA)","zip":"20019","street address":"1027 45th Street, NE","id":"a68g3zlwk04e","lat":38.903399,"state":"DC","grades":"8,9,10,11,12,","ward":7,"quadrant":"NW"},"type":"Feature","geometry":{"type":"Point","coordinates":[-76.937482,38.903399]}},{"properties":{"lon":-77.011162,"city":"Washington","name":"KAMIT Institute for Magnificent Achievers PCS","zip":"20011","street address":"100 Peabody Street, NW","id":"a68g3zrs4b8f","lat":38.962566,"state":"DC","grades":"8,9,10,11,12,","ward":4,"quadrant":"NW"},"type":"Feature","geometry":{"type":"Point","coordinates":[-77.011162,38.962566]}},{"properties":{"lon":-76.934328,"city":"Washington","name":"KIPP DC PCS - KEY Academy","zip":"20019","street address":"4801 Benning Road, SE","id":"a68g3zxv0q6i","lat":38.882937,"state":"DC","grades":"5,6,7,8,","ward":7,"quadrant":"SE"},"type":"Feature","geometry":{"type":"Point","coordinates":[-76.934328,38.882937]}},{"properties":{"lon":-76.934328,"city":"Washington","name":"KIPP DC PCS - LEAP Academy","zip":"20019","street address":"4801 Benning Road, SE","id":"a68g3zpe8r2d","lat":38.882937,"state":"DC","grades":"PK,K,","ward":7,"quadrant":"SE"},"type":"Feature","geometry":{"type":"Point","coordinates":[-76.934328,38.882937]}},{"properties":{"lon":-76.987244,"city":"Washington","name":"KIPP-DC PCS - AIM","zip":"20020","street address":"2600 Douglas Road, SE","id":"a68g3zvg80ap","lat":38.857166,"state":"DC","grades":"5,6,7,8,","ward":7,"quadrant":"SE"},"type":"Feature","geometry":{"type":"Point","coordinates":[-76.987244,38.857166]}},{"properties":{"lon":-77.016995,"city":"Washington","name":"KIPP-DC PCS - WILL","zip":"20001","street address":"421 P Street, NW","id":"a68g3zz8d3kh","lat":38.909777,"state":"DC","grades":"5,6,7,8,","ward":2,"quadrant":"NW"},"type":"Feature","geometry":{"type":"Point","coordinates":[-77.016995,38.909777]}},{"properties":{"lon":-76.987353,"city":"Washington","name":"KIPP-DC PCS: Discover Academy","zip":"20020","street address":"2600 Douglas Road, SE","id":"a68g3zkodk4k","lat":38.857085,"state":"DC","grades":"PK,","ward":7,"quadrant":"SE"},"type":"Feature","geometry":{"type":"Point","coordinates":[-76.987353,38.857085]}},{"properties":{"lon":-76.934328,"city":"Washington","name":"KIPP-DC PCS: Promise Academy","zip":"20019","street address":"4801 Benning Road, SE","id":"a68g3zywzknx","lat":38.882937,"state":"DC","grades":"1,","ward":7,"quadrant":"SE"},"type":"Feature","geometry":{"type":"Point","coordinates":[-76.934328,38.882937]}},{"properties":{"lon":-76.987353,"city":"Washington","name":"KIPP-DCPCS: College Preparatory","zip":"20020","street address":"2600 Douglas Road, SE","id":"a68g3zrjkc25","lat":38.857085,"state":"DC","grades":"9,","ward":7,"quadrant":"SE"},"type":"Feature","geometry":{"type":"Point","coordinates":[-76.987353,38.857085]}},{"properties":{"lon":-77.032667,"city":"Washington","name":"Latin American Montessori Bilingual PCS (LAMB)","zip":"20011","street address":"1375 Missouri Avenue, NW","id":"a68g3zt4duvn","lat":38.962075,"state":"DC","grades":"PK,K,1,2,3,","ward":4,"quadrant":"NW"},"type":"Feature","geometry":{"type":"Point","coordinates":[-77.032667,38.962075]}},{"properties":{"lon":-76.985861,"city":"Washington","name":"Mary McLeod Bethune PCS - Brookland Campus","zip":"20017","street address":"1404 Jackson Street, NE","id":"a68g3zsarwfo","lat":38.929948,"state":"DC","grades":"PS,PK,K,1,2,3,4,5,6,7,8,","ward":5,"quadrant":"NE"},"type":"Feature","geometry":{"type":"Point","coordinates":[-76.985861,38.929948]}},{"properties":{"lon":-76.921256,"city":"Washington","name":"Maya Angelou PCS - Evans Campus","zip":"20019","street address":"5600 East Capitol Street, NE","id":"a68g3zqwfp89","lat":38.889993,"state":"DC","grades":"6,7,8,9,10,11,12,","ward":7,"quadrant":"NE"},"type":"Feature","geometry":{"type":"Point","coordinates":[-76.921256,38.889993]}},{"properties":{"lon":-76.921256,"city":"Washington","name":"Maya Angelou PCS - Middle School Campus","zip":"20019","street address":"5600 East Capitol St, NE","id":"a68g3zp499vq","lat":38.889993,"state":"DC","grades":"6,7,8,9,10,11,12,","ward":7,"quadrant":"NE"},"type":"Feature","geometry":{"type":"Point","coordinates":[-76.921256,38.889993]}},{"properties":{"lon":-77.02377,"city":"Washington","name":"Maya Angelou PCS - Shaw Campus","zip":"20001","street address":"1851 9th Street, NW","id":"a68g3zzylnyq","lat":38.915105,"state":"DC","grades":"6,7,8,9,10,11,12,","ward":1,"quadrant":"NW"},"type":"Feature","geometry":{"type":"Point","coordinates":[-77.02377,38.915105]}},{"properties":{"lon":-77.030363,"city":"Washington","name":"Meridian PCS","zip":"20009","street address":"1328 Florida Avenue, NW","id":"a68g3zwxdut1","lat":38.920234,"state":"DC","grades":"PS,PK,K,1,2,3,4,5,6,7,8,","ward":1,"quadrant":"NW"},"type":"Feature","geometry":{"type":"Point","coordinates":[-77.030363,38.920234]}},{"properties":{"lon":-76.992486,"city":"Washington","name":"National Collegiate Preparatory PCS","zip":"20032","street address":"908 Wahler Place, SE","id":"a68g3zmvxvdj","lat":38.834025,"state":"DC","grades":"9,","ward":8,"quadrant":"SE"},"type":"Feature","geometry":{"type":"Point","coordinates":[-76.992486,38.834025]}},{"properties":{"lon":-77.033404,"city":"Washington","name":"Next Step PCS","zip":"20019","street address":"1419 Columbia Road, NW 20019","id":"a68g3zozgxzc","lat":38.927638,"state":"DC","grades":"Adult/Voc Ed,","ward":1,"quadrant":"NW"},"type":"Feature","geometry":{"type":"Point","coordinates":[-77.033404,38.927638]}},{"properties":{"lon":-77.004345,"city":"Washington","name":"Nia Community PCS","zip":"20032","street address":"100-41st Street, NE","id":"a68g3zs9x3nx","lat":38.83706,"state":"DC","grades":"PK,1,2,3,4,5,","ward":7,"quadrant":"NE"},"type":"Feature","geometry":{"type":"Point","coordinates":[-77.004345,38.83706]}},{"properties":{"lon":-76.986342,"city":"Washington","name":"Options PCS","zip":"20002","street address":"1375 E Street, NE","id":"a68g3zmz6da6","lat":38.895947,"state":"DC","grades":"7,8,9,10,11,","ward":6,"quadrant":"NE"},"type":"Feature","geometry":{"type":"Point","coordinates":[-76.986342,38.895947]}},{"properties":{"lon":-77.024298,"city":"Washington","name":"Paul PCS","zip":"20011","street address":"5800 8th Street, NW","id":"a68g3zo9yu8h","lat":38.960274,"state":"DC","grades":"6,7,8,9,","ward":4,"quadrant":"NW"},"type":"Feature","geometry":{"type":"Point","coordinates":[-77.024298,38.960274]}},{"properties":{"lon":-76.994479,"city":"Washington","name":"Potomac Lighthouse PCS","zip":"20017","street address":"4401 8th Street, NE","id":"a68g3zzjos79","lat":38.942774,"state":"DC","grades":"PK,K,1,2,3,4,5,6,7,","ward":4,"quadrant":"NE"},"type":"Feature","geometry":{"type":"Point","coordinates":[-76.994479,38.942774]}},{"properties":{"lon":-77.00954,"city":"Washington","name":"Roots PCS - Main Campus","zip":"20011","street address":"15 Kennedy Street, NW","id":"a68g3zuuykal","lat":38.956719,"state":"DC","grades":"1,2,3,4,5,6,7,8,","ward":4,"quadrant":"NW"},"type":"Feature","geometry":{"type":"Point","coordinates":[-77.00954,38.956719]}},{"properties":{"lon":-77.009193,"city":"Washington","name":"Roots PCS - North Capitol Campus","zip":"20011","street address":"622 North Capitol St., NW","id":"a68g3zvimb68","lat":38.898195,"state":"DC","grades":"PS,PK,K,","ward":4,"quadrant":"NW"},"type":"Feature","geometry":{"type":"Point","coordinates":[-77.009193,38.898195]}},{"properties":{"lon":-77.036674,"city":"Washington","name":"SAIL PCS","zip":"20036","street address":"1100 16th Street, NW","id":"a68g3zvl9cr2","lat":38.903973,"state":"DC","grades":"K,1,2,3,4,5,6,7,8,","ward":2,"quadrant":"NW"},"type":"Feature","geometry":{"type":"Point","coordinates":[-77.036674,38.903973]}},{"properties":{"lon":-77.000144,"city":"Washington","name":"Septima Clark PCS","zip":"20032","street address":"425 Chesapeake Street, SE","id":"a68g3zuuppue","lat":38.829057,"state":"DC","grades":"PK,K,1,2,3,","ward":8,"quadrant":"SE"},"type":"Feature","geometry":{"type":"Point","coordinates":[-77.000144,38.829057]}},{"properties":{"lon":-76.975354,"city":"Washington","name":"St. Coletta Special Education PCS","zip":"20003","street address":"1901 Independence Ave., SE","id":"a68g3zm5p9rn","lat":38.887446,"state":"DC","grades":"PK,K,1,2,3,4,5,6,7,8,9,10,11,12,","ward":6,"quadrant":"SE"},"type":"Feature","geometry":{"type":"Point","coordinates":[-76.975354,38.887446]}},{"properties":{"lon":-76.944591,"city":"Washington","name":"The SEED Public Charter School of Washington DC","zip":"20019","street address":"4300 C Street, SE","id":"a68g3zl827kk","lat":38.886663,"state":"DC","grades":"6,8,9,10,11,12,","ward":7,"quadrant":"SE"},"type":"Feature","geometry":{"type":"Point","coordinates":[-76.944591,38.886663]}},{"properties":{"lon":-76.975277,"city":"Washington","name":"Thea Bowman Preparatory Academy PCS","zip":"20002","street address":"330 21st Street, NE","id":"a68g3zmzmb58","lat":38.893679,"state":"DC","grades":"5,6,7,","ward":5,"quadrant":"NE"},"type":"Feature","geometry":{"type":"Point","coordinates":[-76.975277,38.893679]}},{"properties":{"lon":-76.995969,"city":"Washington","name":"Thurgood Marshall Academy PCS","zip":"20032","street address":"2427 Martin Luther King Ave., SE","id":"a68g3zoj6bb4","lat":38.8495,"state":"DC","grades":"9,10,11,12,","ward":8,"quadrant":"SE"},"type":"Feature","geometry":{"type":"Point","coordinates":[-76.995969,38.8495]}},{"properties":{"lon":-76.977918,"city":"Washington","name":"Tree of Life PCS","zip":"20018","street address":"2315 18th Place, NE","id":"a68g3zvccjhb","lat":38.920462,"state":"DC","grades":"PK,K,1,2,3,4,5,6,7,8,","ward":5,"quadrant":"NE"},"type":"Feature","geometry":{"type":"Point","coordinates":[-76.977918,38.920462]}},{"properties":{"lon":-77.000395,"city":"Washington","name":"Two Rivers PCS - Elementary School","zip":"20002","street address":"1227 4th Street, NE","id":"a68g3zy7wq46","lat":38.906736,"state":"DC","grades":"PS,PK,K,1,2,3,4,5,","ward":6,"quadrant":"NE"},"type":"Feature","geometry":{"type":"Point","coordinates":[-77.000395,38.906736]}},{"properties":{"lon":-77.000742,"city":"Washington","name":"Two Rivers PCS - Middle School","zip":"20002","street address":"1234 4th Street, NE","id":"a68g3zo7y2fy","lat":38.90688,"state":"DC","grades":"6,7,8,","ward":6,"quadrant":"NE"},"type":"Feature","geometry":{"type":"Point","coordinates":[-77.000742,38.90688]}},{"properties":{"lon":-77.036264,"city":"Washington","name":"Washington Latin PCS - 16th St. Campus","zip":"20011","street address":"4115 16th St., NW","id":"a68g3zyi97k6","lat":38.941005,"state":"DC","grades":"5,6,7,8,","ward":4,"quadrant":"NW"},"type":"Feature","geometry":{"type":"Point","coordinates":[-77.036264,38.941005]}},{"properties":{"lon":-77.036244,"city":"Washington","name":"Washington Latin PCS - 16th Street-High School","zip":"20011","street address":"4715 16th Street, NW","id":"a68g3zzobvxl","lat":38.947431,"state":"DC","grades":"9,10,","ward":4,"quadrant":"NW"},"type":"Feature","geometry":{"type":"Point","coordinates":[-77.036244,38.947431]}},{"properties":{"lon":-76.973637,"city":"Washington","name":"Washington Math, Science &amp; Technology PCS (WMST)","zip":"20002","street address":"1920 Bladensburg Road, NE","id":"a68g3zxhs5bv","lat":38.916116,"state":"DC","grades":"9,10,11,12,","ward":5,"quadrant":"NE"},"type":"Feature","geometry":{"type":"Point","coordinates":[-76.973637,38.916116]}},{"properties":{"lon":-76.994479,"city":"Washington","name":"Washington Yu Ying PCS","zip":"20017","street address":"4401 8th Street, NE","id":"a68g3zogd9zo","lat":38.942774,"state":"DC","grades":"PK,K,1,2,","ward":5,"quadrant":"NE"},"type":"Feature","geometry":{"type":"Point","coordinates":[-76.994479,38.942774]}},{"properties":{"lon":-77.006879,"city":"Washington","name":"William E. Doar, Jr. PCS - AFRH Campus","zip":"20011","street address":"3700 North Capitol St, NW","id":"a68g3zv70545","lat":38.936645,"state":"DC","grades":"PK,K,2,3,4,5,6,","ward":5,"quadrant":"NW"},"type":"Feature","geometry":{"type":"Point","coordinates":[-77.006879,38.936645]}},{"properties":{"lon":-76.995749,"city":"Washington","name":"William E. Doar, Jr. PCS - Edgewood Campus","zip":"20017","street address":"705 Edgewood Street, NE","id":"a68g3zx53cjq","lat":38.924153,"state":"DC","grades":"PK,K,1,2,3,4,5,7,8,9,10,11,","ward":5,"quadrant":"NE"},"type":"Feature","geometry":{"type":"Point","coordinates":[-76.995749,38.924153]}},{"properties":{"lon":-77.007123,"city":"Washington","name":"Young America Works PCS","zip":"20001","street address":"6015-17 Chillum Place, NE","id":"a68g3zuqji2e","lat":38.963399,"state":"DC","grades":"9,10,11,12,","ward":4,"quadrant":"NE"},"type":"Feature","geometry":{"type":"Point","coordinates":[-77.007123,38.963399]}},{"properties":{"lon":-77.032716,"city":"Washington","name":"YouthBuild PCS (LAYC)","zip":"20011","street address":"3014 14th Street, NW","id":"a68g3zr0m5n7","lat":38.927767,"state":"DC","grades":"Adult/Voc Ed,","ward":1,"quadrant":"NW"},"type":"Feature","geometry":{"type":"Point","coordinates":[-77.032716,38.927767]}}],"is_temporal":false,"author":{"url":"http://www.dcpubliccharter.com/SearchSchools.aspx","metadata":"","contact_name":"","contact_address":"","source":"District of Columbia Public Charter School Board","contact_phone":""},"source":"http://www.dcpubliccharter.com/SearchSchools.aspx","pagination":{"sort":null,"start":0,"total":97,"limit":1000000},"state":"complete","tags":"charter,education,schools,washington","published":"2010-01-01T17:00:00Z","id":54043}