{"type":"FeatureCollection","data_type":"Dataset","url_type":null,"permissions":[{"permissions":{"download":true,"view":true},"group_id":"everyone"}],"classification":null,"title":"Washington Alternative School Programs, Washington State, 2010","count":306,"stream_id":54231,"contributor":{"url":"http://geocommons.com/users/139","name":"Burkey"},"data_attributes":null,"calculation_params":null,"icon_link":null,"link":"http://geocommons.com/overlays/54231.json","extent":[-124.384,0.0,0.0,48.9993],"geometry_types":["point"],"unique_name":null,"name":"Washington Alternative School Programs, Washington State, 2010","feature_count":306,"description":"This dataset displays locations of alternative school programs in Washington state in 2010.\n\nThe data comes from Washington Association for Learning Alternatives (WALA)","next_feature":null,"is_raster":false,"short_classification":"Y","stats":{"lon":{"max":0.0,"mean":-120.901323777778,"variance":51.8251130153406,"stdev":7.19896610738935,"min":-124.384108,"median":-122.220605},"size":{"max":1670,"mean":129.140983606557,"variance":25628.9241371872,"stdev":160.090362411943,"min":2,"median":95},"lat":{"max":48.999296,"mean":47.2461936830065,"variance":8.00820237648664,"stdev":2.82987674227812,"min":0.0,"median":47.528827}},"features":[{"properties":{"lon":-123.831313,"city":"Aberdeen","size":175,"zip":"98520","region":"3","district":"Aberdeen School District","director/headmaster/principal":"Lindy Thielen, Principal","type of program":"ALT HS","2009-10 membership":"NO","phone":"360-538-2189","id":"a623an1i8ba0","lat":46.972692,"address":"359 N. Division","school":"Harbor High School","grades":"9 to 12","state":"WA"},"type":"Feature","geometry":{"type":"Point","coordinates":[-123.831313,46.972692]}},{"properties":{"lon":-122.66197,"city":"Anacortes","size":200,"zip":"98221","region":"1","district":"Anacortes School District","director/headmaster/principal":"Kim Stamper, Headmaster","type of program":"PPP","2009-10 membership":"YES","phone":"360-299-8995","id":"a623an6thp4w","lat":48.418668,"address":"15510 Rosario Beach Rd","school":"Anacortes Home Education Program","grades":"K-12","state":"WA"},"type":"Feature","geometry":{"type":"Point","coordinates":[-122.66197,48.418668]}},{"properties":{"lon":-122.62191,"city":"Anacortes","size":95,"zip":"98221","region":"1","district":"Anacortes School District","director/headmaster/principal":"Jon Ronngren, Director","type of program":"ALT HS","2009-10 membership":"YES","phone":"360-293-1225","id":"a623an7ri5x0","lat":48.508494,"address":"1717 J Street","school":"Cap Sante High School","grades":"9 to 12","state":"WA"},"type":"Feature","geometry":{"type":"Point","coordinates":[-122.62191,48.508494]}},{"properties":{"lon":-122.151446,"city":"Arlington","size":35,"zip":"98223","region":"1","district":"Arlington School District","director/headmaster/principal":"Maurene Stanton, Principal","type of program":"ALT HS","2009-10 membership":"NO","phone":"360-435-8375","id":"a623an0ugxe1","lat":48.165821,"address":"18722 59th Ave N.E.","school":"Freshman Academy / Weston High School","grades":"9","state":"WA"},"type":"Feature","geometry":{"type":"Point","coordinates":[-122.151446,48.165821]}},{"properties":{"lon":-122.114492,"city":"Arlington","size":300,"zip":"98223","region":"1","district":"Arlington School District","director/headmaster/principal":"Ed Aylesworth, Principal","type of program":"PPP","2009-10 membership":"NO","phone":"360-618-6440","id":"a623an73tyz4","lat":48.197454,"address":"1215 E. Fifth Street","school":"Stillaguamish Valley","grades":"K-12","state":"WA"},"type":"Feature","geometry":{"type":"Point","coordinates":[-122.114492,48.197454]}},{"properties":{"lon":-122.234211,"city":"Auburn","size":189,"zip":"98001","region":"2","district":"Auburn School District","director/headmaster/principal":"Brad Sprague, Principal","type of program":"ALT HS","2009-10 membership":"YES","phone":"253-931-4990","id":"a623andcrw9n","lat":47.307656,"address":"401 W. Main Street","school":"West Auburn High School","grades":"9 to 12","state":"WA"},"type":"Feature","geometry":{"type":"Point","coordinates":[-122.234211,47.307656]}},{"properties":{"lon":-122.217329,"city":"Auburn","size":185,"zip":"98092","region":"2","district":"Auburn School District","director/headmaster/principal":"Robert Odman, Asst Principal","type of program":"ALT HS","2009-10 membership":"NO","phone":"253-804-5154","id":"a623anegk1vu","lat":47.27167,"address":"5001 Oravetz Road","school":"Auburn Riverside High School","grades":"9 to 12","state":"WA"},"type":"Feature","geometry":{"type":"Point","coordinates":[-122.217329,47.27167]}},{"properties":{"lon":-122.522353,"city":"Bainbridge Island","size":365,"zip":"98810","region":"3","district":"Bainbridge Island School District","director/headmaster/principal":"Catherine Camp, Principal","type of program":"ALT HS","2009-10 membership":"YES","phone":"206-780-1382","id":"a623ancymk62","lat":47.635937,"address":"9530 N.E. High School Road","school":"Commodore Programs: Eagle Harbor High School","grades":"9 to 12","state":"WA"},"type":"Feature","geometry":{"type":"Point","coordinates":[-122.522353,47.635937]}},{"properties":{"lon":-122.522353,"city":"Bainbridge Island","size":155,"zip":"98811","region":"3","district":"Bainbridge Island School District","director/headmaster/principal":"Catherine Camp, Principal","type of program":"ALT ELEM/MS","2009-10 membership":"YES","phone":"206-780-1382","id":"a623anexyv25","lat":47.635937,"address":"9530 N.E. High School Road","school":"Commodore Programs: Odyssey Multi-Age Program (1-8)","grades":"1 to 8","state":"WA"},"type":"Feature","geometry":{"type":"Point","coordinates":[-122.522353,47.635937]}},{"properties":{"lon":-122.522353,"city":"Bainbridge Island","size":50,"zip":"98812","region":"3","district":"Bainbridge Island School District","director/headmaster/principal":"Martha Wells","type of program":"PPP","2009-10 membership":"YES","phone":"206-855-0511","id":"a623an8m43wm","lat":47.635937,"address":"9530 N.E. High School Road","school":"Commodore Programs: Homeschool Support Program","grades":"K-12","state":"WA"},"type":"Feature","geometry":{"type":"Point","coordinates":[-122.522353,47.635937]}},{"properties":{"lon":-122.55947,"city":"Brush Prairie","size":200,"zip":"98606","region":"4","district":"Battle Ground School District","director/headmaster/principal":"Paul Burszik, Principal","type of program":"ALT HS","2009-10 membership":"YES","phone":"360-885-5331","id":"a623anga2xqn","lat":45.72985,"address":"11104 N.E. 149th Street","school":"Summit View High School","grades":"9 to 12","state":"WA"},"type":"Feature","geometry":{"type":"Point","coordinates":[-122.55947,45.72985]}},{"properties":{"lon":-122.545185,"city":"Battle Ground","size":300,"zip":"98606","region":"4","district":"Battle Ground School District","director/headmaster/principal":"Dr. Diana Gilsinger, Principal","type of program":"PPP","2009-10 membership":"YES","phone":"360-687-9330","id":"a623an5zmpwq","lat":45.791563,"address":"715 N.W. Onsdorff Blvd","school":"Homelink","grades":"K-12","state":"WA"},"type":"Feature","geometry":{"type":"Point","coordinates":[-122.545185,45.791563]}},{"properties":{"lon":-122.407688,"city":"Camas","size":350,"zip":null,"region":"4","district":"Battle Ground School District","director/headmaster/principal":"Mark Clements, Principal","type of program":"PPP","2009-10 membership":"YES","phone":"360-830-1000, ext 20","id":"a623an15i0dd","lat":45.595167,"address":"2204 N.E. Birch","school":"River Homelink","grades":"K-12","state":"WA"},"type":"Feature","geometry":{"type":"Point","coordinates":[-122.407688,45.595167]}},{"properties":{"lon":-122.533946,"city":"Battle Ground","size":350,"zip":"98604","region":"4","district":"Battle Ground School District","director/headmaster/principal":"Colleen O'Neal, Principal","type of program":"PPP","2009-10 membership":"YES","phone":"360-855-6803","id":"a623an2g9rxx","lat":45.759956,"address":"19020 N Merriot Drive","school":"CAM Homelink","grades":"K-12","state":"WA"},"type":"Feature","geometry":{"type":"Point","coordinates":[-122.533946,45.759956]}},{"properties":{"lon":-122.138412,"city":"Bellevue","size":225,"zip":"98007","region":"2","district":"Bellevue School District","director/headmaster/principal":"Loma Vander Houwen, Dean of Students","type of program":"PPP","2009-10 membership":"YES","phone":"425-456-7870","id":"a623an2udd9p","lat":47.611345,"address":"301 151st Place N.E..","school":"Kelsey Creek Homeschool Center","grades":"K-12","state":"WA"},"type":"Feature","geometry":{"type":"Point","coordinates":[-122.138412,47.611345]}},{"properties":{"lon":-122.472119,"city":"Bellingham","size":275,"zip":"98227","region":"1","district":"Bellingham School District","director/headmaster/principal":"Gigi Morganti, Principal","type of program":"ALT HS","2009-10 membership":"NO","phone":"360-647-6871","id":"a623anb6plqs","lat":48.74905,"address":"P.O. Box 878","school":"OPTIONS High School","grades":"9 to 12","state":"WA"},"type":"Feature","geometry":{"type":"Point","coordinates":[-122.472119,48.74905]}},{"properties":{"lon":-122.428442,"city":"Spanaway","size":295,"zip":"98387","region":"2","district":"Bethel School District","director/headmaster/principal":"Dave LaBounty, Principal","type of program":"ALT HS","2009-10 membership":"NO","phone":"253-539-6674","id":"a623an0dyddp","lat":47.092995,"address":"18020 East B Street","school":"Challenger Secondary School","grades":"9 to 12","state":"WA"},"type":"Feature","geometry":{"type":"Point","coordinates":[-122.428442,47.092995]}},{"properties":{"lon":-122.435795,"city":"Spanaway","size":150,"zip":"98387","region":"2","district":"Bethel School District","director/headmaster/principal":"Dave LaBounty, Principal","type of program":"Digital Learning","2009-10 membership":"NO","phone":"253-683-6830","id":"a623an5fs919","lat":47.099467,"address":"227 174th Street S.","school":"Bethel Online Academy","grades":"7 to 12","state":"WA"},"type":"Feature","geometry":{"type":"Point","coordinates":[-122.435795,47.099467]}},{"properties":{"lon":-122.744478,"city":"Blaine","size":75,"zip":"98230","region":"1","district":"Blaine School District","director/headmaster/principal":"Keith Sanborn, Administrator","type of program":"PPP","2009-10 membership":"NO","phone":"360-332-8182","id":"a623an0nfa5y","lat":48.999296,"address":"580 C Street","school":"Blaine HomeConnection","grades":"K-12","state":"WA"},"type":"Feature","geometry":{"type":"Point","coordinates":[-122.744478,48.999296]}},{"properties":{"lon":-122.660394,"city":"Bremerton","size":200,"zip":"98312","region":"3","district":"Bremerton School District","director/headmaster/principal":"Lynn Caddell, Principal","type of program":"ALT HS","2009-10 membership":"NO","phone":"360-473-1080","id":"a623an1o4akm","lat":47.563912,"address":"3400 1st Street","school":"Renaissance High School","grades":"9 to 12","state":"WA"},"type":"Feature","geometry":{"type":"Point","coordinates":[-122.660394,47.563912]}},{"properties":{"lon":-122.697984,"city":"Bremerton","size":100,"zip":"98312","region":"3","district":"Bremerton School District","director/headmaster/principal":"Bill Pettit, Director","type of program":"Residential","2009-10 membership":"NO","phone":null,"id":"a623an4qxikg","lat":47.575053,"address":"1211 Carver Street","school":"Washington Youth Academy","grades":"9 to 12","state":"WA"},"type":"Feature","geometry":{"type":"Point","coordinates":[-122.697984,47.575053]}},{"properties":{"lon":-119.721867,"city":"Bridgeport","size":50,"zip":"98813","region":"5","district":"Bridgeport School District","director/headmaster/principal":"Scott Sattler, Principal","type of program":"ALT HS","2009-10 membership":"NO","phone":"509-686-8770","id":"a623an7cvyhl","lat":47.975278,"address":"1220 Kryger","school":"Aurora High School","grades":"9 to 12","state":"WA"},"type":"Feature","geometry":{"type":"Point","coordinates":[-119.721867,47.975278]}},{"properties":{"lon":-119.721889,"city":"Bridgeport","size":35,"zip":"98813","region":"5","district":"Bridgeport School District","director/headmaster/principal":"Dan O'Connor, Director","type of program":"PPP","2009-10 membership":"NO","phone":"509-686-8770","id":"a623an54pm9z","lat":47.975411,"address":"PO Box 1060","school":"Main Street Learning Center","grades":"K-12","state":"WA"},"type":"Feature","geometry":{"type":"Point","coordinates":[-119.721889,47.975411]}},{"properties":{"lon":-122.335679,"city":"Burlington","size":99,"zip":"98233","region":"1","district":"Burlington-Edison Public Schools","director/headmaster/principal":"Linda Larrabee, Director","type of program":"ALT HS","2009-10 membership":"YES","phone":"360-757-4074, Ext 3630","id":"a623an56spn7","lat":48.477168,"address":"301 N. Burlington Blvd","school":"Burlington-Edison North High School","grades":"9 to 12","state":"WA"},"type":"Feature","geometry":{"type":"Point","coordinates":[-122.335679,48.477168]}},{"properties":{"lon":-122.400868,"city":"Camas","size":200,"zip":"98607","region":"4","district":"Camas School District","director/headmaster/principal":"Amy Holmes, Principal","type of program":"ALT HS","2009-10 membership":"YES","phone":"360-833-5603","id":"a623an47reo4","lat":45.592971,"address":"1919 NE Ione Street","school":"Hayes Freedom High School","grades":"9 to 12","state":"WA"},"type":"Feature","geometry":{"type":"Point","coordinates":[-122.400868,45.592971]}},{"properties":{"lon":-120.67152,"city":"Leavenworth","size":25,"zip":"98826","region":"5","district":"Cascade School District","director/headmaster/principal":"Travis Blue, Director","type of program":"ALT HS","2009-10 membership":"NO","phone":"509-548-4572","id":"a623an4p669r","lat":47.557541,"address":"12790 State Hatchery Road","school":"Discovery Alternative High School","grades":"9 to 12","state":"WA"},"type":"Feature","geometry":{"type":"Point","coordinates":[-120.67152,47.557541]}},{"properties":{"lon":-122.692782,"city":"Silverdale","size":200,"zip":"98383","region":"3","district":"Central Kitsap School District","director/headmaster/principal":"Richard Arena, Principal","type of program":"PPP","2009-10 membership":"NO","phone":"360-662-1780","id":"a623an4f8ahh","lat":47.662412,"address":"P.O. Box 8","school":"Off Campus Program","grades":"K-12","state":"WA"},"type":"Feature","geometry":{"type":"Point","coordinates":[-122.692782,47.662412]}},{"properties":{"lon":-122.692981,"city":"Silverdale","size":200,"zip":"98383","region":"3","district":"Central Kitsap School District","director/headmaster/principal":"Bruce Richardson, Coordinator","type of program":"ALT HS","2009-10 membership":"NO","phone":"360-662-2570","id":"a623an7el5vn","lat":47.66242,"address":"PO Box 8","school":"Westside Alternative High School","grades":"8 to 12","state":"WA"},"type":"Feature","geometry":{"type":"Point","coordinates":[-122.692981,47.66242]}},{"properties":{"lon":-122.692782,"city":"Silverdale","size":90,"zip":"98383","region":"3","district":"Central Kitsap School District","director/headmaster/principal":"Alison Faulkner, Director","type of program":"ALT  JrH","2009-10 membership":"NO","phone":"360-662-1570","id":"a623anb4lgc4","lat":47.662412,"address":"P.O. Box 8","school":"New Frontiers Secondary School","grades":"7 to 9","state":"WA"},"type":"Feature","geometry":{"type":"Point","coordinates":[-122.692782,47.662412]}},{"properties":{"lon":-122.692981,"city":"Silverdale","size":200,"zip":"98383","region":"3","district":"Central Kitsap School District","director/headmaster/principal":"Robin Campbell, Coordinator","type of program":"ALT HS","2009-10 membership":"NO","phone":"360-662-2870","id":"a623an3acnkf","lat":47.66242,"address":"PO Box 8","school":"Eastside Alternative High School","grades":"8 to 12","state":"WA"},"type":"Feature","geometry":{"type":"Point","coordinates":[-122.692981,47.66242]}},{"properties":{"lon":-117.229165,"city":"Spokane","size":98,"zip":"99216","region":"5","district":"Central Valley School District","director/headmaster/principal":"Vicki Inks, Coordinator","type of program":"PPP","2009-10 membership":"NO","phone":"509-228-4265","id":"a623an2se6w0","lat":47.651422,"address":"612 S. McDonald Ave","school":"Spokane Valley Learning Academy","grades":"K-12","state":"WA"},"type":"Feature","geometry":{"type":"Point","coordinates":[-117.229165,47.651422]}},{"properties":{"lon":-117.226637,"city":"Spokane Valley","size":150,"zip":"99216","region":"5","district":"Central Valley School District","director/headmaster/principal":"Kerri Ames, Principal","type of program":"ALT HS","2009-10 membership":"YES","phone":"509-228-4050","id":"a623an0fngoq","lat":47.664456,"address":"13313 E. Broadway","school":"Barker High School","grades":"9 to 12","state":"WA"},"type":"Feature","geometry":{"type":"Point","coordinates":[-117.226637,47.664456]}},{"properties":{"lon":-122.963244,"city":"Centralia","size":95,"zip":"98531","region":"4","district":"Centralia School District","director/headmaster/principal":"Faye Olason, Lead Teacher","type of program":"ALT HS","2009-10 membership":"YES","phone":"360-748-2163","id":"a623an4acpo2","lat":46.72831,"address":"P.O. Box 610","school":"Centralia Alternative Program (CAPS)","grades":"9 to 12","state":"WA"},"type":"Feature","geometry":{"type":"Point","coordinates":[-122.963244,46.72831]}},{"properties":{"lon":-117.577426,"city":"Cheney","size":65,"zip":"99109","region":"5","district":"Cheney School District","director/headmaster/principal":"Allen Skoog, Administrator","type of program":"ALT HS","2009-10 membership":"NO","phone":"509-559-4521","id":"a623anfwuh4j","lat":47.488989,"address":"509 4th Street","school":"Three Spring High School","grades":"9 to 12","state":"WA"},"type":"Feature","geometry":{"type":"Point","coordinates":[-117.577426,47.488989]}},{"properties":{"lon":-117.577426,"city":"Cheney","size":65,"zip":"99109","region":"5","district":"Cheney School Dsitrict","director/headmaster/principal":"Allen Skoog, Administrator","type of program":"ALT HS","2009-10 membership":"NO","phone":"509-559-4521","id":"a623anepuw74","lat":47.488989,"address":"509 4th Street","school":"Three Spring High School","grades":"9 to 12","state":"WA"},"type":"Feature","geometry":{"type":"Point","coordinates":[-117.577426,47.488989]}},{"properties":{"lon":-117.716365,"city":"Chewelah","size":50,"zip":"99109","region":"5","district":"Chewelah School District","director/headmaster/principal":"Matthew McLain, Principal","type of program":"PPP","2009-10 membership":"NO","phone":"509-685-6800, x 3115","id":"a623anbwvmdq","lat":48.309599,"address":"P.O.  Box 47","school":"Chewelah Homelink","grades":"K-12","state":"WA"},"type":"Feature","geometry":{"type":"Point","coordinates":[-117.716365,48.309599]}},{"properties":{"lon":-117.716365,"city":"Chewelah","size":35,"zip":"99109","region":"5","district":"Chewelah School District","director/headmaster/principal":"Lonnie Hoxie, Head Teacher","type of program":"ALT HS","2009-10 membership":"NO","phone":"509-935-8671, Ext 2512","id":"a623an8tkwl7","lat":48.309599,"address":"P.O. Box 47","school":"Chewelah Alternative High School","grades":"9 to 12","state":"WA"},"type":"Feature","geometry":{"type":"Point","coordinates":[-117.716365,48.309599]}},{"properties":{"lon":-117.057688,"city":"Clarkston","size":149,"zip":"99403","region":"6","district":"Clarkston School District","director/headmaster/principal":"Elece Lockridge, Administrator","type of program":"ALT HS","2009-10 membership":"NO","phone":"509-758-4508","id":"a623anat8ssz","lat":46.411075,"address":"1284 Chestnut","school":"Educational Opportunity Center","grades":"7 to 12","state":"WA"},"type":"Feature","geometry":{"type":"Point","coordinates":[-117.057688,46.411075]}},{"properties":{"lon":-117.055806,"city":"Clarkston","size":96,"zip":"99403","region":"6","district":"Clarkston School District","director/headmaster/principal":"Holly Ledgerwood, Supervisor","type of program":"PPP","2009-10 membership":"NO","phone":"509-758-2503","id":"a623anctfv13","lat":46.41801,"address":"1253 Popular","school":"Clarkston Parent Partnership","grades":"K-12","state":"WA"},"type":"Feature","geometry":{"type":"Point","coordinates":[-117.055806,46.41801]}},{"properties":{"lon":-120.981849,"city":"Cle Elum","size":50,"zip":"98922","region":"5","district":"Cle Elum-Roslyn School District","director/headmaster/principal":"Mel Blair, Principal","type of program":"ALT HS","2009-10 membership":"NO","phone":"509-649-4991","id":"a623anah21q9","lat":47.20808,"address":"2692 SR 903","school":"Swiftwater Learning Center","grades":"9 to 12","state":"WA"},"type":"Feature","geometry":{"type":"Point","coordinates":[-120.981849,47.20808]}},{"properties":{"lon":-122.520489,"city":"Lakewood","size":350,"zip":"98499","region":"2","district":"Clover Park School District","director/headmaster/principal":"David Paul, Principal","type of program":"ALT HS","2009-10 membership":"NO","phone":"253-583-5390","id":"a623an4ygrtd","lat":47.15819,"address":"10903 Gravelly Lake Dr S.W.","school":"Alternative For Individuals (A-I) High School","grades":"9 to 12","state":"WA"},"type":"Feature","geometry":{"type":"Point","coordinates":[-122.520489,47.15819]}},{"properties":{"lon":-119.319366,"city":"Moses Lake","size":150,"zip":"98837","region":"5","district":"Columbia Basin Job Corps","director/headmaster/principal":"Larry Anthon, Rec Specialist","type of program":"Job Corps","2009-10 membership":"NO","phone":"509-793-1657","id":"a623an6t0j0l","lat":47.18513,"address":"6739 24th Street, Bldg 2402","school":"Columbia Basin Job Corps","grades":"11 to 12","state":"WA"},"type":"Feature","geometry":{"type":"Point","coordinates":[-119.319366,47.18513]}},{"properties":{"lon":-117.896999,"city":"Colville","size":50,"zip":"99114","region":"5","district":"Colville School District","director/headmaster/principal":"Jaron Jensen, Principal","type of program":"Alt HS","2009-10 membership":"YES","phone":"509-684-7840","id":"a623an868to0","lat":48.543056,"address":"225 S. Hofstetter","school":"Panorama Alternative H S","grades":"9 to 12","state":"WA"},"type":"Feature","geometry":{"type":"Point","coordinates":[-117.896999,48.543056]}},{"properties":{"lon":-117.896998,"city":"Colville","size":100,"zip":"99114","region":"5","district":"Colville School District","director/headmaster/principal":"Jaron Jensen, Principal","type of program":"Digital Lrn","2009-10 membership":"NO","phone":"509-685-2111","id":"a623an445td4","lat":48.543121,"address":"217 S. Hofstetter","school":"Columbia Virtual Academy-Colville","grades":"K-12","state":"WA"},"type":"Feature","geometry":{"type":"Point","coordinates":[-117.896998,48.543121]}},{"properties":{"lon":-121.845662,"city":"Concrete","size":99,"zip":"98237","region":"1","district":"Concrete School District","director/headmaster/principal":"Dan Arola, Coordinator","type of program":"PPP","2009-10 membership":"YES","phone":"360-826-6505","id":"a623anad2jce","lat":48.540825,"address":"41382F SR20","school":"Skagit River School House","grades":"K-12","state":"WA"},"type":"Feature","geometry":{"type":"Point","coordinates":[-121.845662,48.540825]}},{"properties":{"lon":-121.845662,"city":"Concrete","size":35,"zip":"98237","region":"1","district":"Concrete School District","director/headmaster/principal":"Dan Arola, Coordinator","type of program":"ALT HS","2009-10 membership":"YES","phone":"360-826-6505","id":"a623amzuho1u","lat":48.540825,"address":"41382F SR20","school":"Twin Cedars High School","grades":"9 to 12","state":"WA"},"type":"Feature","geometry":{"type":"Point","coordinates":[-121.845662,48.540825]}},{"properties":{"lon":-122.686325,"city":"Coupeville","size":99,"zip":"98239","region":"1","district":"Coupeville School District","director/headmaster/principal":"David Pfeiffer, Director","type of program":"PPP","2009-10 membership":"NO","phone":"360-678-1388","id":"a623an0941c7","lat":48.211828,"address":"2 S. Main Street","school":"CEDAR Program","grades":"K-12","state":"WA"},"type":"Feature","geometry":{"type":"Point","coordinates":[-122.686325,48.211828]}},{"properties":{"lon":-123.745884,"city":"Joyce","size":45,"zip":"98343","region":"3","district":"Crescent School District","director/headmaster/principal":"Dave Bingham, Principal","type of program":"PPP","2009-10 membership":"NO","phone":"360-928-3311","id":"a623an04i42j","lat":48.13731,"address":"P.O. Box 20","school":"Olympic Peninsula HomeConnection","grades":"K-12","state":"WA"},"type":"Feature","geometry":{"type":"Point","coordinates":[-123.745884,48.13731]}},{"properties":{"lon":-118.631651,"city":"Curlew","size":35,"zip":"99118","region":"5","district":"Curlew School District","director/headmaster/principal":"Cherie Exner, Teacher","type of program":"ALT HS","2009-10 membership":"NO","phone":"509-779-4931","id":"a623an69jvq6","lat":48.901159,"address":"P.O. Box 370","school":"Contract Studies Program","grades":"7 to 12","state":"WA"},"type":"Feature","geometry":{"type":"Point","coordinates":[-118.631651,48.901159]}},{"properties":{"lon":-118.631651,"city":"Curlew","size":35,"zip":"99118","region":"5","district":"Curlew School District","director/headmaster/principal":"Bonnie Grumbach Teacher","type of program":"PPP","2009-10 membership":"NO","phone":"509-779-4931","id":"a623an6bh5oi","lat":48.901159,"address":"P.O. Box 370","school":"Parent Partnership Program","grades":"K-12","state":"WA"},"type":"Feature","geometry":{"type":"Point","coordinates":[-118.631651,48.901159]}},{"properties":{"lon":-121.561316,"city":"Darrington","size":35,"zip":"98241","region":"1","district":"Darrington School District","director/headmaster/principal":"Patty Duncan, Facilitator","type of program":"PPP","2009-10 membership":"NO","phone":"360-436-1313","id":"a623aneo333r","lat":48.230308,"address":"P.O. Box 27","school":"Whitehorse Learning Center","grades":"K-12","state":"WA"},"type":"Feature","geometry":{"type":"Point","coordinates":[-121.561316,48.230308]}},{"properties":{"lon":-118.150982,"city":"Davenport","size":75,"zip":"99122","region":"5","district":"Davenport School District","director/headmaster/principal":"Ben Edwards,Principal","type of program":"ALT HS","2009-10 membership":"NO","phone":"509-725-4021","id":"a623an4vyr43","lat":47.651507,"address":"801 7th","school":"Davenport Alternative Learning Center","grades":"9 to 12","state":"WA"},"type":"Feature","geometry":{"type":"Point","coordinates":[-118.150982,47.651507]}},{"properties":{"lon":-117.482949,"city":"Deer Park","size":500,"zip":"99006","region":"5","district":"Deer Park School District","director/headmaster/principal":"Carol VanWormer, Principal","type of program":"PPP","2009-10 membership":"NO","phone":"509-468-3350, ext 3357","id":"a623an0pqpzt","lat":47.950555,"address":"P.O. Box 697","school":"Deer Park HomeLink","grades":"K-12","state":"WA."},"type":"Feature","geometry":{"type":"Point","coordinates":[-117.482949,47.950555]}},{"properties":{"lon":-117.482949,"city":"Deer Park","size":275,"zip":"99006","region":"5","district":"Deer Park School District","director/headmaster/principal":"Trip Goodall","type of program":"ALT HS","2009-10 membership":"NO","phone":"509-464-5988","id":"a623ana7v7iu","lat":47.950555,"address":"P.O. Box 490","school":"Deer Park Alternative High School","grades":"9 to 12","state":"WA"},"type":"Feature","geometry":{"type":"Point","coordinates":[-117.482949,47.950555]}},{"properties":{"lon":-120.510665,"city":"Yakima","size":35,"zip":"98908","region":"5","district":"ESD 105","director/headmaster/principal":"Heather Webster, Teacher","type of program":"Co-Op","2009-10 membership":"NO","phone":"509-454-3114","id":"a623anfw80qz","lat":46.600657,"address":"33 South 2nd Avenue","school":"Instructional Improvement CoOp","grades":"K-12","state":"WA"},"type":"Feature","geometry":{"type":"Point","coordinates":[-120.510665,46.600657]}},{"properties":{"lon":-122.60509,"city":"Vancouver","size":75,"zip":"98661","region":"4","district":"ESD 112","director/headmaster/principal":"Jennifer Springsteen, Director","type of program":"ESD","2009-10 membership":"NO","phone":"360-750-7500","id":"a623an4hcrdy","lat":45.640317,"address":"2500 N.E. 65th Avenue","school":"Schools Program","grades":"K-12","state":"WA"},"type":"Feature","geometry":{"type":"Point","coordinates":[-122.60509,45.640317]}},{"properties":{"lon":-122.60509,"city":"Vancouver","size":99,"zip":"98661","region":"4","district":"ESD 113","director/headmaster/principal":"Jill Neyenhouse, Coordinator","type of program":"ESD","2009-10 membership":"YES","phone":"360-604-1072","id":"a623anc9p44w","lat":45.640317,"address":"2500 N.E. 65th Avenue","school":"The Bridge Academy","grades":"K-12","state":"WA"},"type":"Feature","geometry":{"type":"Point","coordinates":[-122.60509,45.640317]}},{"properties":{"lon":-122.542706,"city":"Lakewood","size":50,"zip":"98439","region":"2","district":"ESD 121 - Puget Sound ESD","director/headmaster/principal":"Eve Green, Principal","type of program":"ALT HS","2009-10 membership":"NO","phone":"253-581-4509","id":"a623an1bzver","lat":47.123819,"address":"14721 Murray Road S.W.","school":"ReLife South School","grades":"9 to 12","state":"WA"},"type":"Feature","geometry":{"type":"Point","coordinates":[-122.542706,47.123819]}},{"properties":{"lon":-122.20973,"city":"Everett","size":45,"zip":"98201","region":"1","district":"ESD 189","director/headmaster/principal":"Melanie Shafaat, Principal","type of program":"ALT HS","2009-10 membership":"NO","phone":"425-339-1909","id":"a623an00uh7f","lat":47.980782,"address":"1509 California Street","school":"Northwest Regional Learning Center","grades":"9 to 12","state":"WA"},"type":"Feature","geometry":{"type":"Point","coordinates":[-122.20973,47.980782]}},{"properties":{"lon":-122.220322,"city":"Sedro-Woolley","size":55,"zip":"98284","region":"1","district":"ESD 190","director/headmaster/principal":"Andy Wheeler, Director","type of program":"ALT HS","2009-10 membership":"NO","phone":"360-856-1562","id":"a623an5uqfew","lat":48.51527,"address":"1103 McGarigle","school":"Skagit Discovery","grades":"9 to 12","state":"WA"},"type":"Feature","geometry":{"type":"Point","coordinates":[-122.220322,48.51527]}},{"properties":{"lon":-120.404094,"city":"Yakima","size":35,"zip":"98901","region":"6","district":"East Valley School District  #90","director/headmaster/principal":"Mark Hummell, Principal","type of program":"PPP","2009-10 membership":"NO","phone":"509-573-7589","id":"a623an903dno","lat":46.575077,"address":"1900 Beaudry Rd","school":"The Learning Academy","grades":"K-12","state":"WA"},"type":"Feature","geometry":{"type":"Point","coordinates":[-120.404094,46.575077]}},{"properties":{"lon":-117.179269,"city":"Spokane Valley","size":201,"zip":"99216","region":"5","district":"East Valley School District #361","director/headmaster/principal":"Chiere Martyn, Principal","type of program":"ALT","2009-10 membership":"NO","phone":"509-927-9501","id":"a623an9e6zq4","lat":47.700372,"address":"16924 E. Wellesley Ave","school":"Continuous Curriculum School","grades":"K-8","state":"WA"},"type":"Feature","geometry":{"type":"Point","coordinates":[-117.179269,47.700372]}},{"properties":{"lon":-117.239814,"city":"Spokane Valley","size":48,"zip":"99206","region":"5","district":"East Valley School District #362","director/headmaster/principal":"Jeff Miller, Principal","type of program":"PPP","2009-10 membership":"NO","phone":"509-927-9504","id":"a623anaw930w","lat":47.687932,"address":"3415 N. Pines Rd","school":"East Valley Connections School","grades":"12 to 8","state":"WA"},"type":"Feature","geometry":{"type":"Point","coordinates":[-117.239814,47.687932]}},{"properties":{"lon":-117.238557,"city":"Spokane","size":200,"zip":"99213","region":"5","district":"East Valley School District #363","director/headmaster/principal":"Barbara Cruse, Principal","type of program":"CHOICE School","2009-10 membership":"YES","phone":"509-241-5013","id":"a623an9zh6e4","lat":47.683972,"address":"12325 E. Grace Ave","school":"Washington Academy of Arts &amp; Technology","grades":"9 to 12","state":"WA"},"type":"Feature","geometry":{"type":"Point","coordinates":[-117.238557,47.683972]}},{"properties":{"lon":-122.310267,"city":"Eatonville","size":35,"zip":"98328","region":"2","district":"Eatonville School District","director/headmaster/principal":"Billie Needham, Coordinator","type of program":"Contract Study","2009-10 membership":"YES","phone":"360-879-1218","id":"a623an9700uu","lat":46.892195,"address":"P.O. Box 699","school":"Independent Study Center","grades":"9 to 12","state":"WA"},"type":"Feature","geometry":{"type":"Point","coordinates":[-122.310267,46.892195]}},{"properties":{"lon":-122.335932,"city":"Edmonds","size":125,"zip":"98026","region":"1","district":"Edmonds School District","director/headmaster/principal":"Jackie Rudloff, Principal","type of program":"ALT HS","2009-10 membership":"NO","phone":"425-670-7311","id":"a623an8hwden","lat":47.806768,"address":"7600 212th Street SW","school":"Explore Program","grades":"9 to 12","state":"WA"},"type":"Feature","geometry":{"type":"Point","coordinates":[-122.335932,47.806768]}},{"properties":{"lon":-122.366925,"city":"Edmonds","size":420,"zip":"98020","region":"1","district":"Edmonds School District","director/headmaster/principal":"Danny Rock, Principal","type of program":"PPP","2009-10 membership":"YES","phone":"425-670-7841","id":"a623an4bo23h","lat":47.788612,"address":"23200 100th Ave W.","school":"Edmonds Homeschool Resource Center","grades":"K-12","state":"WA"},"type":"Feature","geometry":{"type":"Point","coordinates":[-122.366925,47.788612]}},{"properties":{"lon":-122.303064,"city":"Lynwood","size":150,"zip":"98036","region":"1","district":"Edmonds School District","director/headmaster/principal":"Jan Beglau, Teacher","type of program":"PPP","2009-10 membership":"NO","phone":"425-670-7277","id":"a623anacym4l","lat":47.812714,"address":"20525 52nd Ave W","school":"Options Program","grades":"K-12","state":"WA"},"type":"Feature","geometry":{"type":"Point","coordinates":[-122.303064,47.812714]}},{"properties":{"lon":-122.303064,"city":"Lynnwood","size":225,"zip":"98036","region":"1","district":"Edmonds School District","director/headmaster/principal":"Kathy Clift, Principal","type of program":"ALT HS","2009-10 membership":"NO","phone":"425-431-7270","id":"a623anf3kqu2","lat":47.812714,"address":"20525 52nd Avenue West","school":"Scriber Lake High School","grades":"9 to 12","state":"WA"},"type":"Feature","geometry":{"type":"Point","coordinates":[-122.303064,47.812714]}},{"properties":{"lon":-120.528165,"city":"Ellensburg","size":35,"zip":"98926","region":"5","district":"Ellensburg School District","director/headmaster/principal":"Sue Briggs, Administrator","type of program":"ALT HS","2009-10 membership":"NO","phone":"509-925-8345","id":"a623amzuc9kd","lat":46.994731,"address":"1300 E. 3rd","school":"Alternative Learning Experience","grades":"9 to 12","state":"WA"},"type":"Feature","geometry":{"type":"Point","coordinates":[-120.528165,46.994731]}},{"properties":{"lon":-120.543065,"city":"Ellensburg","size":45,"zip":"98926","region":"5","district":"Ellensburg School District","director/headmaster/principal":"Sarah Bicchieri, Teacher","type of program":"PPP","2009-10 membership":"NO","phone":"509-925-9000","id":"a623and8r2d0","lat":46.996791,"address":"506 N. Sprague","school":"Ellensburg Parent Partnership","grades":"K-12","state":"WA"},"type":"Feature","geometry":{"type":"Point","coordinates":[-120.543065,46.996791]}},{"properties":{"lon":-123.43416,"city":"Elma","size":100,"zip":"98541","region":"3","district":"Elma School District","director/headmaster/principal":"Linda Meister, Coordinator","type of program":"ALT HS","2009-10 membership":"NO","phone":"360-482-5086","id":"a623an6592gf","lat":47.003116,"address":"1235 Elma-Monte Road","school":"East Grays Harbor High School","grades":"9 to 12","state":"WA"},"type":"Feature","geometry":{"type":"Point","coordinates":[-123.43416,47.003116]}},{"properties":{"lon":-119.540902,"city":"Ephrata","size":65,"zip":"98823","region":"5","district":"Ephrata School District","director/headmaster/principal":"Charlotte Thorgmorton, Vice Principal","type of program":"ALT HS","2009-10 membership":"NO","phone":"509-754-7547","id":"a623an194gew","lat":47.309139,"address":"680 S.E. Blvd","school":"Sage Hills High School","grades":"9 to 12","state":"WA"},"type":"Feature","geometry":{"type":"Point","coordinates":[-119.540902,47.309139]}},{"properties":{"lon":-122.211376,"city":"Everett","size":350,"zip":"98201","region":"1","district":"Everett School District","director/headmaster/principal":"Sally Lancaster, Principal","type of program":"ALT HS","2009-10 membership":"YES","phone":"425-385-5100","id":"a623an678mtp","lat":47.970879,"address":"3516 Rucker Avenue","school":"Sequoia High School","grades":"9 to 12","state":"WA"},"type":"Feature","geometry":{"type":"Point","coordinates":[-122.211376,47.970879]}},{"properties":{"lon":-122.211376,"city":"Everett","size":200,"zip":"98201","region":"1","district":"Everett School District","director/headmaster/principal":"Sally Lancaster, Principal","type of program":"Digital Learning","2009-10 membership":"YES","phone":"425-385-5100","id":"a623amztdhty","lat":47.970879,"address":"3516 Rucker Avenue","school":"On-Line High School","grades":"7 to 12","state":"WA"},"type":"Feature","geometry":{"type":"Point","coordinates":[-122.211376,47.970879]}},{"properties":{"lon":-122.211376,"city":"Everett","size":195,"zip":"98201","region":"1","district":"Everett School District","director/headmaster/principal":"Sally Lancaster, Principal","type of program":"PPP","2009-10 membership":"YES","phone":"425-385-5100","id":"a623an5hxcpk","lat":47.970879,"address":"3516 Rucker Avenue","school":"Homeschool Alternative Center","grades":"K-12","state":"WA"},"type":"Feature","geometry":{"type":"Point","coordinates":[-122.211376,47.970879]}},{"properties":{"lon":-122.52558,"city":"Vancouver","size":50,"zip":"98684","region":"4","district":"Evergreen School District","director/headmaster/principal":"Rashonda Waters, Assoc Principal","type of program":"ALT HS","2009-10 membership":"YES","phone":"360-604-3700","id":"a623andt7rrj","lat":45.635801,"address":"14300 NE 18th Street","school":"Evergreen High School - Ignite","grades":"9 to 12","state":"WA"},"type":"Feature","geometry":{"type":"Point","coordinates":[-122.52558,45.635801]}},{"properties":{"lon":-122.521248,"city":"Vancouver","size":200,"zip":"98684","region":"4","district":"Evergreen School District","director/headmaster/principal":"Chantell Denson, Principal","type of program":"PPP","2009-10 membership":"YES","phone":"360-604-4032","id":"a623an9if2zd","lat":45.630891,"address":"P.O. Box 8910","school":"Home Choice","grades":"K-12","state":"WA"},"type":"Feature","geometry":{"type":"Point","coordinates":[-122.521248,45.630891]}},{"properties":{"lon":-122.671559,"city":"Vancouver","size":250,"zip":"98668","region":"4","district":"Evergreen School District","director/headmaster/principal":"Anne Sturdevant, Principal","type of program":"Digital Learning","2009-10 membership":"YES","phone":"1-888-899-IQWA","id":"a623an9edzxu","lat":45.632215,"address":"P.O. Box 8910","school":"IQ Academy Washington","grades":"K-12","state":"WA"},"type":"Feature","geometry":{"type":"Point","coordinates":[-122.671559,45.632215]}},{"properties":{"lon":-122.517272,"city":"Vancouver","size":125,"zip":"98684","region":"4","district":"Evergreen School District","director/headmaster/principal":"Wes Allen, Principal","type of program":"ALT HS","2009-10 membership":"YES","phone":"360-604-6100","id":"a623anchozyu","lat":45.611145,"address":"1500 S.E. Blairmont Dr.","school":"Mountain View HS - No Thunder Left Behind","grades":"9 to 12","state":"WA"},"type":"Feature","geometry":{"type":"Point","coordinates":[-122.517272,45.611145]}},{"properties":{"lon":-122.465856,"city":"Vancouver","size":50,"zip":"98607","region":"4","district":"Evergreen School District","director/headmaster/principal":"Julie Tumelty, Assoc Principal","type of program":"ALT HS","2009-10 membership":"YES","phone":"360-604-6250","id":"a623an9tormt","lat":45.622083,"address":"6201 NW Friberg-Strunk St.","school":"Union High School - Academy of Liberal Arts","grades":"9 to 12","state":"WA"},"type":"Feature","geometry":{"type":"Point","coordinates":[-122.465856,45.622083]}},{"properties":{"lon":-122.53915,"city":"Vancouver","size":50,"zip":"98682","region":"4","district":"Evergreen School District","director/headmaster/principal":"Alex Otoupal, Assoc Principal","type of program":"ALT HS","2009-10 membership":"YES","phone":"360-604-3400","id":"a623an7ilw4s","lat":45.679529,"address":"7825 NE 130th Ave","school":"Heritage High School - T-Wolf Academy","grades":"9 to 12","state":"WA"},"type":"Feature","geometry":{"type":"Point","coordinates":[-122.53915,45.679529]}},{"properties":{"lon":-122.521248,"city":"Vancouver","size":175,"zip":"98684","region":"4","district":"Evergreen School District","director/headmaster/principal":"Michelle DeShaw, Principal","type of program":"ALT HS","2009-10 membership":"YES","phone":"360-604-6100","id":"a623an4gicww","lat":45.630891,"address":"P.O. Box 8910","school":"Legacy High School","grades":"9 to 12","state":"WA"},"type":"Feature","geometry":{"type":"Point","coordinates":[-122.521248,45.630891]}},{"properties":{"lon":-122.334524,"city":"Federal Way","size":250,"zip":"98003","region":"2","district":"Federal Way School District","director/headmaster/principal":"Ron Mayberry, Principal","type of program":"Digital Learning","2009-10 membership":"NO","phone":"253-945-2243","id":"a623ana9bska","lat":47.31501,"address":"32020 1st Ave. S.  #109","school":"Internet Academy","grades":"K-12","state":"WA."},"type":"Feature","geometry":{"type":"Point","coordinates":[-122.334524,47.31501]}},{"properties":{"lon":-122.297709,"city":"Federal Way","size":125,"zip":"98003","region":"2","district":"Federal Way School District","director/headmaster/principal":"Judy Kraft, Principal","type of program":"ALT HS","2009-10 membership":"NO","phone":"253-945-5803","id":"a623an8r43v3","lat":47.31927,"address":"31455 28th Ave S.","school":"Harry S Truman High School","grades":"9 to 12","state":"WA"},"type":"Feature","geometry":{"type":"Point","coordinates":[-122.297709,47.31927]}},{"properties":{"lon":-122.60511,"city":"Ferndale","size":125,"zip":"98248","region":"1","district":"Ferndale School District","director/headmaster/principal":"Julia Besola, Principal","type of program":"ALT HS","2009-10 membership":"YES","phone":"360-383-9345","id":"a623an1m7m35","lat":48.85861,"address":"PO Box 428","school":"Clearview High School","grades":"9 to 12","state":"WA"},"type":"Feature","geometry":{"type":"Point","coordinates":[-122.60511,48.85861]}},{"properties":{"lon":-122.351634,"city":"Tacoma","size":75,"zip":"98424","region":"2","district":"Fife School District","director/headmaster/principal":"Jane Morris, Director","type of program":"ALT HS","2009-10 membership":"NO","phone":"253-517-1130","id":"a623an56zgpr","lat":47.238742,"address":"5802 20th Street E.","school":"Learning Opportunity Center","grades":"9 to 12","state":"WA"},"type":"Feature","geometry":{"type":"Point","coordinates":[-122.351634,47.238742]}},{"properties":{"lon":-119.038296,"city":"Kennewick","size":35,"zip":"99337","region":"6","district":"Finley School District","director/headmaster/principal":"Roger Sonderland, Teacher","type of program":"ALT HS","2009-10 membership":"NO","phone":"509-586-3217","id":"a623anaid51u","lat":46.155448,"address":"36509 S. Limon Drive","school":"Panther Alternative School - @ River View High School","grades":"8 to 12","state":"WA"},"type":"Feature","geometry":{"type":"Point","coordinates":[-119.038296,46.155448]}},{"properties":{"lon":0.0,"city":"Tacoma","size":180,"zip":"98444","region":"2","district":"Franklin Pierce School District","director/headmaster/principal":"Lisa Day, Principal","type of program":"ALT HS","2009-10 membership":"NO","phone":"253-298-4000","id":"a623anea905u","lat":0.0,"address":"813 S. 13nd Street","school":"Gates High School","grades":"9 to 12","state":"WA"},"type":"Feature","geometry":{"type":"Point","coordinates":[0.0,0.0]}},{"properties":{"lon":-122.38923,"city":"Tacoma","size":160,"zip":"98446","region":"2","district":"Franklin Pierce School District","director/headmaster/principal":"Lisa Day, Principal","type of program":"Digital Learning","2009-10 membership":"NO","phone":"253-298-4080","id":"a623an0jbppu","lat":47.170902,"address":"9516 Waller Road E","school":"New Pathways - Ischool","grades":"7 to 12","state":"WA"},"type":"Feature","geometry":{"type":"Point","coordinates":[-122.38923,47.170902]}},{"properties":{"lon":-117.192888,"city":"Rockford","size":50,"zip":"99030","region":"5","district":"Freeman School District","director/headmaster/principal":"Daniel Dodge, Teacher","type of program":"ALT HS","2009-10 membership":"NO","phone":"509-291-7239, EX 250","id":"a623andyp02o","lat":47.458479,"address":"S. 14815 Jackson Road","school":"SOARS Alternative High School","grades":"9 to 12","state":"WA"},"type":"Feature","geometry":{"type":"Point","coordinates":[-117.192888,47.458479]}},{"properties":{"lon":-120.814133,"city":"Goldendale","size":10,"zip":"98620","region":"6","district":"Goldendale School District","director/headmaster/principal":"Clay Henry, Principal","type of program":"ALT HS","2009-10 membership":"NO","phone":"509-773-5846","id":"a623an2cwvas","lat":45.813743,"address":"525 Simcoe Drive","school":"Timberwolf Alternative School - Goldendale High School","grades":"9 to 12","state":"WA"},"type":"Feature","geometry":{"type":"Point","coordinates":[-120.814133,45.813743]}},{"properties":{"lon":-118.973111,"city":"Coulee Dam","size":75,"zip":"99116","region":"5","district":"Grand Coulee Dam School District","director/headmaster/principal":"Karl Miller, Principal","type of program":"ALT HS","2009-10 membership":"NO","phone":"509-633-1442","id":"a623an2t2fa7","lat":47.969941,"address":"500 Civic Way","school":"Skilskin High School","grades":"9 to 12","state":"WA"},"type":"Feature","geometry":{"type":"Point","coordinates":[-118.973111,47.969941]}},{"properties":{"lon":-119.913977,"city":"Grandview","size":96,"zip":"98930","region":"6","district":"Grandview School District","director/headmaster/principal":"Mike Closner, Principal","type of program":"ALT HS","2009-10 membership":"NO","phone":"509-882-8543","id":"a623anae4rej","lat":46.254908,"address":"913 W. 2nd Street","school":"Compass High School","grades":"8 to 12","state":"WA"},"type":"Feature","geometry":{"type":"Point","coordinates":[-119.913977,46.254908]}},{"properties":{"lon":-119.913977,"city":"Grandview","size":75,"zip":"98930","region":"6","district":"Grandview School District","director/headmaster/principal":"Jane Graf, Principal","type of program":"ALT HS","2009-10 membership":"NO","phone":"509-882-8543","id":"a623ancens5m","lat":46.254908,"address":"913 W. 2nd Street","school":"Contract Learning","grades":"8 to 12","state":"WA"},"type":"Feature","geometry":{"type":"Point","coordinates":[-119.913977,46.254908]}},{"properties":{"lon":-120.184039,"city":"Granger","size":125,"zip":"98932","region":"6","district":"Granger School District","director/headmaster/principal":"Richard Esparza, Principal","type of program":"ALT HS","2009-10 membership":"NO","phone":"509-854-1115","id":"a623an2srx5d","lat":46.346195,"address":"P.O. Box 400","school":"Granger Alternative High School","grades":"9 to 12","state":"WA"},"type":"Feature","geometry":{"type":"Point","coordinates":[-120.184039,46.346195]}},{"properties":{"lon":-121.963816,"city":"Granite Falls","size":90,"zip":"98252","region":"1","district":"Granite Falls School District","director/headmaster/principal":"Bridgette Perrigoue, Asst Principal","type of program":"PPP","2009-10 membership":"NO","phone":"360-691-7717","id":"a623anawoh6n","lat":48.08528,"address":"307 N. Alder Avenue","school":"Granite Falls OLC","grades":"K-12","state":"WA"},"type":"Feature","geometry":{"type":"Point","coordinates":[-121.963816,48.08528]}},{"properties":{"lon":-121.963816,"city":"Granite Falls","size":90,"zip":"98252","region":"1","district":"Granite Falls School District","director/headmaster/principal":"Bridgette Perrigoue, Asst Principal","type of program":"ALT HS","2009-10 membership":"YES","phone":"360-691-7717","id":"a623an9f34el","lat":48.08528,"address":"307 N. Alder Avenue","school":"Crossroads Alternative High School","grades":"9 to 12","state":"WA"},"type":"Feature","geometry":{"type":"Point","coordinates":[-121.963816,48.08528]}},{"properties":{"lon":-122.324511,"city":"Seattle","size":100,"zip":"98146","region":"2","district":"Highline School District","director/headmaster/principal":"Donna Smith, Coordinator","type of program":"PPP","2009-10 membership":"NO","phone":"206-433-8760","id":"a623an3iishn","lat":47.437831,"address":"18367 8th Ave S","school":"Highline Choice Academy","grades":"K-12","state":"WA"},"type":"Feature","geometry":{"type":"Point","coordinates":[-122.324511,47.437831]}},{"properties":{"lon":-122.328916,"city":"Burien","size":250,"zip":"98148","region":"2","district":"Highline School District","director/headmaster/principal":"Jefferson Petty, Principal","type of program":"ALT HS","2009-10 membership":"NO","phone":"206-433-8760","id":"a623an1pmz1x","lat":47.436582,"address":"440 S. 186th Street","school":"Highline Big Picture School","grades":"9 to 12","state":"WA"},"type":"Feature","geometry":{"type":"Point","coordinates":[-122.328916,47.436582]}},{"properties":{"lon":-122.354979,"city":"Seattle","size":150,"zip":"98146","region":"2","district":"Highline School District","director/headmaster/principal":"Grace Kong, Administrator","type of program":"PPP","2009-10 membership":"NO","phone":"206-433-8760","id":"a623an8kynpi","lat":47.502361,"address":"11216 16th Ave S.W.","school":"New Start Alternative Program","grades":"K-6","state":"WA"},"type":"Feature","geometry":{"type":"Point","coordinates":[-122.354979,47.502361]}},{"properties":{"lon":-122.342074,"city":"Seattle","size":150,"zip":"98146","region":"2","district":"Highline School District","director/headmaster/principal":"Bruce Dearborn, Teacher","type of program":"ALT HS","2009-10 membership":"NO","phone":"206-433-8760","id":"a623an7v73vv","lat":47.495825,"address":"614 W. 120th Street","school":"New Start","grades":"9 to 12","state":"WA"},"type":"Feature","geometry":{"type":"Point","coordinates":[-122.342074,47.495825]}},{"properties":{"lon":-123.909606,"city":"Hoquiam","size":45,"zip":"98550","region":"3","district":"Hoquiam School District","director/headmaster/principal":"Bonnie Jump, Director","type of program":"ALT HS","2009-10 membership":"NO","phone":null,"id":"a623an2ta6xu","lat":46.981317,"address":"501 W. Emerson Ave","school":"Hoquiam High School Alternative Program","grades":"9 to 12","state":"WA"},"type":"Feature","geometry":{"type":"Point","coordinates":[-123.909606,46.981317]}},{"properties":{"lon":-123.909606,"city":"Hoquiam","size":90,"zip":"98550","region":"3","district":"Hoquiam School District","director/headmaster/principal":"David Jump","type of program":"PPP","2009-10 membership":"NO","phone":"360-310-6841","id":"a623ane4wksv","lat":46.981317,"address":"501 W. Emerson Ave","school":"Hoquiam Homeschool Partnership Program","grades":"K-12","state":"WA"},"type":"Feature","geometry":{"type":"Point","coordinates":[-123.909606,46.981317]}},{"properties":{"lon":-122.031354,"city":"Issaquah","size":79,"zip":"98027","region":"1","district":"Issaquah School District","director/headmaster/principal":"Ed Marcoe, Principal","type of program":"ALT HS","2009-10 membership":"NO","phone":"425-837-6200","id":"a623anbsr23j","lat":47.525211,"address":"355 S.E. Evans Street","school":"Tiger Mountain Community High School","grades":"9 to 12","state":"WA"},"type":"Feature","geometry":{"type":"Point","coordinates":[-122.031354,47.525211]}},{"properties":{"lon":-122.065775,"city":"Issaquah","size":24,"zip":"98027","region":"1","district":"Issaquah School District","director/headmaster/principal":"John Welliver, Director","type of program":"Private","2009-10 membership":"NO","phone":"425-657-0620","id":"a623an363mhm","lat":47.545553,"address":"1871 NW Gilman Blvd.","school":"Lakeside Center for Autism","grades":"Ages 3-5","state":"WA"},"type":"Feature","geometry":{"type":"Point","coordinates":[-122.065775,47.545553]}},{"properties":{"lon":-122.891261,"city":"Kelso","size":50,"zip":"98626","region":"4","district":"Kelso School District","director/headmaster/principal":"Mick Dire, Teacher","type of program":"ALT HS","2009-10 membership":"YES","phone":"360-501-1952","id":"a623an5smzqz","lat":46.14482,"address":"1904 Allen Street","school":"Loowit High School","grades":"9 to 12","state":"WA"},"type":"Feature","geometry":{"type":"Point","coordinates":[-122.891261,46.14482]}},{"properties":{"lon":-119.118718,"city":"Kennewick","size":125,"zip":"99336","region":"6","district":"Kennewick School District","director/headmaster/principal":"Dottie Stevens, Principal","type of program":"ALT HS","2009-10 membership":"NO","phone":"509-222-5029","id":"a623an78dpf8","lat":46.203238,"address":"524 S. Auburn","school":"Kennewick Alternative High School","grades":"9 to 12","state":"WA"},"type":"Feature","geometry":{"type":"Point","coordinates":[-119.118718,46.203238]}},{"properties":{"lon":-119.127206,"city":"Kennewick","size":150,"zip":"99336","region":"6","district":"Kennewick School District","director/headmaster/principal":"Kelly Anderson, Coordinator","type of program":"PPP","2009-10 membership":"YES","phone":"509-222-5036","id":"a623anehzasg","lat":46.205924,"address":"201 S. Garfield","school":"Mid-Columbia Parent Partnership Program","grades":"K-8","state":"WA"},"type":"Feature","geometry":{"type":"Point","coordinates":[-119.127206,46.205924]}},{"properties":{"lon":-122.339688,"city":"Seattle","size":99,"zip":"98101","region":"2","district":"Kent School District","director/headmaster/principal":"Mario Marsillo, Exec Director","type of program":"ALT School","2009-10 membership":"NO","phone":"206-461-8313, x 28","id":"a623an0kv340","lat":47.611805,"address":"1904 Third Ave, Suite 425","school":"Communities in Schools Performance Learning Center","grades":"K-12","state":"WA"},"type":"Feature","geometry":{"type":"Point","coordinates":[-122.339688,47.611805]}},{"properties":{"lon":-122.204109,"city":"Kent","size":100,"zip":"98030","region":"2","district":"Kent School District","director/headmaster/principal":"Merrilee Carey, Principal","type of program":"Digital Learning","2009-10 membership":"NO","phone":"253-373-7542","id":"a623an36rwj9","lat":47.3653,"address":"1100 S.E. 264th Street","school":"Kent Virtual High School - Kent Phoenix Academy High School","grades":"12 to 8","state":"WA"},"type":"Feature","geometry":{"type":"Point","coordinates":[-122.204109,47.3653]}},{"properties":{"lon":-122.290016,"city":"Des Moines","size":135,"zip":"98198","region":"2","district":"Kent School District","director/headmaster/principal":"Debbie Dempsey, Principal","type of program":"PPP","2009-10 membership":"NO","phone":"253-737-7488","id":"a623angb0juh","lat":47.400578,"address":"22420 Military Road","school":"Kent Mountain View Academy","grades":"K-12","state":"WA"},"type":"Feature","geometry":{"type":"Point","coordinates":[-122.290016,47.400578]}},{"properties":{"lon":-118.078176,"city":"Kettle Falls","size":75,"zip":"99141","region":"5","district":"Kettle Falls School District","director/headmaster/principal":"Norman Gaston, Coordinator","type of program":"PPP","2009-10 membership":"NO","phone":"509-738-6388","id":"a623an7sb8pt","lat":48.735952,"address":"P.O. Box 714","school":"Kettle Falls HomeLink","grades":"K-12","state":"WA"},"type":"Feature","geometry":{"type":"Point","coordinates":[-118.078176,48.735952]}},{"properties":{"lon":-119.489368,"city":"Benton City","size":24,"zip":"99320","region":"6","district":"Kiona-Benton City School District","director/headmaster/principal":"Vic Engelhart, Director","type of program":"ALT HS","2009-10 membership":"NO","phone":"509-588-4886","id":"a623anblbo40","lat":46.27078,"address":"1107 Grace Avenue","school":"Sunset View Alternative High School","grades":"9 to 12","state":"WA"},"type":"Feature","geometry":{"type":"Point","coordinates":[-119.489368,46.27078]}},{"properties":{"lon":-120.571156,"city":"Yakima","size":400,"zip":"98908","region":"5","district":"Kittitas School District","director/headmaster/principal":"Tamra Excell, Dir of Curriculum &amp; Instruction","type of program":"Digital Learning","2009-10 membership":"NO","phone":"509-388-0717, x611","id":"a623an7g5e3i","lat":46.592516,"address":"4702 A Tieton Drive","school":"Achieve Online","grades":"K-12","state":"WA"},"type":"Feature","geometry":{"type":"Point","coordinates":[-120.571156,46.592516]}},{"properties":{"lon":-122.628478,"city":"La Center","size":78,"zip":"98629","region":"4","district":"La Center School District","director/headmaster/principal":"Rebecca Morris, Coordinator","type of program":"PPP","2009-10 membership":"NO","phone":"360-263-1700","id":"a623anertu6w","lat":45.879934,"address":"P.O. Box 1780","school":"La Center ALC","grades":"K-12","state":"WA"},"type":"Feature","geometry":{"type":"Point","coordinates":[-122.628478,45.879934]}},{"properties":{"lon":-117.875671,"city":"LaCrosse","size":35,"zip":"99143","region":"6","district":"LaCrosse School District","director/headmaster/principal":"Doug Curtis, Principal","type of program":"ALT HS","2009-10 membership":"NO","phone":"509-549-3591","id":"a623an5587ly","lat":46.813916,"address":"111 Hill Avenue","school":"LaCrosse High School","grades":"9 to 12","state":"WA"},"type":"Feature","geometry":{"type":"Point","coordinates":[-117.875671,46.813916]}},{"properties":{"lon":-120.014144,"city":"Chelan","size":35,"zip":"98816","region":"5","district":"Lake Chelan School District","director/headmaster/principal":"Mark Brundage, Teacher","type of program":"ALT HS","2009-10 membership":"NO","phone":"509-682-7744","id":"a623an611zef","lat":47.840599,"address":"324 E. Johnson Avenue","school":"Chelan Preparatory School","grades":"9 to 12","state":"WA"},"type":"Feature","geometry":{"type":"Point","coordinates":[-120.014144,47.840599]}},{"properties":{"lon":-120.055539,"city":"Chelan","size":55,"zip":"98816","region":"5","district":"Lake Chelan School District","director/headmaster/principal":"Bob Johnson, Coordinator","type of program":"ALT HS","2009-10 membership":"NO","phone":"509-682-4061","id":"a623an1reevv","lat":47.860831,"address":"P.O. Box 369","school":"Glacier Valley High School","grades":"9 to 12","state":"WA"},"type":"Feature","geometry":{"type":"Point","coordinates":[-120.055539,47.860831]}},{"properties":{"lon":-122.117772,"city":"Everett","size":100,"zip":"98205","region":"1","district":"Lake Stevens School District","director/headmaster/principal":"Diana Shipley, Principal","type of program":"ALT HS","2009-10 membership":"NO","phone":"425-335-1515","id":"a623an7oowuc","lat":47.984563,"address":"8220 214th St NE","school":"PROVE Alternative High School","grades":"9 to 12","state":"WA"},"type":"Feature","geometry":{"type":"Point","coordinates":[-122.117772,47.984563]}},{"properties":{"lon":-122.064849,"city":"Lake Stevens","size":140,"zip":"98258","region":"1","district":"Lake Stevens School District","director/headmaster/principal":"Anne DeHaven, Director","type of program":"PPP","2009-10 membership":"NO","phone":"425-335-1582","id":"a623an94vffs","lat":48.017489,"address":"12309 22nd Street N.E.","school":"Homelink","grades":"K-12","state":"WA"},"type":"Feature","geometry":{"type":"Point","coordinates":[-122.064849,48.017489]}},{"properties":{"lon":-122.195926,"city":"Kirkland","size":188,"zip":"98033","region":"2","district":"Lake Washington School District","director/headmaster/principal":"Jane Andrew, Principal","type of program":"ALT HS","2009-10 membership":"YES","phone":"425-828-3289","id":"a623an7aqfwi","lat":47.655709,"address":"10909 NE 53rd Street","school":"B.E.S.T. High School","grades":"9 to 12","state":"WA"},"type":"Feature","geometry":{"type":"Point","coordinates":[-122.195926,47.655709]}},{"properties":{"lon":-122.196009,"city":"Kirkland","size":250,"zip":"98033","region":"2","district":"Lake Washington School District","director/headmaster/principal":"Christina Thomas, Principal","type of program":"PPP","2009-10 membership":"YES","phone":"(424) 828-3225","id":"a623an6j51oq","lat":47.655715,"address":"10903 NE 53rd Street","school":"Family Learning Center","grades":"K-12","state":"WA"},"type":"Feature","geometry":{"type":"Point","coordinates":[-122.196009,47.655715]}},{"properties":{"lon":-117.630743,"city":"Loon Lake","size":99,"zip":"99148","region":"5","district":"Loon Lake School District","director/headmaster/principal":"Monica Coleston, Director","type of program":"PPP","2009-10 membership":"NO","phone":"509-233-8185","id":"a623ana95j1w","lat":48.062449,"address":"4001 Maple Street","school":"Loon Lake Home Link","grades":"K-12","state":"WA"},"type":"Feature","geometry":{"type":"Point","coordinates":[-117.630743,48.062449]}},{"properties":{"lon":-122.896639,"city":"Lopez","size":35,"zip":"98261","region":"1","district":"Lopez Island School District","director/headmaster/principal":"Elton Sorensen, Principal","type of program":"ALT ELEM","2009-10 membership":"NO","phone":"360-468-2219","id":"a623an6dc8ua","lat":48.492326,"address":"86 School Road","school":"Alternative Resource Classroom (ARC)","grades":"K-6","state":"WA"},"type":"Feature","geometry":{"type":"Point","coordinates":[-122.896639,48.492326]}},{"properties":{"lon":-122.896639,"city":"Lopez","size":25,"zip":"98261","region":"1","district":"Lopez Island School District","director/headmaster/principal":"Elton Sorensen, Principal","type of program":"PPP","2009-10 membership":"NO","phone":"360-468-2219","id":"a623an9p9fjr","lat":48.492326,"address":"86 School Road","school":"Lopez Island Parent Partnership","grades":"K-12","state":"WA"},"type":"Feature","geometry":{"type":"Point","coordinates":[-122.896639,48.492326]}},{"properties":{"lon":-122.896639,"city":"Lopez","size":45,"zip":"98261","region":"1","district":"Lopez Island School District","director/headmaster/principal":"Elton Sorensen, Principal","type of program":"ALT HS","2009-10 membership":"NO","phone":"360-468-2219","id":"a623andb5dea","lat":48.492326,"address":"86 School Road","school":"Lopez Island Bridges Program","grades":"9 to 12","state":"WA"},"type":"Feature","geometry":{"type":"Point","coordinates":[-122.896639,48.492326]}},{"properties":{"lon":-122.468069,"city":"Lynden","size":75,"zip":"98264","region":"1","district":"Lynden School District","director/headmaster/principal":"Jim Diacogiannis, Teacher","type of program":"PPP","2009-10 membership":"NO","phone":"360-354-0893","id":"a623an1t97c6","lat":48.940789,"address":"1610 Grover #D-2","school":"Lynden Learning Lifestyles","grades":"K-12","state":"WA"},"type":"Feature","geometry":{"type":"Point","coordinates":[-122.468069,48.940789]}},{"properties":{"lon":-122.427673,"city":"Lynden","size":35,"zip":"98264","region":"1","district":"Lynden School District","director/headmaster/principal":"Robert Hascall, Principal","type of program":"ALT HS","2009-10 membership":"NO","phone":"360-354-4443","id":"a623an3svh4b","lat":48.953073,"address":"1203 Bradley Road","school":"Lynden High School at Timber Ridge","grades":"9 to 12","state":"WA"},"type":"Feature","geometry":{"type":"Point","coordinates":[-122.427673,48.953073]}},{"properties":{"lon":-120.015143,"city":"Mabton","size":95,"zip":"98935","region":"6","district":"Mabton School District","director/headmaster/principal":"Stephen Busby, Principal","type of program":"ALT HS","2009-10 membership":"NO","phone":"509-894-2989","id":"a623andctehk","lat":46.201262,"address":"Box 98","school":"FOCUS Achievement Program","grades":"9 to 12","state":"WA"},"type":"Feature","geometry":{"type":"Point","coordinates":[-120.015143,46.201262]}},{"properties":{"lon":-117.896869,"city":"Springdale","size":25,"zip":"99173","region":"5","district":"Mary Walker School District","director/headmaster/principal":"Patty Walsk, Administrator","type of program":"ALT HS","2009-10 membership":"NO","phone":"509-258-4533","id":"a623ancdm01m","lat":48.002323,"address":"P.O. Box 159","school":"Mary Walker Alternative High School","grades":"9 to 12","state":"WA"},"type":"Feature","geometry":{"type":"Point","coordinates":[-117.896869,48.002323]}},{"properties":{"lon":-117.896869,"city":"Springdale","size":35,"zip":"99173","region":"5","district":"Mary Walker School District","director/headmaster/principal":"Kenwin Jacka, Director","type of program":"PPP","2009-10 membership":"NO","phone":"509-258-4533","id":"a623an9t8gfp","lat":48.002323,"address":"P.O. Box 159","school":"Springdale Academy","grades":"K-12","state":"WA"},"type":"Feature","geometry":{"type":"Point","coordinates":[-117.896869,48.002323]}},{"properties":{"lon":-117.896872,"city":"Springdale","size":100,"zip":"99173","region":"5","district":"Mary Walker School District","director/headmaster/principal":"Jaime Palmer, Coordinator","type of program":"PPP","2009-10 membership":"NO","phone":"509-258-7342","id":"a623an6jwj2g","lat":48.002189,"address":"500 N. 4th","school":"Mary Walker Parent Partnership","grades":"K-12","state":"WA"},"type":"Feature","geometry":{"type":"Point","coordinates":[-117.896872,48.002189]}},{"properties":{"lon":-122.174882,"city":"Marysville","size":140,"zip":"98270","region":"1","district":"Marysville School District","director/headmaster/principal":"Tami Rice, Principal","type of program":"Digital Learning","2009-10 membership":"YES","phone":"360-653-0871","id":"a623an5f8vcl","lat":48.068253,"address":"4220 80th Street N.E.","school":"MOVE UP","grades":"7 to 12","state":"WA"},"type":"Feature","geometry":{"type":"Point","coordinates":[-122.174882,48.068253]}},{"properties":{"lon":-122.1717,"city":"Marysville","size":175,"zip":"98270","region":"1","district":"Marysville School District","director/headmaster/principal":"Dawn Bechtholdt, Principal","type of program":"ALT HS","2009-10 membership":"YES","phone":"360-653-0628","id":"a623an4ee3ry","lat":48.064833,"address":"4317 76th Street N.E.","school":"Marysville Mountain View High School","grades":"9 to 12","state":"WA"},"type":"Feature","geometry":{"type":"Point","coordinates":[-122.1717,48.064833]}},{"properties":{"lon":-122.174882,"city":"Marysville","size":270,"zip":"98270","region":"1","district":"Marysville School District","director/headmaster/principal":"Lynda Robinson, Principal","type of program":"PPP","2009-10 membership":"YES","phone":"360-657-0219","id":"a623aneak8ve","lat":48.068253,"address":"4220 80th Street N.E.","school":"School-Home Partnership","grades":"K-2","state":"WA"},"type":"Feature","geometry":{"type":"Point","coordinates":[-122.174882,48.068253]}},{"properties":{"lon":-117.453961,"city":"Spokane","size":200,"zip":"99208","region":"5","district":"Mead School District","director/headmaster/principal":"Bruce Olgard, Principal","type of program":"PPP","2009-10 membership":"NO","phone":"509-465-7700","id":"a623an9xyft4","lat":47.73635,"address":"8621 N. Five Mile","school":"Five Mile Prairie School","grades":"K-12","state":"WA"},"type":"Feature","geometry":{"type":"Point","coordinates":[-117.453961,47.73635]}},{"properties":{"lon":-117.419654,"city":"Spokane","size":126,"zip":"99208","region":"5","district":"Mead School District","director/headmaster/principal":"Bruce Olgard, Principal","type of program":"ALT HS","2009-10 membership":"NO","phone":"509-465-6900","id":"a623anc5mixp","lat":47.768802,"address":"529 W. Hastings Rd","school":"M.E.A.D.","grades":"9 to 12","state":"WA"},"type":"Feature","geometry":{"type":"Point","coordinates":[-117.419654,47.768802]}},{"properties":{"lon":-117.680379,"city":"Medical Lake","size":100,"zip":"99022","region":"5","district":"Medical Lake School District","director/headmaster/principal":"Tricia Smith, Principal","type of program":"ALT HS","2009-10 membership":"NO","phone":"509-565-3136","id":"a623anfm1utz","lat":47.5871,"address":"PO Box 128","school":"Medial Lake Alternative High School","grades":"9 to 12","state":"WA"},"type":"Feature","geometry":{"type":"Point","coordinates":[-117.680379,47.5871]}},{"properties":{"lon":-122.224074,"city":"Mercer Island","size":225,"zip":"98040","region":"2","district":"Mercer Island School District","director/headmaster/principal":"Mark Roschy, Principal","type of program":"PPP","2009-10 membership":"YES","phone":"206-236-3332","id":"a623anbizgtx","lat":47.572,"address":"4150 86th Ave S.E.","school":"CREST Learning Center","grades":"K-12","state":"WA"},"type":"Feature","geometry":{"type":"Point","coordinates":[-122.224074,47.572]}},{"properties":{"lon":-122.489903,"city":"Bellingham","size":75,"zip":"98226","region":"1","district":"Meridian School District","director/headmaster/principal":"Bruce Burpee, Administrator","type of program":"PPP","2009-10 membership":"NO","phone":"360-398-4324","id":"a623an60ykyk","lat":48.855285,"address":"162 W. Laurel Road","school":"Meridian Parent Partnership","grades":"K-12","state":"WA"},"type":"Feature","geometry":{"type":"Point","coordinates":[-122.489903,48.855285]}},{"properties":{"lon":-120.168814,"city":"Winthrop","size":28,"zip":"98862","region":"5","district":"Methow Valley School District","director/headmaster/principal":"Lauralee Northcott, Administrator","type of program":"PPP","2009-10 membership":"YES","phone":"509-996-2186","id":"a623an7jhqg5","lat":48.43943,"address":"18 Twin Lakes Road","school":"Methow Valley Alternative Learning Experience","grades":"K-8","state":"WA"},"type":"Feature","geometry":{"type":"Point","coordinates":[-120.168814,48.43943]}},{"properties":{"lon":-121.979046,"city":"Monroe","size":150,"zip":"98272","region":"1","district":"Monroe School District","director/headmaster/principal":"Linda Boyle, Principal","type of program":"ALT HS","2009-10 membership":"NO","phone":"360-805-3250","id":"a623an3aylrt","lat":47.853326,"address":"639 W Main St","school":"Leaders In Learning","grades":"9 to 12","state":"Wa"},"type":"Feature","geometry":{"type":"Point","coordinates":[-121.979046,47.853326]}},{"properties":{"lon":-121.953282,"city":"Monroe","size":335,"zip":"98272","region":"1","district":"Monroe School District","director/headmaster/principal":"Karen Rosencrans, Director","type of program":"PPP","2009-10 membership":"NO","phone":"360-804-2709","id":"a623an49padx","lat":47.858849,"address":"17072 Txe Street, Suite 118","school":"Sky Valley Education Center","grades":"K-12","state":"Wa"},"type":"Feature","geometry":{"type":"Point","coordinates":[-121.953282,47.858849]}},{"properties":{"lon":-121.953282,"city":"Monroe","size":710,"zip":"98272","region":"1","district":"Monroe School District","director/headmaster/principal":"Susan Stewart, Head of School","type of program":"Digital Learning","2009-10 membership":"NO","phone":"253-964-1068","id":"a623anf6x3ya","lat":47.858849,"address":"17072 Txe Street, Suite 118","school":"Washington Virtual Academy  (WAVA)","grades":"9 to 12","state":"Wa"},"type":"Feature","geometry":{"type":"Point","coordinates":[-121.953282,47.858849]}},{"properties":{"lon":-123.596853,"city":"Montesano","size":35,"zip":"98563","region":"3","district":"Montesano School District","director/headmaster/principal":"Jennifer Irving, Coordinator","type of program":"ALT HS","2009-10 membership":"NO","phone":"360-249-1964","id":"a623anabdu0l","lat":46.983674,"address":"302 N. Church Street","school":"Montesano Alternative High School","grades":"9 to 12","state":"WA"},"type":"Feature","geometry":{"type":"Point","coordinates":[-123.596853,46.983674]}},{"properties":{"lon":-122.275134,"city":"Morton","size":35,"zip":"98356","region":"4","district":"Morton School District","director/headmaster/principal":"Kaylene Ackerlund, Teacher","type of program":"ALT HS","2009-10 membership":"NO","phone":"360-496-5137","id":"a623an6tjik9","lat":46.55531,"address":"P.O. Box F","school":"Morton Jr/Sr High School","grades":"7 to 12","state":"WA"},"type":"Feature","geometry":{"type":"Point","coordinates":[-122.275134,46.55531]}},{"properties":{"lon":-119.322462,"city":"Moses Lake","size":175,"zip":"98837","region":"5","district":"Moses Lake School District","director/headmaster/principal":"Sherrie Patterson, Principal","type of program":"ALT Secondary School","2009-10 membership":"NO","phone":"509-766-2667","id":"a623an6619kd","lat":47.182775,"address":"6527 Patton Blvd","school":"Columbia Basin Secondary School","grades":"6 to 12","state":"WA"},"type":"Feature","geometry":{"type":"Point","coordinates":[-119.322462,47.182775]}},{"properties":{"lon":-122.203479,"city":"Acme","size":50,"zip":"98220","region":"1","district":"Mount Baker School District","director/headmaster/principal":"Kent Rogers, Director","type of program":"PPP","2009-10 membership":"NO","phone":"360-383-2078","id":"a623an4jy1zh","lat":48.71768,"address":"PO Box 9","school":"Mount Baker Academy","grades":"K-12","state":"WA"},"type":"Feature","geometry":{"type":"Point","coordinates":[-122.203479,48.71768]}},{"properties":{"lon":-122.339366,"city":"Mt Vernon","size":100,"zip":"98273","region":"1","district":"Mount Vernon School District","director/headmaster/principal":"David Scott, Principal","type of program":"PPP","2009-10 membership":"YES","phone":"360-428-6206","id":"a623an85ixkd","lat":48.406295,"address":"2001 Cleveland Ave","school":"Skagit Family Learning Center","grades":"K-12","state":"WA"},"type":"Feature","geometry":{"type":"Point","coordinates":[-122.339366,48.406295]}},{"properties":{"lon":-122.335384,"city":"Mount Vernon","size":100,"zip":"98273","region":"1","district":"Mount Vernon School District","director/headmaster/principal":"Janice Condrin, Administrator","type of program":"ALT HS","2009-10 membership":"YES","phone":"360-336-2681","id":"a623an0a7m18","lat":48.42294,"address":"227 N 4th Street","school":"Emerson High School  - YouthNet","grades":"9 to 12","state":"WA"},"type":"Feature","geometry":{"type":"Point","coordinates":[-122.335384,48.42294]}},{"properties":{"lon":-122.242675,"city":"Everett","size":225,"zip":"98204","region":"1","district":"Mukilteo School District","director/headmaster/principal":"Linda Mueller, Principal","type of program":"ALT HS","2009-10 membership":"NO","phone":"425-358-1300","id":"a623an2rm1bs","lat":47.910125,"address":"9700 Holly Drive","school":"ACES High School","grades":"9 to 12","state":"WA"},"type":"Feature","geometry":{"type":"Point","coordinates":[-122.242675,47.910125]}},{"properties":{"lon":-121.035151,"city":"Naches","size":28,"zip":"98937","region":"6","district":"Naches Valley School District","director/headmaster/principal":"Ed Stolarik, Director","type of program":"ALT HS","2009-10 membership":"NO","phone":"509-457-8781","id":"a623an4fhzag","lat":46.759943,"address":"P.O. Box 99","school":"Naches Valley Alternative Program","grades":"9 to 12","state":"WA"},"type":"Feature","geometry":{"type":"Point","coordinates":[-121.035151,46.759943]}},{"properties":{"lon":-123.82798,"city":"Naselle","size":75,"zip":"98638","region":"4","district":"Naselle Grays-River Valley School District","director/headmaster/principal":"Robin Andrea, Principal","type of program":"ALT HS","2009-10 membership":"NO","phone":"360-484-3269","id":"a623an4ctdhs","lat":46.39166,"address":"11-S Youth Camp Lane","school":"Naselle Youth Camp School","grades":"7 to 12","state":"WA"},"type":"Feature","geometry":{"type":"Point","coordinates":[-123.82798,46.39166]}},{"properties":{"lon":-117.332588,"city":"Newport","size":20,"zip":"99156","region":"5","district":"Newport School District","director/headmaster/principal":"Brett Jozchin, Teacher","type of program":"PPP","2009-10 membership":"YES","phone":"509-447-3567","id":"a623anbgyal9","lat":48.150542,"address":"P.O. Box 70","school":"Learning &amp; Enrichment Center","grades":"K-12","state":"WA"},"type":"Feature","geometry":{"type":"Point","coordinates":[-117.332588,48.150542]}},{"properties":{"lon":-122.179074,"city":"Newport","size":25,"zip":"98156","region":"5","district":"Newport School District","director/headmaster/principal":"Pat Stahl, Teacher","type of program":"ALT HS","2009-10 membership":"NO","phone":"509-447-3567","id":"a623an78ckfs","lat":47.57166,"address":"P.O. Box 70","school":"Newport Alternative School","grades":"9 to 12","state":"WA"},"type":"Feature","geometry":{"type":"Point","coordinates":[-122.179074,47.57166]}},{"properties":{"lon":-117.552083,"city":"Nine Mile Falls","size":35,"zip":"99026","region":"5","district":"Nine Mile Falls School District","director/headmaster/principal":"Bob Oeinck, Teacher","type of program":"PPP","2009-10 membership":"NO","phone":"509-467-1555","id":"a623an1omzka","lat":47.780093,"address":"10110 W Charles Rd","school":"Nine Mile Falls Parent Partnership","grades":"K-12","state":"WA"},"type":"Feature","geometry":{"type":"Point","coordinates":[-117.552083,47.780093]}},{"properties":{"lon":-117.552083,"city":"Nine Mile Falls","size":50,"zip":"99026","region":"5","district":"Nine Mile Falls School District","director/headmaster/principal":"Paul Grubbs, Director","type of program":"ALT HS","2009-10 membership":"YES","phone":"509-467-1555","id":"a623anfc0p83","lat":47.780093,"address":"10110 W Charles Rd","school":"Phoenix Alternative School","grades":"9 to 12","state":"WA"},"type":"Feature","geometry":{"type":"Point","coordinates":[-117.552083,47.780093]}},{"properties":{"lon":-122.353832,"city":"Bellingham","size":65,"zip":"98226","region":"1","district":"Nooksack Valley School District","director/headmaster/principal":"Vicki Lovett, Business Mgr","type of program":"ALT HS","2009-10 membership":"NO","phone":"360-966-0106","id":"a623an5grcii","lat":48.844188,"address":"5604 Mission Road","school":"Timber Ridge Center","grades":"9 to 12","state":"WA"},"type":"Feature","geometry":{"type":"Point","coordinates":[-122.353832,48.844188]}},{"properties":{"lon":-118.860629,"city":"Connell","size":50,"zip":"99236","region":"6","district":"North Franklin School District","director/headmaster/principal":null,"type of program":"ALT HS","2009-10 membership":"NO","phone":"509-234-1055","id":"a623anfkgzk9","lat":46.661465,"address":"P.O. Box 829","school":"Palouse Junction High School","grades":"9 to 12","state":"WA"},"type":"Feature","geometry":{"type":"Point","coordinates":[-118.860629,46.661465]}},{"properties":{"lon":-122.51524,"city":"Kingston","size":175,"zip":"98346","region":"3","district":"North Kitsap School District","director/headmaster/principal":"Jackie Finckler, Principal","type of program":"ALT HS","2009-10 membership":"NO","phone":"360-394-2862","id":"a623an5rjfzb","lat":47.79509,"address":"9918 N.E. Kingston Rd","school":"Spectrum Community School","grades":"9 to 12","state":"WA"},"type":"Feature","geometry":{"type":"Point","coordinates":[-122.51524,47.79509]}},{"properties":{"lon":-122.627862,"city":"Poulsbo","size":150,"zip":"98370","region":"3","district":"North Kitsap School District","director/headmaster/principal":"Nicky Seaberg, Coordinator","type of program":"PPP","2009-10 membership":"NO","phone":"360-598-8538","id":"a623an24to74","lat":47.730174,"address":"18360 Caldart Avenue N.E.","school":"Parent Assisted Learning Program","grades":"K-12","state":"WA"},"type":"Feature","geometry":{"type":"Point","coordinates":[-122.627862,47.730174]}},{"properties":{"lon":-122.513959,"city":"Kingston","size":35,"zip":"98346","region":"3","district":"North Kitsap School District","director/headmaster/principal":"Claudia Peetz, Principal","type of program":"ALT ELEM/MS","2009-10 membership":"NO","phone":"360-297-8411","id":"a623andcejva","lat":47.8022,"address":"26331 Barber Cutoff Road","school":"OPTIONS Program","grades":"K-8","state":"WA"},"type":"Feature","geometry":{"type":"Point","coordinates":[-122.513959,47.8022]}},{"properties":{"lon":-122.844208,"city":"Belfair","size":65,"zip":"98528","region":"3","district":"North Mason School District","director/headmaster/principal":"Anne Crosby, Administrator","type of program":"ALT HS","2009-10 membership":"YES","phone":"360-277-2300","id":"a623anfictcd","lat":47.415205,"address":"71 E/ Campus Drive","school":"Prodigy High School","grades":"9 to 12","state":"WA"},"type":"Feature","geometry":{"type":"Point","coordinates":[-122.844208,47.415205]}},{"properties":{"lon":-122.844208,"city":"Belfair","size":75,"zip":"98528","region":"3","district":"North Mason School District","director/headmaster/principal":"Anne Crosby, Administrator","type of program":"Digital Learning","2009-10 membership":"YES","phone":"360-277-2300","id":"a623aneweuux","lat":47.415205,"address":"71 E/ Campus Drive","school":"PACE Academy  (OPTIONS)","grades":"K-12","state":"WA"},"type":"Feature","geometry":{"type":"Point","coordinates":[-122.844208,47.415205]}},{"properties":{"lon":-122.844208,"city":"Belfair","size":50,"zip":"98528","region":"3","district":"North Mason School District","director/headmaster/principal":"Anne Crosby, Administrator","type of program":"PPP","2009-10 membership":"YES","phone":"360-277-2300","id":"a623an93069j","lat":47.415205,"address":"71 E/ Campus Drive","school":"HomeLink","grades":"K-12","state":"WA"},"type":"Feature","geometry":{"type":"Point","coordinates":[-122.844208,47.415205]}},{"properties":{"lon":-122.823278,"city":"Lacey","size":35,"zip":"98516","region":"4","district":"North Thurston School District","director/headmaster/principal":"Debbie Gaffney, Manager","type of program":"ALT HS","2009-10 membership":"NO","phone":"360-412-4470","id":"a623an8sh2mt","lat":47.050722,"address":"305 College Street","school":"Bridge Project","grades":"9 to 12","state":"WA"},"type":"Feature","geometry":{"type":"Point","coordinates":[-122.823278,47.050722]}},{"properties":{"lon":-122.768391,"city":"Lacey","size":135,"zip":"98503","region":"4","district":"North Thurston School District","director/headmaster/principal":"Tom O'Brien, Manager","type of program":"PPP","2009-10 membership":"NO","phone":"360-412-4770","id":"a623an4yfuh3","lat":47.046018,"address":"8100 Steilacoom Road S.E.","school":"Nisqually Reach for Success","grades":"K-12","state":"WA"},"type":"Feature","geometry":{"type":"Point","coordinates":[-122.768391,47.046018]}},{"properties":{"lon":-122.804344,"city":"Lacey","size":95,"zip":"98503","region":"4","district":"North Thurston School District","director/headmaster/principal":"Rich Yelenich, Principal","type of program":"ALT HS","2009-10 membership":"YES","phone":"360-412-4880, 46137","id":"a623anefnl7v","lat":46.999987,"address":"5900 54th Avenue S.E.","school":"South Sound High School","grades":"9 to 12","state":"WA"},"type":"Feature","geometry":{"type":"Point","coordinates":[-122.804344,46.999987]}},{"properties":{"lon":-117.788558,"city":"Northport","size":45,"zip":"99157","region":"5","district":"Northport School District","director/headmaster/principal":"Kirsten Erickson, SLP Consultant","type of program":"PPP","2009-10 membership":"NO","phone":"509-732-4441","id":"a623an92bpy1","lat":48.912385,"address":"404 10th Street","school":"HomeLink","grades":"K-12","state":"WA"},"type":"Feature","geometry":{"type":"Point","coordinates":[-117.788558,48.912385]}},{"properties":{"lon":-122.207665,"city":"Bothel","size":225,"zip":"98001","region":"2","district":"Northshore School District","director/headmaster/principal":"Holly Call, Principal","type of program":"ALT HS","2009-10 membership":"NO","phone":"425-408-6005","id":"a623an9apynt","lat":47.762604,"address":"18603 Bothel Way N.E.","school":"Secondary Academy for Success","grades":"9 to 12","state":"WA"},"type":"Feature","geometry":{"type":"Point","coordinates":[-122.207665,47.762604]}},{"properties":{"lon":-122.657595,"city":"Oak Harbor","size":200,"zip":"98277","region":"1","district":"Oak Harbor School District","director/headmaster/principal":"Randy Mouw, Principal","type of program":"PPP","2009-10 membership":"YES","phone":"360-279-5057","id":"a623an83u5gf","lat":48.295679,"address":"350 S. Oak Harbor Street","school":"HomeConnection","grades":"K-12","state":"WA"},"type":"Feature","geometry":{"type":"Point","coordinates":[-122.657595,48.295679]}},{"properties":{"lon":-117.252322,"city":"Oakesdale","size":25,"zip":"99158","region":"5","district":"Oakesdale School District","director/headmaster/principal":"Jake Dingman, Supt / Principal","type of program":"Alt School","2009-10 membership":"NO","phone":"509-285-5296","id":"a623an9yeryn","lat":47.116111,"address":"PO Box 228","school":"Oakesdale School","grades":"9 to 12","state":"WA"},"type":"Feature","geometry":{"type":"Point","coordinates":[-117.252322,47.116111]}},{"properties":{"lon":-124.050316,"city":"Long Beach","size":35,"zip":"98631","region":"3","district":"Ocean Beach School District","director/headmaster/principal":"Geri Marcus, Principal","type of program":"ALT HS","2009-10 membership":"NO","phone":"360-642-1319","id":"a623anc7xtsq","lat":46.36968,"address":"405 School Road","school":"Tlohon-nipts High School","grades":"9 to 12","state":"WA"},"type":"Feature","geometry":{"type":"Point","coordinates":[-124.050316,46.36968]}},{"properties":{"lon":-119.602076,"city":"Okanogan","size":35,"zip":"98840","region":"5","district":"Okanogan School District","director/headmaster/principal":"Jennifer Heindselman, Director","type of program":"ALT HS","2009-10 membership":"YES","phone":"509-422-3770","id":"a623an051mdp","lat":48.364177,"address":"P.O. Box 592","school":"Tyee Alternative High School","grades":"9 to 12","state":"WA"},"type":"Feature","geometry":{"type":"Point","coordinates":[-119.602076,48.364177]}},{"properties":{"lon":-119.602076,"city":"Okanogan","size":75,"zip":"98840","region":"5","district":"Okanogan School District","director/headmaster/principal":"Dr. Richard Johnson, Superintendent","type of program":"Digital Learning","2009-10 membership":"NO","phone":"509-422-5414","id":"a623ane6kyhe","lat":48.364177,"address":"P.O. Box 592","school":"Okanogan Regional Learning Academy","grades":"9 to 12","state":"WA"},"type":"Feature","geometry":{"type":"Point","coordinates":[-119.602076,48.364177]}},{"properties":{"lon":-122.887885,"city":"Olympia","size":275,"zip":"98501","region":"4","district":"Olympia School District","director/headmaster/principal":"Michel Velasquez, Principal","type of program":"ALT HS","2009-10 membership":"NO","phone":"360-664-0135","id":"a623an4yomj4","lat":47.043995,"address":"1113 Legion Way S.E.","school":"Avanti High School","grades":"9 to 12","state":"WA"},"type":"Feature","geometry":{"type":"Point","coordinates":[-122.887885,47.043995]}},{"properties":{"lon":-122.87444,"city":"Olympia","size":250,"zip":"98506","region":"4","district":"Olympia School District","director/headmaster/principal":"Joy Walton, Principal","type of program":"Digital Learning","2009-10 membership":"NO","phone":"360-596-7730","id":"a623an76vlv6","lat":47.068642,"address":"2001 26th Avenue N.E.","school":"Olympia Regional Learning Academy","grades":"K-12","state":"WA"},"type":"Feature","geometry":{"type":"Point","coordinates":[-122.87444,47.068642]}},{"properties":{"lon":-122.87444,"city":"Olympia","size":350,"zip":"98506","region":"4","district":"Olympia School District","director/headmaster/principal":"Joy Walton, Principal","type of program":"PPP","2009-10 membership":"NO","phone":"360-596-7730","id":"a623anb2r511","lat":47.068642,"address":"2001 26th Avenue N.E.","school":"Homeschool Connect Program","grades":"K-12","state":"WA"},"type":"Feature","geometry":{"type":"Point","coordinates":[-122.87444,47.068642]}},{"properties":{"lon":-119.504339,"city":"Omak","size":99,"zip":"98841","region":"5","district":"Omak School District","director/headmaster/principal":"Dennis Conger, Principal","type of program":"ALT HS","2009-10 membership":"NO","phone":"509-826-8504","id":"a623anbq08al","lat":48.417136,"address":"P.O. Box 833","school":"Omak Alternative High School","grades":"9 to 12","state":"WA"},"type":"Feature","geometry":{"type":"Point","coordinates":[-119.504339,48.417136]}},{"properties":{"lon":-122.936555,"city":"Winlock","size":20,"zip":"98596","region":"4","district":"Onalaska School District","director/headmaster/principal":"James McDonald, Consultant","type of program":"ALT","2009-10 membership":"NO","phone":"360-785-4803","id":"a623anb3xnuu","lat":46.492,"address":"165 Confadi Road","school":"Contract Studies Program","grades":"7 to 12","state":"WA"},"type":"Feature","geometry":{"type":"Point","coordinates":[-122.936555,46.492]}},{"properties":{"lon":-122.962669,"city":"Eastsound","size":25,"zip":"98245","region":"1","district":"Orcas Island School District","director/headmaster/principal":"Barbara Kline, Principal","type of program":"ALT ELEM","2009-10 membership":"YES","phone":"360-375-4761","id":"a623an3l76rn","lat":48.682321,"address":"478 Old Pottery Rd","school":"Oasis Alternative School","grades":"K-8","state":"WA"},"type":"Feature","geometry":{"type":"Point","coordinates":[-122.962669,48.682321]}},{"properties":{"lon":-122.903996,"city":"Eastsound","size":35,"zip":"98245","region":"1","district":"Orcas Island School District","director/headmaster/principal":"Kyle Freeman, Principal","type of program":"PPP","2009-10 membership":"YES","phone":"360-376-1524","id":"a623anbvyw7l","lat":48.698694,"address":"557 School Road","school":"Orcas Island School - Oasis","grades":"K-8","state":"WA"},"type":"Feature","geometry":{"type":"Point","coordinates":[-122.903996,48.698694]}},{"properties":{"lon":-122.208215,"city":"Orting","size":10,"zip":"98360","region":"2","district":"Orting School District","director/headmaster/principal":null,"type of program":"ALT HS","2009-10 membership":"NO","phone":"360-893-3565","id":"a623an5nxcde","lat":47.100073,"address":"320 Washington Ave N.","school":"WISE Program - Orting High School","grades":"9 to 12","state":"WA"},"type":"Feature","geometry":{"type":"Point","coordinates":[-122.208215,47.100073]}},{"properties":{"lon":-119.166593,"city":"Othello","size":135,"zip":"99344","region":"5","district":"Othello School District","director/headmaster/principal":"Raun Jensen, Teacher","type of program":"ALT HS","2009-10 membership":"NO","phone":"509-488-4536","id":"a623ang61yph","lat":46.822251,"address":"615 E. Juniper Street","school":"A.L.P.S. Alternative High School","grades":"9 to 12","state":"WA"},"type":"Feature","geometry":{"type":"Point","coordinates":[-119.166593,46.822251]}},{"properties":{"lon":-122.353832,"city":"Bellingham","size":200,"zip":"98226","region":"1","district":"PRIVATE","director/headmaster/principal":"Jonathan VanTassell, Principal","type of program":"ALT HS","2009-10 membership":"NO","phone":"360-966-0106","id":"a623amzz7qt1","lat":48.844188,"address":"5604 Mission Road","school":"Menta / Timber Ridge","grades":"9 to 12","state":"WA"},"type":"Feature","geometry":{"type":"Point","coordinates":[-122.353832,48.844188]}},{"properties":{"lon":-119.128063,"city":"Pasco","size":85,"zip":"99301","region":"6","district":"Pasco School District","director/headmaster/principal":"Christy Challender, Principal","type of program":"ALT HS","2009-10 membership":"NO","phone":"509-543-6796","id":"a623an0awn7o","lat":46.253745,"address":"3110 W. Argent","school":"New Horizons High School","grades":"9 to 12","state":"WA"},"type":"Feature","geometry":{"type":"Point","coordinates":[-119.128063,46.253745]}},{"properties":{"lon":-119.128063,"city":"Pasco","size":45,"zip":"99301","region":"6","district":"Pasco School District","director/headmaster/principal":"Christy Challender, Principal","type of program":"ALT MS","2009-10 membership":"NO","phone":"509-543-6796","id":"a623anbw4ksi","lat":46.253745,"address":"3110 W. Argent","school":"Discovery Middle School","grades":"6 to 8","state":"WA"},"type":"Feature","geometry":{"type":"Point","coordinates":[-119.128063,46.253745]}},{"properties":{"lon":-122.602269,"city":"Gig Harbor","size":120,"zip":"98332","region":"2","district":"Peninsula School District","director/headmaster/principal":"Dan Gregory, Principal","type of program":"ALT HS","2009-10 membership":"NO","phone":"253-530-1700","id":"a623an50fdmv","lat":47.332897,"address":"8402 Skansie Ave N.W.","school":"Henderson Bay High School","grades":"9 to 12","state":"WA"},"type":"Feature","geometry":{"type":"Point","coordinates":[-122.602269,47.332897]}},{"properties":{"lon":-123.456551,"city":"Port Angeles","size":88,"zip":"98363","region":"3","district":"Port Angeles School District","director/headmaster/principal":"Cindy Crumb, Principal","type of program":"ALT HS","2009-10 membership":"YES","phone":"360-452-9502","id":"a623an6j8f9o","lat":48.118728,"address":"924 W. 9th Street","school":"Lincoln High School","grades":"9 to 12","state":"WA"},"type":"Feature","geometry":{"type":"Point","coordinates":[-123.456551,48.118728]}},{"properties":{"lon":-123.432729,"city":"Port Angeles","size":50,"zip":"98362","region":"3","district":"Port Angeles School District","director/headmaster/principal":"Cindy Crumb, Principal","type of program":"PPP","2009-10 membership":"YES","phone":"360-417-3779","id":"a623ananlgwu","lat":48.114967,"address":"216 E. 4th Street","school":"Parents As Partners","grades":"K-12","state":"WA"},"type":"Feature","geometry":{"type":"Point","coordinates":[-123.432729,48.114967]}},{"properties":{"lon":-122.791642,"city":"Port Townsend","size":99,"zip":"98368","region":"3","district":"Port Townsend School District","director/headmaster/principal":"Steve Finch, Principal","type of program":"ALT School","2009-10 membership":"YES","phone":"360-379-4251","id":"a623ane2ltjs","lat":48.111031,"address":"1637 Grant Street","school":"ICE Program","grades":"K-12","state":"WA"},"type":"Feature","geometry":{"type":"Point","coordinates":[-122.791642,48.111031]}},{"properties":{"lon":-119.770999,"city":"Prosser","size":65,"zip":"99350","region":"6","district":"Prosser School District","director/headmaster/principal":"Syndi Duehn, Principal","type of program":"ALT HS","2009-10 membership":"NO","phone":"509-786-2527","id":"a623an1j6w5a","lat":46.211665,"address":"1500 Grant Avenue","school":"Prosser Falls Education Center","grades":"9 to 12","state":"WA"},"type":"Feature","geometry":{"type":"Point","coordinates":[-119.770999,46.211665]}},{"properties":{"lon":-117.181651,"city":"Pullman","size":85,"zip":"99163","region":"6","district":"Pullman School District","director/headmaster/principal":"Dave Harrington, Principal","type of program":"ALT HS","2009-10 membership":"NO","phone":"509-335-8786","id":"a623an0l9bvf","lat":46.724443,"address":"240 S.E. Dexter Street","school":"Eclipse Alternative High Schol","grades":"9 to 12","state":"WA"},"type":"Feature","geometry":{"type":"Point","coordinates":[-117.181651,46.724443]}},{"properties":{"lon":-122.283075,"city":"Puyallup","size":180,"zip":"98372","region":"2","district":"Puyallup School District","director/headmaster/principal":"Michelle Cruckshank, Principal","type of program":"ALT HS","2009-10 membership":"NO","phone":"253-841-8781","id":"a623an8efw3p","lat":47.205503,"address":"5715 Milwaukee Ave E.","school":"E.B. Walker High School","grades":"9 to 12","state":"WA"},"type":"Feature","geometry":{"type":"Point","coordinates":[-122.283075,47.205503]}},{"properties":{"lon":-122.283075,"city":"Puyallup","size":35,"zip":"98372","region":"2","district":"Puyallup School District","director/headmaster/principal":"Michelle Cruckshank, Principal","type of program":"ALT MS","2009-10 membership":"NO","phone":"253-841-8781","id":"a623ancy4u1b","lat":47.205503,"address":"5715 Milwaukee Ave E.","school":"Phoenix Program","grades":"6 to 8","state":"WA"},"type":"Feature","geometry":{"type":"Point","coordinates":[-122.283075,47.205503]}},{"properties":{"lon":-122.844268,"city":"Quilcene","size":25,"zip":"98376","region":"3","district":"Quilcene School District","director/headmaster/principal":"Shelley Barton, Teacher","type of program":"ALT HS","2009-10 membership":"YES","phone":"360-765-3363, x247","id":"a623an5wl23r","lat":47.816749,"address":"P.O. Box 40","school":"Crossroads Community High School","grades":"9 to 12","state":"WA"},"type":"Feature","geometry":{"type":"Point","coordinates":[-122.844268,47.816749]}},{"properties":{"lon":-122.178979,"city":"Bellevue","size":1670,"zip":"98005","region":"3","district":"Quillayute Valley School District","director/headmaster/principal":"Frank Walter, Head of School","type of program":"Digital Learning","2009-10 membership":"NO","phone":"425-943-2011","id":"a623an5ok6ad","lat":47.618235,"address":"12011 Bel-Red Road","school":"Insight School of Washington","grades":"K-12","state":"WA"},"type":"Feature","geometry":{"type":"Point","coordinates":[-122.178979,47.618235]}},{"properties":{"lon":-124.384108,"city":"Forks","size":35,"zip":"98331","region":"3","district":"Quillayute Valley School District","director/headmaster/principal":"Rex Weltz, Principal","type of program":"ALT HS","2009-10 membership":"YES","phone":"360-374-6262","id":"a623an1mp84v","lat":47.946744,"address":"411 S. Spartan Ave","school":"Forks Alternative Hiigh School","grades":"9 to 12","state":"WA"},"type":"Feature","geometry":{"type":"Point","coordinates":[-124.384108,47.946744]}},{"properties":{"lon":-124.384091,"city":"Forks","size":47,"zip":"98331","region":"3","district":"Quillayute Valley School District","director/headmaster/principal":"Kyle Weakley, Principal","type of program":"PPP","2009-10 membership":"NO","phone":"360-374-6262, x367","id":"a623anexhc5n","lat":47.948613,"address":"191 S. Spartan Ave","school":"Home School Plus","grades":"K-12","state":"WA"},"type":"Feature","geometry":{"type":"Point","coordinates":[-124.384091,47.948613]}},{"properties":{"lon":-124.051739,"city":"Amanda Park","size":35,"zip":"98526","region":"4","district":"Quinault Lake School District","director/headmaster/principal":"Beth Daneker, Principal","type of program":"ALT HS","2009-10 membership":"NO","phone":"360-288-2414","id":"a623an3l6ix6","lat":47.458909,"address":"P.O. Box 38","school":"Lake Quinault High School","grades":"9 to 12","state":"WA"},"type":"Feature","geometry":{"type":"Point","coordinates":[-124.051739,47.458909]}},{"properties":{"lon":-119.901247,"city":"Quincy","size":50,"zip":"98848","region":"5","district":"Quincy School District","director/headmaster/principal":"Garry Stidman, Principal","type of program":"ALT HS","2009-10 membership":"NO","phone":"509-787-1678, ext 3920","id":"a623ana47nkh","lat":47.27427,"address":"13378 Road 12.7 NW","school":"Quincy High Tech High","grades":"9 to 12","state":"WA"},"type":"Feature","geometry":{"type":"Point","coordinates":[-119.901247,47.27427]}},{"properties":{"lon":-122.682814,"city":"Rainier","size":35,"zip":"98576","region":"4","district":"Rainier School Dsitrict","director/headmaster/principal":"Linda Cooper, Coordinator","type of program":"PPP","2009-10 membership":"NO","phone":"360-923-0462","id":"a623an9az8ga","lat":46.888044,"address":"8435 Dawn Hill Dr. S.E.","school":"Rainier REACH","grades":"K-12","state":"WA"},"type":"Feature","geometry":{"type":"Point","coordinates":[-122.682814,46.888044]}},{"properties":{"lon":-123.725635,"city":"Raymond","size":15,"zip":"98577","region":"4","district":"Raymond School District","director/headmaster/principal":"Steve Holland, Superintendent","type of program":"PPP","2009-10 membership":"YES","phone":"360-942-2474","id":"a623anbmd8vn","lat":46.685508,"address":"1016 Commercial Street","school":"Raymond Homelink","grades":"K-8","state":"WA"},"type":"Feature","geometry":{"type":"Point","coordinates":[-123.725635,46.685508]}},{"properties":{"lon":-122.196881,"city":"Renton","size":100,"zip":"98055","region":"2","district":"Renton School District","director/headmaster/principal":"Valerie Sensabaugh, Director","type of program":"PPP","2009-10 membership":"YES","phone":"425-204-2521","id":"a623anfbnm7y","lat":47.456181,"address":"2607 Jones Ave. S.","school":"HOME Program at Spring Glen","grades":"K-12","state":"WA"},"type":"Feature","geometry":{"type":"Point","coordinates":[-122.196881,47.456181]}},{"properties":{"lon":-122.220605,"city":"Renton","size":150,"zip":"98057","region":"2","district":"Renton School District","director/headmaster/principal":"Jay Leviton, Director","type of program":"ALT HS","2009-10 membership":"NO","phone":"425-204-2310","id":"a623an02l5mv","lat":47.47388,"address":"300 SW 7th Street","school":"Career &amp; Life Skills Education","grades":"9 to 12","state":"WA"},"type":"Feature","geometry":{"type":"Point","coordinates":[-122.220605,47.47388]}},{"properties":{"lon":-122.235524,"city":"Seattle","size":129,"zip":"98178","region":"2","district":"Renton School District","director/headmaster/principal":"Wendell Ellis, Principal","type of program":"ALT HS","2009-10 membership":"NO","phone":"425-204-2100","id":"a623an34814f","lat":47.48483,"address":"7800 S. 132nd","school":"Black River High School","grades":"9 to 12","state":"WA"},"type":"Feature","geometry":{"type":"Point","coordinates":[-122.235524,47.48483]}},{"properties":{"lon":-122.201838,"city":"Renton","size":161,"zip":"98055","region":"2","district":"Renton School District","director/headmaster/principal":"Tim McIntosh, Instructor","type of program":"ALT HS","2009-10 membership":"NO","phone":"425-204-4500","id":"a623an3zsjft","lat":47.447498,"address":"315 Gardner Avenue N.","school":"Satori Education Center","grades":"9 to 12","state":"WA"},"type":"Feature","geometry":{"type":"Point","coordinates":[-122.201838,47.447498]}},{"properties":{"lon":-118.710601,"city":"Republic","size":45,"zip":"99166","region":"5","district":"Republic School District","director/headmaster/principal":"Teena McDonald, Principal","type of program":"ALT HS","2009-10 membership":"NO","phone":null,"id":"a623anfp5iyz","lat":48.650277,"address":"30306 E Hwy 20","school":"Republic Alternative High School","grades":"9 to 12","state":"WA"},"type":"Feature","geometry":{"type":"Point","coordinates":[-118.710601,48.650277]}},{"properties":{"lon":-119.275426,"city":"Richland","size":35,"zip":"99352","region":"6","district":"Richland School District","director/headmaster/principal":"Eric Sobatta, Asst Principal","type of program":"PPP","2009-10 membership":"NO","phone":"509-943-7350","id":"a623an1va695","lat":46.271545,"address":"517 Jadwin Ave","school":"Three Rivers Homelink","grades":"K-12","state":"A."},"type":"Feature","geometry":{"type":"Point","coordinates":[-119.275426,46.271545]}},{"properties":{"lon":-119.277029,"city":"Richland","size":100,"zip":"99652","region":"6","district":"Richland School District","director/headmaster/principal":"Dan Chubb, Principal","type of program":"Alt HS","2009-10 membership":"YES","phone":"509-967-6450","id":"a623anbd3shq","lat":46.272701,"address":"975 Gillespie","school":"River's Edge High School","grades":"9 to 12","state":"WA"},"type":"Feature","geometry":{"type":"Point","coordinates":[-119.277029,46.272701]}},{"properties":{"lon":-122.717993,"city":"Ridgefield","size":50,"zip":"98662","region":"4","district":"Ridgefield School District","director/headmaster/principal":"Paul Hulbert, Director","type of program":"Alt HS","2009-10 membership":"YES","phone":"360-619-1332","id":"a623an3dwj2w","lat":45.797313,"address":"2630 S. Hillhurst Rd.","school":"Ridgefield Alternative Programs","grades":"9 to 12","state":"WA"},"type":"Feature","geometry":{"type":"Point","coordinates":[-122.717993,45.797313]}},{"properties":{"lon":-121.947859,"city":"Duvall","size":78,"zip":"98019","region":"2","district":"Riverview School District","director/headmaster/principal":"Judy Harris, Supervisor","type of program":"PPP","2009-10 membership":"NO","phone":"425-844-4900","id":"a623anac2kob","lat":47.734554,"address":"29300 N.E. 150th Street","school":"Eagle Rock Multi-Age Program","grades":"K-5","state":"WA"},"type":"Feature","geometry":{"type":"Point","coordinates":[-121.947859,47.734554]}},{"properties":{"lon":-121.947859,"city":"Duvall","size":35,"zip":"98019","region":"2","district":"Riverview School District","director/headmaster/principal":"Judy Harris, Supervisor","type of program":"PPP","2009-10 membership":"NO","phone":"425-844-4900","id":"a623andhtfu2","lat":47.734554,"address":"29300 N.E. 150th Street","school":"PARADE Program","grades":"6 to 12","state":"WA"},"type":"Feature","geometry":{"type":"Point","coordinates":[-121.947859,47.734554]}},{"properties":{"lon":-123.088698,"city":"Rochester","size":25,"zip":"98579","region":"4","district":"Rochester School District","director/headmaster/principal":"Barbara Munsell, Principal","type of program":"ALT HS","2009-10 membership":"NO","phone":"360-273-5017","id":"a623an0p4ptr","lat":46.8216,"address":"9917 Hwy 12 SW","school":"H.E.A.R.T. Alternative School","grades":"9 to 12","state":"WA"},"type":"Feature","geometry":{"type":"Point","coordinates":[-123.088698,46.8216]}},{"properties":{"lon":-123.051871,"city":"Rochester","size":25,"zip":"98579","region":"4","district":"Rochester School District","director/headmaster/principal":"William Maus, Principal","type of program":"ALT MS","2009-10 membership":"NO","phone":"360-273-5958","id":"a623an03d8fn","lat":46.818604,"address":"P.O. Box 398","school":"Rochester Alternative Middle School","grades":"6 to 8","state":"WA"},"type":"Feature","geometry":{"type":"Point","coordinates":[-123.051871,46.818604]}},{"properties":{"lon":-123.023949,"city":"Centralia","size":220,"zip":"98531","region":"4","district":"Rochester School District","director/headmaster/principal":"Bill Detmering, Principal","type of program":"ALT HS","2009-10 membership":"NO","phone":"360-273-3156","id":"a623an3jowr5","lat":46.79193,"address":"20311 Old Highway 9 S.W.","school":"Maple Land High School","grades":"9 to 12","state":"WA"},"type":"Feature","geometry":{"type":"Point","coordinates":[-123.023949,46.79193]}},{"properties":{"lon":-123.020474,"city":"Friday Harbor","size":105,"zip":"98250","region":"1","district":"San Juan Island School District","director/headmaster/principal":"Walt Wegener Superintendent","type of program":"ALT HS","2009-10 membership":"YES","phone":"360-378-3292","id":"a623an0zv4wi","lat":48.53409,"address":"285 Blair Avenue","school":"Griffin Bay Learning Center","grades":"9 to 12","state":"WA"},"type":"Feature","geometry":{"type":"Point","coordinates":[-123.020474,48.53409]}},{"properties":{"lon":-122.340974,"city":"Seattle","size":32,"zip":"98103","region":"2","district":"Seattle Public Schools","director/headmaster/principal":"Dr. John German, Principal","type of program":"ALT HS","2009-10 membership":"NO","phone":"Phone: (206) 252-4785","id":"a623ane5abb8","lat":47.694301,"address":"1330 N 90 ST","school":"MIDDLE COLLEGE HIGH SCHOOL","grades":"9 to 12","state":"WA"},"type":"Feature","geometry":{"type":"Point","coordinates":[-122.340974,47.694301]}},{"properties":{"lon":-122.314993,"city":"Seattle","size":194,"zip":"98125","region":"2","district":"Seattle Public Schools","director/headmaster/principal":"Ernest Seevers, Principal","type of program":"ALT Elem/MS","2009-10 membership":"NO","phone":"Phone: (206) 252-4600","id":"a623anefsv55","lat":47.712825,"address":"11530 12 AV NE","school":"AS#1 (PINEHURST)","grades":"K-8","state":"WA"},"type":"Feature","geometry":{"type":"Point","coordinates":[-122.314993,47.712825]}},{"properties":{"lon":-122.340577,"city":"Seattle","size":35,"zip":"98103","region":"2","district":"Seattle Public Schools","director/headmaster/principal":"Marella Francois, Principa","type of program":"ALT HS","2009-10 membership":"NO","phone":"Phone: (206) 252-6000","id":"a623an11sjpa","lat":47.660032,"address":"4400 INTERLAKE AV N","school":"EVENING SCH  (MARSHALL)","grades":"9 to 12","state":"WA"},"type":"Feature","geometry":{"type":"Point","coordinates":[-122.340577,47.660032]}},{"properties":{"lon":-122.340974,"city":"Seattle","size":161,"zip":"98103","region":"2","district":"Seattle Public Schools","director/headmaster/principal":"Cynthia Barrientos, Program Manager","type of program":"PPP","2009-10 membership":"NO","phone":"206-252-4720","id":"a623an50w2u2","lat":47.694301,"address":"1330 N. 90th Street","school":"Home School Resource Center","grades":"K-12","state":"WA"},"type":"Feature","geometry":{"type":"Point","coordinates":[-122.340974,47.694301]}},{"properties":{"lon":-122.292551,"city":"Seattle","size":402,"zip":"98108","region":"2","district":"Seattle Public Schools","director/headmaster/principal":"Cindy Ortega, Principal","type of program":"ALT HS","2009-10 membership":"NO","phone":"Phone: (206) 252-6816","id":"a623an9zeuz2","lat":47.560824,"address":"3100 S ALASKA ST","school":"INTERAGENCY PROGRAMS","grades":"9 to 12","state":"WA"},"type":"Feature","geometry":{"type":"Point","coordinates":[-122.292551,47.560824]}},{"properties":{"lon":-122.340974,"city":"Seattle","size":32,"zip":"98103","region":"2","district":"Seattle Public Schools","director/headmaster/principal":"Dr. John German, Principal","type of program":"ALT HS","2009-10 membership":"NO","phone":"Phone: (206) 252-4785","id":"a623an8m4vaj","lat":47.694301,"address":"1330 N 90 ST","school":"American Indian Heritage MIDDLE COLLEGE HIGH SCHOOL (32)","grades":"9 to 12","state":"WA"},"type":"Feature","geometry":{"type":"Point","coordinates":[-122.340974,47.694301]}},{"properties":{"lon":-122.304916,"city":"Seattle","size":305,"zip":"98122","region":"2","district":"Seattle Public Schools","director/headmaster/principal":"Mark Perry, Principal","type of program":"ALT HS","2009-10 membership":"NO","phone":"206-252-3500","id":"a623an7d8kjo","lat":47.621571,"address":"301 21st Avenue E.","school":"NOVA High School","grades":"9 to 12","state":"WA"},"type":"Feature","geometry":{"type":"Point","coordinates":[-122.304916,47.621571]}},{"properties":{"lon":-122.27556,"city":"Seattle","size":160,"zip":"98118","region":"2","district":"Seattle Public Schools","director/headmaster/principal":"Ben Ostrom, Principal","type of program":"ALT Elem","2009-10 membership":"NO","phone":"Phone: (206) 252-6900","id":"a623an0psiap","lat":47.555046,"address":"5215 46 AV S","school":"ORCA @ WHITWORTH","grades":"K-7","state":"WA"},"type":"Feature","geometry":{"type":"Point","coordinates":[-122.27556,47.555046]}},{"properties":{"lon":-122.396456,"city":"Seattle","size":35,"zip":"98116","region":"2","district":"Seattle Public Schools","director/headmaster/principal":"David Dockendorf, Principal","type of program":"ALT Elem","2009-10 membership":"NO","phone":"Phone: (206) 252-9710","id":"a623an3e88x6","lat":47.564999,"address":"5012 SW GENESEE ST","school":"PATHFINDER","grades":"K-8","state":"WA"},"type":"Feature","geometry":{"type":"Point","coordinates":[-122.396456,47.564999]}},{"properties":{"lon":-122.380174,"city":"Seattle","size":160,"zip":"98117","region":"2","district":"Seattle Public Schools","director/headmaster/principal":"Jodee Reed, Principal","type of program":"ALT Elem","2009-10 membership":"NO","phone":"Phone: (206) 252-1720","id":"a623anbdcltd","lat":47.676154,"address":"1810 NW 65 ST","school":"SALMON BAY SCHOOL","grades":"K-8","state":"WA"},"type":"Feature","geometry":{"type":"Point","coordinates":[-122.380174,47.676154]}},{"properties":{"lon":-122.340577,"city":"Seattle","size":120,"zip":"98103","region":"2","district":"Seattle Public Schools","director/headmaster/principal":"Marella Francois, Principal","type of program":"ALT HS","2009-10 membership":"NO","phone":"206-252-6000","id":"a623aneto6yu","lat":47.660032,"address":"4400 Interlake Ave N.","school":"Seattle Evening School","grades":"9 to 12","state":"WA"},"type":"Feature","geometry":{"type":"Point","coordinates":[-122.340577,47.660032]}},{"properties":{"lon":-122.349184,"city":"Seattle","size":200,"zip":"98109","region":"2","district":"Seattle Public Schools","director/headmaster/principal":"Martin OP'Callaghan, Principal","type of program":"ALT HS","2009-10 membership":"NO","phone":"Phone: (206) 252-2200","id":"a623an64xlw0","lat":47.638091,"address":"411 BOSTON ST","school":"SECONDARY BILINGUAL ORTN CTR","grades":"9 to 12","state":"WA"},"type":"Feature","geometry":{"type":"Point","coordinates":[-122.349184,47.638091]}},{"properties":{"lon":-122.32448,"city":"Seattle","size":520,"zip":"98102","region":"2","district":"Seattle Public Schools","director/headmaster/principal":"Clara Scott, Principal","type of program":"ALT Elem","2009-10 membership":"NO","phone":"Phone: (206) 252-3510","id":"a623anc745ed","lat":47.642393,"address":"2500 FRANKLIN AV E","school":"TOPS K-8","grades":"K-8","state":"WA"},"type":"Feature","geometry":{"type":"Point","coordinates":[-122.32448,47.642393]}},{"properties":{"lon":-122.282318,"city":"Seattle","size":300,"zip":"98115","region":"2","district":"Seattle Public Schools","director/headmaster/principal":"John Miner, Principal","type of program":"ALT Elem","2009-10 membership":"NO","phone":"Phone: (206) 252-5300","id":"a623ancfmg44","lat":47.6852,"address":"7711 43 AV NE","school":"THORNTON CREEK @ DECATUR","grades":"K-5","state":"WA"},"type":"Feature","geometry":{"type":"Point","coordinates":[-122.282318,47.6852]}},{"properties":{"lon":-122.27017,"city":"Seattle","size":180,"zip":"98118","region":"2","district":"Seattle Public Schools","director/headmaster/principal":"Barbara Moore, Principal","type of program":"ALT HS","2009-10 membership":"NO","phone":"Phone: (206) 252-6600","id":"a623an5cod59","lat":47.52596,"address":"8601 RAINIER AV S","school":"SOUTH LAKE HIGH SCHOOL","grades":"9 to 12","state":"WA"},"type":"Feature","geometry":{"type":"Point","coordinates":[-122.27017,47.52596]}},{"properties":{"lon":-122.227613,"city":"Sedro-Woolley","size":100,"zip":"98234","region":"1","district":"Sedro-Woolley School District","director/headmaster/principal":"Douglas Walker, Principal","type of program":"ALT HS","2009-10 membership":"NO","phone":"360-855-3550","id":"a623an850kxa","lat":48.503455,"address":"800 State Street","school":"State Street High School","grades":"9 to 12","state":"WA"},"type":"Feature","geometry":{"type":"Point","coordinates":[-122.227613,48.503455]}},{"properties":{"lon":-122.604905,"city":"Sedro-Woolley","size":56,"zip":"98248","region":"1","district":"Sedro-Woolley School District","director/headmaster/principal":"Linda Heyne, Director","type of program":"PPP","2009-10 membership":"NO","phone":"360-855-3533","id":"a623and3hslw","lat":48.858605,"address":"24876 Jones Ct.","school":"Homeschool","grades":"K-12","state":"WA"},"type":"Feature","geometry":{"type":"Point","coordinates":[-122.604905,48.858605]}},{"properties":{"lon":-120.530326,"city":"Selah","size":100,"zip":"98942","region":"6","district":"Selah School District","director/headmaster/principal":"Rich Rees, Asst Principal","type of program":"ALT HS","2009-10 membership":"NO","phone":"509-697-0815","id":"a623an6xww7b","lat":46.664329,"address":"801 N. 1st Street","school":"Selah Academy - Selah Online","grades":"6 to 12","state":"WA"},"type":"Feature","geometry":{"type":"Point","coordinates":[-120.530326,46.664329]}},{"properties":{"lon":-123.105756,"city":"Sequim","size":150,"zip":"98382","region":"3","district":"Sequim School District","director/headmaster/principal":"Randy Hill, Principal","type of program":"PPP","2009-10 membership":"YES","phone":"360-582-3400","id":"a623anfdngkd","lat":48.082532,"address":"220 W. Alder Street","school":"Sequim Community School","grades":"K-12","state":"WA"},"type":"Feature","geometry":{"type":"Point","coordinates":[-123.105756,48.082532]}},{"properties":{"lon":-123.108253,"city":"Shelton","size":125,"zip":"98584","region":"3","district":"Shelton School District","director/headmaster/principal":"Cara Prentiss, Principal","type of program":"ALT HS","2009-10 membership":"YES","phone":"360-426-7664","id":"a623an0i5xjo","lat":47.215819,"address":"807 W. Pine Street","school":"Choice High School","grades":"9 to 12","state":"WA"},"type":"Feature","geometry":{"type":"Point","coordinates":[-123.108253,47.215819]}},{"properties":{"lon":-123.098435,"city":"Shelton","size":45,"zip":"98584","region":"3","district":"Shelton School District","director/headmaster/principal":"Cherie Estep, Principal","type of program":"PPP","2009-10 membership":"NO","phone":"360-426-6488","id":"a623ang9sjog","lat":47.200878,"address":"350 E. University Avenue","school":"Home Partnership Academy","grades":"K-8","state":"WA"},"type":"Feature","geometry":{"type":"Point","coordinates":[-123.098435,47.200878]}},{"properties":{"lon":-122.350886,"city":"Shoreline","size":225,"zip":"98133","region":"2","district":"Shoreline School District","director/headmaster/principal":"Chris Allen, Dept Head","type of program":"ALT HS","2009-10 membership":"NO","phone":"206-361-4372","id":"a623an7zpp3p","lat":47.755088,"address":"17300 Fremont Ave N","school":"Shorewood High School","grades":"9 to 12","state":"WA"},"type":"Feature","geometry":{"type":"Point","coordinates":[-122.350886,47.755088]}},{"properties":{"lon":-122.299269,"city":"Shoreline","size":35,"zip":"98155","region":"2","district":"Shoreline School District","director/headmaster/principal":"Wendy Borton, Administrator","type of program":"ALT HS","2009-10 membership":"NO","phone":"206-368-4180","id":"a623an4o16os","lat":47.773911,"address":"2800 N.E. 200th","school":"Meridian Park School - Room 9 Program","grades":"9 to 12","state":"WA"},"type":"Feature","geometry":{"type":"Point","coordinates":[-122.299269,47.773911]}},{"properties":{"lon":-123.095175,"city":"Shelton","size":78,"zip":"98584","region":"2","district":"Shoreline School District","director/headmaster/principal":"Ron Jones, Director","type of program":"PPP","2009-10 membership":"NO","phone":"206-361-4326","id":"a623an014o74","lat":47.229419,"address":"2545 NE 200th Street","school":"Home Education Exchange","grades":"K-12","state":"WA"},"type":"Feature","geometry":{"type":"Point","coordinates":[-123.095175,47.229419]}},{"properties":{"lon":-122.100251,"city":"Snohomish","size":180,"zip":"98290","region":"1","district":"Snohomish School District","director/headmaster/principal":"June Shirey, Principal","type of program":"PPP","2009-10 membership":"YES","phone":"360-563-3401","id":"a623an6w9ayl","lat":47.931235,"address":"1601 Ave D","school":"Parent Partnership Program","grades":"K-12","state":"WA"},"type":"Feature","geometry":{"type":"Point","coordinates":[-122.100251,47.931235]}},{"properties":{"lon":-122.087273,"city":"Snohomish","size":35,"zip":"98290","region":"1","district":"Snohomish School District","director/headmaster/principal":"June Shirey, Principal","type of program":"Re-Entry","2009-10 membership":"YES","phone":"360-563-3401","id":"a623an0c2wlz","lat":47.927449,"address":"525 13th Street","school":"Parkway Campus - High School Re-Entry Program","grades":"9 to 12","state":"WA"},"type":"Feature","geometry":{"type":"Point","coordinates":[-122.087273,47.927449]}},{"properties":{"lon":-122.087273,"city":"Snohomish","size":67,"zip":"98290","region":"1","district":"Snohomish School District","director/headmaster/principal":"June Shirey, Principal","type of program":"ALT HS","2009-10 membership":"YES","phone":"360-563-3401","id":"a623an0gr8m0","lat":47.927449,"address":"525 13th Street","school":"Parkway Campus - AIM High School","grades":"9 to 12","state":"WA"},"type":"Feature","geometry":{"type":"Point","coordinates":[-122.087273,47.927449]}},{"properties":{"lon":-121.782572,"city":"North Bend","size":150,"zip":"98045","region":"2","district":"Snoqualmie Valley School District","director/headmaster/principal":"Tom Athanases, Principal","type of program":"Choice  School","2009-10 membership":"YES","phone":"425-831-4200","id":"a623anb46vhk","lat":47.496107,"address":"330 Ballarat Ave N.","school":"Two Rivers High School","grades":"7 to 12","state":"WA"},"type":"Feature","geometry":{"type":"Point","coordinates":[-121.782572,47.496107]}},{"properties":{"lon":-119.487996,"city":"Soap Lake","size":100,"zip":"98851","region":"5","district":"Soap Lake School District","director/headmaster/principal":"Loris Blair, Principal","type of program":"Alt HS","2009-10 membership":"YES","phone":null,"id":"a623ane6rusu","lat":47.389559,"address":"120 E. Main Street","school":"SMOKIAM Alternative High School","grades":"9 to 12","state":"WA"},"type":"Feature","geometry":{"type":"Point","coordinates":[-119.487996,47.389559]}},{"properties":{"lon":-123.786971,"city":"South Bend","size":45,"zip":"98586","region":"3","district":"South Bend School District","director/headmaster/principal":"Dan Raymond, Teacher","type of program":"Digital","2009-10 membership":"YES","phone":"360-875-6041","id":"a623anefjwpb","lat":46.668706,"address":"P.O. Box 437","school":"South Bend High School - Digital Learning Lab","grades":"9 to 12","state":"WA"},"type":"Feature","geometry":{"type":"Point","coordinates":[-123.786971,46.668706]}},{"properties":{"lon":-122.599108,"city":"Port Orchard","size":141,"zip":"98366","region":"3","district":"South Kitsap School District","director/headmaster/principal":"Pat Oster, Principal","type of program":"PPP","2009-10 membership":"YES","phone":"360-443-3605","id":"a623an6warrs","lat":47.528827,"address":"2150 Fircrest Dr. S.E.","school":"South Kitsap Alternative Programs - Explorer Academy","grades":"9 to 12","state":"WA"},"type":"Feature","geometry":{"type":"Point","coordinates":[-122.599108,47.528827]}},{"properties":{"lon":-122.599108,"city":"Port Orchard","size":196,"zip":"98366","region":"3","district":"South Kitsap School District","director/headmaster/principal":"Pat Oster, Principal","type of program":"ALT HS","2009-10 membership":"YES","phone":"360-443-3680","id":"a623ancnwcrr","lat":47.528827,"address":"2150 Fircrest Dr. S.E.","school":"South Kitsap Alternative Programs - Discovery Alternative High School","grades":"K-12","state":"WA"},"type":"Feature","geometry":{"type":"Point","coordinates":[-122.599108,47.528827]}},{"properties":{"lon":-122.440939,"city":"Langley","size":175,"zip":"98260","region":"1","district":"South Whidbey Island School District","director/headmaster/principal":null,"type of program":"ALT HS","2009-10 membership":"NO","phone":"360-321-2343","id":"a623angasy4h","lat":48.03294,"address":"P.O. Box 311","school":"Bayview High School","grades":"9 to 12","state":"WA"},"type":"Feature","geometry":{"type":"Point","coordinates":[-122.440939,48.03294]}},{"properties":{"lon":-122.440939,"city":"Langley","size":95,"zip":"98260","region":"1","district":"South Whidbey Island School District","director/headmaster/principal":"Sharla Matthews, Director","type of program":"PPP","2009-10 membership":"YES","phone":"360-221-7879","id":"a623an3j7cqv","lat":48.03294,"address":"P.O. Box 346","school":"Whidbey Island Academy","grades":"K-12","state":"WA"},"type":"Feature","geometry":{"type":"Point","coordinates":[-122.440939,48.03294]}},{"properties":{"lon":-117.436771,"city":"Spokane","size":283,"zip":"99201","region":"5","district":"Spokane Public Schools","director/headmaster/principal":"Gwen Harris, Principal","type of program":"PPP","2009-10 membership":"YES","phone":"509-384-7819","id":"a623anere6ax","lat":47.665436,"address":"910 N. Ash Street","school":"The Enrichment Cooperative for Home Schooling  -  Bryant Campus","grades":"K-12","state":"WA"},"type":"Feature","geometry":{"type":"Point","coordinates":[-117.436771,47.665436]}},{"properties":{"lon":-117.386243,"city":"Spokane","size":75,"zip":"99207","region":"5","district":"Spokane Public Schools","director/headmaster/principal":"Carole Meyer, Principal","type of program":"ALT HS","2009-10 membership":"YES","phone":"509-354-6600","id":"a623an7rh6aa","lat":47.70049,"address":"1622 E. Wellesley Ave","school":"John R. Rogers High School - Journeys Program","grades":"9 to 12","state":"WA"},"type":"Feature","geometry":{"type":"Point","coordinates":[-117.386243,47.70049]}},{"properties":{"lon":-117.371935,"city":"Spokane","size":15,"zip":"99223","region":"5","district":"Spokane Public Schools","director/headmaster/principal":"Beth Calkins, Director","type of program":"ALT Elem","2009-10 membership":"YES","phone":"509-354-2620","id":"a623anchtou7","lat":47.640326,"address":"2627 E. 17th Street","school":"A.P.P.L.E. Program at Franklin Elementary","grades":"1 to 6","state":"WA"},"type":"Feature","geometry":{"type":"Point","coordinates":[-117.371935,47.640326]}},{"properties":{"lon":-117.431388,"city":"Spokane","size":336,"zip":"99205","region":"5","district":"Spokane Public Schools","director/headmaster/principal":"Frederick Schrumpf, Principal","type of program":"ALT HS","2009-10 membership":"YES","phone":"509-354-7000","id":"a623an6kzj68","lat":47.676808,"address":"1300 W. Knox Ave","school":"Havermale High School","grades":"9 to 12","state":"WA"},"type":"Feature","geometry":{"type":"Point","coordinates":[-117.431388,47.676808]}},{"properties":{"lon":-117.368036,"city":"Spokane","size":null,"zip":"99202","region":"5","district":"Spokane Public Schools","director/headmaster/principal":"Kristin Whiteaker, Administrator","type of program":"Digital Learning","2009-10 membership":"YES","phone":"509-354-7545","id":"a623an8xmwok","lat":47.656202,"address":"2900 East 1st Avenue","school":"Spokane Virtual Learning","grades":"9 to 12","state":"WA"},"type":"Feature","geometry":{"type":"Point","coordinates":[-117.368036,47.656202]}},{"properties":{"lon":-117.368214,"city":"Spokane","size":100,"zip":"99207","region":"5","district":"Spokane Public Schools","director/headmaster/principal":"Elisabeth Silver, Facilitator","type of program":"Skill Center","2009-10 membership":"YES","phone":"509-714-9565","id":"a623an2nyh4n","lat":47.695266,"address":"4141 N. Regal Street","school":"OnTrack","grades":"K-12","state":"WA"},"type":"Feature","geometry":{"type":"Point","coordinates":[-117.368214,47.695266]}},{"properties":{"lon":-122.332262,"city":"Stanwood","size":95,"zip":"98292","region":"1","district":"Stanwood-Camano  School District","director/headmaster/principal":"Dan Johnson, Principal","type of program":"ALT HS","2009-10 membership":"NO","phone":"360-629-1306","id":"a623an70zy3e","lat":48.242916,"address":"7400 272nd Street N.W.","school":"Lincoln Hill High School","grades":"9 to 12","state":"WA"},"type":"Feature","geometry":{"type":"Point","coordinates":[-122.332262,48.242916]}},{"properties":{"lon":-122.359197,"city":"Stanwood","size":45,"zip":"98292","region":"1","district":"Stanwood-Camano  School District","director/headmaster/principal":"Curt Chester, Lead Teacher","type of program":"PPP","2009-10 membership":"NO","phone":"360-629-1372","id":"a623an2yvy99","lat":48.24225,"address":"9307 271st Street N.W.","school":"Saratoga School","grades":"K-10","state":"WA"},"type":"Feature","geometry":{"type":"Point","coordinates":[-122.359197,48.24225]}},{"properties":{"lon":-122.643441,"city":"DuPont","size":2,"zip":"98327","region":"2","district":"Steilacoom Historical School District","director/headmaster/principal":"Susan Stewart, Head of School","type of program":"Digital Learning","2009-10 membership":"NO","phone":"253-964-1068","id":"a623and11i8d","lat":47.093484,"address":"1584 McNeil Street, Ste. 200","school":"Washington Virtual Academy  -  WAVA","grades":"K-12","state":"WA"},"type":"Feature","geometry":{"type":"Point","coordinates":[-122.643441,47.093484]}},{"properties":{"lon":-122.574651,"city":"Steilacoom","size":75,"zip":"98288","region":"2","district":"Steilacoom Historical School District","director/headmaster/principal":"Sarah Campbell, Director","type of program":"ALT HS","2009-10 membership":"NO","phone":"253-983-2319","id":"a623an43h1u3","lat":47.178168,"address":"54 Sentinel","school":"Steilacoom Alternative Program","grades":"9 to 12","state":"WA"},"type":"Feature","geometry":{"type":"Point","coordinates":[-122.574651,47.178168]}},{"properties":{"lon":-121.918258,"city":"Stevenson","size":50,"zip":"98648","region":"4","district":"Stevenson-Carson School District","director/headmaster/principal":"Andie Webb, Director","type of program":"ALT HS","2009-10 membership":"NO","phone":"509-427-5631","id":"a623an24yegp","lat":45.940464,"address":"PO Box 850","school":"Stevenson-Carson Alternative Program","grades":"9 to 12","state":"WA"},"type":"Feature","geometry":{"type":"Point","coordinates":[-121.918258,45.940464]}},{"properties":{"lon":-121.918284,"city":"Stevenson","size":100,"zip":"98648","region":"4","district":"Stevenson-Carson School District","director/headmaster/principal":"Ron Carlson, Principal","type of program":"Digital Learning","2009-10 membership":"NO","phone":"509-427-5674","id":"a623an4xb13t","lat":45.94033,"address":"P.O. Box 850","school":"Kaplan Academy of Washington","grades":"7 to 12","state":"WA"},"type":"Feature","geometry":{"type":"Point","coordinates":[-121.918284,45.94033]}},{"properties":{"lon":-121.816216,"city":"Sultan","size":50,"zip":"98294","region":"1","district":"Sultan School District","director/headmaster/principal":"Sarita Whitmire-Skeith, Director","type of program":"ALT HS","2009-10 membership":"YES","phone":"360-793-9827","id":"a623ancdlef2","lat":47.865824,"address":"514 4th Street","school":"Sky Valley Options","grades":"7 to 12","state":"WA"},"type":"Feature","geometry":{"type":"Point","coordinates":[-121.816216,47.865824]}},{"properties":{"lon":-122.485873,"city":"Tacoma","size":275,"zip":"98409","region":"2","district":"Tacoma Public Schools","director/headmaster/principal":"Lillian Ebersole, Principal","type of program":"ALT HS","2009-10 membership":"NO","phone":"253-571-5115","id":"a623andfla9r","lat":47.22996,"address":"3319 S. Adams Street","school":"Oakland High School","grades":"9 to 12","state":"WA"},"type":"Feature","geometry":{"type":"Point","coordinates":[-122.485873,47.22996]}},{"properties":{"lon":-122.052085,"city":"Maple Valley","size":103,"zip":"98038","region":"2","district":"Tahoma School District","director/headmaster/principal":"Lea del Pilar, Admin Asst","type of program":"PPP","2009-10 membership":"YES","phone":"425-413-5490","id":"a623an1p6mw9","lat":47.400052,"address":"22615 Sweeney Rd SE","school":"Russell Ridge Center","grades":"K-12","state":"WA"},"type":"Feature","geometry":{"type":"Point","coordinates":[-122.052085,47.400052]}},{"properties":{"lon":-122.098523,"city":"Covington","size":90,"zip":"98042","region":"2","district":"Tahoma School District","director/headmaster/principal":"Chris Feist, Coordinator","type of program":"ALT HS","2009-10 membership":"NO","phone":"425-413-6200","id":"a623anga68ns","lat":47.387171,"address":"18200 SE 240th Street","school":"New Visions Learning","grades":"9 to 12","state":"WA"},"type":"Feature","geometry":{"type":"Point","coordinates":[-122.098523,47.387171]}},{"properties":{"lon":-122.033844,"city":"Maple Valley","size":90,"zip":"98038","region":"2","district":"Tahoma School District","director/headmaster/principal":"Arlene Schmidt, Site Mgr","type of program":"ALT HS","2009-10 membership":"NO","phone":"425-413-3253","id":"a623an9axg9e","lat":47.407797,"address":"23015 S.E. 216th Way","school":"Maple Valley High School","grades":"9 to 12","state":"WA"},"type":"Feature","geometry":{"type":"Point","coordinates":[-122.033844,47.407797]}},{"properties":{"lon":-122.033844,"city":"Maple Valley","size":103,"zip":"98038","region":"2","district":"Tahoma School District","director/headmaster/principal":"Marcia Boyd, Head Teacher","type of program":"PPP","2009-10 membership":"NO","phone":"425-432-5702","id":"a623an8sqfzj","lat":47.407797,"address":"23015 S.E. 216th Way","school":"Personal Academic Instruction Program","grades":"K-12","state":"WA"},"type":"Feature","geometry":{"type":"Point","coordinates":[-122.033844,47.407797]}},{"properties":{"lon":-117.087579,"city":"Tekoa","size":35,"zip":"99033","region":"6","district":"Tekoa School District","director/headmaster/principal":"Wayne Massie, Superintendent","type of program":"ALT HS","2009-10 membership":"NO","phone":"509-584-3291","id":"a623anc93reo","lat":47.229539,"address":"Box 869","school":"SOARS Alternative Program","grades":"9 to 12","state":"WA"},"type":"Feature","geometry":{"type":"Point","coordinates":[-117.087579,47.229539]}},{"properties":{"lon":-122.856249,"city":"Tenino","size":35,"zip":"98589","region":"4","district":"Tenino School District","director/headmaster/principal":"Janet Peitchett, Teacher","type of program":"PPP","2009-10 membership":"NO","phone":"360-264-3600","id":"a623an5a4cth","lat":46.85344,"address":"P.O. Box 8024","school":"People In Partnership","grades":"K-12","state":"WA"},"type":"Feature","geometry":{"type":"Point","coordinates":[-122.856249,46.85344]}},{"properties":{"lon":-119.429747,"city":"Tonasket","size":50,"zip":"98855","region":"5","district":"Tonasket School District","director/headmaster/principal":"Scott Olson, Teacher","type of program":"ALT HS","2009-10 membership":"NO","phone":"509-486-1428","id":"a623an6y2etz","lat":48.697887,"address":"35 HS Hwy 20 E","school":"Tonasket Alternative School","grades":"9 to 12","state":"WA"},"type":"Feature","geometry":{"type":"Point","coordinates":[-119.429747,48.697887]}},{"properties":{"lon":-119.429747,"city":"Tonasket","size":50,"zip":"98855","region":"5","district":"Tonasket School District","director/headmaster/principal":"Carol Lanigan, Teacher","type of program":"PPP","2009-10 membership":"NO","phone":"509-486-1691","id":"a623an6torgr","lat":48.697887,"address":"35 HS Hwy 20 E","school":"Tonasket Outreach Program","grades":"K-12","state":"WA"},"type":"Feature","geometry":{"type":"Point","coordinates":[-119.429747,48.697887]}},{"properties":{"lon":-120.315474,"city":"Toppenish","size":175,"zip":"98948","region":"6","district":"Toppenish School District","director/headmaster/principal":"Dell Gere, Principal","type of program":"ALT HS","2009-10 membership":"NO","phone":"509-865-3377","id":"a623an5axq6r","lat":46.373688,"address":"306 Bolin Drive","school":"EAGLE Alternative High School","grades":"9 to 12","state":"WA"},"type":"Feature","geometry":{"type":"Point","coordinates":[-120.315474,46.373688]}},{"properties":{"lon":-122.945067,"city":"Olympia","size":75,"zip":null,"region":"2","district":"Tumwater School District","director/headmaster/principal":"Michael Struck, Principal","type of program":"ALT HS","2009-10 membership":"NO","phone":"360-709-7760","id":"a623an5wrnf8","lat":46.975719,"address":"7741 Littlerock Rd SW","school":"Secondary Options","grades":"9 to 12","state":"WA"},"type":"Feature","geometry":{"type":"Point","coordinates":[-122.945067,46.975719]}},{"properties":{"lon":-122.554513,"city":"University Place","size":35,"zip":"98466","region":"2","district":"University Place School District","director/headmaster/principal":"David Hammond, Principal","type of program":"ALT HS","2009-10 membership":"NO","phone":"253-566-5649","id":"a623andtd3ia","lat":47.220881,"address":"8805 40th Street W","school":"Curtis Bridge School","grades":"9 to 12","state":"WA"},"type":"Feature","geometry":{"type":"Point","coordinates":[-122.554513,47.220881]}},{"properties":{"lon":-117.720009,"city":"Valley","size":1669,"zip":"99181","region":"5","district":"Valley School District","director/headmaster/principal":"Lori Larsen, Director","type of program":"Digital","2009-10 membership":"YES","phone":"509-937-4663","id":"a623anatk4r8","lat":48.171424,"address":"3034 B Huffman Road","school":"Columbia Virtual Academy","grades":"K-12","state":"WA"},"type":"Feature","geometry":{"type":"Point","coordinates":[-117.720009,48.171424]}},{"properties":{"lon":-122.62172,"city":"Vancouver","size":269,"zip":"98661","region":"4","district":"Vancouver School District","director/headmaster/principal":"Steve Lindblum, Principal","type of program":"ALT HS","2009-10 membership":"NO","phone":"360-313-4350","id":"a623an0gi25p","lat":45.64258,"address":"2901 General Anderson Ave","school":"Lewis &amp; Clark High School","grades":"9 to 12","state":"WA"},"type":"Feature","geometry":{"type":"Point","coordinates":[-122.62172,45.64258]}},{"properties":{"lon":-122.628321,"city":"Vancouver","size":55,"zip":"98661","region":"4","district":"Vancouver School District","director/headmaster/principal":"Charlotte Hartman, Director","type of program":"PPP","2009-10 membership":"NO","phone":"360-313-4990","id":"a623an95ozj1","lat":45.642424,"address":"2901 Falk Rd","school":"Vancouver Home School Connection - Jim Parsley Community Center, 2nd Floor","grades":"K-12","state":"WA"},"type":"Feature","geometry":{"type":"Point","coordinates":[-122.628321,45.642424]}},{"properties":{"lon":-122.460303,"city":"Vashon","size":50,"zip":"98070","region":"2","district":"Vashon Island School District","director/headmaster/principal":"Julie Hanger, Program Mgr","type of program":"ALT HS","2009-10 membership":"YES","phone":"206-463-9171, X 503","id":"a623anda62l8","lat":47.424891,"address":"20120 Vashon Hwy S.W.","school":"StudentLink","grades":"7 to 12","state":"WA"},"type":"Feature","geometry":{"type":"Point","coordinates":[-122.460303,47.424891]}},{"properties":{"lon":-122.460303,"city":"Vashon","size":90,"zip":"98071","region":"2","district":"Vashon Island School District","director/headmaster/principal":"Julie Hanger, Program Mgr","type of program":"PPP","2009-10 membership":"YES","phone":"206-463-9171, X 503","id":"a623anak8htw","lat":47.424891,"address":"20120 Vashon Hwy S.W.","school":"FamilyLink","grades":"K-12","state":"WA"},"type":"Feature","geometry":{"type":"Point","coordinates":[-122.460303,47.424891]}},{"properties":{"lon":-119.810629,"city":"Mattawa","size":35,"zip":"99349","region":"5","district":"Wahluke School District","director/headmaster/principal":"Dale Hedman, Principal","type of program":"ALT HS","2009-10 membership":"NO","phone":"509-932-3133","id":"a623an3joehv","lat":46.72988,"address":"P.O. Box 907","school":"Sentinel Tech Center","grades":"9 to 12","state":"WA"},"type":"Feature","geometry":{"type":"Point","coordinates":[-119.810629,46.72988]}},{"properties":{"lon":-118.33781,"city":"Walla Walla","size":75,"zip":"99362","region":"6","district":"Walla Walla School District","director/headmaster/principal":"Jim Sporleder, Principal","type of program":"ALT HS","2009-10 membership":"NO","phone":"509-527-3098","id":"a623aneqeqfa","lat":46.059789,"address":"421 S 4th Avenue","school":"Lincoln Alternative","grades":"9 to 12","state":"WA"},"type":"Feature","geometry":{"type":"Point","coordinates":[-118.33781,46.059789]}},{"properties":{"lon":-118.300079,"city":"Walla Walla","size":100,"zip":"99362","region":"6","district":"Walla Walla School District","director/headmaster/principal":"Donna Painter, Principal","type of program":"PPP","2009-10 membership":"YES","phone":"509-527-3010","id":"a623an73r0gk","lat":46.061988,"address":"1718 Pleasant Street","school":"Homelink","grades":"K-12","state":"WA"},"type":"Feature","geometry":{"type":"Point","coordinates":[-118.300079,46.061988]}},{"properties":{"lon":-118.332282,"city":"Walla Walla","size":70,"zip":"99362","region":"6","district":"Walla Walla School District","director/headmaster/principal":"Jim Sporleder, Principal","type of program":"PPP","2009-10 membership":"NO","phone":"509-527-3052","id":"a623ancsgh11","lat":46.05545,"address":"919 S. 2nd Street","school":"Opportunity Program","grades":"K-12","state":"WA"},"type":"Feature","geometry":{"type":"Point","coordinates":[-118.332282,46.05545]}},{"properties":{"lon":-120.422575,"city":"Wapato","size":237,"zip":"98951","region":"6","district":"Wapato School District","director/headmaster/principal":"Gary Babcock, Principal","type of program":"ALT MS/HS","2009-10 membership":"NO","phone":"509-877-6138","id":"a623amzu1lup","lat":46.445822,"address":"310 S. Wasco Ave","school":"PACE Middle/High School","grades":"6 to 12","state":"WA"},"type":"Feature","geometry":{"type":"Point","coordinates":[-120.422575,46.445822]}},{"properties":{"lon":-119.043779,"city":"Warden","size":50,"zip":"98857","region":"5","district":"Warden School District","director/headmaster/principal":"Chris Rust, Principal","type of program":"ALT HS","2009-10 membership":"YES","phone":"509-349-2581","id":"a623anakzb6a","lat":46.962492,"address":"101 Beck Way","school":"Cougar Academy","grades":"9 to 12","state":"WA"},"type":"Feature","geometry":{"type":"Point","coordinates":[-119.043779,46.962492]}},{"properties":{"lon":-122.327041,"city":"Washougal","size":55,"zip":"98671","region":"4","district":"Washougal School District","director/headmaster/principal":"Jill Anderson, Principal","type of program":"ALT HS","2009-10 membership":"NO","phone":"360-954-3300","id":"a623an7hadru","lat":45.586342,"address":"1401 39th Street","school":"Excelsior High School","grades":"9 to 12","state":"WA"},"type":"Feature","geometry":{"type":"Point","coordinates":[-122.327041,45.586342]}},{"properties":{"lon":-118.275536,"city":"Washtucna","size":15,"zip":"99371","region":"6","district":"Washtucna School District","director/headmaster/principal":"Glenn Martin, Principal","type of program":"ALT HS","2009-10 membership":"NO","phone":"509-646-3237","id":"a623an9d0gy6","lat":46.809898,"address":"P.O. Box 688","school":"Washtucna High School","grades":"9 to 12","state":"WA"},"type":"Feature","geometry":{"type":"Point","coordinates":[-118.275536,46.809898]}},{"properties":{"lon":-118.060473,"city":"Wellpinit","size":65,"zip":"99040","region":"5","district":"Wellpinit School District","director/headmaster/principal":"Tim Ames, Superintendent","type of program":"Digital Learning Program","2009-10 membership":"NO","phone":"509-299-6767","id":"a623anbrsiau","lat":47.907559,"address":"P.O. Box 390","school":"Alliance Alternative","grades":"K-12","state":"WA"},"type":"Feature","geometry":{"type":"Point","coordinates":[-118.060473,47.907559]}},{"properties":{"lon":-120.333305,"city":"Wenatchee","size":210,"zip":"98801","region":"5","district":"Wenatchee School District","director/headmaster/principal":"Greg Lovercamp, Principal","type of program":"PPP","2009-10 membership":"NO","phone":"509-662-6417","id":"a623an6j14ac","lat":47.451684,"address":"1911 N. Wenatchee Avenue","school":"Valley Academy of Learning","grades":"K-10","state":"WA"},"type":"Feature","geometry":{"type":"Point","coordinates":[-120.333305,47.451684]}},{"properties":{"lon":-120.338492,"city":"Wenatchee","size":275,"zip":"98801","region":"5","district":"Wenatchee School District","director/headmaster/principal":"Jeff Johnson, Principal","type of program":"ALT HS","2009-10 membership":"YES","phone":"509-663-7947","id":"a623anc67ctn","lat":47.432559,"address":"1521 9th Street","school":"Westside High School","grades":"9 to 12","state":"WA"},"type":"Feature","geometry":{"type":"Point","coordinates":[-120.338492,47.432559]}},{"properties":{"lon":-120.6332,"city":"Yakima","size":50,"zip":"98908","region":"5","district":"West Valley School District #208  (Yakima)","director/headmaster/principal":"Kristin Fife-Johnson, Teacher","type of program":"ALT HS","2009-10 membership":"NO","phone":"509-972-5940","id":"a623an2zcj2v","lat":46.574582,"address":"9206 Zier Road","school":"RAM Alternative Program","grades":"9 to 12","state":"WA"},"type":"Feature","geometry":{"type":"Point","coordinates":[-120.6332,46.574582]}},{"properties":{"lon":-117.250594,"city":"Spokane","size":50,"zip":"99206","region":"5","district":"West Valley School District #363  (Spokane)","director/headmaster/principal":"Jeff Smith, Principal","type of program":"PPP","2009-10 membership":"NO","phone":"509-927-1100","id":"a623an9s4s24","lat":47.623395,"address":"S. 123 Bowdish","school":"Contract Based Education","grades":"9 to 12","state":"WA"},"type":"Feature","geometry":{"type":"Point","coordinates":[-117.250594,47.623395]}},{"properties":{"lon":-121.999752,"city":"Buckley","size":450,"zip":"98321","region":"2","district":"White River School District","director/headmaster/principal":"Marcie Polin, Principal","type of program":"ALT Sr H","2009-10 membership":"NO","phone":"360-829-1182","id":"a623ang6a93o","lat":47.1637,"address":"2160 Collins Road","school":"Collins Alternative Program","grades":"K-12","state":"WA"},"type":"Feature","geometry":{"type":"Point","coordinates":[-121.999752,47.1637]}},{"properties":{"lon":-122.028103,"city":"Buckley","size":150,"zip":"98321","region":"2","district":"White River School District","director/headmaster/principal":"Mark Westerfied, Principal","type of program":"Digital Learning","2009-10 membership":"NO","phone":"360-829-3367","id":"a623an7t21q3","lat":47.162016,"address":"146 S. Cedar Street","school":"White River On Line Learning","grades":"6 to 12","state":"WA"},"type":"Feature","geometry":{"type":"Point","coordinates":[-122.028103,47.162016]}},{"properties":{"lon":-122.940793,"city":"Winlock","size":60,"zip":"98596","region":"4","district":"Winlock School District","director/headmaster/principal":"Von Moseley, Director","type of program":"ALT MS/HS","2009-10 membership":"NO","phone":"360-785-3537, ext. 1302","id":"a623an98q8hn","lat":46.492022,"address":"311 NW Benton Street","school":"A.P.O.L.O. Middle/High School","grades":"5 to 12","state":"WA"},"type":"Feature","geometry":{"type":"Point","coordinates":[-122.940793,46.492022]}},{"properties":{"lon":-123.771099,"city":"Aberdeen","size":25,"zip":"98520","region":"3","district":"Wishkah Valley School District","director/headmaster/principal":"Ray Yoder, Superintendent","type of program":"PPP","2009-10 membership":"NO","phone":"360-532-3128","id":"a623an9fbhn8","lat":47.11783,"address":"4640 Wishkah Road","school":"Home School Program","grades":"K-12","state":"WA"},"type":"Feature","geometry":{"type":"Point","coordinates":[-123.771099,47.11783]}},{"properties":{"lon":-122.748214,"city":"Woodland","size":90,"zip":"98674","region":"4","district":"Woodland School District","director/headmaster/principal":"Dan Uhlenkott, Principal","type of program":"ALT HS","2009-10 membership":"YES","phone":"360-225-8201","id":"a623an3ich8e","lat":45.903477,"address":"757 Park Street","school":"TEAM High School","grades":"9 to 12","state":"WA"},"type":"Feature","geometry":{"type":"Point","coordinates":[-122.748214,45.903477]}},{"properties":{"lon":-120.518729,"city":"Union Gap","size":225,"zip":"98903","region":"6","district":"Yakima School District","director/headmaster/principal":"Victor Nourani, Principal","type of program":"ALT HS","2009-10 membership":"YES","phone":"509-573-1200","id":"a623ane5g5eb","lat":46.56718,"address":"901 Whitman","school":"Stanton Academy","grades":"9 to 12","state":"WA"},"type":"Feature","geometry":{"type":"Point","coordinates":[-120.518729,46.56718]}},{"properties":{"lon":-120.518729,"city":"Yakima","size":35,"zip":"98903","region":"6","district":"Yakima School District","director/headmaster/principal":"Gene Rostvold, Teacher","type of program":"PPP","2009-10 membership":"NO","phone":null,"id":"a623an9chr9w","lat":46.56718,"address":"901 W. Whitman","school":"Homeschool Program","grades":"K-12","state":"WA"},"type":"Feature","geometry":{"type":"Point","coordinates":[-120.518729,46.56718]}},{"properties":{"lon":-120.518729,"city":"Yakima","size":45,"zip":"98903","region":"6","district":"Yakima School District","director/headmaster/principal":"Bob Girard, Teacher","type of program":"Detention","2009-10 membership":"NO","phone":"509-574-2134","id":"a623an492trh","lat":46.56718,"address":"901 Whitman","school":"Yakima Alternative/Detention","grades":"9 to 12","state":"WA"},"type":"Feature","geometry":{"type":"Point","coordinates":[-120.518729,46.56718]}},{"properties":{"lon":-120.529186,"city":"Yakima","size":110,"zip":"98902","region":"6","district":"Yakima School District","director/headmaster/principal":"Arleen Franz, Principal","type of program":"Digital Learning","2009-10 membership":"NO","phone":"509-573-5047","id":"a623an3288z3","lat":46.584824,"address":"1116 S. 15th  S. Avenue","school":"Yakima Online - Y.V. Tech","grades":"7 to 12","state":"WA"},"type":"Feature","geometry":{"type":"Point","coordinates":[-120.529186,46.584824]}},{"properties":{"lon":-122.606489,"city":"Yelm","size":150,"zip":"98597","region":"4","district":"Yelm Community Schools","director/headmaster/principal":"Dave Myers, Administrator","type of program":"Alt HS","2009-10 membership":"YES","phone":"360-458-2002","id":"a623an4a1cfi","lat":46.942131,"address":"107 N. First Street","school":"Yelm Extension School","grades":"9 to 12","state":"WA"},"type":"Feature","geometry":{"type":"Point","coordinates":[-122.606489,46.942131]}},{"properties":{"lon":-120.245838,"city":"Zillah","size":25,"zip":"98953","region":"6","district":"Zillah School District","director/headmaster/principal":"Mike Torres, Principal","type of program":"ALT HS","2009-10 membership":"NO","phone":"509-829-5565","id":"a623an0xsiz0","lat":46.400735,"address":"1602 2nd Avenue","school":"Zillah Alternative Program  (ZAP)","grades":"9 to 12","state":"WA"},"type":"Feature","geometry":{"type":"Point","coordinates":[-120.245838,46.400735]}}],"is_temporal":false,"author":{"url":"http://www.walakids.com/Alternative%20School%20List/wala_alternative_school_list.htm","metadata":"","contact_name":"","contact_address":"","source":"Washington Association for Learning Alternatives (WALA)","contact_phone":""},"source":"http://www.walakids.com/Alternative%20School%20List/wala_alternative_school_list.htm","pagination":{"sort":null,"start":0,"total":306,"limit":1000000},"state":"complete","tags":"alternative,education,school,washington","published":"2010-01-01T17:00:00Z","id":54231}