{"type":"FeatureCollection","data_type":"Dataset","url_type":null,"permissions":[{"permissions":{"download":true,"view":true},"group_id":"everyone"}],"classification":null,"title":"State Fair Locations, USA, 2010","count":45,"stream_id":54301,"contributor":{"url":"http://geocommons.com/users/139","name":"Burkey"},"data_attributes":null,"calculation_params":null,"icon_link":null,"link":"http://geocommons.com/overlays/54301.json","extent":[-149.117,27.9465,-68.7708,61.5994],"geometry_types":["point"],"unique_name":null,"name":"State Fair Locations, USA, 2010","feature_count":45,"description":"This dataset display the cities that are the site of their state's state fair.\n\nThe data comes from wikipedia","next_feature":null,"is_raster":false,"short_classification":"Y","stats":{"lon":{"max":-68.770775,"mean":-93.2620719111111,"variance":279.457350448025,"stdev":16.7169779101375,"min":-149.117374,"median":-90.180489},"lat":{"max":61.59944,"mean":39.7035997555556,"variance":31.9167896592711,"stdev":5.64949463751149,"min":27.94653,"median":39.527395}},"features":[{"properties":{"lon":-86.810223,"city":"Pelham","name":"Alabama State Fair","id":"a62c04opi3uz","lat":33.284688,"state":"Alabama"},"type":"Feature","geometry":{"type":"Point","coordinates":[-86.810223,33.284688]}},{"properties":{"lon":-149.117374,"city":"Palmer","name":"Alaska State Fair","id":"a62c04j2ft7p","lat":61.59944,"state":"Alaska"},"type":"Feature","geometry":{"type":"Point","coordinates":[-149.117374,61.59944]}},{"properties":{"lon":-112.075774,"city":"Phoenix","name":"Arizona State Fair","id":"a62c04pumszo","lat":33.44826,"state":"Arizona"},"type":"Feature","geometry":{"type":"Point","coordinates":[-112.075774,33.44826]}},{"properties":{"lon":-92.274494,"city":"Little Rock","name":"Arkansas State Fair","id":"a62c04jwjl5a","lat":34.748655,"state":"Arkansas"},"type":"Feature","geometry":{"type":"Point","coordinates":[-92.274494,34.748655]}},{"properties":{"lon":-68.770775,"city":"Bangor","name":"Bangor State Fair","id":"a62c04mmrgjf","lat":44.80172,"state":"Maine"},"type":"Feature","geometry":{"type":"Point","coordinates":[-68.770775,44.80172]}},{"properties":{"lon":-121.491014,"city":"Sacramento","name":"California State Fair","id":"a62c04phd0ij","lat":38.579065,"state":"California"},"type":"Feature","geometry":{"type":"Point","coordinates":[-121.491014,38.579065]}},{"properties":{"lon":-120.507049,"city":"Yakima","name":"Central Washington State Fair","id":"a62c04m0q6dm","lat":46.604135,"state":"Washington"},"type":"Feature","geometry":{"type":"Point","coordinates":[-120.507049,46.604135]}},{"properties":{"lon":-104.612374,"city":"Pueblo","name":"Colorado State Fair","id":"a62c04ruhju7","lat":38.26386,"state":"Colorado"},"type":"Feature","geometry":{"type":"Point","coordinates":[-104.612374,38.26386]}},{"properties":{"lon":-75.575527,"city":"Harrington","name":"Delaware State Fair","id":"a62c04mxgsy9","lat":38.923171,"state":"Delaware"},"type":"Feature","geometry":{"type":"Point","coordinates":[-75.575527,38.923171]}},{"properties":{"lon":-82.459269,"city":"Tampa","name":"Florida State Fair","id":"a62c04md3pmy","lat":27.94653,"state":"Florida"},"type":"Feature","geometry":{"type":"Point","coordinates":[-82.459269,27.94653]}},{"properties":{"lon":-83.734754,"city":"Perry","name":"Georgia National Fair","id":"a62c04wexjxk","lat":32.46087,"state":"Georgia"},"type":"Feature","geometry":{"type":"Point","coordinates":[-83.734754,32.46087]}},{"properties":{"lon":-76.147389,"city":"Syracuse","name":"Great New York State Fair","id":"a62c04kpwfzh","lat":43.04999,"state":"New York"},"type":"Feature","geometry":{"type":"Point","coordinates":[-76.147389,43.04999]}},{"properties":{"lon":-71.712474,"city":"Contoocook","name":"Hopkinton State Fair","id":"a62c04wtxzbw","lat":43.219585,"state":"New Hampshire"},"type":"Feature","geometry":{"type":"Point","coordinates":[-71.712474,43.219585]}},{"properties":{"lon":-89.643604,"city":"Springfield","name":"Illinois State Fair","id":"a62c04t9mefn","lat":39.801055,"state":"Illinois"},"type":"Feature","geometry":{"type":"Point","coordinates":[-89.643604,39.801055]}},{"properties":{"lon":-86.149964,"city":"Indianapolis","name":"Indiana State Fair","id":"a62c04s06lnb","lat":39.76691,"state":"Indiana"},"type":"Feature","geometry":{"type":"Point","coordinates":[-86.149964,39.76691]}},{"properties":{"lon":-93.615659,"city":"Des Moines","name":"Iowa State Fair","id":"a62c04wgwsum","lat":41.58979,"state":"Iowa"},"type":"Feature","geometry":{"type":"Point","coordinates":[-93.615659,41.58979]}},{"properties":{"lon":-97.932674,"city":"Hutchinson","name":"Kansas State Fair","id":"a62c04x0y7ww","lat":38.05726,"state":"Kansas"},"type":"Feature","geometry":{"type":"Point","coordinates":[-97.932674,38.05726]}},{"properties":{"lon":-85.766404,"city":"Louisville","name":"Kentucky State Fair","id":"a62c04vmix5x","lat":38.25486,"state":"Kentucky"},"type":"Feature","geometry":{"type":"Point","coordinates":[-85.766404,38.25486]}},{"properties":{"lon":-76.619659,"city":"Timonium","name":"Maryland State Fair","id":"a62c04ll83y7","lat":39.436829,"state":"Maryland"},"type":"Feature","geometry":{"type":"Point","coordinates":[-76.619659,39.436829]}},{"properties":{"lon":-83.047924,"city":"Detroit","name":"Michigan State Fair","id":"a62c04ufey7m","lat":42.331685,"state":"Michigan"},"type":"Feature","geometry":{"type":"Point","coordinates":[-83.047924,42.331685]}},{"properties":{"lon":-93.184454,"city":"Falcon Heights","name":"Minnesota State Fair","id":"a62c04mimhdj","lat":44.99178,"state":"Minnesota"},"type":"Feature","geometry":{"type":"Point","coordinates":[-93.184454,44.99178]}},{"properties":{"lon":-90.180489,"city":"Jackson","name":"Mississippi State Fair","id":"a62c04h0gazn","lat":32.29869,"state":"Mississippi"},"type":"Feature","geometry":{"type":"Point","coordinates":[-90.180489,32.29869]}},{"properties":{"lon":-93.228064,"city":"Sedalia","name":"Missouri State Fair","id":"a62c04qy7kei","lat":38.710775,"state":"Missouri"},"type":"Feature","geometry":{"type":"Point","coordinates":[-93.228064,38.710775]}},{"properties":{"lon":-111.306074,"city":"Great Falls","name":"Montana State Fair","id":"a62c04uqv1gx","lat":47.507145,"state":"Montana"},"type":"Feature","geometry":{"type":"Point","coordinates":[-111.306074,47.507145]}},{"properties":{"lon":-96.707739,"city":"Lincoln","name":"Nebraska State Fair","id":"a62c04gihz7v","lat":40.81362,"state":"Nebraska"},"type":"Feature","geometry":{"type":"Point","coordinates":[-96.707739,40.81362]}},{"properties":{"lon":-119.813414,"city":"Reno","name":"Nevada State Fair","id":"a62c04uyskix","lat":39.527395,"state":"Nevada"},"type":"Feature","geometry":{"type":"Point","coordinates":[-119.813414,39.527395]}},{"properties":{"lon":-74.722285,"city":"Augusta","name":"New Jersey State Fair","id":"a62c04lsd5n4","lat":41.126235,"state":"New Jersey"},"type":"Feature","geometry":{"type":"Point","coordinates":[-74.722285,41.126235]}},{"properties":{"lon":-106.648639,"city":"Albuquerque","name":"New Mexico State Fair","id":"a62c04pqbf93","lat":35.08418,"state":"New Mexico"},"type":"Feature","geometry":{"type":"Point","coordinates":[-106.648639,35.08418]}},{"properties":{"lon":-78.642669,"city":"Raleigh","name":"North Carolina State Fair","id":"a62c04nj1nev","lat":35.78551,"state":"North Carolina"},"type":"Feature","geometry":{"type":"Point","coordinates":[-78.642669,35.78551]}},{"properties":{"lon":-101.296074,"city":"Minot","name":"North Dakota State Fair","id":"a62c04p25qjs","lat":48.236115,"state":"North Dakota"},"type":"Feature","geometry":{"type":"Point","coordinates":[-101.296074,48.236115]}},{"properties":{"lon":-83.002984,"city":"Columbus","name":"Ohio State Fair","id":"a62c04te3a8c","lat":39.96196,"state":"Ohio"},"type":"Feature","geometry":{"type":"Point","coordinates":[-83.002984,39.96196]}},{"properties":{"lon":-97.520354,"city":"Oklahoma City","name":"Oklahoma State Fair","id":"a62c04ibrb8x","lat":35.472015,"state":"Oklahoma"},"type":"Feature","geometry":{"type":"Point","coordinates":[-97.520354,35.472015]}},{"properties":{"lon":-123.043814,"city":"Salem","name":"Oregon State Fair","id":"a62c04wvjppk","lat":44.93326,"state":"Oregon"},"type":"Feature","geometry":{"type":"Point","coordinates":[-123.043814,44.93326]}},{"properties":{"lon":-76.882229,"city":"Harrisburg","name":"Pennsylvania Farm Show","id":"a62c04oju5sf","lat":40.259864,"state":"Pennsylvania"},"type":"Feature","geometry":{"type":"Point","coordinates":[-76.882229,40.259864]}},{"properties":{"lon":-81.045249,"city":"Columbia","name":"South Carolina State Fair","id":"a62c04r4110p","lat":33.99855,"state":"South Carolina"},"type":"Feature","geometry":{"type":"Point","coordinates":[-81.045249,33.99855]}},{"properties":{"lon":-98.214139,"city":"Huron","name":"South Dakota State Fair","id":"a62c04vkzv1d","lat":44.36385,"state":"South Dakota"},"type":"Feature","geometry":{"type":"Point","coordinates":[-98.214139,44.36385]}},{"properties":{"lon":-93.747274,"city":"Shreveport","name":"State Fair of Louisiana","id":"a62c04megkkt","lat":32.514615,"state":"Louisiana"},"type":"Feature","geometry":{"type":"Point","coordinates":[-93.747274,32.514615]}},{"properties":{"lon":-96.795404,"city":"Dallas","name":"State Fair of Texas","id":"a62c04v8ocll","lat":32.778155,"state":"Texas"},"type":"Feature","geometry":{"type":"Point","coordinates":[-96.795404,32.778155]}},{"properties":{"lon":-77.356056,"city":"Caroline County","name":"State Fair of Virginia","id":"a62c04vi7y37","lat":38.014671,"state":"Virginia"},"type":"Feature","geometry":{"type":"Point","coordinates":[-77.356056,38.014671]}},{"properties":{"lon":-80.456337,"city":"Fairlea","name":"State Fair of West Virginia","id":"a62c04tqj0hh","lat":37.78154,"state":"West Virginia"},"type":"Feature","geometry":{"type":"Point","coordinates":[-80.456337,37.78154]}},{"properties":{"lon":-86.778365,"city":"Nashville","name":"Tennessee State Fair","id":"a62c04p39vyp","lat":36.167783,"state":"Tennessee"},"type":"Feature","geometry":{"type":"Point","coordinates":[-86.778365,36.167783]}},{"properties":{"lon":-111.888229,"city":"Salt Lake City","name":"Utah State Fair","id":"a62c04qlt1fr","lat":40.759505,"state":"Utah"},"type":"Feature","geometry":{"type":"Point","coordinates":[-111.888229,40.759505]}},{"properties":{"lon":-72.97828,"city":"Rutland","name":"Vermont State Fair","id":"a62c04vs0cir","lat":43.605098,"state":"Vermont"},"type":"Feature","geometry":{"type":"Point","coordinates":[-72.97828,43.605098]}},{"properties":{"lon":-87.906844,"city":"Milwaukee","name":"Wisconsin State Fair","id":"a62c04jp9nwd","lat":43.04181,"state":"Wisconsin"},"type":"Feature","geometry":{"type":"Point","coordinates":[-87.906844,43.04181]}},{"properties":{"lon":-105.383399,"city":"Douglas","name":"Wyoming State Fair","id":"a62c04r0h7qc","lat":42.75951,"state":"Wyoming"},"type":"Feature","geometry":{"type":"Point","coordinates":[-105.383399,42.75951]}}],"is_temporal":false,"author":{"url":"http://en.wikipedia.org/wiki/State_fair","metadata":"","contact_name":"","contact_address":"","source":"Wikipedia","contact_phone":""},"source":"http://en.wikipedia.org/wiki/State_fair","pagination":{"sort":null,"start":0,"total":45,"limit":1000000},"state":"complete","tags":"agriculture,entertainiment,fairs,state","published":"2010-05-28T16:02:48Z","id":54301}