{"type":"FeatureCollection","data_type":"Dataset","url_type":null,"permissions":[{"permissions":{"download":true,"view":true},"group_id":"everyone"}],"classification":null,"title":"SouthWest AE B","count":64,"stream_id":54657,"contributor":{"url":"http://geocommons.com/users/13366","name":"Locc150"},"data_attributes":null,"calculation_params":null,"icon_link":null,"link":"http://geocommons.com/overlays/54657.json","extent":[-122.556,32.2316,-104.873,40.6362],"geometry_types":["point"],"unique_name":null,"name":"SouthWest AE B","feature_count":64,"description":"","next_feature":null,"is_raster":false,"short_classification":"Y","stats":{"geo_score":{"max":1.0,"mean":0.792703125,"variance":0.0668366247519841,"stdev":0.258527802667303,"min":0.0,"median":0.902},"ytd 2009":{"max":123198.65,"mean":18252.81078125,"variance":310078508.148982,"stdev":17609.0462021366,"min":5534.47,"median":13048.49},"store #":{"max":632,"mean":268.3125,"variance":28016.3452380952,"stdev":167.38083892159,"min":12,"median":325}},"features":[{"properties":{"account coordinator":"Ashanda","name":null,"city":"Emeryville","zipcode":"94608","district":"SouthWest AE","geo_score":1.0,"ytd 2009":24009.21,"store #":116,"id":"a6br0rbd82h1","geo_precision":"range","group":"Sephora","address":"5626 Bay Street","state":"CA"},"type":"Feature","geometry":{"type":"Point","coordinates":[-122.292292,37.834337]}},{"properties":{"account coordinator":"Ashanda","name":null,"city":"Pleasanton","zipcode":"94588","district":"SouthWest AE","geo_score":1.0,"ytd 2009":13957.33,"store #":12,"id":"a6br0rity8l0","geo_precision":"range","group":"Sephora","address":"2125 Stoneridge Mall","state":"CA"},"type":"Feature","geometry":{"type":"Point","coordinates":[-121.929461,37.698139]}},{"properties":{"account coordinator":"Ashanda","name":null,"city":"SF","zipcode":"94128","district":"SouthWest AE","geo_score":0.619,"ytd 2009":7573.4,"store #":14,"id":"a6br0rqx8d1f","geo_precision":"range","group":"Sephora","address":"International Terminal Building, 100 Upper International Loop","state":"CA"},"type":"Feature","geometry":{"type":"Point","coordinates":[-122.443538,37.765322]}},{"properties":{"account coordinator":"Ashanda","name":null,"city":"SanJose","zipcode":"95123","district":"SouthWest AE","geo_score":0.878,"ytd 2009":10871.68,"store #":144,"id":"a6br0rdeyxr5","geo_precision":"range","group":"Sephora","address":"925 Blossom Hill Road","state":"CA"},"type":"Feature","geometry":{"type":"Point","coordinates":[-121.861696,37.250393]}},{"properties":{"account coordinator":"Ashanda","name":null,"city":"SF","zipcode":"94128","district":"SouthWest AE","geo_score":0.619,"ytd 2009":7687.48,"store #":16,"id":"a6br0rfapnvp","geo_precision":"range","group":"Sephora","address":"International Terminal Building, 100 Upper International Loop","state":"CA"},"type":"Feature","geometry":{"type":"Point","coordinates":[-122.443538,37.765322]}},{"properties":{"account coordinator":"Katie","name":null,"city":"Broomfield","zipcode":null,"district":"SouthWest AE","geo_score":0.371,"ytd 2009":6905.16,"store #":162,"id":"a6br0rggin0l","geo_precision":"street","group":"Sephora","address":"One W. Flatiron Crossing Drive","state":"CO"},"type":"Feature","geometry":{"type":"Point","coordinates":[-104.961885,39.923421]}},{"properties":{"account coordinator":"Katie","name":null,"city":"Gilbert","zipcode":"85295","district":"SouthWest AE","geo_score":0.707,"ytd 2009":9916.43,"store #":168,"id":"a6br0ri4ic8b","geo_precision":"street","group":"Sephora","address":"2206 E Williams Field Rd","state":"AZ"},"type":"Feature","geometry":{"type":"Point","coordinates":[-111.734009,33.306846]}},{"properties":{"account coordinator":"Katie","name":null,"city":"LittletonCO","zipcode":null,"district":"SouthWest AE","geo_score":0.79,"ytd 2009":26930.97,"store #":172,"id":"a6br0rlluoia","geo_precision":"range","group":"Sephora","address":"8505 Park Meadows Center Dr","state":"CO"},"type":"Feature","geometry":{"type":"Point","coordinates":[-104.87273,39.559569]}},{"properties":{"account coordinator":"Ashanda","name":null,"city":"SantaClara","zipcode":"95050-6709","district":"SouthWest AE","geo_score":0.381,"ytd 2009":38449.68,"store #":18,"id":"a6br0rlzph3e","geo_precision":"street","group":"Sephora","address":"2855 Stevens Creek Blvd. Suite 1061","state":"CA"},"type":"Feature","geometry":{"type":"Point","coordinates":[-121.61916,37.07421]}},{"properties":{"account coordinator":"Ashanda","name":null,"city":"SanFrancisco","zipcode":"94123","district":"SouthWest AE","geo_score":1.0,"ytd 2009":24616.22,"store #":196,"id":"a6br0rjm230l","geo_precision":"range","group":"Sephora","address":"2083 Union Street","state":"CA"},"type":"Feature","geometry":{"type":"Point","coordinates":[-122.43329,37.797332]}},{"properties":{"account coordinator":"Shelley","name":null,"city":"CostaMesa","zipcode":"92626","district":"SouthWest AE","geo_score":1.0,"ytd 2009":55464.88,"store #":20,"id":"a6br0rizfsok","geo_precision":"range","group":"Sephora","address":"3333 Bristol Street","state":"CA"},"type":"Feature","geometry":{"type":"Point","coordinates":[-117.885527,33.690957]}},{"properties":{"account coordinator":"Ashanda","name":null,"city":"WalnutCreek","zipcode":"94596","district":"SouthWest AE","geo_score":0.947,"ytd 2009":15955.64,"store #":202,"id":"a6br0rpnpuc1","geo_precision":"range","group":"Sephora","address":"1149 Broadway Plaza","state":"CA"},"type":"Feature","geometry":{"type":"Point","coordinates":[-122.058789,37.897124]}},{"properties":{"account coordinator":"Ashanda","name":null,"city":"Novato","zipcode":"94945","district":"SouthWest AE","geo_score":0.832,"ytd 2009":36765.01,"store #":206,"id":"a6br0rn56vv1","geo_precision":"range","group":"Sephora","address":"208 Vintage Oaks","state":"CA"},"type":"Feature","geometry":{"type":"Point","coordinates":[-122.555855,38.09009]}},{"properties":{"account coordinator":"Katie","name":null,"city":"Boulder","zipcode":"80301","district":"SouthWest AE","geo_score":0.708,"ytd 2009":15426.46,"store #":226,"id":"a6br0rcvzyui","geo_precision":"street","group":"Sephora","address":"1775 29th St","state":"CO"},"type":"Feature","geometry":{"type":"Point","coordinates":[-105.256085,40.027375]}},{"properties":{"account coordinator":"Katie","name":null,"city":"Chandler","zipcode":"85226","district":"SouthWest AE","geo_score":0.604,"ytd 2009":8393.79,"store #":288,"id":"a6br0rp85l57","geo_precision":"street","group":"Sephora","address":"3111 W. Chandler Blvd","state":"AZ"},"type":"Feature","geometry":{"type":"Point","coordinates":[-111.874602,33.305999]}},{"properties":{"account coordinator":"Katie","name":"Fashion Place / Murray, UT","city":"Murray","zipcode":"84107-7265","district":"SouthWest AE","geo_score":0.793,"ytd 2009":21916.0,"store #":32,"id":"a6br0rbd4ym3","geo_precision":"range","group":"Nordstrom","address":"6191 S State St Ste 200","state":"UT"},"type":"Feature","geometry":{"type":"Point","coordinates":[-111.889242,40.63617]}},{"properties":{"account coordinator":"Shelley","name":"South Coast Plaza / CA","city":"CostaMesa","zipcode":"92626-1888","district":"SouthWest AE","geo_score":1.0,"ytd 2009":123198.65,"store #":320,"id":"a6br0rfbcmeo","geo_precision":"range","group":"Nordstrom","address":"3333 Bristol St","state":"CA"},"type":"Feature","geometry":{"type":"Point","coordinates":[-117.885527,33.690957]}},{"properties":{"account coordinator":"Shelley","name":"Brea Mall / CA","city":"Brea","zipcode":"92821-5793","district":"SouthWest AE","geo_score":0.659,"ytd 2009":17099.99,"store #":321,"id":"a6br0rhnc468","geo_precision":"street","group":"Nordstrom","address":"500 Brea Mall","state":"CA"},"type":"Feature","geometry":{"type":"Point","coordinates":[-117.87874,33.940789]}},{"properties":{"account coordinator":"Shelley","name":"Los Cerritos Center / CA","city":"Cerritos","zipcode":"90703-5432","district":"SouthWest AE","geo_score":1.0,"ytd 2009":15892.71,"store #":322,"id":"a6br0rhf6hi9","geo_precision":"range","group":"Nordstrom","address":"600 Los Cerritos Mall","state":"CA"},"type":"Feature","geometry":{"type":"Point","coordinates":[-118.093227,33.859389]}},{"properties":{"account coordinator":"Shelley","name":"Montclair Plaza / CA","city":"Montclair","zipcode":"91763-1534","district":"SouthWest AE","geo_score":0.966,"ytd 2009":9421.48,"store #":323,"id":"a6br0rbwqozw","geo_precision":"range","group":"Nordstrom","address":"5015 E Montclair Plaza Ln","state":"CA"},"type":"Feature","geometry":{"type":"Point","coordinates":[-117.695316,34.087283]}},{"properties":{"account coordinator":"Shelley","name":"Main Place/Santa Ana / CA","city":"SantaAna","zipcode":"92705-6605","district":"SouthWest AE","geo_score":0.805,"ytd 2009":8021.61,"store #":324,"id":"a6br0rd49u1j","geo_precision":"range","group":"Nordstrom","address":"2820 N Main St","state":"CA"},"type":"Feature","geometry":{"type":"Point","coordinates":[-117.867322,33.774884]}},{"properties":{"account coordinator":"Shelley","name":"The Galleria at Tyler in Riverside / CA","city":"Riverside","zipcode":"92503-4155","district":"SouthWest AE","geo_score":0.532,"ytd 2009":6984.64,"store #":325,"id":"a6br0rraqbzs","geo_precision":"street","group":"Nordstrom","address":"3601 Galleria at Tyler","state":"CA"},"type":"Feature","geometry":{"type":"Point","coordinates":[-117.471295,33.937084]}},{"properties":{"account coordinator":"Shelley","name":"The Shops at Mission Viejo / CA","city":"MissionViejo","zipcode":"92691-6502","district":"SouthWest AE","geo_score":0.902,"ytd 2009":12737.55,"store #":326,"id":"a6br0rr7xdl1","geo_precision":"range","group":"Nordstrom","address":"100 The Shops at Mission Viejo","state":"CA"},"type":"Feature","geometry":{"type":"Point","coordinates":[-117.669231,33.561455]}},{"properties":{"account coordinator":"Shelley","name":"Irvine Spectrum Center / CA","city":"Irvine","zipcode":"92618-2946","district":"SouthWest AE","geo_score":0.902,"ytd 2009":7480.65,"store #":330,"id":"a6br0rm3yg3q","geo_precision":"street","group":"Nordstrom","address":"101 Fortune Dr","state":"CA"},"type":"Feature","geometry":{"type":"Point","coordinates":[-117.742235,33.648959]}},{"properties":{"account coordinator":"Katie","name":"Park Meadows / CO","city":"LoneTree","zipcode":"80124-5002","district":"SouthWest AE","geo_score":0.985,"ytd 2009":20638.28,"store #":34,"id":"a6br0rm6jfpe","geo_precision":"range","group":"Nordstrom","address":"8465 Park Meadows Center Dr","state":"CO"},"type":"Feature","geometry":{"type":"Point","coordinates":[-104.874201,39.558847]}},{"properties":{"account coordinator":"Shelley","name":"Topanga / CA","city":"CanogaPark","zipcode":"91303-2604","district":"SouthWest AE","geo_score":1.0,"ytd 2009":9755.0,"store #":341,"id":"a6br0rg500rm","geo_precision":"range","group":"Nordstrom","address":"21725 Victory Blvd","state":"CA"},"type":"Feature","geometry":{"type":"Point","coordinates":[-118.601815,34.187674]}},{"properties":{"account coordinator":"Shelley","name":"Westside Pavilion / Los Angeles, CA","city":"LosAngeles","zipcode":"90064-2106","district":"SouthWest AE","geo_score":1.0,"ytd 2009":11166.94,"store #":343,"id":"a6br0ret7a82","geo_precision":"range","group":"Nordstrom","address":"10830 W Pico Blvd","state":"CA"},"type":"Feature","geometry":{"type":"Point","coordinates":[-118.428016,34.040291]}},{"properties":{"account coordinator":"Shelley","name":"Paseo Nuevo in Santa Barbara / CA","city":"SantaBarbara","zipcode":"93101-3208","district":"SouthWest AE","geo_score":0.923,"ytd 2009":6774.56,"store #":344,"id":"a6br0rmn7a3i","geo_precision":"range","group":"Nordstrom","address":"17 W Canon Perdido St","state":"CA"},"type":"Feature","geometry":{"type":"Point","coordinates":[-119.700735,34.420344]}},{"properties":{"account coordinator":"Shelley","name":"Santa Anita / CA","city":"Arcadia","zipcode":"91007-1998","district":"SouthWest AE","geo_score":0.897,"ytd 2009":20424.56,"store #":345,"id":"a6br0ro1oftk","geo_precision":"range","group":"Nordstrom","address":"400 S Baldwin Ave Ste 200","state":"CA"},"type":"Feature","geometry":{"type":"Point","coordinates":[-118.054241,34.135999]}},{"properties":{"account coordinator":"Shelley","name":"The Oaks Shopping Center","city":"ThousandOaks","zipcode":"91360","district":"SouthWest AE","geo_score":0.891,"ytd 2009":9866.0,"store #":348,"id":"a6br0rpvi214","geo_precision":"range","group":"Nordstrom","address":"346 W Hillcrest Dr","state":"CA"},"type":"Feature","geometry":{"type":"Point","coordinates":[-118.870629,34.181212]}},{"properties":{"account coordinator":"Shelley","name":"The Grove (Farmers Market)  / CA","city":"LosAngeles","zipcode":"90036-6229","district":"SouthWest AE","geo_score":0.346,"ytd 2009":20302.31,"store #":349,"id":"a6br0roc0300","geo_precision":"street","group":"Nordstrom","address":"189 The Grove Dr","state":"CA"},"type":"Feature","geometry":{"type":"Point","coordinates":[-118.445235,34.101757]}},{"properties":{"account coordinator":"Katie","name":"Flat Iron Crossing / CO","city":"Broomfield","zipcode":"80021-8870","district":"SouthWest AE","geo_score":0.834,"ytd 2009":7082.43,"store #":35,"id":"a6br0rq0n1d2","geo_precision":"range","group":"Nordstrom","address":"21 W Flatiron Crossing Dr","state":"CO"},"type":"Feature","geometry":{"type":"Point","coordinates":[-105.134132,39.930241]}},{"properties":{"account coordinator":"Shelley","name":"Fashion Valley Center / CA","city":"SanDiego","zipcode":"92108-1295","district":"SouthWest AE","geo_score":1.0,"ytd 2009":15684.29,"store #":360,"id":"a6br0rfdo9ie","geo_precision":"range","group":"Nordstrom","address":"6997 Friars Road","state":"CA"},"type":"Feature","geometry":{"type":"Point","coordinates":[-117.169203,32.769594]}},{"properties":{"account coordinator":"Shelley","name":"University Town Centre (La Jolla    CA)","city":"SanDiego","zipcode":"92122-1279","district":"SouthWest AE","geo_score":0.537,"ytd 2009":12122.42,"store #":361,"id":"a6br0rn2fqba","geo_precision":"range","group":"Nordstrom","address":"4321 La Jolla Village Dr","state":"CA"},"type":"Feature","geometry":{"type":"Point","coordinates":[-117.146806,32.774612]}},{"properties":{"account coordinator":"Shelley","name":"Horton Plaza / CA","city":"SanDiego","zipcode":"92101-6192","district":"SouthWest AE","geo_score":0.707,"ytd 2009":9712.7,"store #":362,"id":"a6br0rl7n6me","geo_precision":"street","group":"Nordstrom","address":"103 Horton Plz","state":"CA"},"type":"Feature","geometry":{"type":"Point","coordinates":[-117.167578,32.730792]}},{"properties":{"account coordinator":"Shelley","name":"Nordstrom North County (Escondido    CA)","city":"Escondido","zipcode":"92025-8096","district":"SouthWest AE","geo_score":0.484,"ytd 2009":12060.05,"store #":364,"id":"a6br0rrmykiq","geo_precision":"street","group":"Nordstrom","address":"270 E Via Rancho Pkwy","state":"CA"},"type":"Feature","geometry":{"type":"Point","coordinates":[-117.174648,33.03457]}},{"properties":{"account coordinator":"Katie","name":null,"city":"Scottsdale","zipcode":"85251","district":"SouthWest AE","geo_score":0.878,"ytd 2009":16710.4,"store #":364,"id":"a6br0rhx0tvc","geo_precision":"range","group":"Sephora","address":"7014 East Camelback Rd","state":"AZ"},"type":"Feature","geometry":{"type":"Point","coordinates":[-111.930449,33.502196]}},{"properties":{"account coordinator":"Katie","name":"Cherry Creek / CO","city":"Denver","zipcode":"80206","district":"SouthWest AE","geo_score":0.916,"ytd 2009":13048.49,"store #":37,"id":"a6br0rq816us","geo_precision":"range","group":"Nordstrom","address":"2810 E 1st Ave","state":"CO"},"type":"Feature","geometry":{"type":"Point","coordinates":[-104.95181,39.718199]}},{"properties":{"account coordinator":"Shelley","name":null,"city":"SanDiego","zipcode":"92122","district":"SouthWest AE","geo_score":0.537,"ytd 2009":11370.45,"store #":38,"id":"a6br0rdu7j9o","geo_precision":"range","group":"Sephora","address":"4545 La Jolla Village Dr.","state":"CA"},"type":"Feature","geometry":{"type":"Point","coordinates":[-117.146818,32.77466]}},{"properties":{"account coordinator":"Katie","name":"University Mall / UT","city":"Orem","zipcode":"84097-7783","district":"SouthWest AE","geo_score":0.883,"ytd 2009":7849.18,"store #":38,"id":"a6br0rkokpt6","geo_precision":"range","group":"Nordstrom","address":"693 University Pkwy","state":"UT"},"type":"Feature","geometry":{"type":"Point","coordinates":[-111.678709,40.273089]}},{"properties":{"account coordinator":"Katie","name":"Fashion Square (Scottsdale    AZ)","city":"Scottsdale","zipcode":"85251-1203","district":"SouthWest AE","geo_score":1.0,"ytd 2009":9251.95,"store #":380,"id":"a6br0rf3bea6","geo_precision":"range","group":"Nordstrom","address":"7055 E Camelback Rd","state":"AZ"},"type":"Feature","geometry":{"type":"Point","coordinates":[-111.929683,33.502214]}},{"properties":{"account coordinator":"Katie","name":"Chandler Fashion Center/AZ","city":"Chandler","zipcode":"85226-5063","district":"SouthWest AE","geo_score":1.0,"ytd 2009":5534.47,"store #":381,"id":"a6br0rlvq95p","geo_precision":"range","group":"Nordstrom","address":"3199 W Chandler Blvd","state":"AZ"},"type":"Feature","geometry":{"type":"Point","coordinates":[-111.896838,33.305776]}},{"properties":{"account coordinator":"Ashanda","name":"Hillsdale Shopping Center / CA","city":"SanMateo","zipcode":"94403-3456","district":"SouthWest AE","geo_score":0.66,"ytd 2009":21687.56,"store #":420,"id":"a6br0rbl1lzg","geo_precision":"street","group":"Nordstrom","address":"130 Hillsdale Shopping Ctr","state":"CA"},"type":"Feature","geometry":{"type":"Point","coordinates":[-122.312059,37.529799]}},{"properties":{"account coordinator":"Ashanda","name":"Walnut Creek","city":"WalnutCreek","zipcode":"94596-5115","district":"SouthWest AE","geo_score":0.947,"ytd 2009":12455.32,"store #":421,"id":"a6br0rd8dd01","geo_precision":"range","group":"Nordstrom","address":"1200 Broadway Plz","state":"CA"},"type":"Feature","geometry":{"type":"Point","coordinates":[-122.058561,37.896599]}},{"properties":{"account coordinator":"Ashanda","name":"Stanford Shopping Center (Palo Alto    CA)","city":"PaloAlto","zipcode":"94304-1475","district":"SouthWest AE","geo_score":0.96,"ytd 2009":19072.44,"store #":422,"id":"a6br0rqj0vfa","geo_precision":"range","group":"Nordstrom","address":"550 Stanford Shopping Ctr","state":"CA"},"type":"Feature","geometry":{"type":"Point","coordinates":[-122.172955,37.439517]}},{"properties":{"account coordinator":"Ashanda","name":"The Village at Corte Madera / CA","city":"CorteMadera","zipcode":"94925-1235","district":"SouthWest AE","geo_score":0.911,"ytd 2009":60124.12,"store #":423,"id":"a6br0rnvt8xd","geo_precision":"range","group":"Nordstrom","address":"1870 Redwood Hwy","state":"CA"},"type":"Feature","geometry":{"type":"Point","coordinates":[-122.515666,37.935355]}},{"properties":{"account coordinator":"Ashanda","name":"Valley Fair / CA","city":"SanJose","zipcode":"95128-1521","district":"SouthWest AE","geo_score":0.927,"ytd 2009":15300.46,"store #":425,"id":"a6br0rr6c89r","geo_precision":"range","group":"Nordstrom","address":"2400 Forest Ave","state":"CA"},"type":"Feature","geometry":{"type":"Point","coordinates":[-121.946184,37.326968]}},{"properties":{"account coordinator":"Ashanda","name":"Stonestown Galleria / CA","city":"SanFrancisco","zipcode":"94132-1921","district":"SouthWest AE","geo_score":1.0,"ytd 2009":13474.31,"store #":426,"id":"a6br0rr974bd","geo_precision":"range","group":"Nordstrom","address":"285 Winston Dr","state":"CA"},"type":"Feature","geometry":{"type":"Point","coordinates":[-122.475963,37.726916]}},{"properties":{"account coordinator":"Ashanda","name":"San Francisco Shopping Centre / CA","city":"SanFrancisco","zipcode":"94103-1950","district":"SouthWest AE","geo_score":1.0,"ytd 2009":14906.43,"store #":427,"id":"a6br0rqmlg3o","geo_precision":"range","group":"Nordstrom","address":"865 Market St","state":"CA"},"type":"Feature","geometry":{"type":"Point","coordinates":[-122.406881,37.784645]}},{"properties":{"account coordinator":"Ashanda","name":"Arden Fair / Sacramento, CA","city":"Sacramento","zipcode":"95815-4036","district":"SouthWest AE","geo_score":0.967,"ytd 2009":10470.35,"store #":429,"id":"a6br0rok1yfi","geo_precision":"range","group":"Nordstrom","address":"1651 Arden Way","state":"CA"},"type":"Feature","geometry":{"type":"Point","coordinates":[-121.429153,38.6004]}},{"properties":{"account coordinator":"Ashanda","name":"Stoneridge Mall in Pleasanton / CA","city":"Pleasanton","zipcode":"94588-3246","district":"SouthWest AE","geo_score":1.0,"ytd 2009":9803.96,"store #":430,"id":"a6br0rc8edxw","geo_precision":"range","group":"Nordstrom","address":"1600 Stoneridge Mall Rd","state":"CA"},"type":"Feature","geometry":{"type":"Point","coordinates":[-121.93186,37.696535]}},{"properties":{"account coordinator":"Ashanda","name":"Galleria at Roseville / CA","city":"Roseville","zipcode":"95678-1935","district":"SouthWest AE","geo_score":0.464,"ytd 2009":11786.9,"store #":434,"id":"a6br0rkottq6","geo_precision":"street","group":"Nordstrom","address":"1131 Galleria Blvd","state":"CA"},"type":"Feature","geometry":{"type":"Point","coordinates":[-120.983636,38.669747]}},{"properties":{"account coordinator":"Ashanda","name":null,"city":"SanLuisObispo","zipcode":"93401","district":"SouthWest AE","geo_score":0.784,"ytd 2009":18686.26,"store #":438,"id":"a6br0rfvy4m9","geo_precision":"range","group":"Sephora","address":"1090 Court Street","state":"CA"},"type":"Feature","geometry":{"type":"Point","coordinates":[-120.661302,35.280941]}},{"properties":{"account coordinator":"Katie","name":null,"city":"Albuquerque","zipcode":"87110","district":"SouthWest AE","geo_score":0.902,"ytd 2009":17959.65,"store #":474,"id":"a6br0rin9rsp","geo_precision":"range","group":"Sephora","address":"6600 Menaul NE","state":"NM"},"type":"Feature","geometry":{"type":"Point","coordinates":[-106.570973,35.109108]}},{"properties":{"account coordinator":"Ashanda","name":null,"city":"PaloAlto","zipcode":"94304","district":"SouthWest AE","geo_score":1.0,"ytd 2009":24925.17,"store #":48,"id":"a6br0rnxnx9h","geo_precision":"range","group":"Sephora","address":"355 Stanford Shopping Center","state":"CA"},"type":"Feature","geometry":{"type":"Point","coordinates":[-122.172496,37.443882]}},{"properties":{"account coordinator":"Katie","name":null,"city":"Tucson","zipcode":"85705","district":"SouthWest AE","geo_score":0.5,"ytd 2009":9600.28,"store #":480,"id":"a6br0rndsjm7","geo_precision":"street","group":"Sephora","address":"4500 N. Oracle Road","state":"AZ"},"type":"Feature","geometry":{"type":"Point","coordinates":[-110.977909,32.23158]}},{"properties":{"account coordinator":"Katie","name":null,"city":null,"zipcode":null,"district":"SouthWest AE","geo_score":0.0,"ytd 2009":9616.31,"store #":492,"id":"a6br0rhje3iy","geo_precision":"unmatched","group":"Sephora","address":null,"state":"CO"},"type":"Feature","geometry":null},{"properties":{"account coordinator":"Ashanda","name":null,"city":"Sacramento","zipcode":"95815","district":"SouthWest AE","geo_score":0.967,"ytd 2009":8760.48,"store #":50,"id":"a6br0rp8bbjl","geo_precision":"range","group":"Sephora","address":"1689 Arden Way","state":"CA"},"type":"Feature","geometry":{"type":"Point","coordinates":[-121.428051,38.599978]}},{"properties":{"account coordinator":"Ashanda","name":null,"city":"Burlingame","zipcode":"94010","district":"SouthWest AE","geo_score":0.911,"ytd 2009":36994.46,"store #":52,"id":"a6br0rlxckv2","geo_precision":"range","group":"Sephora","address":"1205 Burlingame Avenue","state":"CA"},"type":"Feature","geometry":{"type":"Point","coordinates":[-122.346176,37.579184]}},{"properties":{"account coordinator":"Ashanda","name":null,"city":"SanFrancisco","zipcode":"94102","district":"SouthWest AE","geo_score":1.0,"ytd 2009":54242.98,"store #":58,"id":"a6br0rc5bcna","geo_precision":"range","group":"Sephora","address":"33 Powell Street","state":"CA"},"type":"Feature","geometry":{"type":"Point","coordinates":[-122.407738,37.784957]}},{"properties":{"account coordinator":"Katie","name":null,"city":null,"zipcode":null,"district":"SouthWest AE","geo_score":0.0,"ytd 2009":12274.15,"store #":602,"id":"a6br0rbfifmt","geo_precision":"unmatched","group":"Sephora","address":null,"state":"CO"},"type":"Feature","geometry":null},{"properties":{"account coordinator":"Ashanda","name":null,"city":null,"zipcode":null,"district":"SouthWest AE","geo_score":0.0,"ytd 2009":7463.25,"store #":632,"id":"a6br0rpgqvan","geo_precision":"unmatched","group":"Sephora","address":null,"state":"CA"},"type":"Feature","geometry":null},{"properties":{"account coordinator":"Ashanda","name":null,"city":"Fresno","zipcode":"93710","district":"SouthWest AE","geo_score":1.0,"ytd 2009":17963.25,"store #":88,"id":"a6br0rgdpf31","geo_precision":"range","group":"Sephora","address":"639 East Shaw Ave.","state":"CA"},"type":"Feature","geometry":{"type":"Point","coordinates":[-119.776487,36.808557]}},{"properties":{"account coordinator":"Katie","name":null,"city":"Glendale","zipcode":"85308","district":"SouthWest AE","geo_score":1.0,"ytd 2009":15580.7,"store #":94,"id":"a6br0rh34mbk","geo_precision":"range","group":"Sephora","address":"7700 W Arrowhead Towne Center","state":"AZ"},"type":"Feature","geometry":{"type":"Point","coordinates":[-112.22268,33.643722]}}],"is_temporal":false,"author":{"url":"","metadata":"","contact_name":"","contact_address":"","source":"","contact_phone":""},"source":"","pagination":{"sort":null,"start":0,"total":64,"limit":1000000},"state":"complete","tags":"","published":"2014-08-10T14:56:36-04:00","id":54657}