{"type":"FeatureCollection","data_type":"Dataset","url_type":null,"permissions":[{"permissions":{"download":true,"view":true},"group_id":"everyone"}],"classification":null,"title":"MidWest B","count":46,"stream_id":54661,"contributor":{"url":"http://geocommons.com/users/13366","name":"Locc150"},"data_attributes":null,"calculation_params":null,"icon_link":null,"link":"http://geocommons.com/overlays/54661.json","extent":[-97.5365,35.5219,-81.4947,47.5324],"geometry_types":["point"],"unique_name":null,"name":"MidWest B","feature_count":46,"description":"","next_feature":null,"is_raster":false,"short_classification":"Y","stats":{"geo_score":{"max":1.0,"mean":0.663391304347826,"variance":0.0887992212560386,"stdev":0.297991981865349,"min":0.0,"median":0.738},"ytd 2009":{"max":48895.41,"mean":14952.9882608696,"variance":64586671.5510147,"stdev":8036.58332570594,"min":4015.5,"median":13964.73},"store #":{"max":612,"mean":250.760869565217,"variance":8944.67487922706,"stdev":94.5762913167304,"min":108,"median":234}},"features":[{"properties":{"account coordinator":"Jaclyn","name":null,"city":"StLouis","zipcode":"63117","district":"MidWest","geo_score":0.785,"ytd 2009":12779.55,"store #":108,"id":"a637k1i0y355","geo_precision":"range","group":"Sephora","address":"2407 St Louis Galleria","state":"MO"},"type":"Feature","geometry":{"type":"Point","coordinates":[-90.208031,38.652346]}},{"properties":{"account coordinator":"Jaclyn","name":null,"city":"Westlake","zipcode":"44145","district":"MidWest","geo_score":0.61,"ytd 2009":11669.14,"store #":126,"id":"a637k1oann5e","geo_precision":"street","group":"Sephora","address":"25 Main Street","state":"OH"},"type":"Feature","geometry":{"type":"Point","coordinates":[-81.900746,41.379731]}},{"properties":{"account coordinator":"Jaclyn","name":null,"city":"Strongsville","zipcode":"44136","district":"MidWest","geo_score":0.808,"ytd 2009":8612.51,"store #":128,"id":"a637k1swl0cv","geo_precision":"street","group":"Sephora","address":"26 Southpark Center","state":"OH"},"type":"Feature","geometry":{"type":"Point","coordinates":[-81.820449,41.310925]}},{"properties":{"account coordinator":"Katie","name":null,"city":"OverlandPark","zipcode":"66214","district":"MidWest","geo_score":0.819,"ytd 2009":14300.77,"store #":134,"id":"a637k1jbnj79","geo_precision":"range","group":"Sephora","address":"11731 West 95th St","state":"KS"},"type":"Feature","geometry":{"type":"Point","coordinates":[-94.721517,38.956537]}},{"properties":{"account coordinator":"Jaclyn","name":null,"city":"Madison","zipcode":"53719","district":"MidWest","geo_score":0.717,"ytd 2009":13169.75,"store #":154,"id":"a637k1tr6nv1","geo_precision":"street","group":"Sephora","address":"71 West Towne Mall","state":"WI"},"type":"Feature","geometry":{"type":"Point","coordinates":[-89.511679,43.057486]}},{"properties":{"account coordinator":"Jaclyn","name":null,"city":"Roseville","zipcode":"55113","district":"MidWest","geo_score":0.608,"ytd 2009":15144.47,"store #":164,"id":"a637k1jzuvj8","geo_precision":"street","group":"Sephora","address":"2016 Rosedale Center","state":"MN"},"type":"Feature","geometry":{"type":"Point","coordinates":[-93.193477,45.000305]}},{"properties":{"account coordinator":"Jaclyn","name":null,"city":null,"zipcode":null,"district":"MidWest","geo_score":0.0,"ytd 2009":5182.24,"store #":188,"id":"a637k1j4wv0m","geo_precision":"unmatched","group":"Sephora","address":"Independence","state":"MO"},"type":"Feature","geometry":null},{"properties":{"account coordinator":"Jaclyn","name":null,"city":"WestDesMoines","zipcode":"50266","district":"MidWest","geo_score":0.805,"ytd 2009":20727.32,"store #":210,"id":"a637k1f7v8ga","geo_precision":"street","group":"Sephora","address":"101 Jordan Creek Parkway","state":"IA"},"type":"Feature","geometry":{"type":"Point","coordinates":[-93.8092,41.5768]}},{"properties":{"account coordinator":"Jaclyn","name":null,"city":"Mishawaka","zipcode":"46545","district":"MidWest","geo_score":0.768,"ytd 2009":17657.71,"store #":212,"id":"a637k1ixc9ok","geo_precision":"street","group":"Sephora","address":"6501 North Grape Road #472A","state":"IN"},"type":"Feature","geometry":{"type":"Point","coordinates":[-86.186825,41.680355]}},{"properties":{"account coordinator":"Jaclyn","name":null,"city":"OrlandPark","zipcode":"60462","district":"MidWest","geo_score":0.518,"ytd 2009":16940.05,"store #":218,"id":"a637k1oqvuo5","geo_precision":"street","group":"Sephora","address":"730 Square Drive","state":"IL"},"type":"Feature","geometry":{"type":"Point","coordinates":[-87.835301,41.632389]}},{"properties":{"account coordinator":"Jaclyn","name":"Michigan Avenue / IL","city":"Chicago","zipcode":"60611-5615","district":"MidWest","geo_score":1.0,"ytd 2009":18865.52,"store #":220,"id":"a637k1psmo6p","geo_precision":"range","group":"Nordstrom","address":"55 E Grand Ave","state":"IL"},"type":"Feature","geometry":{"type":"Point","coordinates":[-87.626358,41.89169]}},{"properties":{"account coordinator":"Jaclyn","name":null,"city":"DeerPark","zipcode":"60010","district":"MidWest","geo_score":0.738,"ytd 2009":13959.88,"store #":220,"id":"a637k1lu56gr","geo_precision":"street","group":"Sephora","address":"20530 North Rand Road","state":"IL"},"type":"Feature","geometry":{"type":"Point","coordinates":[-88.048321,42.160032]}},{"properties":{"account coordinator":"Jaclyn","name":"Oakbrook / IL","city":"OakBrook","zipcode":"60523-1830","district":"MidWest","geo_score":0.752,"ytd 2009":17243.37,"store #":221,"id":"a637k1mtzjx6","geo_precision":"street","group":"Nordstrom","address":"10 Oakbrook Ctr","state":"IL"},"type":"Feature","geometry":{"type":"Point","coordinates":[-87.986798,41.833124]}},{"properties":{"account coordinator":"Jaclyn","name":null,"city":"Omaha","zipcode":"68118","district":"MidWest","geo_score":0.805,"ytd 2009":12598.96,"store #":222,"id":"a637k1erjrxu","geo_precision":"street","group":"Sephora","address":"17101 Davenport St.","state":"NE"},"type":"Feature","geometry":{"type":"Point","coordinates":[-96.169015,41.259667]}},{"properties":{"account coordinator":"Jaclyn","name":"Mall of America / MN","city":"Bloomington","zipcode":"55425-5502","district":"MidWest","geo_score":0.39,"ytd 2009":11622.88,"store #":222,"id":"a637k1hcwn58","geo_precision":"street","group":"Nordstrom","address":"1000 NW Court","state":"MN"},"type":"Feature","geometry":{"type":"Point","coordinates":[-93.164065,45.176849]}},{"properties":{"account coordinator":"Jaclyn","name":"Old Orchard Center / IL","city":"Skokie","zipcode":"60077-1406","district":"MidWest","geo_score":0.963,"ytd 2009":14586.74,"store #":223,"id":"a637k1gbqutc","geo_precision":"range","group":"Nordstrom","address":"77 Old Orchard Shopping Ctr","state":"IL"},"type":"Feature","geometry":{"type":"Point","coordinates":[-87.748043,42.061478]}},{"properties":{"account coordinator":"Jaclyn","name":"Woodfield Shoppring Center / IL","city":"Schaumburg","zipcode":"60173-5035","district":"MidWest","geo_score":0.688,"ytd 2009":7593.62,"store #":225,"id":"a637k1iydao2","geo_precision":"street","group":"Nordstrom","address":"6 Woodfield Shopping Ctr","state":"IL"},"type":"Feature","geometry":{"type":"Point","coordinates":[-88.057459,42.045764]}},{"properties":{"account coordinator":"Jaclyn","name":"Circle Centre / IN","city":"Indianapolis","zipcode":"46225-1046","district":"MidWest","geo_score":1.0,"ytd 2009":7393.18,"store #":226,"id":"a637k1j67rh5","geo_precision":"range","group":"Nordstrom","address":"130 S Meridian St","state":"IN"},"type":"Feature","geometry":{"type":"Point","coordinates":[-86.158172,39.764848]}},{"properties":{"account coordinator":"Jaclyn","name":"Beechwood Place / OH","city":"Beachwood","zipcode":"44122-1155","district":"MidWest","geo_score":0.902,"ytd 2009":7587.47,"store #":227,"id":"a637k1k0dosf","geo_precision":"range","group":"Nordstrom","address":"26200 Cedar Rd","state":"OH"},"type":"Feature","geometry":{"type":"Point","coordinates":[-81.494698,41.501214]}},{"properties":{"account coordinator":"Jaclyn","name":null,"city":"Toledo","zipcode":"43623","district":"MidWest","geo_score":0.902,"ytd 2009":15209.45,"store #":230,"id":"a637k1omrz5t","geo_precision":"range","group":"Sephora","address":"Westfield Franklin Park, 5001 Monroe St","state":"OH"},"type":"Feature","geometry":{"type":"Point","coordinates":[-83.640553,41.697837]}},{"properties":{"account coordinator":"Katie","name":"Oak Park Mall / KS","city":"OverlandPark","zipcode":"66214-1824","district":"MidWest","geo_score":0.819,"ytd 2009":18732.31,"store #":230,"id":"a637k1edhsh1","geo_precision":"range","group":"Nordstrom","address":"11143 W 95th St","state":"KS"},"type":"Feature","geometry":{"type":"Point","coordinates":[-94.715282,38.956551]}},{"properties":{"account coordinator":"Katie","name":"West County Center / MO","city":"DesPeres","zipcode":"63131-3701","district":"MidWest","geo_score":0.493,"ytd 2009":16259.68,"store #":232,"id":"a637k1tsg05w","geo_precision":"street","group":"Nordstrom","address":"47 W County Ctr","state":"MO"},"type":"Feature","geometry":{"type":"Point","coordinates":[-90.320746,38.657507]}},{"properties":{"account coordinator":"Jaclyn","name":"Easton Town Center / OH","city":"Columbus","zipcode":"43219-6119","district":"MidWest","geo_score":0.878,"ytd 2009":6190.5,"store #":234,"id":"a637k1expwr7","geo_precision":"street","group":"Nordstrom","address":"4000 Worth Ave","state":"OH"},"type":"Feature","geometry":{"type":"Point","coordinates":[-82.915161,40.054347]}},{"properties":{"account coordinator":"Jaclyn","name":null,"city":"Chesterfield","zipcode":"63017","district":"MidWest","geo_score":0.707,"ytd 2009":9802.65,"store #":234,"id":"a637k1jiyf57","geo_precision":"street","group":"Sephora","address":"2008 Chesterfield Mall","state":"MO"},"type":"Feature","geometry":{"type":"Point","coordinates":[-90.562364,38.649526]}},{"properties":{"account coordinator":"Jaclyn","name":null,"city":"Springfield","zipcode":"65804","district":"MidWest","geo_score":1.0,"ytd 2009":14216.08,"store #":236,"id":"a637k1rf4e00","geo_precision":"range","group":"Sephora","address":"2825 South Glenstone Ave","state":"MO"},"type":"Feature","geometry":{"type":"Point","coordinates":[-93.262522,37.16255]}},{"properties":{"account coordinator":"Jaclyn","name":"Fashion Mall at Keystone / Indianapolis, IN","city":"Indianapolis","zipcode":"46240","district":"MidWest","geo_score":0.925,"ytd 2009":8586.0,"store #":238,"id":"a637k1r9rqvg","geo_precision":"range","group":"Nordstrom","address":"8702 Keystone Crossing","state":"IN"},"type":"Feature","geometry":{"type":"Point","coordinates":[-86.109502,39.91434]}},{"properties":{"account coordinator":"Jaclyn","name":"Kenwood Towne Center /","city":"Cincinnati","zipcode":"45236","district":"MidWest","geo_score":0.912,"ytd 2009":9970.2,"store #":239,"id":"a637k1e4okix","geo_precision":"range","group":"Nordstrom","address":"7801 Montgomery Road","state":"OH"},"type":"Feature","geometry":{"type":"Point","coordinates":[-84.380414,39.198935]}},{"properties":{"account coordinator":"Jaclyn","name":null,"city":"Minnetonka","zipcode":"55305","district":"MidWest","geo_score":0.488,"ytd 2009":15733.58,"store #":240,"id":"a637k1jx10pn","geo_precision":"street","group":"Sephora","address":"12669 Wayzata Blvd.","state":"MN"},"type":"Feature","geometry":{"type":"Point","coordinates":[-93.465543,44.971278]}},{"properties":{"account coordinator":"Jaclyn","name":null,"city":"MN","zipcode":null,"district":"MidWest","geo_score":0.771,"ytd 2009":18160.28,"store #":242,"id":"a637k1g4log4","geo_precision":"city","group":"Sephora","address":"Minneapolis","state":"MN"},"type":"Feature","geometry":{"type":"Point","coordinates":[-92.107672,47.532424]}},{"properties":{"account coordinator":"Jaclyn","name":null,"city":"Chicago","zipcode":"60611","district":"MidWest","geo_score":0.607,"ytd 2009":48895.41,"store #":244,"id":"a637k1q39yrl","geo_precision":"street","group":"Sephora","address":"520 N. Michigan Ave.","state":"IL"},"type":"Feature","geometry":{"type":"Point","coordinates":[-87.624286,41.889376]}},{"properties":{"account coordinator":"Jaclyn","name":null,"city":"Columbus","zipcode":"43240","district":"MidWest","geo_score":1.0,"ytd 2009":13797.13,"store #":246,"id":"a637k1k80v40","geo_precision":"range","group":"Sephora","address":"1500 Polaris Parkway","state":"OH"},"type":"Feature","geometry":{"type":"Point","coordinates":[-82.980505,40.141195]}},{"properties":{"account coordinator":"Jaclyn","name":null,"city":null,"zipcode":null,"district":"MidWest","geo_score":0.0,"ytd 2009":21241.4,"store #":248,"id":"a637k1etm91y","geo_precision":"unmatched","group":"Sephora","address":null,"state":"IL"},"type":"Feature","geometry":null},{"properties":{"account coordinator":"Jaclyn","name":null,"city":"Schaumburg","zipcode":"60173","district":"MidWest","geo_score":0.631,"ytd 2009":16837.77,"store #":250,"id":"a637k1fflxfi","geo_precision":"street","group":"Sephora","address":"#5 Woodfield Shopping Center Store E 329","state":"IL"},"type":"Feature","geometry":{"type":"Point","coordinates":[-88.057459,42.045764]}},{"properties":{"account coordinator":"Jaclyn","name":null,"city":"Northbrook","zipcode":"60062","district":"MidWest","geo_score":0.738,"ytd 2009":19859.63,"store #":252,"id":"a637k1ltsms5","geo_precision":"street","group":"Sephora","address":"2171 Northbrook Court","state":"IL"},"type":"Feature","geometry":{"type":"Point","coordinates":[-87.797345,42.135875]}},{"properties":{"account coordinator":"Jaclyn","name":null,"city":"Oakbrook","zipcode":"60523","district":"MidWest","geo_score":1.0,"ytd 2009":20859.05,"store #":254,"id":"a637k1f9ax7x","geo_precision":"range","group":"Sephora","address":"70 Oakbrook Center","state":"IL"},"type":"Feature","geometry":{"type":"Point","coordinates":[-87.957612,41.8467]}},{"properties":{"account coordinator":"Jaclyn","name":null,"city":"Milwakee","zipcode":null,"district":"MidWest","geo_score":0.841,"ytd 2009":12912.65,"store #":256,"id":"a637k1ix4lix","geo_precision":"city","group":"Sephora","address":null,"state":"WI"},"type":"Feature","geometry":{"type":"Point","coordinates":[-87.906474,43.038903]}},{"properties":{"account coordinator":"Jaclyn","name":null,"city":"Cincinatti","zipcode":null,"district":"MidWest","geo_score":0.829,"ytd 2009":12990.18,"store #":258,"id":"a637k1lam4op","geo_precision":"city","group":"Sephora","address":null,"state":"OH"},"type":"Feature","geometry":{"type":"Point","coordinates":[-84.456886,39.162004]}},{"properties":{"account coordinator":"Jaclyn","name":null,"city":null,"zipcode":null,"district":"MidWest","geo_score":0.0,"ytd 2009":13964.73,"store #":268,"id":"a637k1jt4vox","geo_precision":"unmatched","group":"Sephora","address":"Indianapolis","state":"IN"},"type":"Feature","geometry":null},{"properties":{"account coordinator":"Jaclyn","name":null,"city":"Dayton","zipcode":"45440","district":"MidWest","geo_score":0.61,"ytd 2009":15553.88,"store #":272,"id":"a637k1jkc51o","geo_precision":"street","group":"Sephora","address":"4421 Glengarry Drive","state":"OH"},"type":"Feature","geometry":{"type":"Point","coordinates":[-84.106298,39.693981]}},{"properties":{"account coordinator":"Jaclyn","name":null,"city":"Beachwood","zipcode":"44122","district":"MidWest","geo_score":0.707,"ytd 2009":10014.17,"store #":280,"id":"a637k1qe9ga1","geo_precision":"street","group":"Sephora","address":"26300 Cedar Road #1250","state":"OH"},"type":"Feature","geometry":{"type":"Point","coordinates":[-81.519012,41.501357]}},{"properties":{"account coordinator":"Jaclyn","name":null,"city":"DesPeres","zipcode":"63131","district":"MidWest","geo_score":0.732,"ytd 2009":12176.05,"store #":282,"id":"a637k1ogvn39","geo_precision":"range","group":"Sephora","address":"37 West County Center","state":"MO"},"type":"Feature","geometry":{"type":"Point","coordinates":[-90.328467,38.504344]}},{"properties":{"account coordinator":"Jaclyn","name":null,"city":"Chicago","zipcode":"60611","district":"MidWest","geo_score":0.607,"ytd 2009":38607.5,"store #":386,"id":"a637k1ibfuow","geo_precision":"street","group":"Sephora","address":"845 N. Michigan Ave","state":"IL"},"type":"Feature","geometry":{"type":"Point","coordinates":[-87.624286,41.889376]}},{"properties":{"account coordinator":"Katie","name":null,"city":"OklahomaCity","zipcode":"73118","district":"MidWest","geo_score":0.643,"ytd 2009":29931.55,"store #":446,"id":"a637k1o38yvn","geo_precision":"street","group":"Sephora","address":"1901 N.W. Expressway","state":"OK"},"type":"Feature","geometry":{"type":"Point","coordinates":[-97.536521,35.521948]}},{"properties":{"account coordinator":"Jaclyn","name":null,"city":null,"zipcode":null,"district":"MidWest","geo_score":0.0,"ytd 2009":6204.77,"store #":482,"id":"a637k1feacqz","geo_precision":"unmatched","group":"Sephora","address":null,"state":"KS"},"type":"Feature","geometry":null},{"properties":{"account coordinator":"Jaclyn","name":null,"city":null,"zipcode":null,"district":"MidWest","geo_score":0.0,"ytd 2009":9480.23,"store #":496,"id":"a637k1ko4y3w","geo_precision":"unmatched","group":"Sephora","address":null,"state":"IN"},"type":"Feature","geometry":null},{"properties":{"account coordinator":"Jaclyn","name":null,"city":null,"zipcode":null,"district":"MidWest","geo_score":0.0,"ytd 2009":4015.5,"store #":612,"id":"a637k1lbikft","geo_precision":"unmatched","group":"Sephora","address":"1251 US Highway 31 N Greenwood","state":"IN"},"type":"Feature","geometry":null}],"is_temporal":false,"author":{"url":"","metadata":"","contact_name":"","contact_address":"","source":"","contact_phone":""},"source":"","pagination":{"sort":null,"start":0,"total":46,"limit":1000000},"state":"complete","tags":"","published":"2014-08-10T14:56:47-04:00","id":54661}