{"type":"FeatureCollection","data_type":"Dataset","url_type":null,"permissions":[{"permissions":{"download":true,"view":true},"group_id":"everyone"}],"classification":null,"title":"ftl1","count":99,"stream_id":54937,"contributor":{"url":"http://geocommons.com/users/13943","name":"gregular"},"data_attributes":null,"calculation_params":null,"icon_link":null,"link":"http://geocommons.com/overlays/54937.json","extent":[-80.2675,26.0026,-80.1009,26.1757],"geometry_types":["point"],"unique_name":null,"name":"ftl1","feature_count":99,"description":"","next_feature":null,"is_raster":false,"short_classification":"Y","stats":{},"features":[{"properties":{"name":"Acevedo Martinez, Fermin Antonio and Daisy","id":"a6ia4dyh1rmm","address":"2072 SW 72nd Avenue, Davie, Florida 33317","phone number":"954-473-5252"},"type":"Feature","geometry":{"type":"Point","coordinates":[-80.227414,26.091476]}},{"properties":{"name":"Ackbar-Morais, Cislyn","id":"a6ia4dv22vwd","address":"7280 NW 7th Street, Plantation, Florida 33317","phone number":"954-584-4993"},"type":"Feature","geometry":{"type":"Point","coordinates":[-80.244522,26.131604]}},{"properties":{"name":"Adams, debbie","id":"a6ia4dxrsbux","address":"6655 Broward Blvd #101D, Plantation, Florida 33317","phone number":"305-742-6793"},"type":"Feature","geometry":{"type":"Point","coordinates":[-80.235341,26.120809]}},{"properties":{"name":"Agenor, Maudeline Christina","id":"a6ia4e5lxd42","address":"372 E Dayton Cir, Fort Lauderdale, Florida","phone number":null},"type":"Feature","geometry":{"type":"Point","coordinates":[-80.191033,26.117166]}},{"properties":{"name":"Aguilar, Michael Elias","id":"a6ia4e5cf633","address":"200 Se 20th St Apt 5, Fort Lauderdale, Florida 33316","phone number":null},"type":"Feature","geometry":{"type":"Point","coordinates":[-80.139808,26.096468]}},{"properties":{"name":"Alfred Francis, Francilia","id":"a6ia4dy8lp2m","address":"1980 NW 46 Ave #132, Lauderhill, Florida 33313","phone number":null},"type":"Feature","geometry":{"type":"Point","coordinates":[-80.210027,26.15128]}},{"properties":{"name":"Alfred, Yvrose","id":"a6ia4dzwjcty","address":"2661 SW 8th Street, Fort Lauderdale, Florida 33312","phone number":"954-593-2843"},"type":"Feature","geometry":{"type":"Point","coordinates":[-80.176981,26.111395]}},{"properties":{"name":"Allred, Robert and Jennifer","id":"a6ia4e8b2seh","address":"7173 Orange Dr #214B, Davie, Florida 33314","phone number":"954-915-6689"},"type":"Feature","geometry":{"type":"Point","coordinates":[-80.23151,26.046066]}},{"properties":{"name":"Almendarez, Marie Jessie","id":"a6ia4e261pjc","address":"1515 sw 6th Ave., Fort Lauderdale, Florida","phone number":"954-709-2198"},"type":"Feature","geometry":{"type":"Point","coordinates":[-80.149028,26.102006]}},{"properties":{"name":"Armsby, Olgan Nathaniel and Brenda Maria","id":"a6ia4dx6a78m","address":"1795 NW 60th Avenue, Apt B, Sunrise, Florida 33313","phone number":"954-714-7956"},"type":"Feature","geometry":{"type":"Point","coordinates":[-80.23104,26.148431]}},{"properties":{"name":"Arnold, Wiley Raymond","id":"a6ia4e94tga2","address":"2349 Sw 34th Ave, Fort Lauderdale, Florida 33312","phone number":null},"type":"Feature","geometry":{"type":"Point","coordinates":[-80.190533,26.092744]}},{"properties":{"name":"Asturrizaga, Christopher Lawrence","id":"a6ia4e746fv6","address":"4217 W. Broward Blvd, Plantation, Florida 33317","phone number":"954-549-8964"},"type":"Feature","geometry":{"type":"Point","coordinates":[-80.205221,26.120882]}},{"properties":{"name":"Asturrizaga, William, Jr","id":"a6ia4e0bzhr5","address":"4217 W. Broward Blvd, Plantation, Florida 33317","phone number":"954-303-8221"},"type":"Feature","geometry":{"type":"Point","coordinates":[-80.205221,26.120882]}},{"properties":{"name":"Baggerly, Joyce Ann","id":"a6ia4dxu8bmm","address":"640 North Fig Tree Lane, Plantation, Florida 33317","phone number":null},"type":"Feature","geometry":{"type":"Point","coordinates":[-80.227998,26.130063]}},{"properties":{"name":"Baker, Mark Alexander","id":"a6ia4dvfscfs","address":"317 Ne 29th St, Wilton Manors, Florida 33334","phone number":"(954)563-4176"},"type":"Feature","geometry":{"type":"Point","coordinates":[-80.141858,26.163319]}},{"properties":{"name":"Baker, Mark Allen and Bethany","id":"a6ia4e3220s4","address":"7100 Nova Dr. #206, Davie, Florida 33317","phone number":"801-859-1745"},"type":"Feature","geometry":{"type":"Point","coordinates":[-80.228599,26.087205]}},{"properties":{"name":"Baptiste, Christopher","id":"a6ia4e9snx5o","address":"2404 NW 39 Way, Apt. 201, Lauderdale Lakes, Florida 33311","phone number":"954-739-4977"},"type":"Feature","geometry":{"type":"Point","coordinates":[-80.201766,26.155714]}},{"properties":{"name":"Baptiste, Marc and Denise","id":"a6ia4e7bpq9n","address":"632 sw 16th Ave. Apt. D, Fort Lauderdale, Florida 33312","phone number":"954-213-3703"},"type":"Feature","geometry":{"type":"Point","coordinates":[-80.162896,26.11347]}},{"properties":{"name":"Barbara, Angela Renee","id":"a6ia4e082osr","address":"7240 NW 7th Court, Plantation, Florida 33317","phone number":"954-584-6031"},"type":"Feature","geometry":{"type":"Point","coordinates":[-80.243818,26.132389]}},{"properties":{"name":"Bardowell, Richard St Michael","id":"a6ia4e14u46u","address":"5660 S 3rd Court, Plantation, Florida 33317","phone number":"954-581-4835"},"type":"Feature","geometry":{"type":"Point","coordinates":[-80.225488,26.116366]}},{"properties":{"name":"Barnes, Reginald Vance","id":"a6ia4dyt2r72","address":"2840 N Ocean Blvd Apt 309, Fort Lauderdale, Florida 33308","phone number":"(954)564-9991"},"type":"Feature","geometry":{"type":"Point","coordinates":[-80.100879,26.163446]}},{"properties":{"name":"Beale, A D","id":"a6ia4dv70siv","address":"1525 NW 5th Street, Fort Lauderdale, Florida 33312","phone number":"954-494-8031"},"type":"Feature","geometry":{"type":"Point","coordinates":[-80.16136,26.116378]}},{"properties":{"name":"Beatty, Kimberly Jane","id":"a6ia4e8mxvpy","address":"1633 SW 44th Terr, Fort Lauderdale, Florida 33317","phone number":"954-822-6085"},"type":"Feature","geometry":{"type":"Point","coordinates":[-80.208827,26.101439]}},{"properties":{"name":"Bedrosian, Clara Jean","id":"a6ia4e95rrvd","address":"4044 Nw 19th St Apt 106-G, Lauderhill, Florida 33313","phone number":null},"type":"Feature","geometry":{"type":"Point","coordinates":[-80.203403,26.150611]}},{"properties":{"name":"Beggs, Daniel Claude","id":"a6ia4dyjh71u","address":"813 Ne 22nd Dr, Wilton Manors Fl, Florida 33305","phone number":null},"type":"Feature","geometry":{"type":"Point","coordinates":[-80.134909,26.156231]}},{"properties":{"name":"Behling, John Robert and Christine","id":"a6ia4dv4dj19","address":"1204 SE 5th Court, Fort Lauderdale, Florida 33301","phone number":null},"type":"Feature","geometry":{"type":"Point","coordinates":[-80.130887,26.115309]}},{"properties":{"name":"Bell, Brian Matthew and Carisa Maria","id":"a6ia4e98ljc0","address":"901 Sw 16th St # 903, Fort Lauderdale, Florida 33315","phone number":"(954)523-2391"},"type":"Feature","geometry":{"type":"Point","coordinates":[-80.153896,26.100959]}},{"properties":{"name":"Bennett, Earl Andrew","id":"a6ia4dz1iitj","address":"7175 Orange Dr # 212, Davie, Florida 33314","phone number":"(954)472-1780"},"type":"Feature","geometry":{"type":"Point","coordinates":[-80.23151,26.046066]}},{"properties":{"name":"Bentley, Ralph Eugene, Jr","id":"a6ia4e3ys5by","address":"1240 SE 13th Terrace, Fort Lauderdale, Florida 33316","phone number":null},"type":"Feature","geometry":{"type":"Point","coordinates":[-80.129962,26.106848]}},{"properties":{"name":"Benzon, Josef Andrew","id":"a6ia4e46mymp","address":"2445 SW 18TH terrace #620, Fort Lauderdale, Florida 33324","phone number":null},"type":"Feature","geometry":{"type":"Point","coordinates":[-80.254435,26.098066]}},{"properties":{"name":"Berensen, Casey James","id":"a6ia4dxfgjvz","address":"1926 S W 4th St, Fort Lauderdale, Florida 33312","phone number":"954-597-7041"},"type":"Feature","geometry":{"type":"Point","coordinates":[-80.167021,26.118115]}},{"properties":{"name":"Best, Debra Ann","id":"a6ia4e4d2z4p","address":"3560 Nw 7th St, Fort Lauderdale, Florida 33311","phone number":"(954)423-4104"},"type":"Feature","geometry":{"type":"Point","coordinates":[-80.196139,26.129668]}},{"properties":{"name":"Bethel, Frederick Uhuru and Scherrie Rochelle A","id":"a6ia4e000co3","address":"6101 Palm Trace Landings Drive #109, Davie, Florida 33314","phone number":"954-689-7638"},"type":"Feature","geometry":{"type":"Point","coordinates":[-80.23151,26.046066]}},{"properties":{"name":"Bezerra, Antonio Herberte Paz","id":"a6ia4e5t39lz","address":"2796 S. University Drive #2208, Davie, Florida 33328","phone number":"954-865-1123"},"type":"Feature","geometry":{"type":"Point","coordinates":[-80.252076,26.076216]}},{"properties":{"name":"Bienaime, Loricia","id":"a6ia4dxn90tp","address":"190 NW 40th St, Oakland Park, Florida 33309","phone number":"954-327-4977"},"type":"Feature","geometry":{"type":"Point","coordinates":[-80.148199,26.175707]}},{"properties":{"name":"Black, Lorraine Santina","id":"a6ia4dzh64ua","address":"5801 NW 17TH PL #7, SUNRISE, Florida 33313","phone number":"561-860-1284"},"type":"Feature","geometry":{"type":"Point","coordinates":[-80.2273,26.147976]}},{"properties":{"name":"Blough, Nancy Elizabeth","id":"a6ia4e4lla1j","address":"1701 NW 75th Avenue #203, Plantation, Florida 33317","phone number":"954-581-5347"},"type":"Feature","geometry":{"type":"Point","coordinates":[-80.247822,26.122287]}},{"properties":{"name":"Blume, Tricia Lee","id":"a6ia4e3aygbt","address":"2081 SW 27th Ave, Fort Lauderdale, Florida 33312","phone number":"954-804-8741"},"type":"Feature","geometry":{"type":"Point","coordinates":[-80.177206,26.096263]}},{"properties":{"name":"Bode, Hans Peter","id":"a6ia4e2qzjpq","address":"200 S Birch Road #606, Fort Lauderdale, Florida 33316","phone number":null},"type":"Feature","geometry":{"type":"Point","coordinates":[-80.106866,26.120904]}},{"properties":{"name":"Boehme, Jeffrey Michael","id":"a6ia4dzpdqnt","address":"1118 N E 18th Ct, Ft Lauderdale, Florida 33305","phone number":"(954)649-8772"},"type":"Feature","geometry":{"type":"Point","coordinates":[-80.132967,26.152383]}},{"properties":{"name":"Booth, Scott Jerome","id":"a6ia4dy6is10","address":"4261 Sw 72nd Ter, Davie, Florida 33314","phone number":"---"},"type":"Feature","geometry":{"type":"Point","coordinates":[-80.232225,26.068552]}},{"properties":{"name":"Bowmaster, Cindy Marie","id":"a6ia4e1taf9c","address":"6655 W Broward Blvd #404, Plantation, Florida 33317","phone number":"(954)584-5158"},"type":"Feature","geometry":{"type":"Point","coordinates":[-80.235341,26.120809]}},{"properties":{"name":"Boyd, Stacie Michelle","id":"a6ia4dxilauv","address":"2916 NW 60th Terr Apr 526, Sunrise, Florida 33313","phone number":"810-836-5421"},"type":"Feature","geometry":{"type":"Point","coordinates":[-80.233809,26.162597]}},{"properties":{"name":"Brauss, Robert Charles, Jr","id":"a6ia4dwo7tf1","address":"3628 SW 23rd Court, Fort Lauderdale, Florida 33312","phone number":"954-583-1168"},"type":"Feature","geometry":{"type":"Point","coordinates":[-80.195275,26.092586]}},{"properties":{"name":"Brown, Benjamin J and Christina","id":"a6ia4dv2633t","address":"2109 SW 72nd Ave, Davie, Florida 33317","phone number":"954-370-4890"},"type":"Feature","geometry":{"type":"Point","coordinates":[-80.227414,26.091476]}},{"properties":{"name":"Brown, Joel Andrae","id":"a6ia4e2p5ud8","address":"3610 NW 21 St, Lauderdale Lakes, Florida","phone number":"754-234-8935"},"type":"Feature","geometry":{"type":"Point","coordinates":[-80.202968,26.153768]}},{"properties":{"name":"Brown, Leona Mae","id":"a6ia4e88ualc","address":"930 NW 35th Terrace, Fort Lauderdale, Florida 33311","phone number":"954-581-8743"},"type":"Feature","geometry":{"type":"Point","coordinates":[-80.195851,26.13451]}},{"properties":{"name":"Brown, Lysent Roy","id":"a6ia4dv2u66a","address":"4550 NW 25th Place, Lauderhill, Florida 33313","phone number":"954-709-7173"},"type":"Feature","geometry":{"type":"Point","coordinates":[-80.211063,26.157884]}},{"properties":{"name":"Brown, Mark Andrew","id":"a6ia4e6grcpv","address":"7071 NW 6th Court, Plantation, Florida 33317","phone number":null},"type":"Feature","geometry":{"type":"Point","coordinates":[-80.241615,26.130602]}},{"properties":{"name":"Brown, Melva Grace","id":"a6ia4e15nz3m","address":"4044 NW 19th St.   #G-403, Lauderhill, Florida 33313","phone number":"954-484-7575"},"type":"Feature","geometry":{"type":"Point","coordinates":[-80.203403,26.150611]}},{"properties":{"name":"Brown, Mink Jasmine","id":"a6ia4e6pbbgj","address":"3425 SW 12th Place, Fort Lauderdale, Florida 33312","phone number":"954-326-4557"},"type":"Feature","geometry":{"type":"Point","coordinates":[-80.191932,26.105478]}},{"properties":{"name":"Brown, Mink Stanisha","id":"a6ia4dwjr40s","address":"3425 SW 12th Place, Fort Lauderdale, Florida 33312","phone number":"954-683-5982"},"type":"Feature","geometry":{"type":"Point","coordinates":[-80.191932,26.105478]}},{"properties":{"name":"Brown, Stanley Edward and Vendetta I","id":"a6ia4e0hnppf","address":"3425 SW 12th Place, Fort Lauderdale, Florida 33312","phone number":"954-548-8085"},"type":"Feature","geometry":{"type":"Point","coordinates":[-80.191932,26.105478]}},{"properties":{"name":"Brown, Steve and Crystal Dawn","id":"a6ia4duw55do","address":"7175 Nova Dr. #101, Davie, Florida 33317","phone number":"801-367-7611"},"type":"Feature","geometry":{"type":"Point","coordinates":[-80.228599,26.087205]}},{"properties":{"name":"Bryant, Willie Mae","id":"a6ia4ean641i","address":"2932 NW 11th Place, Fort Lauderdale, Florida 33311","phone number":null},"type":"Feature","geometry":{"type":"Point","coordinates":[-80.18324,26.139225]}},{"properties":{"name":"Burges, John and Debbie","id":"a6ia4dwee6c5","address":"1408 SW 33 Court, Fort Lauderdale, Florida 33315","phone number":"954-822-0657"},"type":"Feature","geometry":{"type":"Point","coordinates":[-80.15895,26.082652]}},{"properties":{"name":"Byrom, Franklin","id":"a6ia4dx8da03","address":"1541 Nw 15th Ter, Fort Lauderdale, Florida 33311","phone number":null},"type":"Feature","geometry":{"type":"Point","coordinates":[-80.163287,26.146624]}},{"properties":{"name":"Caceres, Angelica Maria","id":"a6ia4dz4fzps","address":"581 Nw 65th Ave, Plantation, Florida 33317","phone number":null},"type":"Feature","geometry":{"type":"Point","coordinates":[-80.235922,26.129479]}},{"properties":{"name":"Cady, Paul Michael and Angela Stephane","id":"a6ia4e8axhqc","address":"2891 SW 71st Terrace #1204, Davie, Florida 33328","phone number":"208-241-3930"},"type":"Feature","geometry":{"type":"Point","coordinates":[-80.245012,26.084025]}},{"properties":{"name":"Calvay, Orlando Javier and Jennifer Lee","id":"a6ia4e46vpf0","address":"2804 nw 80 ave., sunrise, Florida 33322","phone number":null},"type":"Feature","geometry":{"type":"Point","coordinates":[-80.165628,26.136537]}},{"properties":{"name":"Cambareri, Bonnie Viola","id":"a6ia4e2kg88x","address":"5621 SW 9th St, Plantation, Florida 33317","phone number":"954-584-0628"},"type":"Feature","geometry":{"type":"Point","coordinates":[-80.225182,26.109134]}},{"properties":{"name":"Cardon, Jared Pratt","id":"a6ia4e3x8t8v","address":"847 Ne 16th Ter, Fort Lauderdale, Florida 33304","phone number":null},"type":"Feature","geometry":{"type":"Point","coordinates":[-80.126676,26.134644]}},{"properties":{"name":"Cardona Lopez, Fredy","id":"a6ia4e5ryftu","address":"1896 Sw 4151 Apt # 2, Fort Lauderdale, Florida 33317","phone number":null},"type":"Feature","geometry":{"type":"Point","coordinates":[-80.202811,26.118221]}},{"properties":{"name":"Carrasco Alegria, Raquel Amanda De","id":"a6ia4e56bab7","address":"2340 Nw 72nd Ave, Sunrise, Florida 33313","phone number":"(954)746-4232"},"type":"Feature","geometry":{"type":"Point","coordinates":[-80.243172,26.155001]}},{"properties":{"name":"Carter, Cura Marvalyn","id":"a6ia4dyfbq1i","address":"5840 NW 16th Place #2, Sunrise, Florida 33313","phone number":"954-530-5143"},"type":"Feature","geometry":{"type":"Point","coordinates":[-80.228012,26.146053]}},{"properties":{"name":"Carter, Mable","id":"a6ia4e1x0jhx","address":"3860 Nw 25th St, Lauderdale Lakes, Florida 33311","phone number":"(954)717-8504"},"type":"Feature","geometry":{"type":"Point","coordinates":[-80.199902,26.156441]}},{"properties":{"name":"Carter, Thomas Dean","id":"a6ia4e9vzbhc","address":"520 E Acre Dr, Plantation, Florida 33317","phone number":"954-270-5300"},"type":"Feature","geometry":{"type":"Point","coordinates":[-80.219788,26.127259]}},{"properties":{"name":"Casimir, Danae","id":"a6ia4eagyq1t","address":"5617 Washington St., Bulding E # 159, Hollywood, Florida 33023","phone number":"954-628-5869"},"type":"Feature","geometry":{"type":"Point","coordinates":[-80.199405,26.002629]}},{"properties":{"name":"Casperson, Brock and Tara Marie","id":"a6ia4e02uh1b","address":"2640 S. University Dr. Apt. 219, Davie, Florida 33328","phone number":"208-220-1849"},"type":"Feature","geometry":{"type":"Point","coordinates":[-80.250884,26.084978]}},{"properties":{"name":"Cearc, Joseph and Carlyne","id":"a6ia4e1zfvnb","address":"6124 NW 26 St, Fort Lauderdale, Florida 33313-2296","phone number":"239-200-5317"},"type":"Feature","geometry":{"type":"Point","coordinates":[-80.232932,26.159868]}},{"properties":{"name":"Christensen, Lamohr","id":"a6ia4e82skat","address":"780 Pine Ridge Drive, Plantation, Florida 33317","phone number":"954-581-3704"},"type":"Feature","geometry":{"type":"Point","coordinates":[-80.217497,26.111445]}},{"properties":{"name":"Cipully, Carol Jean","id":"a6ia4e8rcnza","address":"6760 NW 24th Place, Sunrise, Florida 33313","phone number":null},"type":"Feature","geometry":{"type":"Point","coordinates":[-80.238843,26.157432]}},{"properties":{"name":"Cisneros, Pedro Francisco","id":"a6ia4e4aqq4l","address":"1778 Ne 18th St, Fort Lauderdale, Florida 33305","phone number":"954-568-5224"},"type":"Feature","geometry":{"type":"Point","coordinates":[-80.123171,26.151558]}},{"properties":{"name":"Clay George, George Blaine, Sr","id":"a6ia4e7a1r3d","address":"2900 NW 47th Terrace, Apt. 102, Lauderdale Lakes, Florida 33313-1719","phone number":"954-485-2111"},"type":"Feature","geometry":{"type":"Point","coordinates":[-80.214454,26.160607]}},{"properties":{"name":"Clay, Elva Joan","id":"a6ia4e6uifcf","address":"2900 NW  47th Terrace, Apt # 103, lauderdale lakes, Florida 33313","phone number":"954-731-9851"},"type":"Feature","geometry":{"type":"Point","coordinates":[-80.214454,26.160607]}},{"properties":{"name":"Clayton, Mark and Effie Loren","id":"a6ia4e2t78j3","address":"6913 College Ct. #5-201, Davie, Florida 33317","phone number":"954-382-1616"},"type":"Feature","geometry":{"type":"Point","coordinates":[-80.228599,26.087205]}},{"properties":{"name":"Clement, David Scott, II","id":"a6ia4dxg0wql","address":"2008 NE 26th Drive, Wilton Manors, Florida 33305","phone number":"954-565-4935"},"type":"Feature","geometry":{"type":"Point","coordinates":[-80.120842,26.160464]}},{"properties":{"name":"Coad, Doyle Merwin","id":"a6ia4e7kt867","address":"2001 NW 9th Avenue #332, Fort Lauderdale, Florida 33324","phone number":null},"type":"Feature","geometry":{"type":"Point","coordinates":[-80.267456,26.134987]}},{"properties":{"name":"Coad, John Sterling","id":"a6ia4e8uinse","address":"2001 Nw 9th Ave Apt 332, Fort Lauderdale, Florida 33311","phone number":"(954)463-9686"},"type":"Feature","geometry":{"type":"Point","coordinates":[-80.16666,26.151304]}},{"properties":{"name":"Cofer, Don Edward, Jr and Roxanna Marie","id":"a6ia4e5y61r7","address":"327 SW 17th Street, Fort Lauderdale, Florida 33315","phone number":"954-940-0175"},"type":"Feature","geometry":{"type":"Point","coordinates":[-80.14545,26.100162]}},{"properties":{"name":"Combs, David Ray and Guernande","id":"a6ia4dxuu9i4","address":"809 Ne 17th St, Ft Lauderdale, Florida 33305","phone number":null},"type":"Feature","geometry":{"type":"Point","coordinates":[-80.135821,26.149833]}},{"properties":{"name":"Comeau, Arthur Joseph","id":"a6ia4e19czfk","address":"2655 Ne 8th Ave Apt 112, Wilton Manors, Florida 33334","phone number":null},"type":"Feature","geometry":{"type":"Point","coordinates":[-80.136605,26.160594]}},{"properties":{"name":"Comery, Cheryl Antonett","id":"a6ia4dzyn077","address":"3711 NW 21st Street #312, Fort Lauderdale, Florida 33324","phone number":"954-677-8756"},"type":"Feature","geometry":{"type":"Point","coordinates":[-80.254398,26.094141]}},{"properties":{"name":"Congdon, Laura Rae","id":"a6ia4dxyc8cc","address":"1207 E Broward Blvd #3, Fort Lauderdale, Florida 33301","phone number":"954-394-0398"},"type":"Feature","geometry":{"type":"Point","coordinates":[-80.131197,26.122599]}},{"properties":{"name":"Congdon, Raymond Alexander","id":"a6ia4dvddu8i","address":"437 NE 1st Ave #3, Fort Lauderdale, Florida 33301","phone number":"435-256-5580"},"type":"Feature","geometry":{"type":"Point","coordinates":[-80.142689,26.126733]}},{"properties":{"name":"Conklin, Aaron Todd","id":"a6ia4dzg1yeg","address":"209 N Fort Lauderdale Beach Blvd Apt 4g, Ft Lauderdale, Florida 33304","phone number":null},"type":"Feature","geometry":{"type":"Point","coordinates":[-80.103522,26.125993]}},{"properties":{"name":"Constant, Yves, Jr.","id":"a6ia4e6f7g91","address":"1477 NW 60th Av., Sunrise, Florida 33313","phone number":"954-792-8615"},"type":"Feature","geometry":{"type":"Point","coordinates":[-80.230589,26.142725]}},{"properties":{"name":"Cook, Benjamin Bryan and Miriam","id":"a6ia4e3wyere","address":"2620 South University Dr. Apt  205, Davie, Florida 33328","phone number":"208-351-6196"},"type":"Feature","geometry":{"type":"Point","coordinates":[-80.250915,26.085451]}},{"properties":{"name":"Cook, Crystal Denise","id":"a6ia4e3wj2b6","address":"506 Nw 23rd Ave, Fort Lauderdale, Florida 33311","phone number":"(454)327-7952"},"type":"Feature","geometry":{"type":"Point","coordinates":[-80.173016,26.127345]}},{"properties":{"name":"Copenheaver, Christian Edward","id":"a6ia4e3207kd","address":"521 SW 18th Ave, Ft Lauderdale, Florida 33312","phone number":null},"type":"Feature","geometry":{"type":"Point","coordinates":[-80.165621,26.114928]}},{"properties":{"name":"Corral, Thomas Dante","id":"a6ia4e5u07uv","address":"434 Ne 17th Ave, Fort Lauderdale, Florida 33301","phone number":"(954)760-4762"},"type":"Feature","geometry":{"type":"Point","coordinates":[-80.125323,26.127643]}},{"properties":{"name":"Cowley, Gordon Scott","id":"a6ia4dywbl5s","address":"1811 SW 9th Avenue, Fort Lauderdale, Florida 33315","phone number":null},"type":"Feature","geometry":{"type":"Point","coordinates":[-80.153098,26.099028]}},{"properties":{"name":"Crandall, Darrel Joe","id":"a6ia4eaufdxp","address":"817 Ne 22nd Dr, Wilton Manors, Florida 33305","phone number":null},"type":"Feature","geometry":{"type":"Point","coordinates":[-80.134868,26.156251]}},{"properties":{"name":"Cromar, James Leroy","id":"a6ia4e4zs6mw","address":"2408 Ne 8th Ave, Wilton Manors, Florida 33305","phone number":"954-444-0144"},"type":"Feature","geometry":{"type":"Point","coordinates":[-80.136264,26.15758]}},{"properties":{"name":"Cross, Jamie","id":"a6ia4dyk48pq","address":"2772 SW 16th St, Fort Lauderdale, Florida 33312","phone number":"954-990-4412"},"type":"Feature","geometry":{"type":"Point","coordinates":[-80.178843,26.101328]}},{"properties":{"name":"Crouch, Cecil James, Jr","id":"a6ia4e927l46","address":"4765 S.W. 23rd Ter., Fort Lauderdale, Florida 33312","phone number":"954-667-4506"},"type":"Feature","geometry":{"type":"Point","coordinates":[-80.172026,26.062704]}},{"properties":{"name":"Cryan, Olga Raquel","id":"a6ia4e4huzm7","address":"5935 Del Lago Cir Apt 207, Sunrise, Florida 33313","phone number":null},"type":"Feature","geometry":{"type":"Point","coordinates":[-80.231024,26.137131]}},{"properties":{"name":"Cuellar, Noe","id":"a6ia4e0gxvj8","address":"1310 NE 30th Street, Fort Lauderdale, Florida 33334","phone number":"954 568-1511"},"type":"Feature","geometry":{"type":"Point","coordinates":[-80.129621,26.164931]}},{"properties":{"name":"Da Costa, Jason Richard","id":"a6ia4eax4yg5","address":"4037 Sw 5th St, Plantation, Florida 33317","phone number":"(954)327-8499"},"type":"Feature","geometry":{"type":"Point","coordinates":[-80.203252,26.115232]}}],"is_temporal":false,"author":{"url":"","metadata":"","contact_name":"","contact_address":"","source":"","contact_phone":""},"source":"","pagination":{"sort":null,"start":0,"total":99,"limit":1000000},"state":"complete","tags":"","published":"2014-08-10T15:23:29-04:00","id":54937}