{"type":"FeatureCollection","data_type":"Dataset","url_type":null,"permissions":[{"permissions":{"download":true,"view":true},"group_id":"everyone"}],"classification":null,"title":"hartford-branch-list-base","count":72,"stream_id":55751,"contributor":{"url":"http://geocommons.com/users/14039","name":"wmchellis"},"data_attributes":null,"calculation_params":null,"icon_link":null,"link":"http://geocommons.com/overlays/55751.json","extent":[-72.888,41.3791,-70.2919,42.5894],"geometry_types":["point"],"unique_name":null,"name":"hartford-branch-list-base","feature_count":72,"description":"","next_feature":null,"is_raster":false,"short_classification":"Y","stats":{"#":{"max":97140,"mean":31269.5,"variance":685492782.225352,"stdev":26181.9170846092,"min":1443,"median":19526},"geo_score":{"max":0.902,"mean":0.789361111111111,"variance":0.00953214945226917,"stdev":0.0976327273626481,"min":0.393,"median":0.819}},"features":[{"properties":{"city":"WEST HARTFORD","name":"SUE BANVILLE","zip":"6107","st":"CT","#":11563,"geo_score":0.87,"phone":"860-521-2119","id":"a68064a3lzw0","geo_precision":"range","address":"1224 FARMINGTON AVENUE"},"type":"Feature","geometry":{"type":"Point","coordinates":[-72.764671,41.755121]}},{"properties":{"city":"PORTLAND","name":"JON HERMELBRACHT","zip":"6480","st":"CT","#":12807,"geo_score":0.821,"phone":"860-342-2486","id":"a68064gdd611","geo_precision":"range","address":"236 MAIN STREET"},"type":"Feature","geometry":{"type":"Point","coordinates":[-72.639814,41.574312]}},{"properties":{"city":"NEWINGTON","name":"DAVID J GUARDIA","zip":"6111","st":"CT","#":13266,"geo_score":0.902,"phone":"860-665-0346","id":"a68064i6ob5i","geo_precision":"range","address":"28 MARKET SQUARE"},"type":"Feature","geometry":{"type":"Point","coordinates":[-72.722489,41.696329]}},{"properties":{"city":"WORCESTER","name":"WILL STECK","zip":"1608","st":"MA","#":13328,"geo_score":0.902,"phone":"508-363-3900","id":"a68064j5vns8","geo_precision":"range","address":"325 MAIN ST"},"type":"Feature","geometry":{"type":"Point","coordinates":[-71.801182,42.265796]}},{"properties":{"city":"GREENFIELD","name":"RICH MCFADDEN","zip":"1301","st":"MA","#":13482,"geo_score":0.687,"phone":"413-773-8063","id":"a680647sr4gh","geo_precision":"range","address":"55 FEDERAL STREET SUITE 260"},"type":"Feature","geometry":{"type":"Point","coordinates":[-72.599443,42.589416]}},{"properties":{"city":"WINDSOR","name":"SELETTE M JEMISON","zip":"6095","st":"CT","#":1443,"geo_score":0.861,"phone":"860-688-0881","id":"a68064lhnqxl","geo_precision":"range","address":"37 MAPLE AVENUE"},"type":"Feature","geometry":{"type":"Point","coordinates":[-72.645843,41.851423]}},{"properties":{"city":"FARMINGTON","name":"DOUG KARTSEN","zip":"6032","st":"CT","#":1449,"geo_score":0.824,"phone":"860-676-1419","id":"a68064lb0wo6","geo_precision":"range","address":"320 MAIN STREET"},"type":"Feature","geometry":{"type":"Point","coordinates":[-72.84293,41.705135]}},{"properties":{"city":"PALMER","name":"PAUL DANSEREAU","zip":"1069","st":"MA","#":15353,"geo_score":0.698,"phone":"413-289-1875","id":"a680647vj4vu","geo_precision":"range","address":"1448 MAIN ST"},"type":"Feature","geometry":{"type":"Point","coordinates":[-72.329914,42.157374]}},{"properties":{"city":"FOXBORO","name":"BRIAN E SMITH","zip":"2035","st":"MA","#":15766,"geo_score":0.867,"phone":"508-543-8885","id":"a68064b6znhm","geo_precision":"range","address":"17 COCASSET STREET"},"type":"Feature","geometry":{"type":"Point","coordinates":[-71.247337,42.064395]}},{"properties":{"city":"WETHERSFIELD","name":"JOHN RADOMSKI","zip":"6109","st":"CT","#":16034,"geo_score":0.874,"phone":"860-257-7158","id":"a680649kcxa6","geo_precision":"range","address":"1081 SILAS DEANE HIGHWAY"},"type":"Feature","geometry":{"type":"Point","coordinates":[-72.655968,41.690851]}},{"properties":{"city":"ENFIELD","name":"CHERYL D RANNEY","zip":"6082","st":"CT","#":16045,"geo_score":0.812,"phone":"860-745-3440","id":"a68064kuvly9","geo_precision":"range","address":"786 ENFIELD ST"},"type":"Feature","geometry":{"type":"Point","coordinates":[-72.593261,42.002178]}},{"properties":{"city":"FLORENCE","name":"ALAN J TATRO","zip":"1062","st":"MA","#":16207,"geo_score":0.902,"phone":"413-584-8889","id":"a680649dkoo6","geo_precision":"range","address":"55 MAIN STREET"},"type":"Feature","geometry":{"type":"Point","coordinates":[-72.669167,42.335043]}},{"properties":{"city":"MATTAPOISETT","name":"RON ELLIS","zip":"2739","st":"MA","#":16230,"geo_score":0.659,"phone":"508-758-3311","id":"a68064gif91m","geo_precision":"range","address":"53 COUNTY ROAD"},"type":"Feature","geometry":{"type":"Point","coordinates":[-70.811262,41.664126]}},{"properties":{"city":"BARRINGTON","name":"JOHN E LEARY","zip":"2806","st":"RI","#":17163,"geo_score":0.875,"phone":"401-245-8381","id":"a68064cbytma","geo_precision":"range","address":"232C WASECA AVENUE"},"type":"Feature","geometry":{"type":"Point","coordinates":[-71.308244,41.738059]}},{"properties":{"city":"MEDFIELD","name":"MATT CULLEN","zip":"2052","st":"MA","#":17363,"geo_score":0.65,"phone":"508-359-4114","id":"a68064dx1oh8","geo_precision":"range","address":"66 NORTH STREET"},"type":"Feature","geometry":{"type":"Point","coordinates":[-71.30751,42.188876]}},{"properties":{"city":"WALPOLE","name":"TIMOTHY J MOSES","zip":"2081","st":"MA","#":1753,"geo_score":0.721,"phone":"508-668-5252","id":"a68064hajosn","geo_precision":"range","address":"55 WEST STREET"},"type":"Feature","geometry":{"type":"Point","coordinates":[-71.257778,42.144216]}},{"properties":{"city":"NORTH EASTON","name":"MIKE VERDE","zip":"2356","st":"MA","#":17566,"geo_score":0.719,"phone":"508-230-7232","id":"a68064hs0u6d","geo_precision":"range","address":"285 WASHINGTON ST UNIT 1"},"type":"Feature","geometry":{"type":"Point","coordinates":[-71.087256,42.066731]}},{"properties":{"city":"PROVIDENCE","name":"THOMAS P THOMAIDIS","zip":"2906","st":"RI","#":17767,"geo_score":0.902,"phone":"401-751-4599","id":"a68064i4c8nn","geo_precision":"range","address":"247 ROCHAMBEAU AVENUE"},"type":"Feature","geometry":{"type":"Point","coordinates":[-71.395599,41.84694]}},{"properties":{"city":"WILBRAHAM","name":"LOU CURTO","zip":"1095","st":"MA","#":18242,"geo_score":0.777,"phone":"413-596-6875","id":"a68064gvrcc0","geo_precision":"range","address":"2141 BOSTON RD SUITE G"},"type":"Feature","geometry":{"type":"Point","coordinates":[-72.469437,42.150473]}},{"properties":{"city":"MANSFIELD","name":"KEVIN M HYLANDER","zip":"2048","st":"MA","#":18357,"geo_score":0.872,"phone":"508-339-2611","id":"a68064mx6owd","geo_precision":"range","address":"4A SAMOSET AVENUE"},"type":"Feature","geometry":{"type":"Point","coordinates":[-71.217741,42.028794]}},{"properties":{"city":"SOUTH WINDSOR","name":"JOHN E ZAHNER","zip":"6074","st":"CT","#":18766,"geo_score":0.821,"phone":"860-648-2952","id":"a68064h4zxvc","geo_precision":"range","address":"263 OAKLAND ROAD"},"type":"Feature","geometry":{"type":"Point","coordinates":[-72.543982,41.822112]}},{"properties":{"city":"COLCHESTER","name":"BRENDAN R LEWIS","zip":"6415","st":"CT","#":19042,"geo_score":0.867,"phone":"860-537-0037","id":"a680648apuvq","geo_precision":"range","address":"20 MAIN STREET"},"type":"Feature","geometry":{"type":"Point","coordinates":[-72.332436,41.57588]}},{"properties":{"city":"WESTFIELD","name":"RICH CAPANNOLA","zip":"1085","st":"MA","#":19504,"geo_score":0.667,"phone":"413-562-4030","id":"a68064h0hjes","geo_precision":"range","address":"20 ELM STREET SUITE A"},"type":"Feature","geometry":{"type":"Point","coordinates":[-72.749071,42.121203]}},{"properties":{"city":"CROMWELL","name":"KAREN D TREKELL","zip":"6416","st":"CT","#":19526,"geo_score":0.902,"phone":"860-613-2072","id":"a68064fu7nqf","geo_precision":"range","address":"26 SHUNPIKE ROAD"},"type":"Feature","geometry":{"type":"Point","coordinates":[-72.676801,41.599767]}},{"properties":{"city":"HEBRON","name":"BILL ALLEMAN","zip":"6248","st":"CT","#":22139,"geo_score":0.805,"phone":"860-228-4909","id":"a68064mjz5rh","geo_precision":"range","address":"10 MAIN ST"},"type":"Feature","geometry":{"type":"Point","coordinates":[-72.366118,41.658079]}},{"properties":{"city":"STURBRIDGE","name":"JEFF BURDICK","zip":"1566","st":"MA","#":23404,"geo_score":0.902,"phone":"508-347-1420","id":"a68064g1u8f8","geo_precision":"range","address":"113 MAIN STREET"},"type":"Feature","geometry":{"type":"Point","coordinates":[-72.065787,42.089147]}},{"properties":{"city":"WAKEFIELD","name":"MICHAEL C PAOLINO","zip":"2879","st":"RI","#":23597,"geo_score":0.574,"phone":"401-783-7548","id":"a68064my6044","geo_precision":"range","address":"35 SOUTH COUNTY COMMONS WAY"},"type":"Feature","geometry":{"type":"Point","coordinates":[-71.50099,41.42572]}},{"properties":{"city":"GRANBY","name":"JIM HAMMEL","zip":"6035","st":"CT","#":23821,"geo_score":0.781,"phone":"860-844-8515","id":"a680647esyy5","geo_precision":"range","address":"9-I BANK STREET"},"type":"Feature","geometry":{"type":"Point","coordinates":[-72.785086,41.95339]}},{"properties":{"city":"WARWICK","name":"ANTHONY M LIZZI","zip":"2886","st":"RI","#":24057,"geo_score":0.696,"phone":"401-821-5098","id":"a68064iwgk5a","geo_precision":"range","address":"360 EAST AVE"},"type":"Feature","geometry":{"type":"Point","coordinates":[-71.477439,41.716591]}},{"properties":{"city":"JOHNSTON","name":"MICHAEL S ABBOOD","zip":"2919","st":"RI","#":24058,"geo_score":0.854,"phone":"401-231-1469","id":"a680647d25fp","geo_precision":"range","address":"187 GEORGE WATERMAN RD"},"type":"Feature","geometry":{"type":"Point","coordinates":[-71.486413,41.845065]}},{"properties":{"city":"NORTH ATTLEBORO","name":"STEVE DOUCETTE","zip":"2760","st":"MA","#":25641,"geo_score":0.819,"phone":"508-643-1271","id":"a680649nor0y","geo_precision":"range","address":"500 EAST WASHINGTON STREET"},"type":"Feature","geometry":{"type":"Point","coordinates":[-71.329669,41.981297]}},{"properties":{"city":"SOUTHINGTON","name":"RONALD E CLEVELAND","zip":"6489","st":"CT","#":27380,"geo_score":0.831,"phone":"860-276-0222","id":"a68064mqeb08","geo_precision":"range","address":"550 NORTH MAIN ST"},"type":"Feature","geometry":{"type":"Point","coordinates":[-72.873655,41.614728]}},{"properties":{"city":"FAIRHAVEN","name":"TRAVIS M KESSOCK","zip":"2719","st":"MA","#":27561,"geo_score":0.823,"phone":"508-992-2567","id":"a680648x1zli","geo_precision":"range","address":"78 MIDDLE STREET"},"type":"Feature","geometry":{"type":"Point","coordinates":[-70.906409,41.639751]}},{"properties":{"city":"ATTLEBORO","name":"CANDACE L SALLALE","zip":"2703","st":"MA","#":31591,"geo_score":0.673,"phone":"508-222-7105","id":"a6806492aslp","geo_precision":"range","address":"8 N MAIN ST SUITE 304"},"type":"Feature","geometry":{"type":"Point","coordinates":[-71.284293,41.944717]}},{"properties":{"city":"PORTSMOUTH","name":"RAY BERBERICK","zip":"2871","st":"RI","#":35828,"geo_score":0.499,"phone":"401-682-2007","id":"a68064jf2yqq","geo_precision":"street","address":"1016 EAST MAIN RD STE 3A"},"type":"Feature","geometry":{"type":"Point","coordinates":[-71.254272,41.561037]}},{"properties":{"city":"WAKEFIELD","name":"C.CHARLES PAOLINO","zip":"2879","st":"RI","#":3590,"geo_score":0.824,"phone":"401-782-1222","id":"a68064hliv3z","geo_precision":"range","address":"171 MAIN STREET"},"type":"Feature","geometry":{"type":"Point","coordinates":[-71.494333,41.440903]}},{"properties":{"city":"CENTERVILLE","name":"SILAS J ATSALIS","zip":"2632","st":"MA","#":36327,"geo_score":0.902,"phone":"508-775-1964","id":"a68064ebfwhx","geo_precision":"range","address":"1676 FALMOUTH RD"},"type":"Feature","geometry":{"type":"Point","coordinates":[-70.348721,41.656964]}},{"properties":{"city":"HOLYOKE","name":"JOHN A MCANDREW","zip":"1040","st":"MA","#":38393,"geo_score":0.815,"phone":"413-533-4686","id":"a68064h4d035","geo_precision":"range","address":"1593 NORTHAMPTON ST"},"type":"Feature","geometry":{"type":"Point","coordinates":[-72.629961,42.210164]}},{"properties":{"city":"CRANSTON","name":"STEVEN J GRASSO","zip":"2910","st":"RI","#":4055,"geo_score":0.829,"phone":"401-944-0409","id":"a68064at5d1z","geo_precision":"range","address":"1047 PARK AVENUE"},"type":"Feature","geometry":{"type":"Point","coordinates":[-71.444088,41.782232]}},{"properties":{"city":"PORTSMOUTH","name":"JEFFREY D DIONNE","zip":"2871","st":"RI","#":41469,"geo_score":0.805,"phone":"401-683-1385","id":"a680648ghfud","geo_precision":"range","address":"3001 EAST MAIN RD"},"type":"Feature","geometry":{"type":"Point","coordinates":[-71.246498,41.610648]}},{"properties":{"city":"HYANNIS","name":"LEE W HILL","zip":"2601","st":"MA","#":44453,"geo_score":0.817,"phone":"508-362-7636","id":"a68064bhkr6e","geo_precision":"range","address":"1436 IYANNOUGH ROAD"},"type":"Feature","geometry":{"type":"Point","coordinates":[-70.317457,41.678447]}},{"properties":{"city":"AMHERST","name":"RICH FRIESE JR","zip":"1002","st":"MA","#":45516,"geo_score":0.393,"phone":"413-259-1189","id":"a68064dgly75","geo_precision":"street","address":"495 WEST ST SUITE 1"},"type":"Feature","geometry":{"type":"Point","coordinates":[-72.514631,42.38473]}},{"properties":{"city":"SCITUATE","name":"KEVIN B MORRISSEY","zip":"2066","st":"MA","#":46501,"geo_score":0.834,"phone":"781-545-5256","id":"a68064g3c7mm","geo_precision":"range","address":"103 FRONT STREET"},"type":"Feature","geometry":{"type":"Point","coordinates":[-70.725077,42.194955]}},{"properties":{"city":"PLAINVILLE","name":"RICK SINGLETON","zip":"2762","st":"MA","#":51599,"geo_score":0.683,"phone":"508-643-0601","id":"a68064la683e","geo_precision":"range","address":"167 SOUTH STREET RTE 1A"},"type":"Feature","geometry":{"type":"Point","coordinates":[-71.33788,42.008109]}},{"properties":{"city":"BRIDGEWATER","name":"KENNETH E RAYLE","zip":"2324","st":"MA","#":5299,"geo_score":0.902,"phone":"508-697-5389","id":"a68064j3ylm8","geo_precision":"range","address":"67 CENTRAL SQUARE"},"type":"Feature","geometry":{"type":"Point","coordinates":[-70.975839,41.9898]}},{"properties":{"city":"PLYMOUTH","name":"PHIL CHANDLER","zip":"2360","st":"MA","#":54520,"geo_score":0.813,"phone":"508-746-5010","id":"a68064kfnmnp","geo_precision":"range","address":"7 MIDDLE STREET"},"type":"Feature","geometry":{"type":"Point","coordinates":[-70.664283,41.956662]}},{"properties":{"city":"UNIONVILLE","name":"CHARLIE KENISTON III","zip":"6085","st":"CT","#":5496,"geo_score":0.902,"phone":"860-675-4922","id":"a68064993lzi","geo_precision":"range","address":"37 MILL STREET"},"type":"Feature","geometry":{"type":"Point","coordinates":[-72.887957,41.756968]}},{"properties":{"city":"AMHERST","name":"BOB MEYERS","zip":"1002","st":"MA","#":5514,"geo_score":0.815,"phone":"413-549-1979","id":"a68064fimht3","geo_precision":"range","address":"17 PRAY STREET"},"type":"Feature","geometry":{"type":"Point","coordinates":[-72.517975,42.380249]}},{"properties":{"city":"GLASTONBURY","name":"JIM BOUGIE","zip":"6033","st":"CT","#":5543,"geo_score":0.82,"phone":"860-659-8145","id":"a68064gcaano","geo_precision":"range","address":"36 WELLES STREET"},"type":"Feature","geometry":{"type":"Point","coordinates":[-72.606509,41.713887]}},{"properties":{"city":"ENFIELD","name":"PATRICK M SULLIVAN","zip":"6082","st":"CT","#":56045,"geo_score":0.695,"phone":"860-253-9227","id":"a68064aiwiok","geo_precision":"range","address":"74 PALOMBA DR SUITE D"},"type":"Feature","geometry":{"type":"Point","coordinates":[-72.572062,41.991726]}},{"properties":{"city":"SIMSBURY","name":"TIM PATTERSON","zip":"6070","st":"CT","#":5644,"geo_score":0.817,"phone":"860-651-1750","id":"a68064c975zu","geo_precision":"range","address":"885 HOPMEADOW STREET"},"type":"Feature","geometry":{"type":"Point","coordinates":[-72.800169,41.879941]}},{"properties":{"city":"BRISTOL","name":"KEITH R SARTINI","zip":"2809","st":"RI","#":57164,"geo_score":0.738,"phone":"401-253-5727","id":"a68064ct4zrc","geo_precision":"range","address":"93 GOODING AVE SUITE 2"},"type":"Feature","geometry":{"type":"Point","coordinates":[-71.268389,41.693846]}},{"properties":{"city":"HANSON","name":"MARK P GOMES","zip":"2341","st":"MA","#":59370,"geo_score":0.817,"phone":"781-293-3837","id":"a6806498jn7t","geo_precision":"range","address":"430 LIBERTY STREET"},"type":"Feature","geometry":{"type":"Point","coordinates":[-70.870787,42.066678]}},{"properties":{"city":"WEST HARTFORD","name":"BARBARA J RANDOLPH","zip":"6107","st":"CT","#":6251,"geo_score":0.87,"phone":"860-521-7390","id":"a68064eny1jh","geo_precision":"range","address":"18 NORTH MAIN STREET"},"type":"Feature","geometry":{"type":"Point","coordinates":[-72.741879,41.763021]}},{"properties":{"city":"WAREHAM","name":"MARIA NAQISHBANDI","zip":"2571","st":"MA","#":64098,"geo_score":0.857,"phone":"508-295-3210","id":"a68064eax0qe","geo_precision":"range","address":"361 MAIN STREET"},"type":"Feature","geometry":{"type":"Point","coordinates":[-70.719529,41.761418]}},{"properties":{"city":"EAST LONGMEADOW","name":"TIM FLYNN","zip":"1028","st":"MA","#":64451,"geo_score":0.819,"phone":"413-525-3471","id":"a68064hwwz55","geo_precision":"range","address":"69 LENOX CIRCLE"},"type":"Feature","geometry":{"type":"Point","coordinates":[-72.47715,42.076064]}},{"properties":{"city":"SIMSBURY","name":"GENO ANTOSH","zip":"6070","st":"CT","#":65642,"geo_score":0.714,"phone":"860-651-0849","id":"a68064hywf77","geo_precision":"range","address":"714 HOPMEADOW ST SUITE 7"},"type":"Feature","geometry":{"type":"Point","coordinates":[-72.803393,41.871357]}},{"properties":{"city":"REHOBOTH","name":"LINDA M FERREIRA","zip":"2769","st":"MA","#":66563,"geo_score":0.717,"phone":"508-336-4606","id":"a68064g4q24m","geo_precision":"range","address":"492 WINTHROP ST UNIT 1"},"type":"Feature","geometry":{"type":"Point","coordinates":[-71.278352,41.83723]}},{"properties":{"city":"HYANNIS","name":"CALAN R PHILBROOK","zip":"2601","st":"MA","#":6849,"geo_score":0.817,"phone":"508-778-2681","id":"a68064e1j8nb","geo_precision":"range","address":"712 MAIN STREET"},"type":"Feature","geometry":{"type":"Point","coordinates":[-70.291903,41.648565]}},{"properties":{"city":"WARWICK","name":"DAVID H HENN","zip":"2886","st":"RI","#":71309,"geo_score":0.675,"phone":"401-884-4848","id":"a68064i43prz","geo_precision":"range","address":"3743 POST ROAD SUITE 1"},"type":"Feature","geometry":{"type":"Point","coordinates":[-71.456304,41.69185]}},{"properties":{"city":"MANCHESTER","name":"BRIAN R ARMOGIDA","zip":"6040","st":"CT","#":7147,"geo_score":0.724,"phone":"860-647-7448","id":"a68064eijrip","geo_precision":"range","address":"200 WEST CENTER STREET STE A1"},"type":"Feature","geometry":{"type":"Point","coordinates":[-72.544422,41.770824]}},{"properties":{"city":"SOUTHINGTON","name":"MICHELLE R MACCIO","zip":"6489","st":"CT","#":73851,"geo_score":0.696,"phone":"860-621-3104","id":"a68064e2np75","geo_precision":"range","address":"360 NORTH MAIN ST SUITE 6"},"type":"Feature","geometry":{"type":"Point","coordinates":[-72.876842,41.610194]}},{"properties":{"city":"SPENCER","name":"CHERYL CHERVIN","zip":"1562","st":"MA","#":73876,"geo_score":0.823,"phone":"508-885-5044","id":"a68064db48gg","geo_precision":"range","address":"19 MAPLE STREET"},"type":"Feature","geometry":{"type":"Point","coordinates":[-71.99161,42.242999]}},{"properties":{"city":"EAST GREENWICH","name":"STEVEN M PLANTE","zip":"2818","st":"RI","#":7526,"geo_score":0.805,"phone":"401-885-1046","id":"a68064h6o80n","geo_precision":"range","address":"2790 SOUTH COUNTY TRAIL"},"type":"Feature","geometry":{"type":"Point","coordinates":[-71.491404,41.620531]}},{"properties":{"city":"SUFFIELD","name":"GREG PANJIAN","zip":"6078","st":"CT","#":83142,"geo_score":0.755,"phone":"860-668-5983","id":"a68064lguuw0","geo_precision":"range","address":"68 BRIDGE ST"},"type":"Feature","geometry":{"type":"Point","coordinates":[-72.649722,41.980964]}},{"properties":{"city":"OXFORD","name":"MICHAEL W TUOMALA","zip":"1540","st":"MA","#":83527,"geo_score":0.679,"phone":"508-987-5327","id":"a680646puccn","geo_precision":"range","address":"387 MAIN STREET UNIT 2"},"type":"Feature","geometry":{"type":"Point","coordinates":[-71.86385,42.124266]}},{"properties":{"city":"SOUTH HADLEY","name":"BRIAN T SULLIVAN","zip":"1075","st":"MA","#":8399,"geo_score":0.872,"phone":"413-536-2494","id":"a68064l2ggj8","geo_precision":"range","address":"351 NEWTON STREET"},"type":"Feature","geometry":{"type":"Point","coordinates":[-72.585714,42.231169]}},{"properties":{"city":"WESTERLY","name":"FRANK C WALLINGTON","zip":"2891","st":"RI","#":8605,"geo_score":0.848,"phone":"401-596-6100","id":"a680647okdi2","geo_precision":"range","address":"53 HIGH STREET"},"type":"Feature","geometry":{"type":"Point","coordinates":[-71.830021,41.379079]}},{"properties":{"city":"FARMINGTON","name":"DJEMAL E ARANITI","zip":"6032","st":"CT","#":86116,"geo_score":0.824,"phone":"860-677-1104","id":"a68064f01zyf","geo_precision":"range","address":"1055 FARMINGTON AVENUE"},"type":"Feature","geometry":{"type":"Point","coordinates":[-72.837152,41.734686]}},{"properties":{"city":"BRISTOL","name":"JOHN C DUSEL","zip":"2809","st":"RI","#":86126,"geo_score":0.848,"phone":"401-253-2614","id":"a68064jrvcr8","geo_precision":"range","address":"557 HOPE STREET"},"type":"Feature","geometry":{"type":"Point","coordinates":[-71.277018,41.671789]}},{"properties":{"city":"MARION","name":"DAVID F RISCH","zip":"2738","st":"MA","#":87189,"geo_score":0.741,"phone":"508-748-0908","id":"a680647r0t7z","geo_precision":"range","address":"340 FRONT STREET UNIT C"},"type":"Feature","geometry":{"type":"Point","coordinates":[-70.769581,41.715177]}},{"properties":{"city":"GLASTONBURY","name":"BRIAN J CAHILL","zip":"6033","st":"CT","#":97140,"geo_score":0.82,"phone":"860-657-9247","id":"a68064bkvp01","geo_precision":"range","address":"140 GLASTONBURY BLVD"},"type":"Feature","geometry":{"type":"Point","coordinates":[-72.619608,41.721526]}}],"is_temporal":false,"author":{"url":"","metadata":"","contact_name":"","contact_address":"","source":"","contact_phone":""},"source":"","pagination":{"sort":null,"start":0,"total":72,"limit":1000000},"state":"complete","tags":"","published":"2014-08-10T16:24:26-04:00","id":55751}