{"type":"FeatureCollection","data_type":"Dataset","url_type":null,"permissions":[{"permissions":{"download":true,"view":true},"group_id":"everyone"}],"classification":null,"title":"bikes","count":241,"stream_id":55999,"contributor":{"url":"http://geocommons.com/users/4056","name":"sushiboy21"},"data_attributes":null,"calculation_params":null,"icon_link":null,"link":"http://geocommons.com/overlays/55999.json","extent":[-76.193,45.2241,-75.4634,45.5028],"geometry_types":["point"],"unique_name":null,"name":"bikes","feature_count":241,"description":"sdf sdf sd","next_feature":null,"is_raster":false,"short_classification":"Y","stats":{"ct":{"max":12,"mean":1.23651452282158,"variance":0.914661134163212,"stdev":0.956379179072408,"min":1,"median":1},"lat":{"max":45.50275,"mean":45.3928739419087,"variance":0.00276783465897994,"stdev":0.0526102143977758,"min":45.2241,"median":45.41022},"long":{"max":-75.4634,"mean":-75.7072656846473,"variance":0.0101172677896335,"stdev":0.100584629987059,"min":-76.19297,"median":-75.69434}},"features":[{"properties":{"ct":1,"id":"a65n5mq64dii","address":"1 BLOCK ELGIN ST","lat":45.2241,"long":-76.19297},"type":"Feature","geometry":{"type":"Point","coordinates":[-76.19297,45.2241]}},{"properties":{"ct":1,"id":"a65n5mppaq6u","address":"100 BLOCK LEADON LANE","lat":45.24628,"long":-76.06075},"type":"Feature","geometry":{"type":"Point","coordinates":[-76.06075,45.24628]}},{"properties":{"ct":2,"id":"a65n5mpgpoz4","address":"1200 BLOCK STITTSVILLE MAIN ST","lat":45.25459,"long":-75.91618},"type":"Feature","geometry":{"type":"Point","coordinates":[-75.91618,45.25459]}},{"properties":{"ct":1,"id":"a65n5mhynesh","address":"1600 BLOCK STITTSVILLE MAIN ST","lat":45.2554,"long":-75.91722},"type":"Feature","geometry":{"type":"Point","coordinates":[-75.91722,45.2554]}},{"properties":{"ct":1,"id":"a65n5mnq1tt3","address":"1 BLOCK MANCHESTER ST","lat":45.25905,"long":-75.92154},"type":"Feature","geometry":{"type":"Point","coordinates":[-75.92154,45.25905]}},{"properties":{"ct":1,"id":"a65n5mu6u69l","address":"100 BLOCK BEECHFERN DR","lat":45.2626,"long":-75.91816},"type":"Feature","geometry":{"type":"Point","coordinates":[-75.91816,45.2626]}},{"properties":{"ct":2,"id":"a65n5mhfkrlu","address":"5800 BLOCK ABBOTT Street, E","lat":45.26572,"long":-75.90927},"type":"Feature","geometry":{"type":"Point","coordinates":[-75.90927,45.26572]}},{"properties":{"ct":1,"id":"a65n5miei7ql","address":"1 BLOCK FOREST CREEK DR","lat":45.26711,"long":-75.90828},"type":"Feature","geometry":{"type":"Point","coordinates":[-75.90828,45.26711]}},{"properties":{"ct":1,"id":"a65n5mihfv7f","address":"100 BLOCK KENNEVALE DR","lat":45.26733,"long":-75.76893},"type":"Feature","geometry":{"type":"Point","coordinates":[-75.76893,45.26733]}},{"properties":{"ct":1,"id":"a65n5mnuqynx","address":"1 BLOCK GRANITE RIDGE DR","lat":45.26841,"long":-75.90513},"type":"Feature","geometry":{"type":"Point","coordinates":[-75.90513,45.26841]}},{"properties":{"ct":1,"id":"a65n5mry45p1","address":"100 BLOCK BENTBROOK CRES","lat":45.26875,"long":-75.75233},"type":"Feature","geometry":{"type":"Point","coordinates":[-75.75233,45.26875]}},{"properties":{"ct":1,"id":"a65n5mjws4pw","address":"1 BLOCK BENTBROOK CRES","lat":45.2697,"long":-75.75459},"type":"Feature","geometry":{"type":"Point","coordinates":[-75.75459,45.2697]}},{"properties":{"ct":1,"id":"a65n5mo3j9bh","address":"7000 BLOCK MARCO ST","lat":45.27541,"long":-75.57421},"type":"Feature","geometry":{"type":"Point","coordinates":[-75.57421,45.27541]}},{"properties":{"ct":1,"id":"a65n5msjaw2a","address":"100 BLOCK BERRIGAN DR","lat":45.27752,"long":-75.74352},"type":"Feature","geometry":{"type":"Point","coordinates":[-75.74352,45.27752]}},{"properties":{"ct":1,"id":"a65n5mslz26z","address":"100 BLOCK MALVERN DR","lat":45.27986,"long":-75.76155},"type":"Feature","geometry":{"type":"Point","coordinates":[-75.76155,45.27986]}},{"properties":{"ct":1,"id":"a65n5mqvg2et","address":"1 BLOCK CEDAR VALLEY DR","lat":45.28133,"long":-75.85031},"type":"Feature","geometry":{"type":"Point","coordinates":[-75.85031,45.28133]}},{"properties":{"ct":1,"id":"a65n5mq9wgec","address":"1 BLOCK FOXFIELD DR","lat":45.28345,"long":-75.75358},"type":"Feature","geometry":{"type":"Point","coordinates":[-75.75358,45.28345]}},{"properties":{"ct":1,"id":"a65n5mnqxrk4","address":"1 BLOCK DUNDEGAN DR","lat":45.28756,"long":-75.87736},"type":"Feature","geometry":{"type":"Point","coordinates":[-75.87736,45.28756]}},{"properties":{"ct":1,"id":"a65n5mqs3ug3","address":"1 BLOCK MORTON DR","lat":45.28909,"long":-75.88352},"type":"Feature","geometry":{"type":"Point","coordinates":[-75.88352,45.28909]}},{"properties":{"ct":1,"id":"a65n5mqnf8j7","address":"1 BLOCK BRIDLEWOOD DR","lat":45.29139,"long":-75.86353},"type":"Feature","geometry":{"type":"Point","coordinates":[-75.86353,45.29139]}},{"properties":{"ct":1,"id":"a65n5mixfu4d","address":"1 BLOCK DOBBIN LANE","lat":45.29229,"long":-75.86521},"type":"Feature","geometry":{"type":"Point","coordinates":[-75.86521,45.29229]}},{"properties":{"ct":1,"id":"a65n5ms8fji8","address":"1 BLOCK AINTREE PL","lat":45.29472,"long":-75.86429},"type":"Feature","geometry":{"type":"Point","coordinates":[-75.86429,45.29472]}},{"properties":{"ct":2,"id":"a65n5mfpp0iv","address":"3300 BLOCK FALLOWFIELD RD","lat":45.29671,"long":-75.7358},"type":"Feature","geometry":{"type":"Point","coordinates":[-75.7358,45.29671]}},{"properties":{"ct":1,"id":"a65n5mu94fcl","address":"100 BLOCK MCCLINTOCK WAY","lat":45.30819,"long":-75.89686},"type":"Feature","geometry":{"type":"Point","coordinates":[-75.89686,45.30819]}},{"properties":{"ct":1,"id":"a65n5ms03823","address":"400 BLOCK EARL GREY DR","lat":45.31019,"long":-75.9118},"type":"Feature","geometry":{"type":"Point","coordinates":[-75.9118,45.31019]}},{"properties":{"ct":1,"id":"a65n5mgrxfd3","address":"500 BLOCK EARL GREY DR","lat":45.31112,"long":-75.91132},"type":"Feature","geometry":{"type":"Point","coordinates":[-75.91132,45.31112]}},{"properties":{"ct":1,"id":"a65n5mgni2qy","address":"100 BLOCK EAGLESON RD","lat":45.31414,"long":-75.8825},"type":"Feature","geometry":{"type":"Point","coordinates":[-75.8825,45.31414]}},{"properties":{"ct":1,"id":"a65n5mjlcy2h","address":"400 BLOCK SEYTON DR","lat":45.31511,"long":-75.83224},"type":"Feature","geometry":{"type":"Point","coordinates":[-75.83224,45.31511]}},{"properties":{"ct":1,"id":"a65n5mpyez9g","address":"100 BLOCK ARBEATHA ST","lat":45.31623,"long":-75.82231},"type":"Feature","geometry":{"type":"Point","coordinates":[-75.82231,45.31623]}},{"properties":{"ct":1,"id":"a65n5mgcog86","address":"1 BLOCK KINGSFORD CRES","lat":45.32798,"long":-75.90006},"type":"Feature","geometry":{"type":"Point","coordinates":[-75.90006,45.32798]}},{"properties":{"ct":1,"id":"a65n5mhi3w4j","address":"100 BLOCK PENFIELD DR","lat":45.32806,"long":-75.89179},"type":"Feature","geometry":{"type":"Point","coordinates":[-75.89179,45.32806]}},{"properties":{"ct":1,"id":"a65n5mry49to","address":"100 BLOCK RUTHERFORD CRT","lat":45.32818,"long":-75.89717},"type":"Feature","geometry":{"type":"Point","coordinates":[-75.89717,45.32818]}},{"properties":{"ct":1,"id":"a65n5mmlit8x","address":"1 BLOCK BANNER RD","lat":45.33178,"long":-75.78351},"type":"Feature","geometry":{"type":"Point","coordinates":[-75.78351,45.33178]}},{"properties":{"ct":1,"id":"a65n5mvkgix3","address":"100 BLOCK CRAIG HENRY DR","lat":45.33248,"long":-75.77092},"type":"Feature","geometry":{"type":"Point","coordinates":[-75.77092,45.33248]}},{"properties":{"ct":1,"id":"a65n5mf7qo5q","address":"500 BLOCK WEST HUNT CLUB RD","lat":45.33444,"long":-75.72452},"type":"Feature","geometry":{"type":"Point","coordinates":[-75.72452,45.33444]}},{"properties":{"ct":1,"id":"a65n5mr3pp7i","address":"100 BLOCK GREENBANK RD","lat":45.33719,"long":-75.78582},"type":"Feature","geometry":{"type":"Point","coordinates":[-75.78582,45.33719]}},{"properties":{"ct":1,"id":"a65n5mhhe20q","address":"1 BLOCK ABINGDON DR","lat":45.33748,"long":-75.79279},"type":"Feature","geometry":{"type":"Point","coordinates":[-75.79279,45.33748]}},{"properties":{"ct":1,"id":"a65n5mj8nkx3","address":"1 BLOCK HOBBS AVE","lat":45.34356,"long":-75.80142},"type":"Feature","geometry":{"type":"Point","coordinates":[-75.80142,45.34356]}},{"properties":{"ct":1,"id":"a65n5mt639f7","address":"2200 BLOCK COTTERS CRES","lat":45.34447,"long":-75.66251},"type":"Feature","geometry":{"type":"Point","coordinates":[-75.66251,45.34447]}},{"properties":{"ct":1,"id":"a65n5mv7s50n","address":"200 BLOCK VIEWMOUNT DR","lat":45.34505,"long":-75.7261},"type":"Feature","geometry":{"type":"Point","coordinates":[-75.7261,45.34505]}},{"properties":{"ct":1,"id":"a65n5mjbcb56","address":"1 BLOCK VIEWMOUNT DR","lat":45.34523,"long":-75.74769},"type":"Feature","geometry":{"type":"Point","coordinates":[-75.74769,45.34523]}},{"properties":{"ct":1,"id":"a65n5mgafseh","address":"1 BLOCK NORTHGATE ST","lat":45.34536,"long":-75.76925},"type":"Feature","geometry":{"type":"Point","coordinates":[-75.76925,45.34536]}},{"properties":{"ct":1,"id":"a65n5ml73p8j","address":"1 BLOCK GILLESPIE CRES","lat":45.3458,"long":-75.68548},"type":"Feature","geometry":{"type":"Point","coordinates":[-75.68548,45.3458]}},{"properties":{"ct":1,"id":"a65n5muuf7n1","address":"BANK Street, &amp; ROSEBELLA AVE","lat":45.34856,"long":-75.62705},"type":"Feature","geometry":{"type":"Point","coordinates":[-75.62705,45.34856]}},{"properties":{"ct":1,"id":"a65n5mlcyztf","address":"1600 BLOCK MERIVALE RD","lat":45.34891,"long":-75.73241},"type":"Feature","geometry":{"type":"Point","coordinates":[-75.73241,45.34891]}},{"properties":{"ct":1,"id":"a65n5mg6ie00","address":"2700 BLOCK CAROUSEL CRES","lat":45.34952,"long":-75.64366},"type":"Feature","geometry":{"type":"Point","coordinates":[-75.64366,45.34952]}},{"properties":{"ct":1,"id":"a65n5mk2h0qp","address":"100 BLOCK BAYSHORE DR","lat":45.35054,"long":-75.80612},"type":"Feature","geometry":{"type":"Point","coordinates":[-75.80612,45.35054]}},{"properties":{"ct":1,"id":"a65n5mp6u1j3","address":"MERIVALE RD &amp; MEADOWLANDS DR W","lat":45.35084,"long":-75.73354},"type":"Feature","geometry":{"type":"Point","coordinates":[-75.73354,45.35084]}},{"properties":{"ct":1,"id":"a65n5mm9np9i","address":"1300 BLOCK WOODROFFE AVE","lat":45.35276,"long":-75.76377},"type":"Feature","geometry":{"type":"Point","coordinates":[-75.76377,45.35276]}},{"properties":{"ct":1,"id":"a65n5mh7g2zw","address":"1 BLOCK WALGATE AVE","lat":45.35565,"long":-75.72546},"type":"Feature","geometry":{"type":"Point","coordinates":[-75.72546,45.35565]}},{"properties":{"ct":1,"id":"a65n5mhrxs5x","address":"1 BLOCK CHARKAY ST","lat":45.35625,"long":-75.72589},"type":"Feature","geometry":{"type":"Point","coordinates":[-75.72589,45.35625]}},{"properties":{"ct":1,"id":"a65n5msc905c","address":"3300 BLOCK SOUTHGATE RD","lat":45.35861,"long":-75.65231},"type":"Feature","geometry":{"type":"Point","coordinates":[-75.65231,45.35861]}},{"properties":{"ct":1,"id":"a65n5mogu11n","address":"2100 BLOCK NAVAHO DR","lat":45.35874,"long":-75.75878},"type":"Feature","geometry":{"type":"Point","coordinates":[-75.75878,45.35874]}},{"properties":{"ct":1,"id":"a65n5mu9p9ct","address":"900 BLOCK CONNAUGHT AVE","lat":45.36034,"long":-75.7837},"type":"Feature","geometry":{"type":"Point","coordinates":[-75.7837,45.36034]}},{"properties":{"ct":2,"id":"a65n5miepx7b","address":"2100 BLOCK BANK ST","lat":45.36085,"long":-75.65729},"type":"Feature","geometry":{"type":"Point","coordinates":[-75.65729,45.36085]}},{"properties":{"ct":1,"id":"a65n5mmpnsvn","address":"1500 BLOCK ORTONA AVE","lat":45.36318,"long":-75.7101},"type":"Feature","geometry":{"type":"Point","coordinates":[-75.7101,45.36318]}},{"properties":{"ct":1,"id":"a65n5mtj1mol","address":"2500 BLOCK CARLING AVE","lat":45.36384,"long":-75.78485},"type":"Feature","geometry":{"type":"Point","coordinates":[-75.78485,45.36384]}},{"properties":{"ct":1,"id":"a65n5mn9cjed","address":"900 BLOCK HARKNESS AVE","lat":45.36529,"long":-75.67952},"type":"Feature","geometry":{"type":"Point","coordinates":[-75.67952,45.36529]}},{"properties":{"ct":2,"id":"a65n5mpnwsfa","address":"2400 BLOCK CARLING AVE","lat":45.36565,"long":-75.78071},"type":"Feature","geometry":{"type":"Point","coordinates":[-75.78071,45.36565]}},{"properties":{"ct":1,"id":"a65n5mhs7dfv","address":"1300 BLOCK RICHMOND RD","lat":45.36816,"long":-75.78504},"type":"Feature","geometry":{"type":"Point","coordinates":[-75.78504,45.36816]}},{"properties":{"ct":2,"id":"a65n5mhameuo","address":"2200 BLOCK RIVERSIDE DR","lat":45.36835,"long":-75.68973},"type":"Feature","geometry":{"type":"Point","coordinates":[-75.68973,45.36835]}},{"properties":{"ct":1,"id":"a65n5mtrctmv","address":"1400 BLOCK FISHER AVE","lat":45.36939,"long":-75.71531},"type":"Feature","geometry":{"type":"Point","coordinates":[-75.71531,45.36939]}},{"properties":{"ct":1,"id":"a65n5mq8b4ni","address":"1300 BLOCK PRINCE OF WALES DR","lat":45.37089,"long":-75.70562},"type":"Feature","geometry":{"type":"Point","coordinates":[-75.70562,45.37089]}},{"properties":{"ct":1,"id":"a65n5mgnel9j","address":"1 BLOCK PICASSO DR","lat":45.37336,"long":-75.60301},"type":"Feature","geometry":{"type":"Point","coordinates":[-75.60301,45.37336]}},{"properties":{"ct":1,"id":"a65n5mkx6sqy","address":"MERIVALE RD &amp; MAYVIEW AVE","lat":45.37502,"long":-75.733},"type":"Feature","geometry":{"type":"Point","coordinates":[-75.733,45.37502]}},{"properties":{"ct":1,"id":"a65n5mubok9s","address":"200 BLOCK COMPTON AVE","lat":45.37537,"long":-75.77484},"type":"Feature","geometry":{"type":"Point","coordinates":[-75.77484,45.37537]}},{"properties":{"ct":1,"id":"a65n5mnhr5pl","address":"1300 BLOCK LEPAGE AVE","lat":45.37719,"long":-75.73404},"type":"Feature","geometry":{"type":"Point","coordinates":[-75.73404,45.37719]}},{"properties":{"ct":1,"id":"a65n5mswoawf","address":"1400 BLOCK HERON RD","lat":45.37802,"long":-75.67268},"type":"Feature","geometry":{"type":"Point","coordinates":[-75.67268,45.37802]}},{"properties":{"ct":1,"id":"a65n5mm2dv7q","address":"2100 BLOCK HONEYWELL AVE","lat":45.37896,"long":-75.77099},"type":"Feature","geometry":{"type":"Point","coordinates":[-75.77099,45.37896]}},{"properties":{"ct":1,"id":"a65n5ms18j4e","address":"1200 BLOCK DORCHESTER AVE","lat":45.37933,"long":-75.7262},"type":"Feature","geometry":{"type":"Point","coordinates":[-75.7262,45.37933]}},{"properties":{"ct":1,"id":"a65n5mt082ii","address":"700 BLOCK BROADVIEW AVE","lat":45.37953,"long":-75.75589},"type":"Feature","geometry":{"type":"Point","coordinates":[-75.75589,45.37953]}},{"properties":{"ct":1,"id":"a65n5mmr77wi","address":"100 BLOCK BREWER WAY","lat":45.38701,"long":-75.69136},"type":"Feature","geometry":{"type":"Point","coordinates":[-75.69136,45.38701]}},{"properties":{"ct":1,"id":"a65n5mkgtqw5","address":"2205A WALKLEY RD","lat":45.3877,"long":-75.62076},"type":"Feature","geometry":{"type":"Point","coordinates":[-75.62076,45.3877]}},{"properties":{"ct":2,"id":"a65n5mhtzqid","address":"1200 BLOCK COLONEL BY DR","lat":45.38799,"long":-75.69995},"type":"Feature","geometry":{"type":"Point","coordinates":[-75.69995,45.38799]}},{"properties":{"ct":1,"id":"a65n5mlml237","address":"400 BLOCK FRASER AVE","lat":45.38817,"long":-75.76411},"type":"Feature","geometry":{"type":"Point","coordinates":[-75.76411,45.38817]}},{"properties":{"ct":1,"id":"a65n5mswjm0t","address":"900 BLOCK CANTERBURY AVE","lat":45.38925,"long":-75.62723},"type":"Feature","geometry":{"type":"Point","coordinates":[-75.62723,45.38925]}},{"properties":{"ct":12,"id":"a65n5mgueono","address":"1100 BLOCK COLONEL BY DR","lat":45.38954,"long":-75.70034},"type":"Feature","geometry":{"type":"Point","coordinates":[-75.70034,45.38954]}},{"properties":{"ct":1,"id":"a65n5mow2vhu","address":"LEONARD AVE &amp; OSSINGTON AVE","lat":45.38987,"long":-75.68635},"type":"Feature","geometry":{"type":"Point","coordinates":[-75.68635,45.38987]}},{"properties":{"ct":1,"id":"a65n5min0jjy","address":"300 BLOCK DOMINION AVE","lat":45.39235,"long":-75.7592},"type":"Feature","geometry":{"type":"Point","coordinates":[-75.7592,45.39235]}},{"properties":{"ct":1,"id":"a65n5mmojo3x","address":"300 BLOCK RICHMOND RD","lat":45.39271,"long":-75.75248},"type":"Feature","geometry":{"type":"Point","coordinates":[-75.75248,45.39271]}},{"properties":{"ct":1,"id":"a65n5mqkwbcs","address":"2100 BLOCK HAIG DR","lat":45.39316,"long":-75.63646},"type":"Feature","geometry":{"type":"Point","coordinates":[-75.63646,45.39316]}},{"properties":{"ct":1,"id":"a65n5mi1xq4u","address":"1000 BLOCK CARLING AVE","lat":45.39397,"long":-75.71557},"type":"Feature","geometry":{"type":"Point","coordinates":[-75.71557,45.39397]}},{"properties":{"ct":2,"id":"a65n5mjwb9fc","address":"300 BLOCK SUNNYSIDE AVE","lat":45.39423,"long":-75.68343},"type":"Feature","geometry":{"type":"Point","coordinates":[-75.68343,45.39423]}},{"properties":{"ct":1,"id":"a65n5mfx28no","address":"1 BLOCK WILLARD ST","lat":45.39457,"long":-75.68248},"type":"Feature","geometry":{"type":"Point","coordinates":[-75.68248,45.39457]}},{"properties":{"ct":1,"id":"a65n5miduxt6","address":"1 BLOCK BELMONT AVE","lat":45.39596,"long":-75.67423},"type":"Feature","geometry":{"type":"Point","coordinates":[-75.67423,45.39596]}},{"properties":{"ct":1,"id":"a65n5mr9x2oq","address":"300 BLOCK HOLMWOOD AVE","lat":45.39625,"long":-75.69518},"type":"Feature","geometry":{"type":"Point","coordinates":[-75.69518,45.39625]}},{"properties":{"ct":1,"id":"a65n5murafq0","address":"2000 BLOCK ARCH ST","lat":45.39675,"long":-75.63165},"type":"Feature","geometry":{"type":"Point","coordinates":[-75.63165,45.39675]}},{"properties":{"ct":2,"id":"a65n5mi8d326","address":"200 BLOCK HOLLAND AVE","lat":45.39733,"long":-75.73052},"type":"Feature","geometry":{"type":"Point","coordinates":[-75.73052,45.39733]}},{"properties":{"ct":2,"id":"a65n5mppfefr","address":"500 BLOCK PARKDALE AVE","lat":45.39802,"long":-75.72746},"type":"Feature","geometry":{"type":"Point","coordinates":[-75.72746,45.39802]}},{"properties":{"ct":1,"id":"a65n5mo195if","address":"2000 BLOCK RIDEAU RIVER DR","lat":45.39845,"long":-75.67327},"type":"Feature","geometry":{"type":"Point","coordinates":[-75.67327,45.39845]}},{"properties":{"ct":1,"id":"a65n5ms6ajku","address":"PRESTON Street, &amp; ADELINE ST","lat":45.39867,"long":-75.70834},"type":"Feature","geometry":{"type":"Point","coordinates":[-75.70834,45.39867]}},{"properties":{"ct":1,"id":"a65n5msuzp1r","address":"1300 BLOCK WELLINGTON Street, W","lat":45.39881,"long":-75.73601},"type":"Feature","geometry":{"type":"Point","coordinates":[-75.73601,45.39881]}},{"properties":{"ct":1,"id":"a65n5mrlywfg","address":"1 BLOCK KIPPEWA DR","lat":45.39886,"long":-75.69854},"type":"Feature","geometry":{"type":"Point","coordinates":[-75.69854,45.39886]}},{"properties":{"ct":1,"id":"a65n5mgluo40","address":"1 BLOCK JULIAN AVE","lat":45.39902,"long":-75.73492},"type":"Feature","geometry":{"type":"Point","coordinates":[-75.73492,45.39902]}},{"properties":{"ct":1,"id":"a65n5moecmbz","address":"1 BLOCK MONK ST","lat":45.39934,"long":-75.68717},"type":"Feature","geometry":{"type":"Point","coordinates":[-75.68717,45.39934]}},{"properties":{"ct":1,"id":"a65n5mim3xqx","address":"2000 BLOCK RUSSELL RD","lat":45.3996,"long":-75.62098},"type":"Feature","geometry":{"type":"Point","coordinates":[-75.62098,45.3996]}},{"properties":{"ct":1,"id":"a65n5mmarzg4","address":"1900 BLOCK Street, LAURENT BLVD","lat":45.40022,"long":-75.62381},"type":"Feature","geometry":{"type":"Point","coordinates":[-75.62381,45.40022]}},{"properties":{"ct":1,"id":"a65n5mn55itp","address":"FIFTH AVE &amp; BANK ST","lat":45.40163,"long":-75.68758},"type":"Feature","geometry":{"type":"Point","coordinates":[-75.68758,45.40163]}},{"properties":{"ct":2,"id":"a65n5mmolvh5","address":"1800 BLOCK RUSSELL RD","lat":45.40267,"long":-75.63103},"type":"Feature","geometry":{"type":"Point","coordinates":[-75.63103,45.40267]}},{"properties":{"ct":1,"id":"a65n5mkocpoz","address":"FAIRMONT AVE &amp; DUHAMEL ST","lat":45.4028,"long":-75.7225},"type":"Feature","geometry":{"type":"Point","coordinates":[-75.7225,45.4028]}},{"properties":{"ct":1,"id":"a65n5mqs6hgx","address":"100 BLOCK THIRD AVE","lat":45.40329,"long":-75.68774},"type":"Feature","geometry":{"type":"Point","coordinates":[-75.68774,45.40329]}},{"properties":{"ct":1,"id":"a65n5mtrkts4","address":"300 BLOCK PRESTON ST","lat":45.4033,"long":-75.71115},"type":"Feature","geometry":{"type":"Point","coordinates":[-75.71115,45.4033]}},{"properties":{"ct":1,"id":"a65n5muqh072","address":"FOURTH AVE &amp; OCONNOR ST","lat":45.40396,"long":-75.68401},"type":"Feature","geometry":{"type":"Point","coordinates":[-75.68401,45.40396]}},{"properties":{"ct":1,"id":"a65n5mpsrmhb","address":"BANK Street, &amp; FIRST AVE","lat":45.40438,"long":-75.68915},"type":"Feature","geometry":{"type":"Point","coordinates":[-75.68915,45.40438]}},{"properties":{"ct":1,"id":"a65n5mraxxum","address":"100 BLOCK SECOND AVE","lat":45.40454,"long":-75.68666},"type":"Feature","geometry":{"type":"Point","coordinates":[-75.68666,45.40454]}},{"properties":{"ct":1,"id":"a65n5mm96ryx","address":"1 BLOCK FOURTH AVE","lat":45.40464,"long":-75.6823},"type":"Feature","geometry":{"type":"Point","coordinates":[-75.6823,45.40464]}},{"properties":{"ct":1,"id":"a65n5mf93epm","address":"100 BLOCK GLEBE AVE","lat":45.40537,"long":-75.68903},"type":"Feature","geometry":{"type":"Point","coordinates":[-75.68903,45.40537]}},{"properties":{"ct":1,"id":"a65n5msjp7ym","address":"400 BLOCK BRAYDON AVE","lat":45.40639,"long":-75.6488},"type":"Feature","geometry":{"type":"Point","coordinates":[-75.6488,45.40639]}},{"properties":{"ct":1,"id":"a65n5msfedk7","address":"400 BLOCK CATHERINE ST","lat":45.40655,"long":-75.69912},"type":"Feature","geometry":{"type":"Point","coordinates":[-75.69912,45.40655]}},{"properties":{"ct":1,"id":"a65n5mo8soom","address":"1000 BLOCK SOMERSET Street, W","lat":45.40784,"long":-75.71591},"type":"Feature","geometry":{"type":"Point","coordinates":[-75.71591,45.40784]}},{"properties":{"ct":1,"id":"a65n5mqavo5f","address":"300 BLOCK CATHERINE ST","lat":45.40791,"long":-75.69582},"type":"Feature","geometry":{"type":"Point","coordinates":[-75.69582,45.40791]}},{"properties":{"ct":1,"id":"a65n5moacbav","address":"1 BLOCK ANDERSON ST","lat":45.40832,"long":-75.7099},"type":"Feature","geometry":{"type":"Point","coordinates":[-75.7099,45.40832]}},{"properties":{"ct":1,"id":"a65n5mrsdai4","address":"100 BLOCK ARLINGTON AVE","lat":45.40853,"long":-75.69636},"type":"Feature","geometry":{"type":"Point","coordinates":[-75.69636,45.40853]}},{"properties":{"ct":1,"id":"a65n5mfk3g6a","address":"500 BLOCK BLAIR ST","lat":45.40854,"long":-75.65483},"type":"Feature","geometry":{"type":"Point","coordinates":[-75.65483,45.40854]}},{"properties":{"ct":2,"id":"a65n5motlbsi","address":"1600 BLOCK RIVERSIDE DR","lat":45.40865,"long":-75.66366},"type":"Feature","geometry":{"type":"Point","coordinates":[-75.66366,45.40865]}},{"properties":{"ct":1,"id":"a65n5mvb011j","address":"100 BLOCK PRETORIA AVE","lat":45.40945,"long":-75.68764},"type":"Feature","geometry":{"type":"Point","coordinates":[-75.68764,45.40945]}},{"properties":{"ct":2,"id":"a65n5miyvbok","address":"1 BLOCK ECCLES ST","lat":45.4095,"long":-75.70771},"type":"Feature","geometry":{"type":"Point","coordinates":[-75.70771,45.4095]}},{"properties":{"ct":1,"id":"a65n5mja32ub","address":"500 BLOCK BAY ST","lat":45.40969,"long":-75.69941},"type":"Feature","geometry":{"type":"Point","coordinates":[-75.69941,45.40969]}},{"properties":{"ct":1,"id":"a65n5mp28ymp","address":"BRONSON AVE &amp; GILMOUR ST","lat":45.41005,"long":-75.70493},"type":"Feature","geometry":{"type":"Point","coordinates":[-75.70493,45.41005]}},{"properties":{"ct":1,"id":"a65n5mfkh5zp","address":"1 BLOCK ARLINGTON AVE","lat":45.41016,"long":-75.6925},"type":"Feature","geometry":{"type":"Point","coordinates":[-75.6925,45.41016]}},{"properties":{"ct":1,"id":"a65n5mfvfmm6","address":"100 BLOCK PARKDALE AVE","lat":45.41022,"long":-75.73481},"type":"Feature","geometry":{"type":"Point","coordinates":[-75.73481,45.41022]}},{"properties":{"ct":1,"id":"a65n5mo0h6wc","address":"500 BLOCK GLADSTONE AVE","lat":45.41033,"long":-75.69793},"type":"Feature","geometry":{"type":"Point","coordinates":[-75.69793,45.41033]}},{"properties":{"ct":1,"id":"a65n5mqkcvmq","address":"800 BLOCK WELLINGTON Street, W","lat":45.41034,"long":-75.71868},"type":"Feature","geometry":{"type":"Point","coordinates":[-75.71868,45.41034]}},{"properties":{"ct":1,"id":"a65n5mremig0","address":"500 BLOCK BANK ST","lat":45.41044,"long":-75.69263},"type":"Feature","geometry":{"type":"Point","coordinates":[-75.69263,45.41044]}},{"properties":{"ct":1,"id":"a65n5mg7xez8","address":"1 BLOCK FORESTLANE PRIV","lat":45.41157,"long":-75.69819},"type":"Feature","geometry":{"type":"Point","coordinates":[-75.69819,45.41157]}},{"properties":{"ct":1,"id":"a65n5mqcfx61","address":"100 BLOCK PRIMROSE AVE","lat":45.41167,"long":-75.7109},"type":"Feature","geometry":{"type":"Point","coordinates":[-75.7109,45.41167]}},{"properties":{"ct":1,"id":"a65n5mhukuve","address":"400 BLOCK KENT ST","lat":45.41184,"long":-75.69631},"type":"Feature","geometry":{"type":"Point","coordinates":[-75.69631,45.41184]}},{"properties":{"ct":1,"id":"a65n5mplwufp","address":"400 BLOCK BAY ST","lat":45.41225,"long":-75.70157},"type":"Feature","geometry":{"type":"Point","coordinates":[-75.70157,45.41225]}},{"properties":{"ct":1,"id":"a65n5mh95o2q","address":"300 BLOCK MCLEOD ST","lat":45.41239,"long":-75.69103},"type":"Feature","geometry":{"type":"Point","coordinates":[-75.69103,45.41239]}},{"properties":{"ct":1,"id":"a65n5mi7znlu","address":"100 BLOCK ARGYLE AVE","lat":45.41273,"long":-75.68707},"type":"Feature","geometry":{"type":"Point","coordinates":[-75.68707,45.41273]}},{"properties":{"ct":1,"id":"a65n5mv9a4x0","address":"700 BLOCK COOPER ST","lat":45.41293,"long":-75.70441},"type":"Feature","geometry":{"type":"Point","coordinates":[-75.70441,45.41293]}},{"properties":{"ct":1,"id":"a65n5mi15ih4","address":"400 BLOCK BANK ST","lat":45.41298,"long":-75.69431},"type":"Feature","geometry":{"type":"Point","coordinates":[-75.69431,45.41298]}},{"properties":{"ct":1,"id":"a65n5muz4zze","address":"GILMOUR Street, &amp; KENT ST","lat":45.41317,"long":-75.69741},"type":"Feature","geometry":{"type":"Point","coordinates":[-75.69741,45.41317]}},{"properties":{"ct":1,"id":"a65n5muiv36u","address":"1 BLOCK PRIMROSE AVE","lat":45.41321,"long":-75.70681},"type":"Feature","geometry":{"type":"Point","coordinates":[-75.70681,45.41321]}},{"properties":{"ct":1,"id":"a65n5mjk7r3a","address":"100 BLOCK LEES AVE","lat":45.41336,"long":-75.67639},"type":"Feature","geometry":{"type":"Point","coordinates":[-75.67639,45.41336]}},{"properties":{"ct":1,"id":"a65n5mk1dpsr","address":"1 BLOCK JAMES ST","lat":45.41341,"long":-75.69473},"type":"Feature","geometry":{"type":"Point","coordinates":[-75.69473,45.41341]}},{"properties":{"ct":1,"id":"a65n5mggg7zr","address":"400 BLOCK ELGIN ST","lat":45.41402,"long":-75.68706},"type":"Feature","geometry":{"type":"Point","coordinates":[-75.68706,45.41402]}},{"properties":{"ct":2,"id":"a65n5mtxj4zz","address":"1 BLOCK CAMBRIDGE Street, N","lat":45.41453,"long":-75.70859},"type":"Feature","geometry":{"type":"Point","coordinates":[-75.70859,45.41453]}},{"properties":{"ct":1,"id":"a65n5mgzn5xd","address":"1400 BLOCK RIVERSIDE DR","lat":45.41461,"long":-75.6573},"type":"Feature","geometry":{"type":"Point","coordinates":[-75.6573,45.41461]}},{"properties":{"ct":1,"id":"a65n5mpvqr25","address":"300 BLOCK BANK ST","lat":45.41468,"long":-75.69581},"type":"Feature","geometry":{"type":"Point","coordinates":[-75.69581,45.41468]}},{"properties":{"ct":1,"id":"a65n5mhzeojt","address":"BANK Street, &amp; MACLAREN ST","lat":45.41471,"long":-75.69581},"type":"Feature","geometry":{"type":"Point","coordinates":[-75.69581,45.41471]}},{"properties":{"ct":1,"id":"a65n5ms105g5","address":"400 BLOCK GLOUCESTER ST","lat":45.41488,"long":-75.70602},"type":"Feature","geometry":{"type":"Point","coordinates":[-75.70602,45.41488]}},{"properties":{"ct":1,"id":"a65n5mmyiq61","address":"400 BLOCK SOMERSET Street, W","lat":45.41533,"long":-75.69644},"type":"Feature","geometry":{"type":"Point","coordinates":[-75.69644,45.41533]}},{"properties":{"ct":1,"id":"a65n5mqpspmv","address":"100 BLOCK HAVELOCK ST","lat":45.41549,"long":-75.67825},"type":"Feature","geometry":{"type":"Point","coordinates":[-75.67825,45.41549]}},{"properties":{"ct":1,"id":"a65n5mqxw2iz","address":"100 BLOCK BOOTH ST","lat":45.41559,"long":-75.7143},"type":"Feature","geometry":{"type":"Point","coordinates":[-75.7143,45.41559]}},{"properties":{"ct":1,"id":"a65n5mjmi1jg","address":"400 BLOCK METCALFE ST","lat":45.41604,"long":-75.69153},"type":"Feature","geometry":{"type":"Point","coordinates":[-75.69153,45.41604]}},{"properties":{"ct":2,"id":"a65n5mtia3d8","address":"300 BLOCK SOMERSET Street, W","lat":45.41619,"long":-75.69434},"type":"Feature","geometry":{"type":"Point","coordinates":[-75.69434,45.41619]}},{"properties":{"ct":1,"id":"a65n5mk63zke","address":"COOPER Street, &amp; OCONNOR ST","lat":45.41689,"long":-75.69492},"type":"Feature","geometry":{"type":"Point","coordinates":[-75.69492,45.41689]}},{"properties":{"ct":2,"id":"a65n5mspg4sw","address":"400 BLOCK SLATER ST","lat":45.41701,"long":-75.70516},"type":"Feature","geometry":{"type":"Point","coordinates":[-75.70516,45.41701]}},{"properties":{"ct":1,"id":"a65n5mhykw4o","address":"200 BLOCK NEPEAN ST","lat":45.41729,"long":-75.69807},"type":"Feature","geometry":{"type":"Point","coordinates":[-75.69807,45.41729]}},{"properties":{"ct":1,"id":"a65n5mk4kg7t","address":"1 BLOCK GREENFIELD AVE","lat":45.41744,"long":-75.67848},"type":"Feature","geometry":{"type":"Point","coordinates":[-75.67848,45.41744]}},{"properties":{"ct":1,"id":"a65n5mgovzjk","address":"200 BLOCK KENT ST","lat":45.41748,"long":-75.7011},"type":"Feature","geometry":{"type":"Point","coordinates":[-75.7011,45.41748]}},{"properties":{"ct":1,"id":"a65n5mrrwt09","address":"200 BLOCK OCONNOR ST","lat":45.41771,"long":-75.69565},"type":"Feature","geometry":{"type":"Point","coordinates":[-75.69565,45.41771]}},{"properties":{"ct":1,"id":"a65n5mhsgk91","address":"1600 BLOCK SAXONY CRES","lat":45.41898,"long":-75.60288},"type":"Feature","geometry":{"type":"Point","coordinates":[-75.60288,45.41898]}},{"properties":{"ct":1,"id":"a65n5mi9r9i3","address":"KING EDWARD AVE &amp; MANN AVE","lat":45.41905,"long":-75.67722},"type":"Feature","geometry":{"type":"Point","coordinates":[-75.67722,45.41905]}},{"properties":{"ct":1,"id":"a65n5mhj9ok9","address":"1 BLOCK MANN AVE","lat":45.41907,"long":-75.67721},"type":"Feature","geometry":{"type":"Point","coordinates":[-75.67721,45.41907]}},{"properties":{"ct":1,"id":"a65n5mr6u885","address":"300 BLOCK LAURIER AVE W","lat":45.41931,"long":-75.69714},"type":"Feature","geometry":{"type":"Point","coordinates":[-75.69714,45.41931]}},{"properties":{"ct":1,"id":"a65n5mhozomw","address":"800 BLOCK KING EDWARD AVE","lat":45.41931,"long":-75.67857},"type":"Feature","geometry":{"type":"Point","coordinates":[-75.67857,45.41931]}},{"properties":{"ct":1,"id":"a65n5mgsyw2l","address":"1 BLOCK GILMOUR ST","lat":45.41938,"long":-75.68358},"type":"Feature","geometry":{"type":"Point","coordinates":[-75.68358,45.41938]}},{"properties":{"ct":2,"id":"a65n5mm73dg6","address":"300 BLOCK SPARKS ST","lat":45.41983,"long":-75.70421},"type":"Feature","geometry":{"type":"Point","coordinates":[-75.70421,45.41983]}},{"properties":{"ct":1,"id":"a65n5mm3x887","address":"100 BLOCK LISGAR ST","lat":45.41995,"long":-75.68962},"type":"Feature","geometry":{"type":"Point","coordinates":[-75.68962,45.41995]}},{"properties":{"ct":1,"id":"a65n5mjag1fs","address":"ALBERT Street, &amp; BANK ST","lat":45.41995,"long":-75.70028},"type":"Feature","geometry":{"type":"Point","coordinates":[-75.70028,45.41995]}},{"properties":{"ct":1,"id":"a65n5mnf8lub","address":"200 BLOCK LAURIER AVE W","lat":45.42003,"long":-75.69541},"type":"Feature","geometry":{"type":"Point","coordinates":[-75.69541,45.42003]}},{"properties":{"ct":1,"id":"a65n5movvpvd","address":"LAURIER AVE W &amp; METCALFE ST","lat":45.42017,"long":-75.6951},"type":"Feature","geometry":{"type":"Point","coordinates":[-75.6951,45.42017]}},{"properties":{"ct":1,"id":"a65n5mfx2kna","address":"GLOUCESTER Street, &amp; ELGIN ST","lat":45.42043,"long":-75.69244},"type":"Feature","geometry":{"type":"Point","coordinates":[-75.69244,45.42043]}},{"properties":{"ct":1,"id":"a65n5mqlwqw2","address":"1 BLOCK LISGAR ST","lat":45.42043,"long":-75.68865},"type":"Feature","geometry":{"type":"Point","coordinates":[-75.68865,45.42043]}},{"properties":{"ct":1,"id":"a65n5muz8l21","address":"1 BLOCK TEMPLETON ST","lat":45.42054,"long":-75.67885},"type":"Feature","geometry":{"type":"Point","coordinates":[-75.67885,45.42054]}},{"properties":{"ct":1,"id":"a65n5mi9vov4","address":"100 BLOCK MANN AVE","lat":45.42113,"long":-75.67208},"type":"Feature","geometry":{"type":"Point","coordinates":[-75.67208,45.42113]}},{"properties":{"ct":4,"id":"a65n5mg2mj4f","address":"100 BLOCK ELGIN ST","lat":45.42147,"long":-75.69337},"type":"Feature","geometry":{"type":"Point","coordinates":[-75.69337,45.42147]}},{"properties":{"ct":1,"id":"a65n5mn5bgs7","address":"1400 BLOCK Street, LAURENT BLVD","lat":45.42206,"long":-75.63617},"type":"Feature","geometry":{"type":"Point","coordinates":[-75.63617,45.42206]}},{"properties":{"ct":3,"id":"a65n5mkjx2pj","address":"100 BLOCK QUEEN ST","lat":45.42223,"long":-75.69691},"type":"Feature","geometry":{"type":"Point","coordinates":[-75.69691,45.42223]}},{"properties":{"ct":1,"id":"a65n5mm8a4jg","address":"1 BLOCK OCONNOR ST","lat":45.42263,"long":-75.69985},"type":"Feature","geometry":{"type":"Point","coordinates":[-75.69985,45.42263]}},{"properties":{"ct":1,"id":"a65n5mjv4xxw","address":"200 BLOCK GOULBURN AVE","lat":45.42327,"long":-75.67221},"type":"Feature","geometry":{"type":"Point","coordinates":[-75.67221,45.42327]}},{"properties":{"ct":1,"id":"a65n5mslobf8","address":"1 BLOCK METCALFE ST","lat":45.42347,"long":-75.69789},"type":"Feature","geometry":{"type":"Point","coordinates":[-75.69789,45.42347]}},{"properties":{"ct":1,"id":"a65n5ml124i2","address":"100 BLOCK HENDERSON AVE","lat":45.42347,"long":-75.68016},"type":"Feature","geometry":{"type":"Point","coordinates":[-75.68016,45.42347]}},{"properties":{"ct":8,"id":"a65n5mnxn6mf","address":"1 BLOCK VIMY PLACE PRIV","lat":45.42349,"long":-75.69793},"type":"Feature","geometry":{"type":"Point","coordinates":[-75.69793,45.42349]}},{"properties":{"ct":1,"id":"a65n5mnwd3br","address":"1 BLOCK SPARKS ST","lat":45.42357,"long":-75.6957},"type":"Feature","geometry":{"type":"Point","coordinates":[-75.6957,45.42357]}},{"properties":{"ct":1,"id":"a65n5mkrnqpm","address":"SPARKS Street, &amp; ELGIN ST","lat":45.42357,"long":-75.69567},"type":"Feature","geometry":{"type":"Point","coordinates":[-75.69567,45.42357]}},{"properties":{"ct":1,"id":"a65n5motwy9a","address":"1 BLOCK ALBERT ST","lat":45.42361,"long":-75.66549},"type":"Feature","geometry":{"type":"Point","coordinates":[-75.66549,45.42361]}},{"properties":{"ct":1,"id":"a65n5mt7o602","address":"100 BLOCK OSGOODE ST","lat":45.42368,"long":-75.68148},"type":"Feature","geometry":{"type":"Point","coordinates":[-75.68148,45.42368]}},{"properties":{"ct":1,"id":"a65n5miss7e5","address":"300 BLOCK SOMERSET Street, E","lat":45.4239,"long":-75.67574},"type":"Feature","geometry":{"type":"Point","coordinates":[-75.67574,45.4239]}},{"properties":{"ct":3,"id":"a65n5mu7uuk5","address":"600 BLOCK KING EDWARD AVE","lat":45.42398,"long":-75.6818},"type":"Feature","geometry":{"type":"Point","coordinates":[-75.6818,45.42398]}},{"properties":{"ct":1,"id":"a65n5mip3epo","address":"COLONEL BY DR &amp; DALY AVE","lat":45.42418,"long":-75.69239},"type":"Feature","geometry":{"type":"Point","coordinates":[-75.69239,45.42418]}},{"properties":{"ct":1,"id":"a65n5mp1mkax","address":"1 BLOCK QUEEN MARY ST","lat":45.42422,"long":-75.66578},"type":"Feature","geometry":{"type":"Point","coordinates":[-75.66578,45.42422]}},{"properties":{"ct":2,"id":"a65n5msvrg6r","address":"100 BLOCK RUSSELL AVE","lat":45.42433,"long":-75.67689},"type":"Feature","geometry":{"type":"Point","coordinates":[-75.67689,45.42433]}},{"properties":{"ct":4,"id":"a65n5mlugbvs","address":"1 BLOCK RIDEAU ST","lat":45.4251,"long":-75.69425},"type":"Feature","geometry":{"type":"Point","coordinates":[-75.69425,45.4251]}},{"properties":{"ct":1,"id":"a65n5mvdv86c","address":"200 BLOCK LAURIER AVE E","lat":45.42537,"long":-75.68272},"type":"Feature","geometry":{"type":"Point","coordinates":[-75.68272,45.42537]}},{"properties":{"ct":1,"id":"a65n5ml5u3xe","address":"1000 BLOCK CYRVILLE RD","lat":45.42566,"long":-75.63795},"type":"Feature","geometry":{"type":"Point","coordinates":[-75.63795,45.42566]}},{"properties":{"ct":2,"id":"a65n5mjwcm2y","address":"200 BLOCK WILBROD ST","lat":45.42604,"long":-75.68421},"type":"Feature","geometry":{"type":"Point","coordinates":[-75.68421,45.42604]}},{"properties":{"ct":1,"id":"a65n5mn4jxjr","address":"NELSON Street, &amp; LAURIER AVE E","lat":45.42606,"long":-75.68112},"type":"Feature","geometry":{"type":"Point","coordinates":[-75.68112,45.42606]}},{"properties":{"ct":1,"id":"a65n5mlkso3j","address":"100 BLOCK BESSERER ST","lat":45.42608,"long":-75.68999},"type":"Feature","geometry":{"type":"Point","coordinates":[-75.68999,45.42608]}},{"properties":{"ct":3,"id":"a65n5mgq33rg","address":"500 BLOCK CUMBERLAND ST","lat":45.42609,"long":-75.68602},"type":"Feature","geometry":{"type":"Point","coordinates":[-75.68602,45.42609]}},{"properties":{"ct":2,"id":"a65n5mqxnn9d","address":"1 BLOCK NICHOLAS ST","lat":45.42619,"long":-75.68992},"type":"Feature","geometry":{"type":"Point","coordinates":[-75.68992,45.42619]}},{"properties":{"ct":4,"id":"a65n5mojgnim","address":"1 BLOCK GEORGE ST","lat":45.42633,"long":-75.69398},"type":"Feature","geometry":{"type":"Point","coordinates":[-75.69398,45.42633]}},{"properties":{"ct":1,"id":"a65n5mfrj6pg","address":"500 BLOCK MACKENZIE AVE","lat":45.42654,"long":-75.69522},"type":"Feature","geometry":{"type":"Point","coordinates":[-75.69522,45.42654]}},{"properties":{"ct":1,"id":"a65n5mrrxvep","address":"1 BLOCK DONALD ST","lat":45.42687,"long":-75.66939},"type":"Feature","geometry":{"type":"Point","coordinates":[-75.66939,45.42687]}},{"properties":{"ct":1,"id":"a65n5mk8jx4m","address":"KING EDWARD AVE &amp; STEWART ST","lat":45.42687,"long":-75.68422},"type":"Feature","geometry":{"type":"Point","coordinates":[-75.68422,45.42687]}},{"properties":{"ct":1,"id":"a65n5mke60ds","address":"1 BLOCK RUSSELL AVE","lat":45.42691,"long":-75.67901},"type":"Feature","geometry":{"type":"Point","coordinates":[-75.67901,45.42691]}},{"properties":{"ct":1,"id":"a65n5mqsr6ai","address":"200 BLOCK RIDEAU ST","lat":45.42752,"long":-75.68866},"type":"Feature","geometry":{"type":"Point","coordinates":[-75.68866,45.42752]}},{"properties":{"ct":1,"id":"a65n5mfbs112","address":"100 BLOCK GEORGE ST","lat":45.42792,"long":-75.69027},"type":"Feature","geometry":{"type":"Point","coordinates":[-75.69027,45.42792]}},{"properties":{"ct":1,"id":"a65n5mgaeur4","address":"GEORGE Street, &amp; DALHOUSIE ST","lat":45.42792,"long":-75.69031},"type":"Feature","geometry":{"type":"Point","coordinates":[-75.69031,45.42792]}},{"properties":{"ct":1,"id":"a65n5mtzghn2","address":"400 BLOCK DONALD ST","lat":45.42817,"long":-75.65048},"type":"Feature","geometry":{"type":"Point","coordinates":[-75.65048,45.42817]}},{"properties":{"ct":1,"id":"a65n5mid8ba0","address":"1 BLOCK MARLBOROUGH AVE","lat":45.42843,"long":-75.67536},"type":"Feature","geometry":{"type":"Point","coordinates":[-75.67536,45.42843]}},{"properties":{"ct":2,"id":"a65n5mjwlbuo","address":"1000 BLOCK Street, LAURENT BLVD","lat":45.42844,"long":-75.6398},"type":"Feature","geometry":{"type":"Point","coordinates":[-75.6398,45.42844]}},{"properties":{"ct":1,"id":"a65n5mhz24fs","address":"MURRAY Street, &amp; SUSSEX DR","lat":45.42867,"long":-75.69606},"type":"Feature","geometry":{"type":"Point","coordinates":[-75.69606,45.42867]}},{"properties":{"ct":1,"id":"a65n5mo2gydx","address":"300 BLOCK RIDEAU ST","lat":45.42891,"long":-75.68533},"type":"Feature","geometry":{"type":"Point","coordinates":[-75.68533,45.42891]}},{"properties":{"ct":1,"id":"a65n5mf63mc1","address":"200 BLOCK AUGUSTA ST","lat":45.43016,"long":-75.67831},"type":"Feature","geometry":{"type":"Point","coordinates":[-75.67831,45.43016]}},{"properties":{"ct":2,"id":"a65n5miitq4k","address":"200 BLOCK CLARENCE ST","lat":45.43052,"long":-75.6895},"type":"Feature","geometry":{"type":"Point","coordinates":[-75.6895,45.43052]}},{"properties":{"ct":1,"id":"a65n5muw81om","address":"200 BLOCK BRUYERE ST","lat":45.43373,"long":-75.69219},"type":"Feature","geometry":{"type":"Point","coordinates":[-75.69219,45.43373]}},{"properties":{"ct":1,"id":"a65n5mm3p1q4","address":"1 BLOCK CENTREPARK DR","lat":45.43416,"long":-75.56601},"type":"Feature","geometry":{"type":"Point","coordinates":[-75.56601,45.43416]}},{"properties":{"ct":1,"id":"a65n5mibreqq","address":"400 BLOCK BLAKE BLVD","lat":45.43428,"long":-75.65207},"type":"Feature","geometry":{"type":"Point","coordinates":[-75.65207,45.43428]}},{"properties":{"ct":1,"id":"a65n5mupbg3o","address":"500 BLOCK OLD Street, PATRICK ST","lat":45.4344,"long":-75.68442},"type":"Feature","geometry":{"type":"Point","coordinates":[-75.68442,45.4344]}},{"properties":{"ct":1,"id":"a65n5mr0r6fz","address":"300 BLOCK FRONTENAC ST","lat":45.4346,"long":-75.65687},"type":"Feature","geometry":{"type":"Point","coordinates":[-75.65687,45.4346]}},{"properties":{"ct":1,"id":"a65n5ml6nvvc","address":"2000 BLOCK OGILVIE RD","lat":45.43557,"long":-75.60803},"type":"Feature","geometry":{"type":"Point","coordinates":[-75.60803,45.43557]}},{"properties":{"ct":2,"id":"a65n5mifz77q","address":"100 BLOCK DESCHAMPS AVE","lat":45.43646,"long":-75.6682},"type":"Feature","geometry":{"type":"Point","coordinates":[-75.6682,45.43646]}},{"properties":{"ct":1,"id":"a65n5mru4nqn","address":"300 BLOCK CRICHTON ST","lat":45.43901,"long":-75.6801},"type":"Feature","geometry":{"type":"Point","coordinates":[-75.6801,45.43901]}},{"properties":{"ct":1,"id":"a65n5mvjwspr","address":"600 BLOCK MORIN ST","lat":45.43998,"long":-75.64633},"type":"Feature","geometry":{"type":"Point","coordinates":[-75.64633,45.43998]}},{"properties":{"ct":1,"id":"a65n5mkiio9k","address":"1 BLOCK LANGEVIN AVE","lat":45.44073,"long":-75.67455},"type":"Feature","geometry":{"type":"Point","coordinates":[-75.67455,45.44073]}},{"properties":{"ct":1,"id":"a65n5mg5mqz6","address":"500 BLOCK MONTREAL RD","lat":45.44105,"long":-75.64668},"type":"Feature","geometry":{"type":"Point","coordinates":[-75.64668,45.44105]}},{"properties":{"ct":1,"id":"a65n5mvmjlci","address":"1 BLOCK BARRETTE Street, &amp; VANIER","lat":45.44322,"long":-75.65994},"type":"Feature","geometry":{"type":"Point","coordinates":[-75.65994,45.44322]}},{"properties":{"ct":1,"id":"a65n5ml21z6q","address":"200 BLOCK MICHEL CIRC","lat":45.44344,"long":-75.66634},"type":"Feature","geometry":{"type":"Point","coordinates":[-75.66634,45.44344]}},{"properties":{"ct":1,"id":"a65n5mo0qnbl","address":"200 BLOCK RIDEAU TER","lat":45.44365,"long":-75.67518},"type":"Feature","geometry":{"type":"Point","coordinates":[-75.67518,45.44365]}},{"properties":{"ct":1,"id":"a65n5mtb9bcl","address":"700 BLOCK MONTREAL RD","lat":45.44376,"long":-75.63853},"type":"Feature","geometry":{"type":"Point","coordinates":[-75.63853,45.44376]}},{"properties":{"ct":1,"id":"a65n5mlnozcb","address":"800 BLOCK ELMSMERE RD","lat":45.44516,"long":-75.60356},"type":"Feature","geometry":{"type":"Point","coordinates":[-75.60356,45.44516]}},{"properties":{"ct":1,"id":"a65n5mpe2mez","address":"2300 BLOCK OGILVIE RD","lat":45.44936,"long":-75.59542},"type":"Feature","geometry":{"type":"Point","coordinates":[-75.59542,45.44936]}},{"properties":{"ct":1,"id":"a65n5mrhr1yv","address":"900 BLOCK ORLEANS BLVD","lat":45.45361,"long":-75.53117},"type":"Feature","geometry":{"type":"Point","coordinates":[-75.53117,45.45361]}},{"properties":{"ct":1,"id":"a65n5mslthpk","address":"4200 BLOCK INNES RD","lat":45.45695,"long":-75.50004},"type":"Feature","geometry":{"type":"Point","coordinates":[-75.50004,45.45695]}},{"properties":{"ct":1,"id":"a65n5mr0h02i","address":"INNES RD &amp; TENTH LINE RD","lat":45.46074,"long":-75.48783},"type":"Feature","geometry":{"type":"Point","coordinates":[-75.48783,45.46074]}},{"properties":{"ct":1,"id":"a65n5mtj1tmh","address":"800 BLOCK SCALA AVE","lat":45.4624,"long":-75.46734},"type":"Feature","geometry":{"type":"Point","coordinates":[-75.46734,45.4624]}},{"properties":{"ct":1,"id":"a65n5mpp3slc","address":"2000 BLOCK NEWCARLISLE CRES","lat":45.46329,"long":-75.4634},"type":"Feature","geometry":{"type":"Point","coordinates":[-75.4634,45.46329]}},{"properties":{"ct":1,"id":"a65n5mkdikwj","address":"400 BLOCK ROUGEMOUNT CRES","lat":45.46426,"long":-75.48567},"type":"Feature","geometry":{"type":"Point","coordinates":[-75.48567,45.46426]}},{"properties":{"ct":1,"id":"a65n5mmb9hrj","address":"2100 BLOCK GARDENWAY DR","lat":45.46775,"long":-75.47576},"type":"Feature","geometry":{"type":"Point","coordinates":[-75.47576,45.46775]}},{"properties":{"ct":1,"id":"a65n5mr1km08","address":"1600 BLOCK TENTH LINE RD","lat":45.47077,"long":-75.49376},"type":"Feature","geometry":{"type":"Point","coordinates":[-75.49376,45.47077]}},{"properties":{"ct":1,"id":"a65n5mg3h0m2","address":"1200 BLOCK PLACE DORLEANS DR","lat":45.47721,"long":-75.52019},"type":"Feature","geometry":{"type":"Point","coordinates":[-75.52019,45.47721]}},{"properties":{"ct":1,"id":"a65n5ms3mop3","address":"1500 BLOCK LISBON ST","lat":45.47767,"long":-75.46699},"type":"Feature","geometry":{"type":"Point","coordinates":[-75.46699,45.47767]}},{"properties":{"ct":1,"id":"a65n5muuzffb","address":"600 BLOCK DEANCOURT CRES","lat":45.4788,"long":-75.48819},"type":"Feature","geometry":{"type":"Point","coordinates":[-75.48819,45.4788]}},{"properties":{"ct":2,"id":"a65n5mllh3ga","address":"1000 BLOCK SHEENBORO CRES","lat":45.47884,"long":-75.47707},"type":"Feature","geometry":{"type":"Point","coordinates":[-75.47707,45.47884]}},{"properties":{"ct":1,"id":"a65n5mj57y75","address":"100 BLOCK PLACE DORLEANS DR","lat":45.4793,"long":-75.51763},"type":"Feature","geometry":{"type":"Point","coordinates":[-75.51763,45.4793]}},{"properties":{"ct":1,"id":"a65n5mhplcms","address":"SPRINGRIDGE DR &amp; TRIM RD","lat":45.48051,"long":-75.4691},"type":"Feature","geometry":{"type":"Point","coordinates":[-75.4691,45.48051]}},{"properties":{"ct":1,"id":"a65n5mhuvldd","address":"100 BLOCK CHARMONT WAY","lat":45.48155,"long":-76.07816},"type":"Feature","geometry":{"type":"Point","coordinates":[-76.07816,45.48155]}},{"properties":{"ct":1,"id":"a65n5mmgznz0","address":"200 BLOCK LEN PURCELL DR","lat":45.50275,"long":-76.08621},"type":"Feature","geometry":{"type":"Point","coordinates":[-76.08621,45.50275]}}],"is_temporal":false,"author":{"url":"","metadata":"","contact_name":"","contact_address":"","source":"","contact_phone":""},"source":"","pagination":{"sort":null,"start":0,"total":241,"limit":1000000},"state":"complete","tags":"thefts","published":"2014-08-10T16:44:03-04:00","id":55999}