{"type":"FeatureCollection","data_type":"Dataset","url_type":null,"permissions":[{"permissions":{"download":true,"view":true},"group_id":"everyone"}],"classification":null,"title":"addresses&amp;nbsp;counts","count":164,"stream_id":56289,"contributor":{"url":"http://geocommons.com/users/8363","name":"paron"},"data_attributes":null,"calculation_params":null,"icon_link":null,"link":"http://geocommons.com/overlays/56289.json","extent":[-81.8272,40.8772,-80.846,41.3437],"geometry_types":["point"],"unique_name":null,"name":"addresses&nbsp;counts","feature_count":164,"description":"Number of persons at each address within reasonable commute of St. Mark.","next_feature":null,"is_raster":false,"short_classification":"Y","stats":{"persons":{"max":6,"mean":2.00609756097561,"variance":1.45395032171181,"stdev":1.20579862402965,"min":1,"median":2},"geo_score":{"max":1.0,"mean":0.887445121951219,"variance":0.0216721994239114,"stdev":0.147214807081052,"min":0.415,"median":0.92}},"features":[{"properties":{"city":"Norton","address1":"2832 Brookfield Dr.","persons":1,"zipcode":"44203","geo_score":0.92,"id":"a6biz2clutr6","geo_precision":"range","state":"OH"},"type":"Feature","geometry":{"type":"Point","coordinates":[-81.627685,41.034889]}},{"properties":{"city":"Cuyahoga Falls","address1":"1018 Tallmadge Road","persons":1,"zipcode":"44221","geo_score":1.0,"id":"a6biz27q672k","geo_precision":"range","state":"OH"},"type":"Feature","geometry":{"type":"Point","coordinates":[-81.468641,41.122091]}},{"properties":{"city":"Cuyahoga Falls","address1":"1287 Hunters Lake Drive East","persons":1,"zipcode":"44221","geo_score":1.0,"id":"a6biz27wgbrj","geo_precision":"range","state":"OH"},"type":"Feature","geometry":{"type":"Point","coordinates":[-81.455111,41.118752]}},{"properties":{"city":"North Canton","address1":"4794 Stalnaker Drive","persons":1,"zipcode":"44720","geo_score":0.925,"id":"a6biz2epalcw","geo_precision":"range","state":"OH"},"type":"Feature","geometry":{"type":"Point","coordinates":[-81.485192,40.935648]}},{"properties":{"city":"North Canton","address1":"214 Weber Ave","persons":1,"zipcode":"44720","geo_score":0.866,"id":"a6biz26jlqbi","geo_precision":"range","state":"OH"},"type":"Feature","geometry":{"type":"Point","coordinates":[-81.388905,40.877229]}},{"properties":{"city":"Cuyahoga Falls","address1":"1440 Treasch Drive","persons":1,"zipcode":"44221","geo_score":1.0,"id":"a6biz26e6fx0","geo_precision":"range","state":"OH"},"type":"Feature","geometry":{"type":"Point","coordinates":[-81.462857,41.129397]}},{"properties":{"city":"Cuyahoga Falls","address1":"1641 High Bridge Rd.","persons":1,"zipcode":"44221","geo_score":0.837,"id":"a6biz2h8ipe9","geo_precision":"range","state":"OH"},"type":"Feature","geometry":{"type":"Point","coordinates":[-81.476799,41.126744]}},{"properties":{"city":"Akron","address1":"2190 Brentwood Drive","persons":1,"zipcode":"44333","geo_score":0.939,"id":"a6biz2i1os9k","geo_precision":"range","state":"OH"},"type":"Feature","geometry":{"type":"Point","coordinates":[-81.601651,41.187027]}},{"properties":{"city":"Cuyahoga Falls","address1":"1695 Queens Gate Circle, Apt. #301","persons":1,"zipcode":"44221","geo_score":0.535,"id":"a6biz2brcukt","geo_precision":"street","state":"OH"},"type":"Feature","geometry":{"type":"Point","coordinates":[-81.461278,41.122865]}},{"properties":{"city":"Cuyahoga Falls","address1":"1781 Windsor St.","persons":1,"zipcode":"44221","geo_score":1.0,"id":"a6biz2c3rxbw","geo_precision":"range","state":"OH"},"type":"Feature","geometry":{"type":"Point","coordinates":[-81.469424,41.129792]}},{"properties":{"city":"Cuyahoga Falls","address1":"1835 7th Street","persons":1,"zipcode":"44221","geo_score":0.883,"id":"a6biz27oh6ae","geo_precision":"range","state":"OH"},"type":"Feature","geometry":{"type":"Point","coordinates":[-81.491756,41.13172]}},{"properties":{"city":"Akron","address1":"1430 Waters Edge Drive","persons":1,"zipcode":"44313","geo_score":0.415,"id":"a6biz2cm71uh","geo_precision":"street","state":"OH"},"type":"Feature","geometry":{"type":"Point","coordinates":[-81.494278,41.064977]}},{"properties":{"city":"Cuyahoga Falls","address1":"2550 2nd Street","persons":1,"zipcode":"44221","geo_score":0.883,"id":"a6biz2b2n17r","geo_precision":"range","state":"OH"},"type":"Feature","geometry":{"type":"Point","coordinates":[-81.477433,41.144169]}},{"properties":{"city":"Akron","address1":"892 Bridge Rd.","persons":1,"zipcode":"44312","geo_score":0.793,"id":"a6biz2e0n3rr","geo_precision":"range","state":"OH"},"type":"Feature","geometry":{"type":"Point","coordinates":[-81.446944,41.040535]}},{"properties":{"city":"Akron","address1":"720 Shadybrook Apt.L","persons":1,"zipcode":"44312","geo_score":0.429,"id":"a6biz2jqvf8i","geo_precision":"street","state":"OH"},"type":"Feature","geometry":{"type":"Point","coordinates":[-81.435921,41.04212]}},{"properties":{"city":"Cuyahoga Falls","address1":"35 Franklin Avenue","persons":1,"zipcode":"44221","geo_score":1.0,"id":"a6biz293igpx","geo_precision":"range","state":"OH"},"type":"Feature","geometry":{"type":"Point","coordinates":[-81.482923,41.154965]}},{"properties":{"city":"Akron","address1":"653 North Oakwood Drive","persons":1,"zipcode":"44312","geo_score":0.902,"id":"a6biz2hvl9o1","geo_precision":"range","state":"OH"},"type":"Feature","geometry":{"type":"Point","coordinates":[-81.41845,41.034201]}},{"properties":{"city":"Akron","address1":"3042 Mogadore Road, Apt. 1","persons":1,"zipcode":"44312","geo_score":0.444,"id":"a6biz2jxux6g","geo_precision":"street","state":"OH"},"type":"Feature","geometry":{"type":"Point","coordinates":[-81.456127,41.061257]}},{"properties":{"city":"Akron","address1":"2834 Berne Street","persons":1,"zipcode":"44312","geo_score":0.902,"id":"a6biz2enk2qa","geo_precision":"range","state":"OH"},"type":"Feature","geometry":{"type":"Point","coordinates":[-81.428278,41.052623]}},{"properties":{"city":"Cuyahoga Falls","address1":"747 W. Steels Corners Road","persons":1,"zipcode":"44223","geo_score":0.598,"id":"a6biz2lcc5rn","geo_precision":"street","state":"OH"},"type":"Feature","geometry":{"type":"Point","coordinates":[-81.508569,41.180975]}},{"properties":{"city":"Stow","address1":"1499 McTaggart Rd.","persons":1,"zipcode":"44224","geo_score":0.912,"id":"a6biz25w0ezt","geo_precision":"range","state":"OH"},"type":"Feature","geometry":{"type":"Point","coordinates":[-81.443759,41.200485]}},{"properties":{"city":"Akron","address1":"2652 Chelsea Dr.","persons":1,"zipcode":"44312","geo_score":0.902,"id":"a6biz2hlclnp","geo_precision":"range","state":"OH"},"type":"Feature","geometry":{"type":"Point","coordinates":[-81.428867,41.028048]}},{"properties":{"city":"Stow","address1":"2249 Lynnwood Drive","persons":1,"zipcode":"44224","geo_score":0.912,"id":"a6biz28bzigw","geo_precision":"range","state":"OH"},"type":"Feature","geometry":{"type":"Point","coordinates":[-81.427596,41.17827]}},{"properties":{"city":"Akron","address1":"705 Van Everett Ave","persons":1,"zipcode":"44306","geo_score":1.0,"id":"a6biz2crt2bk","geo_precision":"range","state":"OH"},"type":"Feature","geometry":{"type":"Point","coordinates":[-81.487849,41.050296]}},{"properties":{"city":"Stow","address1":"2880 Heatherwood Court","persons":1,"zipcode":"44224","geo_score":0.912,"id":"a6biz26q713h","geo_precision":"range","state":"OH"},"type":"Feature","geometry":{"type":"Point","coordinates":[-81.411336,41.161541]}},{"properties":{"city":"Akron","address1":"491 Larkin","persons":1,"zipcode":"44305","geo_score":0.859,"id":"a6biz2bjf49l","geo_precision":"range","state":"OH"},"type":"Feature","geometry":{"type":"Point","coordinates":[-81.449381,41.071889]}},{"properties":{"city":"Akron","address1":"453 Alaho Street","persons":1,"zipcode":"44305","geo_score":0.957,"id":"a6biz2bwkqef","geo_precision":"range","state":"OH"},"type":"Feature","geometry":{"type":"Point","coordinates":[-81.431613,41.075744]}},{"properties":{"city":"Stow","address1":"3766 Fishcreek #257","persons":1,"zipcode":"44224","geo_score":0.664,"id":"a6biz2gd0045","geo_precision":"street","state":"OH"},"type":"Feature","geometry":{"type":"Point","coordinates":[-81.398707,41.154854]}},{"properties":{"city":"Stow","address1":"3969 Baumberger Rd.","persons":1,"zipcode":"44224","geo_score":0.912,"id":"a6biz26if6ul","geo_precision":"range","state":"OH"},"type":"Feature","geometry":{"type":"Point","coordinates":[-81.454986,41.177183]}},{"properties":{"city":"Stow","address1":"4129 Vira Rd.","persons":1,"zipcode":"44224","geo_score":0.912,"id":"a6biz2erys7a","geo_precision":"range","state":"OH"},"type":"Feature","geometry":{"type":"Point","coordinates":[-81.420885,41.171126]}},{"properties":{"city":"Stow","address1":"4256 Meadow Lark Trail","persons":1,"zipcode":"44224","geo_score":0.912,"id":"a6biz26r1fbp","geo_precision":"range","state":"OH"},"type":"Feature","geometry":{"type":"Point","coordinates":[-81.455586,41.178724]}},{"properties":{"city":"Stow","address1":"4285 Kent Road","persons":1,"zipcode":"44224","geo_score":0.912,"id":"a6biz2gxx0fp","geo_precision":"range","state":"OH"},"type":"Feature","geometry":{"type":"Point","coordinates":[-81.407393,41.156883]}},{"properties":{"city":"Stow","address1":"3700 Englewood Dr.","persons":1,"zipcode":"44224","geo_score":0.912,"id":"a6biz29bn8rl","geo_precision":"range","state":"OH"},"type":"Feature","geometry":{"type":"Point","coordinates":[-81.450127,41.168043]}},{"properties":{"city":"Hinckley","address1":"1744 Mattingly Rd","persons":1,"zipcode":"44233","geo_score":1.0,"id":"a6biz2jknqvk","geo_precision":"range","state":"OH"},"type":"Feature","geometry":{"type":"Point","coordinates":[-81.746311,41.261]}},{"properties":{"city":"Tallmadge","address1":"122 Douglas Ct.","persons":1,"zipcode":"44278","geo_score":1.0,"id":"a6biz2acsz5t","geo_precision":"range","state":"OH"},"type":"Feature","geometry":{"type":"Point","coordinates":[-81.438054,41.08504]}},{"properties":{"city":"Akron","address1":"1900 Tonawanda Avenue","persons":1,"zipcode":"44305","geo_score":0.957,"id":"a6biz2j5mlec","geo_precision":"range","state":"OH"},"type":"Feature","geometry":{"type":"Point","coordinates":[-81.458004,41.071937]}},{"properties":{"city":"Kent","address1":"140 E Oak Street","persons":1,"zipcode":"44240","geo_score":0.913,"id":"a6biz29t5e5f","geo_precision":"range","state":"OH"},"type":"Feature","geometry":{"type":"Point","coordinates":[-81.357754,41.145636]}},{"properties":{"city":"Akron","address1":"1667 Goodyear Boulevard","persons":1,"zipcode":"44305","geo_score":0.957,"id":"a6biz2b5vkib","geo_precision":"range","state":"OH"},"type":"Feature","geometry":{"type":"Point","coordinates":[-81.463696,41.071339]}},{"properties":{"city":"Kent","address1":"3222 Ranfield Rd.","persons":1,"zipcode":"44240","geo_score":0.913,"id":"a6biz26jl8s0","geo_precision":"range","state":"OH"},"type":"Feature","geometry":{"type":"Point","coordinates":[-81.308241,41.077176]}},{"properties":{"city":"Kent","address1":"3801 Cascades Blvd.","persons":1,"zipcode":"44240","geo_score":0.512,"id":"a6biz289ye5j","geo_precision":"street","state":"OH"},"type":"Feature","geometry":{"type":"Point","coordinates":[-81.336249,41.343745]}},{"properties":{"city":"Kent","address1":"3898 Lor-Ron","persons":1,"zipcode":"44240","geo_score":0.816,"id":"a6biz266zbtk","geo_precision":"range","state":"OH"},"type":"Feature","geometry":{"type":"Point","coordinates":[-81.361415,41.095297]}},{"properties":{"city":"Akron","address1":"1626 Multnoma Avenue","persons":1,"zipcode":"44305","geo_score":0.957,"id":"a6biz29yndp9","geo_precision":"range","state":"OH"},"type":"Feature","geometry":{"type":"Point","coordinates":[-81.460442,41.080873]}},{"properties":{"city":"Akron","address1":"1606 Osage Avenue","persons":1,"zipcode":"44305","geo_score":0.957,"id":"a6biz2dl110v","geo_precision":"range","state":"OH"},"type":"Feature","geometry":{"type":"Point","coordinates":[-81.461077,41.083102]}},{"properties":{"city":"Brimfield","address1":"4816 Sherman Road","persons":1,"zipcode":"44240","geo_score":0.913,"id":"a6biz292mrq1","geo_precision":"range","state":"OH"},"type":"Feature","geometry":{"type":"Point","coordinates":[-81.341388,41.122653]}},{"properties":{"city":"Kent","address1":"916 Steine Court,  Apt. # 303","persons":1,"zipcode":"44240","geo_score":0.468,"id":"a6biz25ymvlu","geo_precision":"street","state":"OH"},"type":"Feature","geometry":{"type":"Point","coordinates":[-81.391412,41.160519]}},{"properties":{"city":"Akron","address1":"1296 Niagara","persons":1,"zipcode":"44305","geo_score":0.869,"id":"a6biz26m76qg","geo_precision":"range","state":"OH"},"type":"Feature","geometry":{"type":"Point","coordinates":[-81.472894,41.077369]}},{"properties":{"city":"Akron","address1":"968 Hereford Drive","persons":1,"zipcode":"44303","geo_score":1.0,"id":"a6biz28ogbrh","geo_precision":"range","state":"OH"},"type":"Feature","geometry":{"type":"Point","coordinates":[-81.546058,41.103669]}},{"properties":{"city":"Akron","address1":"1606 Ireland Ave.","persons":1,"zipcode":"44301","geo_score":0.925,"id":"a6biz2ctdsc3","geo_precision":"range","state":"OH"},"type":"Feature","geometry":{"type":"Point","coordinates":[-81.51721,41.038907]}},{"properties":{"city":"Tallmadge","address1":"979 Morningview Dr.","persons":1,"zipcode":"44278","geo_score":1.0,"id":"a6biz2ls93v3","geo_precision":"range","state":"OH"},"type":"Feature","geometry":{"type":"Point","coordinates":[-81.404801,41.121924]}},{"properties":{"city":"Tallmadge","address1":"960 Southeast Avenue","persons":1,"zipcode":"44278","geo_score":0.829,"id":"a6biz2biwbbb","geo_precision":"range","state":"OH"},"type":"Feature","geometry":{"type":"Point","coordinates":[-81.415064,41.082567]}},{"properties":{"city":"Tallmadge","address1":"922 Martindale Dr.","persons":1,"zipcode":"44278","geo_score":1.0,"id":"a6biz2ckxsib","geo_precision":"range","state":"OH"},"type":"Feature","geometry":{"type":"Point","coordinates":[-81.407603,41.090364]}},{"properties":{"city":"Tallmadge","address1":"68 Stadium Drive","persons":1,"zipcode":"44278","geo_score":1.0,"id":"a6biz2d38wgb","geo_precision":"range","state":"OH"},"type":"Feature","geometry":{"type":"Point","coordinates":[-81.443383,41.103727]}},{"properties":{"city":"Tallmadge","address1":"523 Cynthia Lane","persons":1,"zipcode":"44278","geo_score":1.0,"id":"a6biz2iq1lhq","geo_precision":"range","state":"OH"},"type":"Feature","geometry":{"type":"Point","coordinates":[-81.43789,41.086203]}},{"properties":{"city":"Tallmadge","address1":"447 Northeast Ave Apt D204","persons":1,"zipcode":"44278","geo_score":0.415,"id":"a6biz27dmzgi","geo_precision":"street","state":"OH"},"type":"Feature","geometry":{"type":"Point","coordinates":[-81.430534,41.021656]}},{"properties":{"city":"Tallmadge","address1":"423 Classic Drive","persons":1,"zipcode":"44278","geo_score":0.683,"id":"a6biz294hass","geo_precision":"zip","state":"OH"},"type":"Feature","geometry":{"type":"Point","coordinates":[-81.428883,41.096656]}},{"properties":{"city":"Munroe Falls","address1":"123 Oakhurst","persons":1,"zipcode":"44262","geo_score":0.941,"id":"a6biz27h81fe","geo_precision":"range","state":"OH"},"type":"Feature","geometry":{"type":"Point","coordinates":[-81.436529,41.150657]}},{"properties":{"city":"Tallmadge","address1":"411 Classic Dr.","persons":1,"zipcode":"44278","geo_score":0.683,"id":"a6biz290hi0v","geo_precision":"zip","state":"OH"},"type":"Feature","geometry":{"type":"Point","coordinates":[-81.428883,41.096656]}},{"properties":{"city":"Tallmadge","address1":"357 Jones Road Apt. D","persons":1,"zipcode":"44278","geo_score":0.633,"id":"a6biz2bg5ui2","geo_precision":"street","state":"OH"},"type":"Feature","geometry":{"type":"Point","coordinates":[-81.443317,41.091988]}},{"properties":{"city":"Tallmadge","address1":"336 Transit","persons":1,"zipcode":"44278","geo_score":0.935,"id":"a6biz2e582qp","geo_precision":"range","state":"OH"},"type":"Feature","geometry":{"type":"Point","coordinates":[-81.428103,41.104726]}},{"properties":{"city":"Munroe Falls","address1":"174 Oakhurst Drive","persons":1,"zipcode":"44262","geo_score":1.0,"id":"a6biz2jpav2j","geo_precision":"range","state":"OH"},"type":"Feature","geometry":{"type":"Point","coordinates":[-81.433376,41.150645]}},{"properties":{"city":"Tallmadge","address1":"333 N. Elm Ave","persons":1,"zipcode":"44278","geo_score":0.571,"id":"a6biz28ngkwa","geo_precision":"street","state":"OH"},"type":"Feature","geometry":{"type":"Point","coordinates":[-81.42223,41.096303]}},{"properties":{"city":"Tallmadge","address1":"310 Fawnwood Drive","persons":1,"zipcode":"44278","geo_score":1.0,"id":"a6biz2av5b2q","geo_precision":"range","state":"OH"},"type":"Feature","geometry":{"type":"Point","coordinates":[-81.409377,41.092784]}},{"properties":{"city":"Tallmadge","address1":"288 Dunbar Road","persons":1,"zipcode":"44278","geo_score":1.0,"id":"a6biz2hg802m","geo_precision":"range","state":"OH"},"type":"Feature","geometry":{"type":"Point","coordinates":[-81.407219,41.091852]}},{"properties":{"city":"Ravenna","address1":"1064 Sunnywood Lane","persons":1,"zipcode":"44266","geo_score":0.92,"id":"a6biz2aoglqb","geo_precision":"range","state":"OH"},"type":"Feature","geometry":{"type":"Point","coordinates":[-81.255866,41.143215]}},{"properties":{"city":"Tallmadge","address1":"237 W. Garwood Dr.","persons":1,"zipcode":"44278","geo_score":0.614,"id":"a6biz282u1rp","geo_precision":"street","state":"OH"},"type":"Feature","geometry":{"type":"Point","coordinates":[-81.435882,41.110437]}},{"properties":{"city":"Ravenna","address1":"5411 Lakeview Dr","persons":1,"zipcode":"44266","geo_score":0.725,"id":"a6biz2b0sinv","geo_precision":"street","state":"OH"},"type":"Feature","geometry":{"type":"Point","coordinates":[-81.317365,41.159628]}},{"properties":{"city":"Tallmadge","address1":"14 N. Villageview Drive","persons":1,"zipcode":"44278","geo_score":0.602,"id":"a6biz2fc7zsq","geo_precision":"street","state":"OH"},"type":"Feature","geometry":{"type":"Point","coordinates":[-81.43054,41.101244]}},{"properties":{"city":"Tallmadge","address1":"1230 Grovewood Drive","persons":1,"zipcode":"44278","geo_score":1.0,"id":"a6biz2hi79gp","geo_precision":"range","state":"OH"},"type":"Feature","geometry":{"type":"Point","coordinates":[-81.426994,41.06797]}},{"properties":{"city":"Tallmadge","address1":"102 North Alling Road","persons":1,"zipcode":"44278","geo_score":1.0,"id":"a6biz2a9hr1k","geo_precision":"range","state":"OH"},"type":"Feature","geometry":{"type":"Point","coordinates":[-81.426925,41.10398]}},{"properties":{"city":"Tallmadge","address1":"1176 Eastwood Road","persons":1,"zipcode":"44278","geo_score":0.92,"id":"a6biz2k7owjl","geo_precision":"range","state":"OH"},"type":"Feature","geometry":{"type":"Point","coordinates":[-81.398779,41.083326]}},{"properties":{"city":"Akron","address1":"1904 Tonawanda Ave.","persons":1,"zipcode":"44305","geo_score":0.957,"id":"a6biz2b8ivmc","geo_precision":"range","state":"OH"},"type":"Feature","geometry":{"type":"Point","coordinates":[-81.458007,41.071817]}},{"properties":{"city":"Tallmadge","address1":"100 South Alling Road","persons":2,"zipcode":"44278","geo_score":1.0,"id":"a6biz2lto1p7","geo_precision":"range","state":"OH"},"type":"Feature","geometry":{"type":"Point","coordinates":[-81.427083,41.098504]}},{"properties":{"city":"Tallmadge","address1":"124 Stadium Drive","persons":2,"zipcode":"44278","geo_score":1.0,"id":"a6biz2isdocl","geo_precision":"range","state":"OH"},"type":"Feature","geometry":{"type":"Point","coordinates":[-81.443222,41.104728]}},{"properties":{"city":"Cuyahoga Falls","address1":"1417 Buckingham Gate Blvd. Unit A","persons":2,"zipcode":"44221","geo_score":0.643,"id":"a6biz2cdrtda","geo_precision":"street","state":"OH"},"type":"Feature","geometry":{"type":"Point","coordinates":[-81.46041,41.120311]}},{"properties":{"city":"Ravenna","address1":"851 S. Prospect St.","persons":2,"zipcode":"44266","geo_score":0.497,"id":"a6biz2a5kjk9","geo_precision":"street","state":"OH"},"type":"Feature","geometry":{"type":"Point","coordinates":[-81.242037,41.112998]}},{"properties":{"city":"Tallmadge","address1":"1464 Northeast Avenue","persons":2,"zipcode":"44278","geo_score":0.829,"id":"a6biz2i41k5m","geo_precision":"range","state":"OH"},"type":"Feature","geometry":{"type":"Point","coordinates":[-81.401529,41.129021]}},{"properties":{"city":"Tallmadge","address1":"1492 Northeast Avenue","persons":2,"zipcode":"44278","geo_score":0.829,"id":"a6biz27cijly","geo_precision":"range","state":"OH"},"type":"Feature","geometry":{"type":"Point","coordinates":[-81.400402,41.12949]}},{"properties":{"city":"Tallmadge","address1":"152 East Garwood Drive","persons":2,"zipcode":"44278","geo_score":1.0,"id":"a6biz26p0nej","geo_precision":"range","state":"OH"},"type":"Feature","geometry":{"type":"Point","coordinates":[-81.435526,41.110422]}},{"properties":{"city":"Tallmadge","address1":"157 South Alling Road","persons":2,"zipcode":"44278","geo_score":1.0,"id":"a6biz271v3qq","geo_precision":"range","state":"OH"},"type":"Feature","geometry":{"type":"Point","coordinates":[-81.427144,41.097]}},{"properties":{"city":"North Canton","address1":"1484 Red Coach Street S.E.","persons":2,"zipcode":"44720","geo_score":0.509,"id":"a6biz2brxot1","geo_precision":"street","state":"OH"},"type":"Feature","geometry":{"type":"Point","coordinates":[-81.415872,40.88003]}},{"properties":{"city":"Ravenna","address1":"3222 Bent Oak Trail","persons":2,"zipcode":"44266","geo_score":0.92,"id":"a6biz26g1279","geo_precision":"range","state":"OH"},"type":"Feature","geometry":{"type":"Point","coordinates":[-81.28225,41.13398]}},{"properties":{"city":"Tallmadge","address1":"28 Strecker Drive","persons":2,"zipcode":"44278","geo_score":1.0,"id":"a6biz2l2uz74","geo_precision":"range","state":"OH"},"type":"Feature","geometry":{"type":"Point","coordinates":[-81.440305,41.091794]}},{"properties":{"city":"Salem","address1":"622 Woodland Ave","persons":2,"zipcode":"44460","geo_score":0.951,"id":"a6biz25v7fx0","geo_precision":"range","state":"OH"},"type":"Feature","geometry":{"type":"Point","coordinates":[-80.845965,40.89676]}},{"properties":{"city":"Cuyahoga Falls","address1":"1664 Union St.","persons":2,"zipcode":"44221","geo_score":1.0,"id":"a6biz2ccsn9d","geo_precision":"range","state":"OH"},"type":"Feature","geometry":{"type":"Point","coordinates":[-81.478561,41.127741]}},{"properties":{"city":"Tallmadge","address1":"305 Green Glen Spur","persons":2,"zipcode":"44278","geo_score":0.977,"id":"a6biz2itudx0","geo_precision":"range","state":"OH"},"type":"Feature","geometry":{"type":"Point","coordinates":[-81.451229,41.119251]}},{"properties":{"city":"Akron","address1":"580 Flora Ave","persons":2,"zipcode":"44314","geo_score":0.916,"id":"a6biz2krxyum","geo_precision":"range","state":"OH"},"type":"Feature","geometry":{"type":"Point","coordinates":[-81.547328,41.038269]}},{"properties":{"city":"Akron","address1":"566 Flora Ave.","persons":2,"zipcode":"44314","geo_score":0.916,"id":"a6biz2j72m31","geo_precision":"range","state":"OH"},"type":"Feature","geometry":{"type":"Point","coordinates":[-81.546745,41.038263]}},{"properties":{"city":"Tallmadge","address1":"3250 Mogadore Road","persons":2,"zipcode":"44278","geo_score":1.0,"id":"a6biz28iavue","geo_precision":"range","state":"OH"},"type":"Feature","geometry":{"type":"Point","coordinates":[-81.390782,41.078154]}},{"properties":{"city":"Munroe Falls","address1":"260 Donaldson Drive","persons":2,"zipcode":"44262","geo_score":1.0,"id":"a6biz2iml8ul","geo_precision":"range","state":"OH"},"type":"Feature","geometry":{"type":"Point","coordinates":[-81.448299,41.135281]}},{"properties":{"city":"Munroe Falls","address1":"17 Richard Dr.","persons":2,"zipcode":"44262","geo_score":1.0,"id":"a6biz2g31duq","geo_precision":"range","state":"OH"},"type":"Feature","geometry":{"type":"Point","coordinates":[-81.448846,41.139936]}},{"properties":{"city":"Munroe Falls","address1":"162 Lindsey Road","persons":2,"zipcode":"44262","geo_score":1.0,"id":"a6biz2cetkqh","geo_precision":"range","state":"OH"},"type":"Feature","geometry":{"type":"Point","coordinates":[-81.434553,41.149677]}},{"properties":{"city":"Tallmadge","address1":"36 South Munroe Road","persons":2,"zipcode":"44278","geo_score":1.0,"id":"a6biz2g2vfo5","geo_precision":"range","state":"OH"},"type":"Feature","geometry":{"type":"Point","coordinates":[-81.41581,41.099969]}},{"properties":{"city":"Akron","address1":"637 Bridge Road","persons":2,"zipcode":"44312","geo_score":0.793,"id":"a6biz2ch3xf3","geo_precision":"range","state":"OH"},"type":"Feature","geometry":{"type":"Point","coordinates":[-81.44901,41.045837]}},{"properties":{"city":"Akron","address1":"507 Ripley Ave.","persons":2,"zipcode":"44312","geo_score":0.902,"id":"a6biz2m0wf4y","geo_precision":"range","state":"OH"},"type":"Feature","geometry":{"type":"Point","coordinates":[-81.427455,41.043038]}},{"properties":{"city":"Akron","address1":"505 Gibbs Rd.","persons":2,"zipcode":"44312","geo_score":0.902,"id":"a6biz2dbz858","geo_precision":"range","state":"OH"},"type":"Feature","geometry":{"type":"Point","coordinates":[-81.460562,41.047164]}},{"properties":{"city":"Akron","address1":"495 Stevenson Avenue","persons":2,"zipcode":"44312","geo_score":0.902,"id":"a6biz2hp12x0","geo_precision":"range","state":"OH"},"type":"Feature","geometry":{"type":"Point","coordinates":[-81.431658,41.045553]}},{"properties":{"city":"Cuyahoga Falls","address1":"2820 Marcia Blvd.","persons":2,"zipcode":"44223","geo_score":1.0,"id":"a6biz2c1qmpc","geo_precision":"range","state":"OH"},"type":"Feature","geometry":{"type":"Point","coordinates":[-81.516235,41.136419]}},{"properties":{"city":"Tallmadge","address1":"433 Melony Lane","persons":2,"zipcode":"44278","geo_score":1.0,"id":"a6biz26i8dbr","geo_precision":"range","state":"OH"},"type":"Feature","geometry":{"type":"Point","coordinates":[-81.452881,41.088298]}},{"properties":{"city":"Tallmadge","address1":"435 Blossom Circle","persons":2,"zipcode":"44278","geo_score":1.0,"id":"a6biz2grw3br","geo_precision":"range","state":"OH"},"type":"Feature","geometry":{"type":"Point","coordinates":[-81.41118,41.088496]}},{"properties":{"city":"Akron","address1":"1740 Berna Road","persons":2,"zipcode":"44312","geo_score":0.902,"id":"a6biz29svbn3","geo_precision":"range","state":"OH"},"type":"Feature","geometry":{"type":"Point","coordinates":[-81.460372,40.979964]}},{"properties":{"city":"Akron","address1":"2382 Savoy Ave","persons":2,"zipcode":"44305","geo_score":0.957,"id":"a6biz2ce6q6v","geo_precision":"range","state":"OH"},"type":"Feature","geometry":{"type":"Point","coordinates":[-81.432457,41.081877]}},{"properties":{"city":"Tallmadge","address1":"456 Pickwick Lane","persons":2,"zipcode":"44278","geo_score":1.0,"id":"a6biz2ixs4qb","geo_precision":"range","state":"OH"},"type":"Feature","geometry":{"type":"Point","coordinates":[-81.451998,41.087579]}},{"properties":{"city":"Mogadore","address1":"70 Norris Ave","persons":2,"zipcode":"44260","geo_score":0.902,"id":"a6biz2izbf4n","geo_precision":"range","state":"OH"},"type":"Feature","geometry":{"type":"Point","coordinates":[-81.401555,41.048839]}},{"properties":{"city":"Tallmadge","address1":"532 Morningstar Dr.","persons":2,"zipcode":"44278","geo_score":1.0,"id":"a6biz290x9r8","geo_precision":"range","state":"OH"},"type":"Feature","geometry":{"type":"Point","coordinates":[-81.452154,41.116973]}},{"properties":{"city":"Akron","address1":"882 Jean Ave","persons":2,"zipcode":"44310","geo_score":1.0,"id":"a6biz2j5r999","geo_precision":"range","state":"OH"},"type":"Feature","geometry":{"type":"Point","coordinates":[-81.483069,41.112672]}},{"properties":{"city":"Akron","address1":"1643 Shirley Ave","persons":2,"zipcode":"44310","geo_score":1.0,"id":"a6biz2jw3mdh","geo_precision":"range","state":"OH"},"type":"Feature","geometry":{"type":"Point","coordinates":[-81.482106,41.111161]}},{"properties":{"city":"Stow","address1":"2594 River Downs","persons":2,"zipcode":"44224","geo_score":0.854,"id":"a6biz2dybflp","geo_precision":"range","state":"OH"},"type":"Feature","geometry":{"type":"Point","coordinates":[-81.414189,41.141393]}},{"properties":{"city":"Tallmadge","address1":"899 Ashmun Avenue","persons":2,"zipcode":"44278","geo_score":1.0,"id":"a6biz2azllse","geo_precision":"range","state":"OH"},"type":"Feature","geometry":{"type":"Point","coordinates":[-81.40601,41.104677]}},{"properties":{"city":"Tallmadge","address1":"909 South Munroe","persons":2,"zipcode":"44278","geo_score":0.935,"id":"a6biz25nr3ne","geo_precision":"range","state":"OH"},"type":"Feature","geometry":{"type":"Point","coordinates":[-81.417101,41.07587]}},{"properties":{"city":"Mogadore","address1":"409 Roland Hills Drive","persons":2,"zipcode":"44260","geo_score":0.902,"id":"a6biz28ur8gt","geo_precision":"range","state":"OH"},"type":"Feature","geometry":{"type":"Point","coordinates":[-81.37693,41.073892]}},{"properties":{"city":"Tallmadge","address1":"94 Sera Berm Drive","persons":2,"zipcode":"44278","geo_score":0.659,"id":"a6biz26hwlfl","geo_precision":"range","state":"OH"},"type":"Feature","geometry":{"type":"Point","coordinates":[-81.827208,41.272566]}},{"properties":{"city":"Mogadore","address1":"2348 Sunnybrook Rd.","persons":2,"zipcode":"44260","geo_score":0.902,"id":"a6biz2a60m1g","geo_precision":"range","state":"OH"},"type":"Feature","geometry":{"type":"Point","coordinates":[-81.37527,41.053253]}},{"properties":{"city":"Mogadore","address1":"2110 Randolph Road","persons":2,"zipcode":"44260","geo_score":0.902,"id":"a6biz2i9dh38","geo_precision":"range","state":"OH"},"type":"Feature","geometry":{"type":"Point","coordinates":[-81.3164,41.050382]}},{"properties":{"city":"Tallmadge","address1":"999 Martindale Drive","persons":2,"zipcode":"44278","geo_score":1.0,"id":"a6biz2g5maim","geo_precision":"range","state":"OH"},"type":"Feature","geometry":{"type":"Point","coordinates":[-81.404928,41.090314]}},{"properties":{"city":"Mogadore","address1":"1739 Congress Lake Road","persons":2,"zipcode":"44260","geo_score":0.902,"id":"a6biz2guuncq","geo_precision":"range","state":"OH"},"type":"Feature","geometry":{"type":"Point","coordinates":[-81.329164,41.036757]}},{"properties":{"city":"Akron","address1":"515 Essex St","persons":2,"zipcode":"44305","geo_score":0.805,"id":"a6biz29nv7ge","geo_precision":"range","state":"OH"},"type":"Feature","geometry":{"type":"Point","coordinates":[-81.467374,41.047623]}},{"properties":{"city":"Streetsboro","address1":"10312 Winthrop","persons":2,"zipcode":"44241","geo_score":0.941,"id":"a6biz27w1a9m","geo_precision":"range","state":"OH"},"type":"Feature","geometry":{"type":"Point","coordinates":[-81.296747,41.271691]}},{"properties":{"city":"Stow","address1":"2930 Crown Pointe Dr.","persons":2,"zipcode":"44224","geo_score":0.912,"id":"a6biz2a8i927","geo_precision":"range","state":"OH"},"type":"Feature","geometry":{"type":"Point","coordinates":[-81.399048,41.162939]}},{"properties":{"city":"Akron","address1":"343 Dorset Street","persons":2,"zipcode":"44305","geo_score":0.957,"id":"a6biz2e121xz","geo_precision":"range","state":"OH"},"type":"Feature","geometry":{"type":"Point","coordinates":[-81.433949,41.072762]}},{"properties":{"city":"Akron","address1":"1660 Hampton Road","persons":2,"zipcode":"44305","geo_score":0.957,"id":"a6biz26c7ut6","geo_precision":"range","state":"OH"},"type":"Feature","geometry":{"type":"Point","coordinates":[-81.463836,41.067569]}},{"properties":{"city":"Kent","address1":"228 Judson Road","persons":2,"zipcode":"44240","geo_score":0.913,"id":"a6biz276q4pp","geo_precision":"range","state":"OH"},"type":"Feature","geometry":{"type":"Point","coordinates":[-81.384956,41.196077]}},{"properties":{"city":"Akron","address1":"1828 Tonawanda Avenue","persons":2,"zipcode":"44305","geo_score":0.957,"id":"a6biz2cvuiz0","geo_precision":"range","state":"OH"},"type":"Feature","geometry":{"type":"Point","coordinates":[-81.457934,41.073734]}},{"properties":{"city":"Akron","address1":"309 The Brooklands, Apt 1","persons":2,"zipcode":"44305","geo_score":0.537,"id":"a6biz2dbwwaj","geo_precision":"street","state":"OH"},"type":"Feature","geometry":{"type":"Point","coordinates":[-81.457499,41.067142]}},{"properties":{"city":"Cuyahoga Falls","address1":"1413 Munroe Falls Ave","persons":2,"zipcode":"44221","geo_score":1.0,"id":"a6biz2ddwjy6","geo_precision":"range","state":"OH"},"type":"Feature","geometry":{"type":"Point","coordinates":[-81.462677,41.140374]}},{"properties":{"city":"Akron","address1":"2115 Congo St.","persons":3,"zipcode":"44305","geo_score":0.957,"id":"a6biz2f2tihn","geo_precision":"range","state":"OH"},"type":"Feature","geometry":{"type":"Point","coordinates":[-81.44777,41.069343]}},{"properties":{"city":"Kent","address1":"1023 Kevin Drive","persons":3,"zipcode":"44240","geo_score":0.913,"id":"a6biz2d3e4fs","geo_precision":"range","state":"OH"},"type":"Feature","geometry":{"type":"Point","coordinates":[-81.373587,41.166787]}},{"properties":{"city":"Akron","address1":"2399 Cooledge Ave.","persons":3,"zipcode":"44305","geo_score":0.957,"id":"a6biz2fk21jc","geo_precision":"range","state":"OH"},"type":"Feature","geometry":{"type":"Point","coordinates":[-81.431574,41.079938]}},{"properties":{"city":"Kent","address1":"1393 Howe Rd","persons":3,"zipcode":"44240","geo_score":0.871,"id":"a6biz28m5ivr","geo_precision":"range","state":"OH"},"type":"Feature","geometry":{"type":"Point","coordinates":[-81.343249,41.117559]}},{"properties":{"city":"Tallmadge","address1":"1399 Glenoak","persons":3,"zipcode":"44278","geo_score":0.806,"id":"a6biz28aknu2","geo_precision":"street","state":"OH"},"type":"Feature","geometry":{"type":"Point","coordinates":[-81.395859,41.091424]}},{"properties":{"city":"Munroe Falls","address1":"542 Willow Grove Drive","persons":3,"zipcode":"44262","geo_score":1.0,"id":"a6biz2f7qlo2","geo_precision":"range","state":"OH"},"type":"Feature","geometry":{"type":"Point","coordinates":[-81.420885,41.143053]}},{"properties":{"city":"Tallmadge","address1":"3206 Mogadore Road","persons":3,"zipcode":"44278","geo_score":0.902,"id":"a6biz2606ozf","geo_precision":"street","state":"OH"},"type":"Feature","geometry":{"type":"Point","coordinates":[-81.391291,41.07686]}},{"properties":{"city":"Munroe Falls","address1":"108 Prentiss","persons":3,"zipcode":"44262","geo_score":0.941,"id":"a6biz2f5p3ta","geo_precision":"range","state":"OH"},"type":"Feature","geometry":{"type":"Point","coordinates":[-81.446415,41.136851]}},{"properties":{"city":"Akron","address1":"680 Tallkron","persons":3,"zipcode":"44305","geo_score":0.898,"id":"a6biz2eqahg4","geo_precision":"range","state":"OH"},"type":"Feature","geometry":{"type":"Point","coordinates":[-81.429637,41.077324]}},{"properties":{"city":"Akron","address1":"836 Morningview","persons":3,"zipcode":"44305","geo_score":0.763,"id":"a6biz289enn3","geo_precision":"street","state":"OH"},"type":"Feature","geometry":{"type":"Point","coordinates":[-81.45683,41.08925]}},{"properties":{"city":"Tallmadge","address1":"423 Mark Dr.","persons":3,"zipcode":"44278","geo_score":1.0,"id":"a6biz2bbiye9","geo_precision":"range","state":"OH"},"type":"Feature","geometry":{"type":"Point","coordinates":[-81.455347,41.109343]}},{"properties":{"city":"Munroe Falls","address1":"108 Northmoreland Avenue","persons":3,"zipcode":"44262","geo_score":1.0,"id":"a6biz2hfoejo","geo_precision":"range","state":"OH"},"type":"Feature","geometry":{"type":"Point","coordinates":[-81.443035,41.131361]}},{"properties":{"city":"Tallmadge","address1":"713 Locust Dr.","persons":3,"zipcode":"44278","geo_score":1.0,"id":"a6biz2hqms0o","geo_precision":"range","state":"OH"},"type":"Feature","geometry":{"type":"Point","coordinates":[-81.402452,41.120587]}},{"properties":{"city":"Mogadore","address1":"496 Arehart Drive","persons":3,"zipcode":"44260","geo_score":0.902,"id":"a6biz2edf7tl","geo_precision":"range","state":"OH"},"type":"Feature","geometry":{"type":"Point","coordinates":[-81.376117,41.05329]}},{"properties":{"city":"Akron","address1":"891 Gorge Blvd, Apt. B","persons":3,"zipcode":"44310","geo_score":0.619,"id":"a6biz2j7k2vk","geo_precision":"street","state":"OH"},"type":"Feature","geometry":{"type":"Point","coordinates":[-81.499552,41.099877]}},{"properties":{"city":"Akron","address1":"958 Davis Street","persons":3,"zipcode":"44310","geo_score":1.0,"id":"a6biz2c3eoz4","geo_precision":"range","state":"OH"},"type":"Feature","geometry":{"type":"Point","coordinates":[-81.492061,41.100656]}},{"properties":{"city":"Tallmadge","address1":"454 Perry Road","persons":3,"zipcode":"44278","geo_score":1.0,"id":"a6biz2fp0sc9","geo_precision":"range","state":"OH"},"type":"Feature","geometry":{"type":"Point","coordinates":[-81.423621,41.075203]}},{"properties":{"city":"Akron","address1":"474 E Crosier St","persons":3,"zipcode":"44311","geo_score":1.0,"id":"a6biz2hz7gdv","geo_precision":"range","state":"OH"},"type":"Feature","geometry":{"type":"Point","coordinates":[-81.512583,41.059601]}},{"properties":{"city":"Akron","address1":"141 Fulmer Avenue","persons":3,"zipcode":"44312","geo_score":0.902,"id":"a6biz2dwqyli","geo_precision":"range","state":"OH"},"type":"Feature","geometry":{"type":"Point","coordinates":[-81.459495,41.057682]}},{"properties":{"city":"Stow","address1":"1751 Clearbrook Drive","persons":3,"zipcode":"44224","geo_score":0.912,"id":"a6biz27zs7x6","geo_precision":"range","state":"OH"},"type":"Feature","geometry":{"type":"Point","coordinates":[-81.437699,41.195169]}},{"properties":{"city":"Akron","address1":"974 Dan Street","persons":4,"zipcode":"44310","geo_score":1.0,"id":"a6biz2ev1mp8","geo_precision":"range","state":"OH"},"type":"Feature","geometry":{"type":"Point","coordinates":[-81.498523,41.100423]}},{"properties":{"city":"Tallmadge","address1":"429 Pickwick Lane","persons":4,"zipcode":"44278","geo_score":1.0,"id":"a6biz2ek5atc","geo_precision":"range","state":"OH"},"type":"Feature","geometry":{"type":"Point","coordinates":[-81.452983,41.087102]}},{"properties":{"city":"Kent","address1":"3901 Selnik Road","persons":4,"zipcode":"44240","geo_score":0.913,"id":"a6biz27qs4wo","geo_precision":"range","state":"OH"},"type":"Feature","geometry":{"type":"Point","coordinates":[-81.358113,41.095185]}},{"properties":{"city":"Ellet","address1":"367 Ripley Ave.","persons":4,"zipcode":"44312","geo_score":1.0,"id":"a6biz26byv0b","geo_precision":"range","state":"OH"},"type":"Feature","geometry":{"type":"Point","coordinates":[-81.427213,41.046827]}},{"properties":{"city":"Akron","address1":"862 Ute Avenue","persons":4,"zipcode":"44305","geo_score":0.957,"id":"a6biz29q7v08","geo_precision":"range","state":"OH"},"type":"Feature","geometry":{"type":"Point","coordinates":[-81.467944,41.086383]}},{"properties":{"city":"Mogadore","address1":"141 Saxe Road","persons":4,"zipcode":"44260","geo_score":0.902,"id":"a6biz2lde3ui","geo_precision":"range","state":"OH"},"type":"Feature","geometry":{"type":"Point","coordinates":[-81.38904,41.066128]}},{"properties":{"city":"Tallmadge","address1":"222 South Alling Road","persons":4,"zipcode":"44278","geo_score":1.0,"id":"a6biz2eo7o2b","geo_precision":"range","state":"OH"},"type":"Feature","geometry":{"type":"Point","coordinates":[-81.427566,41.095169]}},{"properties":{"city":"Tallmadge","address1":"408 Spring Grove Drive","persons":4,"zipcode":"44278","geo_score":1.0,"id":"a6biz2hufft7","geo_precision":"range","state":"OH"},"type":"Feature","geometry":{"type":"Point","coordinates":[-81.446795,41.11423]}},{"properties":{"city":"Kent","address1":"4019 Lor-Ron","persons":4,"zipcode":"44240","geo_score":0.816,"id":"a6biz2hjk0wg","geo_precision":"range","state":"OH"},"type":"Feature","geometry":{"type":"Point","coordinates":[-81.361393,41.097166]}},{"properties":{"city":"Cuyahoga Falls","address1":"2036 Rainier Street","persons":4,"zipcode":"44221","geo_score":1.0,"id":"a6biz2bwo0c4","geo_precision":"range","state":"OH"},"type":"Feature","geometry":{"type":"Point","coordinates":[-81.456026,41.133845]}},{"properties":{"city":"Cuyahoga Falls","address1":"2803 11th Street","persons":4,"zipcode":"44221","geo_score":0.902,"id":"a6biz2kc5cdq","geo_precision":"range","state":"OH"},"type":"Feature","geometry":{"type":"Point","coordinates":[-81.496483,41.148924]}},{"properties":{"city":"Cuyahoga Falls","address1":"2839 Hudson Drive","persons":5,"zipcode":"44221","geo_score":1.0,"id":"a6biz29nbe06","geo_precision":"range","state":"OH"},"type":"Feature","geometry":{"type":"Point","coordinates":[-81.474008,41.150835]}},{"properties":{"city":"Tallmadge","address1":"862 Treat Blvd.","persons":5,"zipcode":"44278","geo_score":1.0,"id":"a6biz2b8h4iz","geo_precision":"range","state":"OH"},"type":"Feature","geometry":{"type":"Point","coordinates":[-81.410703,41.086401]}},{"properties":{"city":"Stow","address1":"3227 Berwin","persons":5,"zipcode":"44224","geo_score":0.839,"id":"a6biz2en7j2k","geo_precision":"range","state":"OH"},"type":"Feature","geometry":{"type":"Point","coordinates":[-81.394105,41.178777]}},{"properties":{"city":"Tallmadge","address1":"297 Whittlesey Drive","persons":5,"zipcode":"44278","geo_score":1.0,"id":"a6biz2dietm9","geo_precision":"range","state":"OH"},"type":"Feature","geometry":{"type":"Point","coordinates":[-81.406391,41.108672]}},{"properties":{"city":"Munroe Falls","address1":"153 Hunter Drive","persons":5,"zipcode":"44262","geo_score":0.902,"id":"a6biz284uhvt","geo_precision":"range","state":"OH"},"type":"Feature","geometry":{"type":"Point","coordinates":[-81.452057,41.134853]}},{"properties":{"city":"Munroe Falls","address1":"97 Luden Drive","persons":5,"zipcode":"44262","geo_score":0.89,"id":"a6biz2dg79w5","geo_precision":"range","state":"OH"},"type":"Feature","geometry":{"type":"Point","coordinates":[-81.424923,41.141883]}},{"properties":{"city":"Uniontown","address1":"13360 Tippecanoe Avenue N.W.","persons":6,"zipcode":"44685","geo_score":0.457,"id":"a6biz2cm8oic","geo_precision":"street","state":"OH"},"type":"Feature","geometry":{"type":"Point","coordinates":[-81.390718,40.980219]}},{"properties":{"city":"Cuyahoga Falls","address1":"2141 18th Street","persons":6,"zipcode":"44223","geo_score":0.902,"id":"a6biz28x6gs3","geo_precision":"range","state":"OH"},"type":"Feature","geometry":{"type":"Point","coordinates":[-81.504271,41.136234]}},{"properties":{"city":"Cuyahoga Falls","address1":"1831 17th St.","persons":6,"zipcode":"44223","geo_score":0.902,"id":"a6biz2hxde43","geo_precision":"range","state":"OH"},"type":"Feature","geometry":{"type":"Point","coordinates":[-81.503304,41.131735]}}],"is_temporal":false,"author":{"url":"","metadata":"","contact_name":"","contact_address":"","source":"","contact_phone":""},"source":"","pagination":{"sort":null,"start":0,"total":164,"limit":1000000},"state":"complete","tags":"","published":"2014-08-10T17:14:17-04:00","id":56289}