{"type":"FeatureCollection","data_type":"Dataset","url_type":null,"permissions":[{"permissions":{"download":true,"view":true},"group_id":"everyone"}],"classification":null,"title":"Power Companies Corporate Offices India","count":44,"stream_id":56386,"contributor":{"url":"http://geocommons.com/users/14254","name":"ramkumar"},"data_attributes":null,"calculation_params":null,"icon_link":null,"link":"http://geocommons.com/overlays/56386.json","extent":[72.6167,12.98,88.3697,28.6],"geometry_types":["point"],"unique_name":null,"name":"Power Companies Corporate Offices India","feature_count":44,"description":"","next_feature":null,"is_raster":false,"short_classification":"Y","stats":{},"features":[{"properties":{"city":"Bangalore","company":"ABB Ltd","postal code":"560001","id":"a62iscu6bnfg","state":"Karnataka"},"type":"Feature","geometry":{"type":"Point","coordinates":[77.58,12.98]}},{"properties":{"city":"Ahmedabad","company":"Adani Power Ltd","postal code":"380009","id":"a62iscz8oa8v","state":"Gujarat"},"type":"Feature","geometry":{"type":"Point","coordinates":[72.61667,23.03333]}},{"properties":{"city":"Mumbai","company":"Alstom Projects India Ltd.","postal code":"400020","id":"a62iscz2rnso","state":"Maharashtra"},"type":"Feature","geometry":{"type":"Point","coordinates":[72.82584,18.975]}},{"properties":{"city":"Thane","company":"Aplab Ltd","postal code":"400604","id":"a62isd17flrq","state":"Maharashtra"},"type":"Feature","geometry":{"type":"Point","coordinates":[72.96,19.2]}},{"properties":{"city":"Pune","company":"BF Utilities Ltd","postal code":"411036","id":"a62isd6zlfp3","state":"Maharashtra"},"type":"Feature","geometry":{"type":"Point","coordinates":[73.86,18.53]}},{"properties":{"city":"Mumbai","company":"Birla Power Solutions","postal code":"400020","id":"a62isczusmwp","state":"Maharashtra"},"type":"Feature","geometry":{"type":"Point","coordinates":[72.82584,18.975]}},{"properties":{"city":"Kolkata","company":"CESC Ltd","postal code":"700001","id":"a62iscxra6gg","state":"West Bengal"},"type":"Feature","geometry":{"type":"Point","coordinates":[88.36972,22.56972]}},{"properties":{"city":"New Delhi","company":"CMI Ltd","postal code":"110044","id":"a62iscxgidnd","state":"Delhi"},"type":"Feature","geometry":{"type":"Point","coordinates":[77.2,28.6]}},{"properties":{"city":"Gurgaon","company":"DLF Power Limited","postal code":"122002","id":"a62isd3ofucw","state":"Haryana"},"type":"Feature","geometry":null},{"properties":{"city":"Kolkata","company":"DPSC Ltd","postal code":"700091","id":"a62isd2fpjax","state":"West Bengal"},"type":"Feature","geometry":{"type":"Point","coordinates":[88.36972,22.56972]}},{"properties":{"city":"Somawarpet","company":"Energy Development Company","postal code":"571233","id":"a62isd61u0aa","state":"Karnataka"},"type":"Feature","geometry":null},{"properties":{"city":"Mumbai","company":"Entegra Ltd","postal code":"400093","id":"a62isd5uhe5v","state":"Maharashtra"},"type":"Feature","geometry":{"type":"Point","coordinates":[72.82584,18.975]}},{"properties":{"city":"Bangalore","company":"GMR Infrastructure","postal code":"560025","id":"a62isd3ezl4f","state":"Karnataka"},"type":"Feature","geometry":{"type":"Point","coordinates":[77.58,12.98]}},{"properties":{"city":"Secunderabad","company":"GVK Power and Infrastructure","postal code":"500003","id":"a62isd2zy1p4","state":"Andhra Pradesh"},"type":"Feature","geometry":{"type":"Point","coordinates":[78.5,17.45]}},{"properties":{"city":"Mumbai","company":"Gammon Infrastructure Projects Ltd","postal code":"400025","id":"a62iscw10xcn","state":"Maharashtra"},"type":"Feature","geometry":{"type":"Point","coordinates":[72.82584,18.975]}},{"properties":{"city":"Mumbai","company":"Gannon Dunkerley &amp; Company Limited","postal code":"400001","id":"a62isd1tlv2e","state":"Maharashtra"},"type":"Feature","geometry":{"type":"Point","coordinates":[72.82584,18.975]}},{"properties":{"city":"Hyderabad","company":"Gayatri Projects","postal code":"500082","id":"a62isd17s4jz","state":"Andhra Pradesh"},"type":"Feature","geometry":{"type":"Point","coordinates":[80.5,26.74]}},{"properties":{"city":"Vadodara","company":"Gujrat Industries Power Company Ltd","postal code":"391346","id":"a62isd1iegap","state":"Gujarat"},"type":"Feature","geometry":{"type":"Point","coordinates":[73.2,22.3]}},{"properties":{"city":"Mumbai","company":"Hindustan Construction Company Limited","postal code":"400083","id":"a62isd5cvi67","state":"Maharashtra"},"type":"Feature","geometry":{"type":"Point","coordinates":[72.82584,18.975]}},{"properties":{"city":"Hyderabad","company":"IVRCL Infrastructure &amp; Projects Ltd","postal code":"500034","id":"a62isd4xz929","state":"Andhra Pradesh"},"type":"Feature","geometry":{"type":"Point","coordinates":[80.5,26.74]}},{"properties":{"city":"Chennai","company":"Indowind Energy Ltd","postal code":"600034","id":"a62iscu1osif","state":"Tamil Nadu"},"type":"Feature","geometry":{"type":"Point","coordinates":[80.28333,13.08333]}},{"properties":{"city":"Noida","company":"Jaiprakash Associates Limited","postal code":"201304","id":"a62isd7n5j0l","state":"Uttar Pradesh"},"type":"Feature","geometry":null},{"properties":{"city":"Kandaghat Solan","company":"Jaiprakash Power Ventures","postal code":"173215","id":"a62isctlazp2","state":"Himachal Pradesh"},"type":"Feature","geometry":null},{"properties":{"city":"Chennai","company":"KCP Ltd.","postal code":"600008","id":"a62isctdvloc","state":"Tamil Nadu"},"type":"Feature","geometry":{"type":"Point","coordinates":[80.28333,13.08333]}},{"properties":{"city":"Hyderabad","company":"KSK Energy Ventures","postal code":"500033","id":"a62iscu2pxxd","state":"Andhra Pradesh"},"type":"Feature","geometry":{"type":"Point","coordinates":[80.5,26.74]}},{"properties":{"city":"Gandhinagar","company":"Kalpataru Power Transmission Ltd","postal code":"382028","id":"a62isczxj9xj","state":"Gujarat"},"type":"Feature","geometry":{"type":"Point","coordinates":[72.68,23.21]}},{"properties":{"city":"Hyderabad","company":"Lanco Infratech Ltd","postal code":"500081","id":"a62isd8mpbiy","state":"Andhra Pradesh"},"type":"Feature","geometry":{"type":"Point","coordinates":[80.5,26.74]}},{"properties":{"city":"Faridabad","company":"NHPC Ltd","postal code":"121003","id":"a62iscyopd9k","state":"Haryana"},"type":"Feature","geometry":{"type":"Point","coordinates":[77.31,28.43]}},{"properties":{"city":"New Delhi","company":"NTPC Limited","postal code":"110003","id":"a62isd754u4v","state":"Delhi"},"type":"Feature","geometry":{"type":"Point","coordinates":[77.2,28.6]}},{"properties":{"city":"Hyderabad","company":"Nagarjuna Construction Company Ltd","postal code":"500082","id":"a62iscyxpsc6","state":"Andhra Pradesh"},"type":"Feature","geometry":{"type":"Point","coordinates":[80.5,26.74]}},{"properties":{"city":"Muzaffarnagar","company":"National Wind &amp; Power Corporation Ltd","postal code":"251003","id":"a62isd0m2l37","state":"Uttar Pradesh"},"type":"Feature","geometry":null},{"properties":{"city":"Chennai","company":"Neyveli Lignite Corporation Ltd","postal code":"600010","id":"a62isd0bskqs","state":"Tamil Nadu"},"type":"Feature","geometry":{"type":"Point","coordinates":[80.28333,13.08333]}},{"properties":{"city":"Bangalore","company":"PB India Office","postal code":"560046","id":"a62isd3jqct6","state":"Karnataka"},"type":"Feature","geometry":{"type":"Point","coordinates":[77.58,12.98]}},{"properties":{"city":"New Delhi","company":"PTC India Ltd","postal code":"110066","id":"a62isd6t7l7q","state":"Delhi"},"type":"Feature","geometry":{"type":"Point","coordinates":[77.2,28.6]}},{"properties":{"city":"New Delhi","company":"Power Grid Corporation of India Ltd","postal code":"110016","id":"a62isd6dg695","state":"Delhi"},"type":"Feature","geometry":{"type":"Point","coordinates":[77.2,28.6]}},{"properties":{"city":"New Delhi","company":"Punj Lloyd Limited","postal code":"110019","id":"a62iscubgsln","state":"Delhi"},"type":"Feature","geometry":{"type":"Point","coordinates":[77.2,28.6]}},{"properties":{"city":"Kolkata","company":"RDB Industries Ltd","postal code":"700001","id":"a62isd00g6tf","state":"West Bengal"},"type":"Feature","geometry":{"type":"Point","coordinates":[88.36972,22.56972]}},{"properties":{"city":"Mumbai","company":"Reliance Power Ltd","postal code":"400720","id":"a62iscwrfh9s","state":"Maharashtra"},"type":"Feature","geometry":{"type":"Point","coordinates":[72.82584,18.975]}},{"properties":{"city":"Kolkata","company":"Simplex Infrastructure Ltd","postal code":"700017","id":"a62isd56zw1c","state":"West Bengal"},"type":"Feature","geometry":{"type":"Point","coordinates":[88.36972,22.56972]}},{"properties":{"city":"Ahmedabad","company":"Sun Source (India) Ltd","postal code":"382170","id":"a62iscwt9221","state":"Gujarat"},"type":"Feature","geometry":{"type":"Point","coordinates":[72.61667,23.03333]}},{"properties":{"city":"Hyderabad","company":"Suryachakra Power Limited","postal code":"500033","id":"a62isczz7l1d","state":"Andhra Pradesh"},"type":"Feature","geometry":{"type":"Point","coordinates":[80.5,26.74]}},{"properties":{"city":"Ahmedabad","company":"Suzlon Energy Limited","postal code":"380009","id":"a62isct9hi9e","state":"Gujarat"},"type":"Feature","geometry":{"type":"Point","coordinates":[72.61667,23.03333]}},{"properties":{"city":"Mumbai","company":"Tata Power Company Limited","postal code":"400001","id":"a62isczotsmz","state":"Maharashtra"},"type":"Feature","geometry":{"type":"Point","coordinates":[72.82584,18.975]}},{"properties":{"city":"Ahmedabad","company":"Torrent Power AEC Limited","postal code":"360009","id":"a62iscwlbv7c","state":"Gujarat"},"type":"Feature","geometry":{"type":"Point","coordinates":[72.61667,23.03333]}}],"is_temporal":false,"author":{"url":"","metadata":"","contact_name":"","contact_address":"","source":"","contact_phone":""},"source":"","pagination":{"sort":null,"start":0,"total":44,"limit":1000000},"state":"complete","tags":"cities,companies,corporate,india,offices,power","published":"2014-08-10T17:22:27-04:00","id":56386}