{"type":"FeatureCollection","data_type":"Dataset","url_type":null,"permissions":[{"permissions":{"download":true,"view":true},"group_id":"everyone"}],"classification":null,"title":"downstreamRefineries2","count":141,"stream_id":57486,"contributor":{"url":"http://geocommons.com/users/14492","name":"dbrewster_25"},"data_attributes":null,"calculation_params":null,"icon_link":null,"link":"http://geocommons.com/overlays/57486.json","extent":[-158.084,-38.1503,153.155,53.7476],"geometry_types":["point"],"unique_name":null,"name":"downstreamRefineries2","feature_count":141,"description":"","next_feature":null,"is_raster":false,"short_classification":"Y","stats":{"ZipCode":{"max":98177,"mean":52303.7943262411,"variance":1127620543.16454,"stdev":33580.0616908984,"min":0,"median":66115},"bg_postal":{"max":98177,"mean":29375.390070922,"variance":1307780872.69676,"stdev":36163.2530712705,"min":0,"median":0},"lat":{"max":53.7475611,"mean":33.382638177305,"variance":230.933034650526,"stdev":15.1964809956294,"min":-38.150256,"median":35.5280783},"long":{"max":153.15545,"mean":-85.7919912411348,"variance":2724.65205190816,"stdev":52.1981996998762,"min":-158.0835221,"median":-94.89}},"features":[{"properties":{"City":"Alvin","ZipCode":77511,"Country":"USA","bg_postal":77511,"State":"Texas","id":"a6am243ixzyg","lat":29.3845708,"bg_accurac":"APPROXIMATE","long":-95.2475518},"type":"Feature","geometry":{"type":"Point","coordinates":[-95.2475518,29.3845708]}},{"properties":{"City":"Ardmore","ZipCode":73401,"Country":"USA","bg_postal":0,"State":"Oklahoma","id":"a6am23s4d9w3","lat":34.1742611,"bg_accurac":"APPROXIMATE","long":-97.1436254},"type":"Feature","geometry":{"type":"Point","coordinates":[-97.1436254,34.1742611]}},{"properties":{"City":"Arroyo Grande","ZipCode":93420,"Country":"USA","bg_postal":0,"State":"California","id":"a6am244ywd3f","lat":35.1185868,"bg_accurac":"APPROXIMATE","long":-120.5907252},"type":"Feature","geometry":{"type":"Point","coordinates":[-120.5907252,35.1185868]}},{"properties":{"City":"Artesia","ZipCode":88210,"Country":"USA","bg_postal":0,"State":"New Mexico","id":"a6am244ihn5o","lat":32.8423345,"bg_accurac":"APPROXIMATE","long":-104.4032962},"type":"Feature","geometry":{"type":"Point","coordinates":[-104.4032962,32.8423345]}},{"properties":{"City":"Bakersfield","ZipCode":93308,"Country":"USA","bg_postal":0,"State":"California","id":"a6am23yfp2mb","lat":35.3732921,"bg_accurac":"APPROXIMATE","long":-119.0187125},"type":"Feature","geometry":{"type":"Point","coordinates":[-119.0187125,35.3732921]}},{"properties":{"City":"Bay City","ZipCode":0,"Country":"USA","bg_postal":77404,"State":"Texas","id":"a6am240wuwyu","lat":28.9825,"bg_accurac":"APPROXIMATE","long":-95.9693},"type":"Feature","geometry":{"type":"Point","coordinates":[-95.9693,28.9825]}},{"properties":{"City":"Baytown","ZipCode":77523,"Country":"USA","bg_postal":0,"State":"Texas","id":"a6am23zcjdps","lat":29.7355047,"bg_accurac":"APPROXIMATE","long":-94.9774274},"type":"Feature","geometry":{"type":"Point","coordinates":[-94.9774274,29.7355047]}},{"properties":{"City":"Belle Chase","ZipCode":70037,"Country":"USA","bg_postal":0,"State":"Louisiana","id":"a6am23za1zaa","lat":29.8549287,"bg_accurac":"APPROXIMATE","long":-89.9906253},"type":"Feature","geometry":{"type":"Point","coordinates":[-89.9906253,29.8549287]}},{"properties":{"City":"Benicia","ZipCode":0,"Country":"USA","bg_postal":0,"State":"California","id":"a6am23vmfvqj","lat":38.049365,"bg_accurac":"APPROXIMATE","long":-122.1585777},"type":"Feature","geometry":{"type":"Point","coordinates":[-122.1585777,38.049365]}},{"properties":{"City":"Big Spring","ZipCode":79721,"Country":"USA","bg_postal":79721,"State":"Texas","id":"a6am2482a80x","lat":32.22,"bg_accurac":"APPROXIMATE","long":-101.48},"type":"Feature","geometry":{"type":"Point","coordinates":[-101.48,32.22]}},{"properties":{"City":"Billings","ZipCode":59101,"Country":"USA","bg_postal":0,"State":"Montana","id":"a6am242kyh7j","lat":45.7832856,"bg_accurac":"APPROXIMATE","long":-108.5006904},"type":"Feature","geometry":{"type":"Point","coordinates":[-108.5006904,45.7832856]}},{"properties":{"City":"Bishop","ZipCode":78343,"Country":"USA","bg_postal":0,"State":"Texas","id":"a6am23xm9yr0","lat":27.5861441,"bg_accurac":"APPROXIMATE","long":-97.7991636},"type":"Feature","geometry":{"type":"Point","coordinates":[-97.7991636,27.5861441]}},{"properties":{"City":"Borger","ZipCode":79007,"Country":"USA","bg_postal":0,"State":"Texas","id":"a6am244rv96v","lat":35.6678203,"bg_accurac":"APPROXIMATE","long":-101.3973876},"type":"Feature","geometry":{"type":"Point","coordinates":[-101.3973876,35.6678203]}},{"properties":{"City":"Brea","ZipCode":92821,"Country":"USA","bg_postal":0,"State":"California","id":"a6am246scq0t","lat":33.9166805,"bg_accurac":"APPROXIMATE","long":-117.9000604},"type":"Feature","geometry":{"type":"Point","coordinates":[-117.9000604,33.9166805]}},{"properties":{"City":"Brockville","ZipCode":0,"Country":"canada","bg_postal":0,"State":"Ontario","id":"a6am245ln8rb","lat":44.5895921,"bg_accurac":"APPROXIMATE","long":-75.6871977},"type":"Feature","geometry":{"type":"Point","coordinates":[-75.6871977,44.5895921]}},{"properties":{"City":"Burnaby","ZipCode":0,"Country":"canada","bg_postal":0,"State":"British Columbia","id":"a6am23wca5ht","lat":49.1852515,"bg_accurac":"APPROXIMATE","long":-122.9796237},"type":"Feature","geometry":{"type":"Point","coordinates":[-122.9796237,49.1852515]}},{"properties":{"City":"Calgary","ZipCode":0,"Country":"canada","bg_postal":0,"State":"Alberta","id":"a6am23w4hqzw","lat":51.049045,"bg_accurac":"APPROXIMATE","long":-114.078676},"type":"Feature","geometry":{"type":"Point","coordinates":[-114.078676,51.049045]}},{"properties":{"City":"Camellia","ZipCode":2142,"Country":"australia","bg_postal":0,"State":"New South Wales","id":"a6am23wgmtur","lat":-33.816872,"bg_accurac":"APPROXIMATE","long":151.022191},"type":"Feature","geometry":{"type":"Point","coordinates":[150.904348495375,-33.8518504496181]}},{"properties":{"City":"Carville","ZipCode":70721,"Country":"USA","bg_postal":70721,"State":"Louisiana","id":"a6am23uj7dpf","lat":30.2178155,"bg_accurac":"APPROXIMATE","long":-91.1017334},"type":"Feature","geometry":{"type":"Point","coordinates":[-91.1017334,30.2178155]}},{"properties":{"City":"Channahon","ZipCode":60410,"Country":"USA","bg_postal":60410,"State":"Illinois","id":"a6am240r73mb","lat":41.4171702,"bg_accurac":"APPROXIMATE","long":-88.1974148},"type":"Feature","geometry":{"type":"Point","coordinates":[-88.1974148,41.4171702]}},{"properties":{"City":"Cicero","ZipCode":60804,"Country":"USA","bg_postal":0,"State":"Illinois","id":"a6am23wtz813","lat":41.8455877,"bg_accurac":"APPROXIMATE","long":-87.7539448},"type":"Feature","geometry":{"type":"Point","coordinates":[-87.7539448,41.8455877]}},{"properties":{"City":"Claremore","ZipCode":74019,"Country":"USA","bg_postal":0,"State":"Oklahoma","id":"a6am23wbemfj","lat":36.3125963,"bg_accurac":"APPROXIMATE","long":-95.61609},"type":"Feature","geometry":{"type":"Point","coordinates":[-95.61609,36.3125963]}},{"properties":{"City":"Corpus Christi","ZipCode":78409,"Country":"USA","bg_postal":78409,"State":"Texas","id":"a6am245056m5","lat":27.8025401,"bg_accurac":"APPROXIMATE","long":-97.5138947},"type":"Feature","geometry":{"type":"Point","coordinates":[-97.5138947,27.8025401]}},{"properties":{"City":"Corpus Christi","ZipCode":78407,"Country":"USA","bg_postal":78407,"State":"Texas","id":"a6am23tb6zbm","lat":27.8121784,"bg_accurac":"APPROXIMATE","long":-97.4435441},"type":"Feature","geometry":{"type":"Point","coordinates":[-97.4435441,27.8121784]}},{"properties":{"City":"Corunna","ZipCode":0,"Country":"canada","bg_postal":0,"State":"Ontario","id":"a6am244iv8yv","lat":42.888595,"bg_accurac":"APPROXIMATE","long":-82.453301},"type":"Feature","geometry":{"type":"Point","coordinates":[-82.453301,42.888595]}},{"properties":{"City":"Courtright","ZipCode":0,"Country":"canada","bg_postal":0,"State":"Ontario","id":"a6am245y4iun","lat":42.815509,"bg_accurac":"APPROXIMATE","long":-82.475894},"type":"Feature","geometry":{"type":"Point","coordinates":[-82.475894,42.815509]}},{"properties":{"City":"Dallas","ZipCode":75271,"Country":"USA","bg_postal":75210,"State":"Texas","id":"a6am245ps8eo","lat":32.7767909,"bg_accurac":"APPROXIMATE","long":-96.7584327},"type":"Feature","geometry":{"type":"Point","coordinates":[-96.7584327,32.7767909]}},{"properties":{"City":"Dallas","ZipCode":0,"Country":"USA","bg_postal":75251,"State":"Texas","id":"a6am2407nk06","lat":32.9152632,"bg_accurac":"APPROXIMATE","long":-96.7734911},"type":"Feature","geometry":{"type":"Point","coordinates":[-96.7734911,32.9152632]}},{"properties":{"City":"Dallas","ZipCode":75234,"Country":"USA","bg_postal":75234,"State":"Texas","id":"a6am23wmzybd","lat":32.9229884,"bg_accurac":"APPROXIMATE","long":-96.8887202},"type":"Feature","geometry":{"type":"Point","coordinates":[-96.8887202,32.9229884]}},{"properties":{"City":"Dartmouth","ZipCode":0,"Country":"canada","bg_postal":0,"State":"Nova Scotia","id":"a6am23tte0l7","lat":44.7136713,"bg_accurac":"APPROXIMATE","long":-63.6026206},"type":"Feature","geometry":{"type":"Point","coordinates":[-63.6026206,44.7136713]}},{"properties":{"City":"Donaldsonville","ZipCode":70346,"Country":"USA","bg_postal":0,"State":"Louisiana","id":"a6am24230rgf","lat":30.1010323,"bg_accurac":"APPROXIMATE","long":-90.9928773},"type":"Feature","geometry":{"type":"Point","coordinates":[-90.9928773,30.1010323]}},{"properties":{"City":"Doral","ZipCode":33178,"Country":"USA","bg_postal":0,"State":"Florida","id":"a6am240zr6rr","lat":25.8195424,"bg_accurac":"APPROXIMATE","long":-80.3553302},"type":"Feature","geometry":{"type":"Point","coordinates":[-80.3553302,25.8195424]}},{"properties":{"City":"Eagle Farm","ZipCode":4009,"Country":"australia","bg_postal":4009,"State":"Queensland","id":"a6am23sdnlco","lat":-27.4048009,"bg_accurac":"APPROXIMATE","long":153.0861468},"type":"Feature","geometry":{"type":"Point","coordinates":[153.125427634875,-27.7324584681977]}},{"properties":{"City":"East Chicago","ZipCode":46312,"Country":"USA","bg_postal":46312,"State":"Illinois","id":"a6am23s8h42x","lat":41.6428269,"bg_accurac":"APPROXIMATE","long":-87.4504888},"type":"Feature","geometry":{"type":"Point","coordinates":[-87.4504888,41.6428269]}},{"properties":{"City":"Edmonton","ZipCode":0,"Country":"canada","bg_postal":0,"State":"Alberta","id":"a6am23w82kkq","lat":53.546561,"bg_accurac":"APPROXIMATE","long":-113.4893211},"type":"Feature","geometry":{"type":"Point","coordinates":[-113.4893211,53.546561]}},{"properties":{"City":"El Dorado","ZipCode":70000,"Country":"USA","bg_postal":0,"State":"Arkansas","id":"a6am23wrkau7","lat":31.6705944,"bg_accurac":"GEOMETRIC_CENTER","long":-106.3531232},"type":"Feature","geometry":{"type":"Point","coordinates":[-106.3531232,31.6705944]}},{"properties":{"City":"El Paso","ZipCode":79905,"Country":"USA","bg_postal":79905,"State":"Texas","id":"a6am23s520rv","lat":31.7699019,"bg_accurac":"APPROXIMATE","long":-106.4229199},"type":"Feature","geometry":{"type":"Point","coordinates":[-106.4229199,31.7699019]}},{"properties":{"City":"El Paso","ZipCode":79901,"Country":"USA","bg_postal":79901,"State":"Texas","id":"a6am23ya41xd","lat":31.7597373,"bg_accurac":"APPROXIMATE","long":-106.4788714},"type":"Feature","geometry":{"type":"Point","coordinates":[-106.4788714,31.7597373]}},{"properties":{"City":"Elk Grove","ZipCode":95624,"Country":"USA","bg_postal":0,"State":"California","id":"a6am240rfb9h","lat":38.4087993,"bg_accurac":"APPROXIMATE","long":-121.3716178},"type":"Feature","geometry":{"type":"Point","coordinates":[-121.3716178,38.4087993]}},{"properties":{"City":"Enoree","ZipCode":29335,"Country":"USA","bg_postal":29335,"State":"South Carolina","id":"a6am23zhfu24","lat":34.6586101,"bg_accurac":"APPROXIMATE","long":-81.8879884},"type":"Feature","geometry":{"type":"Point","coordinates":[-81.8879884,34.6586101]}},{"properties":{"City":"Fairfield","ZipCode":7004,"Country":"USA","bg_postal":94533,"State":"New Jersey","id":"a6am2433xkcl","lat":38.255811,"bg_accurac":"GEOMETRIC_CENTER","long":-122.0636},"type":"Feature","geometry":{"type":"Point","coordinates":[-122.0636,38.255811]}},{"properties":{"City":"Fernley","ZipCode":89408,"Country":"USA","bg_postal":0,"State":"Nevada","id":"a6am2435hlwh","lat":39.6079683,"bg_accurac":"APPROXIMATE","long":-119.2518349},"type":"Feature","geometry":{"type":"Point","coordinates":[-119.2518349,39.6079683]}},{"properties":{"City":"Flagstaff","ZipCode":86001,"Country":"USA","bg_postal":0,"State":"Arizona","id":"a6am23tn3y7b","lat":35.2013516,"bg_accurac":"APPROXIMATE","long":-111.639249},"type":"Feature","geometry":{"type":"Point","coordinates":[-111.639249,35.2013516]}},{"properties":{"City":"Florence","ZipCode":41042,"Country":"USA","bg_postal":0,"State":"Kentucky","id":"a6am247jd6mh","lat":38.9989499,"bg_accurac":"APPROXIMATE","long":-84.6266111},"type":"Feature","geometry":{"type":"Point","coordinates":[-84.6266111,38.9989499]}},{"properties":{"City":"Fort Saskatchewan","ZipCode":0,"Country":"canada","bg_postal":0,"State":"Alberta","id":"a6am23w26bgb","lat":53.7475611,"bg_accurac":"APPROXIMATE","long":-113.0981383},"type":"Feature","geometry":{"type":"Point","coordinates":[-113.0981383,53.7475611]}},{"properties":{"City":"Franklin Furnace","ZipCode":45629,"Country":"USA","bg_postal":0,"State":"Ohio","id":"a6am23u2zjwy","lat":38.607952,"bg_accurac":"APPROXIMATE","long":-82.846495},"type":"Feature","geometry":{"type":"Point","coordinates":[-82.846495,38.607952]}},{"properties":{"City":"Fredonia","ZipCode":86022,"Country":"USA","bg_postal":0,"State":"Arizona","id":"a6am241qq87h","lat":36.945542,"bg_accurac":"APPROXIMATE","long":-112.5265889},"type":"Feature","geometry":{"type":"Point","coordinates":[-112.5265889,36.945542]}},{"properties":{"City":"Gallup","ZipCode":87301,"Country":"USA","bg_postal":0,"State":"New Mexico","id":"a6am246zzt80","lat":35.5280783,"bg_accurac":"APPROXIMATE","long":-108.7425843},"type":"Feature","geometry":{"type":"Point","coordinates":[-108.7425843,35.5280783]}},{"properties":{"City":"Grafton","ZipCode":23692,"Country":"USA","bg_postal":23692,"State":"Virginia","id":"a6am23t5dmjo","lat":37.1836747,"bg_accurac":"APPROXIMATE","long":-76.4736602},"type":"Feature","geometry":{"type":"Point","coordinates":[-76.4736602,37.1836747]}},{"properties":{"City":"Granite City","ZipCode":62040,"Country":"USA","bg_postal":0,"State":"Illinois","id":"a6am23y2npy2","lat":38.7014389,"bg_accurac":"APPROXIMATE","long":-90.1487199},"type":"Feature","geometry":{"type":"Point","coordinates":[-90.1487199,38.7014389]}},{"properties":{"City":"Hartfold","ZipCode":62048,"Country":"USA","bg_postal":0,"State":"Illinois","id":"a6am24735ur2","lat":38.8333815,"bg_accurac":"APPROXIMATE","long":-90.09594},"type":"Feature","geometry":{"type":"Point","coordinates":[-90.09594,38.8333815]}},{"properties":{"City":"Haverhill","ZipCode":45636,"Country":"USA","bg_postal":45636,"State":"Ohio","id":"a6am2419p1ny","lat":38.58,"bg_accurac":"APPROXIMATE","long":-82.83},"type":"Feature","geometry":{"type":"Point","coordinates":[-82.83,38.58]}},{"properties":{"City":"Houston","ZipCode":77079,"Country":"USA","bg_postal":77079,"State":"Texas","id":"a6am23xbiwl1","lat":29.7801889,"bg_accurac":"APPROXIMATE","long":-95.6090009},"type":"Feature","geometry":{"type":"Point","coordinates":[-95.6090009,29.7801889]}},{"properties":{"City":"Houston","ZipCode":77077,"Country":"USA","bg_postal":77077,"State":"Texas","id":"a6am246dwp9d","lat":29.7502187,"bg_accurac":"APPROXIMATE","long":-95.6352801},"type":"Feature","geometry":{"type":"Point","coordinates":[-95.6352801,29.7502187]}},{"properties":{"City":"Houston","ZipCode":77252,"Country":"USA","bg_postal":77252,"State":"Texas","id":"a6am23w4bumw","lat":29.7632,"bg_accurac":"APPROXIMATE","long":-95.3633},"type":"Feature","geometry":{"type":"Point","coordinates":[-95.3633,29.7632]}},{"properties":{"City":"Houston","ZipCode":77002,"Country":"USA","bg_postal":77002,"State":"Texas","id":"a6am23yhpkd5","lat":29.7583272,"bg_accurac":"APPROXIMATE","long":-95.3704009},"type":"Feature","geometry":{"type":"Point","coordinates":[-95.3704009,29.7583272]}},{"properties":{"City":"Houston","ZipCode":77056,"Country":"USA","bg_postal":77056,"State":"Texas","id":"a6am23w9zsiw","lat":29.7484861,"bg_accurac":"APPROXIMATE","long":-95.4699173},"type":"Feature","geometry":{"type":"Point","coordinates":[-95.4699173,29.7484861]}},{"properties":{"City":"Houston/Texas City","ZipCode":0,"Country":"USA","bg_postal":0,"State":"Texas","id":"a6am23wtdu7b","lat":29.3835568,"bg_accurac":"GEOMETRIC_CENTER","long":-94.9510793},"type":"Feature","geometry":{"type":"Point","coordinates":[-94.9510793,29.3835568]}},{"properties":{"City":"Joliet","ZipCode":60436,"Country":"USA","bg_postal":60436,"State":"Illinois","id":"a6am240okcpm","lat":41.5011935,"bg_accurac":"APPROXIMATE","long":-88.1340191},"type":"Feature","geometry":{"type":"Point","coordinates":[-88.1340191,41.5011935]}},{"properties":{"City":"Kansas City","ZipCode":66115,"Country":"USA","bg_postal":66115,"State":"Kansas","id":"a6am23z65rf1","lat":39.1414736,"bg_accurac":"APPROXIMATE","long":-94.6088854},"type":"Feature","geometry":{"type":"Point","coordinates":[-94.6088854,39.1414736]}},{"properties":{"City":"Kapolei","ZipCode":96707,"Country":"USA","bg_postal":96707,"State":"Hawaii","id":"a6am248har6l","lat":21.3487298,"bg_accurac":"APPROXIMATE","long":-158.0835221},"type":"Feature","geometry":{"type":"Point","coordinates":[-158.0835221,21.3487298]}},{"properties":{"City":"Kenova","ZipCode":25530,"Country":"USA","bg_postal":0,"State":"West Virginia","id":"a6am23xnmr4k","lat":38.3989711,"bg_accurac":"APPROXIMATE","long":-82.5782139},"type":"Feature","geometry":{"type":"Point","coordinates":[-82.5782139,38.3989711]}},{"properties":{"City":"Knoxville","ZipCode":37934,"Country":"USA","bg_postal":37934,"State":"Tennessee","id":"a6am23xg003g","lat":35.8722577,"bg_accurac":"APPROXIMATE","long":-84.1751648},"type":"Feature","geometry":{"type":"Point","coordinates":[-84.1751648,35.8722577]}},{"properties":{"City":"Krotz Springs","ZipCode":70750,"Country":"USA","bg_postal":0,"State":"Louisiana","id":"a6am24170ija","lat":30.5368592,"bg_accurac":"APPROXIMATE","long":-91.7528931},"type":"Feature","geometry":{"type":"Point","coordinates":[-91.7528931,30.5368592]}},{"properties":{"City":"Kurnell","ZipCode":2231,"Country":"australia","bg_postal":0,"State":"New South Wales","id":"a6am2460jkkb","lat":-34.008487,"bg_accurac":"APPROXIMATE","long":151.204879},"type":"Feature","geometry":{"type":"Point","coordinates":[151.204879,-34.008487]}},{"properties":{"City":"La Porte","ZipCode":77571,"Country":"USA","bg_postal":0,"State":"Texas","id":"a6am246z5eb6","lat":29.6657838,"bg_accurac":"APPROXIMATE","long":-95.0193728},"type":"Feature","geometry":{"type":"Point","coordinates":[-95.0193728,29.6657838]}},{"properties":{"City":"Lake Charles","ZipCode":70602,"Country":"USA","bg_postal":70602,"State":"Louisiana","id":"a6am23waleid","lat":30.2265,"bg_accurac":"APPROXIMATE","long":-93.2175},"type":"Feature","geometry":{"type":"Point","coordinates":[-93.2175,30.2265]}},{"properties":{"City":"Lemont","ZipCode":60439,"Country":"USA","bg_postal":0,"State":"Illinois","id":"a6am23yek5wu","lat":41.673642,"bg_accurac":"APPROXIMATE","long":-88.0017261},"type":"Feature","geometry":{"type":"Point","coordinates":[-88.0017261,41.673642]}},{"properties":{"City":"Lemont","ZipCode":60439,"Country":"USA","bg_postal":0,"State":"Illinois","id":"a6am244mxsdr","lat":41.673642,"bg_accurac":"APPROXIMATE","long":-88.0017261},"type":"Feature","geometry":{"type":"Point","coordinates":[-88.0017261,41.673642]}},{"properties":{"City":"Linden","ZipCode":7036,"Country":"USA","bg_postal":19141,"State":"New Jersey","id":"a6am23xlfk1o","lat":40.051079,"bg_accurac":"APPROXIMATE","long":-75.148873},"type":"Feature","geometry":{"type":"Point","coordinates":[-75.148873,40.051079]}},{"properties":{"City":"Longview","ZipCode":75602,"Country":"USA","bg_postal":75602,"State":"Texas","id":"a6am23te2l3i","lat":32.462781,"bg_accurac":"APPROXIMATE","long":-94.6553679},"type":"Feature","geometry":{"type":"Point","coordinates":[-94.6553679,32.462781]}},{"properties":{"City":"Los Angeles","ZipCode":90061,"Country":"USA","bg_postal":90061,"State":"California","id":"a6am23sabvav","lat":33.9196443,"bg_accurac":"APPROXIMATE","long":-118.2731269},"type":"Feature","geometry":{"type":"Point","coordinates":[-118.2731269,33.9196443]}},{"properties":{"City":"Lytton","ZipCode":4178,"Country":"australia","bg_postal":0,"State":"Queensland","id":"a6am241jji10","lat":-27.4243,"bg_accurac":"APPROXIMATE","long":153.15545},"type":"Feature","geometry":{"type":"Point","coordinates":[153.15545,-27.4243]}},{"properties":{"City":"Marcus Hook","ZipCode":19061,"Country":"USA","bg_postal":0,"State":"Pennsylvania","id":"a6am23v27kwe","lat":39.8192794,"bg_accurac":"APPROXIMATE","long":-75.4185272},"type":"Feature","geometry":{"type":"Point","coordinates":[-75.4185272,39.8192794]}},{"properties":{"City":"Marcus Hook","ZipCode":19103,"Country":"USA","bg_postal":19061,"State":"Pennsylvania","id":"a6am247knsju","lat":39.827057,"bg_accurac":"APPROXIMATE","long":-75.405471},"type":"Feature","geometry":{"type":"Point","coordinates":[-75.405471,39.827057]}},{"properties":{"City":"Markham","ZipCode":77456,"Country":"USA","bg_postal":0,"State":"Texas","id":"a6am245oog0n","lat":28.9602581,"bg_accurac":"APPROXIMATE","long":-96.0652382},"type":"Feature","geometry":{"type":"Point","coordinates":[-96.0652382,28.9602581]}},{"properties":{"City":"Marysville","ZipCode":48040,"Country":"USA","bg_postal":0,"State":"Michigan","id":"a6am23syz5m6","lat":42.9125305,"bg_accurac":"APPROXIMATE","long":-82.4868599},"type":"Feature","geometry":{"type":"Point","coordinates":[-82.4868599,42.9125305]}},{"properties":{"City":"Matagorda","ZipCode":77414,"Country":"USA","bg_postal":77414,"State":"Texas","id":"a6am23wsb1bm","lat":28.8687867,"bg_accurac":"APPROXIMATE","long":-95.940971},"type":"Feature","geometry":{"type":"Point","coordinates":[-95.940971,28.8687867]}},{"properties":{"City":"McPherson","ZipCode":67460,"Country":"USA","bg_postal":0,"State":"Kansas","id":"a6am242bhlzw","lat":38.3708415,"bg_accurac":"APPROXIMATE","long":-97.6642087},"type":"Feature","geometry":{"type":"Point","coordinates":[-97.6642087,38.3708415]}},{"properties":{"City":"Memphis","ZipCode":38109,"Country":"USA","bg_postal":38109,"State":"Tennessee","id":"a6am244w2gxx","lat":35.0607703,"bg_accurac":"APPROXIMATE","long":-90.1307797},"type":"Feature","geometry":{"type":"Point","coordinates":[-90.1307797,35.0607703]}},{"properties":{"City":"Meraux","ZipCode":70075,"Country":"USA","bg_postal":0,"State":"Louisiana","id":"a6am23tvzq17","lat":29.9275,"bg_accurac":"APPROXIMATE","long":-89.9183333},"type":"Feature","geometry":{"type":"Point","coordinates":[-89.9183333,29.9275]}},{"properties":{"City":"Meredosia","ZipCode":62665,"Country":"USA","bg_postal":0,"State":"Illinois","id":"a6am23yep33o","lat":39.8311579,"bg_accurac":"APPROXIMATE","long":-90.5595708},"type":"Feature","geometry":{"type":"Point","coordinates":[-90.5595708,39.8311579]}},{"properties":{"City":"Mojave","ZipCode":93501,"Country":"USA","bg_postal":0,"State":"California","id":"a6am241wywha","lat":35.0524699,"bg_accurac":"APPROXIMATE","long":-118.1739645},"type":"Feature","geometry":{"type":"Point","coordinates":[-118.1739645,35.0524699]}},{"properties":{"City":"Mont Belvieu","ZipCode":77580,"Country":"USA","bg_postal":77580,"State":"Texas","id":"a6am241h2bw9","lat":29.85,"bg_accurac":"APPROXIMATE","long":-94.89},"type":"Feature","geometry":{"type":"Point","coordinates":[-94.89,29.85]}},{"properties":{"City":"Narrows","ZipCode":24124,"Country":"USA","bg_postal":0,"State":"Virginia","id":"a6am23wzzfp1","lat":37.3315103,"bg_accurac":"APPROXIMATE","long":-80.8111866},"type":"Feature","geometry":{"type":"Point","coordinates":[-80.8111866,37.3315103]}},{"properties":{"City":"Newtown","ZipCode":3220,"Country":"australia","bg_postal":0,"State":"Victoria","id":"a6am23zdprwy","lat":-38.150256,"bg_accurac":"APPROXIMATE","long":144.346484},"type":"Feature","geometry":{"type":"Point","coordinates":[144.346484,-38.150256]}},{"properties":{"City":"Norco","ZipCode":70079,"Country":"USA","bg_postal":0,"State":"Louisiana","id":"a6am23wnuigh","lat":29.9990924,"bg_accurac":"APPROXIMATE","long":-90.4123042},"type":"Feature","geometry":{"type":"Point","coordinates":[-90.4123042,29.9990924]}},{"properties":{"City":"North Regina","ZipCode":0,"Country":"canada","bg_postal":0,"State":"Saskatchewan","id":"a6am23z7gmsl","lat":50.4640002,"bg_accurac":"APPROXIMATE","long":-104.5544944},"type":"Feature","geometry":{"type":"Point","coordinates":[-104.5544944,50.4640002]}},{"properties":{"City":"Olathe","ZipCode":66061,"Country":"USA","bg_postal":66061,"State":"Kansas","id":"a6am2400ng4o","lat":38.9071042,"bg_accurac":"APPROXIMATE","long":-94.8728093},"type":"Feature","geometry":{"type":"Point","coordinates":[-94.8728093,38.9071042]}},{"properties":{"City":"Oregon","ZipCode":43616,"Country":"USA","bg_postal":0,"State":"Ohio","id":"a6am2413qnuy","lat":41.6436603,"bg_accurac":"APPROXIMATE","long":-83.4868768},"type":"Feature","geometry":{"type":"Point","coordinates":[-83.4868768,41.6436603]}},{"properties":{"City":"Pasadena","ZipCode":0,"Country":"USA","bg_postal":77507,"State":"Texas","id":"a6am23zttqxz","lat":29.6343793,"bg_accurac":"APPROXIMATE","long":-95.0702794},"type":"Feature","geometry":{"type":"Point","coordinates":[-95.0702794,29.6343793]}},{"properties":{"City":"Pasadena","ZipCode":77507,"Country":"USA","bg_postal":77507,"State":"Texas","id":"a6am246kjntv","lat":29.6343793,"bg_accurac":"APPROXIMATE","long":-95.0702794},"type":"Feature","geometry":{"type":"Point","coordinates":[-95.0702794,29.6343793]}},{"properties":{"City":"Pasadena","ZipCode":77501,"Country":"USA","bg_postal":77501,"State":"Texas","id":"a6am248fz7va","lat":29.69,"bg_accurac":"APPROXIMATE","long":-95.2},"type":"Feature","geometry":{"type":"Point","coordinates":[-95.2,29.69]}},{"properties":{"City":"Paulsboro","ZipCode":8066,"Country":"USA","bg_postal":8066,"State":"New Jersey","id":"a6am23tkvf1f","lat":39.8367,"bg_accurac":"APPROXIMATE","long":-75.2452},"type":"Feature","geometry":{"type":"Point","coordinates":[-75.2452,39.8367]}},{"properties":{"City":"Paulsboro","ZipCode":8066,"Country":"USA","bg_postal":8066,"State":"New Jersey","id":"a6am23ub0rmk","lat":39.8367,"bg_accurac":"APPROXIMATE","long":-75.2452},"type":"Feature","geometry":{"type":"Point","coordinates":[-75.2452,39.8367]}},{"properties":{"City":"Peru","ZipCode":61354,"Country":"USA","bg_postal":0,"State":"Illinois","id":"a6am23y8eq1m","lat":41.3275349,"bg_accurac":"APPROXIMATE","long":-89.1289728},"type":"Feature","geometry":{"type":"Point","coordinates":[-89.1289728,41.3275349]}},{"properties":{"City":"Philadelphia","ZipCode":19029,"Country":"USA","bg_postal":19029,"State":"Pennsylvania","id":"a6am246miyo5","lat":39.8590657,"bg_accurac":"APPROXIMATE","long":-75.2994578},"type":"Feature","geometry":{"type":"Point","coordinates":[-75.2994578,39.8590657]}},{"properties":{"City":"Philadelphia","ZipCode":19103,"Country":"USA","bg_postal":19103,"State":"Pennsylvania","id":"a6am23vzbxer","lat":39.9531865,"bg_accurac":"APPROXIMATE","long":-75.1749671},"type":"Feature","geometry":{"type":"Point","coordinates":[-75.1749671,39.9531865]}},{"properties":{"City":"Philadelphia","ZipCode":19137,"Country":"USA","bg_postal":19137,"State":"Pennsylvania","id":"a6am23x6ukm1","lat":40.0018403,"bg_accurac":"APPROXIMATE","long":-75.0669552},"type":"Feature","geometry":{"type":"Point","coordinates":[-75.0669552,40.0018403]}},{"properties":{"City":"Phoenix","ZipCode":85009,"Country":"USA","bg_postal":85009,"State":"Arizona","id":"a6am241s994n","lat":33.4438042,"bg_accurac":"APPROXIMATE","long":-112.1310986},"type":"Feature","geometry":{"type":"Point","coordinates":[-112.1310986,33.4438042]}},{"properties":{"City":"Pittsburgh","ZipCode":15219,"Country":"USA","bg_postal":15219,"State":"Pennsylvania","id":"a6am23tvu3s0","lat":40.440368,"bg_accurac":"APPROXIMATE","long":-79.9836108},"type":"Feature","geometry":{"type":"Point","coordinates":[-79.9836108,40.440368]}},{"properties":{"City":"Ponca City","ZipCode":74602,"Country":"USA","bg_postal":74602,"State":"Oklahoma","id":"a6am23ueepqp","lat":36.7067,"bg_accurac":"APPROXIMATE","long":-97.0855},"type":"Feature","geometry":{"type":"Point","coordinates":[-97.0855,36.7067]}},{"properties":{"City":"Port Allen","ZipCode":70767,"Country":"USA","bg_postal":70802,"State":"Texas","id":"a6am2480f1aq","lat":30.423999,"bg_accurac":"GEOMETRIC_CENTER","long":-91.176475},"type":"Feature","geometry":{"type":"Point","coordinates":[-91.176475,30.423999]}},{"properties":{"City":"Port Arthur","ZipCode":77640,"Country":"USA","bg_postal":77640,"State":"Texas","id":"a6am23y6x6xv","lat":29.8440545,"bg_accurac":"APPROXIMATE","long":-94.0082563},"type":"Feature","geometry":{"type":"Point","coordinates":[-94.0082563,29.8440545]}},{"properties":{"City":"Port Arthur","ZipCode":77640,"Country":"USA","bg_postal":77640,"State":"Texas","id":"a6am23svzzm9","lat":29.8440545,"bg_accurac":"APPROXIMATE","long":-94.0082563},"type":"Feature","geometry":{"type":"Point","coordinates":[-94.0082563,29.8440545]}},{"properties":{"City":"Port Arthur","ZipCode":77641,"Country":"USA","bg_postal":77641,"State":"Texas","id":"a6am2445ae2m","lat":29.8987,"bg_accurac":"APPROXIMATE","long":-93.9288},"type":"Feature","geometry":{"type":"Point","coordinates":[-93.9288,29.8987]}},{"properties":{"City":"Port Neches","ZipCode":77651,"Country":"USA","bg_postal":0,"State":"Texas","id":"a6am242oeu28","lat":29.9913244,"bg_accurac":"APPROXIMATE","long":-93.9585067},"type":"Feature","geometry":{"type":"Point","coordinates":[-93.9585067,29.9913244]}},{"properties":{"City":"Port Reading","ZipCode":7064,"Country":"USA","bg_postal":7064,"State":"New Jersey","id":"a6am23y09g6i","lat":40.5699775,"bg_accurac":"APPROXIMATE","long":-74.2525178},"type":"Feature","geometry":{"type":"Point","coordinates":[-74.2525178,40.5699775]}},{"properties":{"City":"Portland","ZipCode":97201,"Country":"USA","bg_postal":97201,"State":"Oregon","id":"a6am242ucac6","lat":45.5093283,"bg_accurac":"APPROXIMATE","long":-122.6929967},"type":"Feature","geometry":{"type":"Point","coordinates":[-122.6929967,45.5093283]}},{"properties":{"City":"Portland","ZipCode":97231,"Country":"USA","bg_postal":97231,"State":"Oregon","id":"a6am248ie6n5","lat":45.6704753,"bg_accurac":"APPROXIMATE","long":-122.8229838},"type":"Feature","geometry":{"type":"Point","coordinates":[-122.8229838,45.6704753]}},{"properties":{"City":"Portland","ZipCode":97210,"Country":"USA","bg_postal":97210,"State":"Oregon","id":"a6am23ujeifo","lat":45.5552753,"bg_accurac":"APPROXIMATE","long":-122.7384041},"type":"Feature","geometry":{"type":"Point","coordinates":[-122.7384041,45.5552753]}},{"properties":{"City":"Rodeo","ZipCode":94572,"Country":"USA","bg_postal":0,"State":"California","id":"a6am23tskxam","lat":38.032977,"bg_accurac":"APPROXIMATE","long":-122.2669138},"type":"Feature","geometry":{"type":"Point","coordinates":[-122.2669138,38.032977]}},{"properties":{"City":"Roxana","ZipCode":62089,"Country":"USA","bg_postal":62087,"State":"Illinois","id":"a6am23zw5u4f","lat":38.8307099,"bg_accurac":"GEOMETRIC_CENTER","long":-90.0641933},"type":"Feature","geometry":{"type":"Point","coordinates":[-90.0641933,38.8307099]}},{"properties":{"City":"Saint John","ZipCode":0,"Country":"canada","bg_postal":0,"State":"New Brunswick","id":"a6am23wmnp0c","lat":45.2857697,"bg_accurac":"APPROXIMATE","long":-66.0494996},"type":"Feature","geometry":{"type":"Point","coordinates":[-66.0494996,45.2857697]}},{"properties":{"City":"San Antonio","ZipCode":0,"Country":"USA","bg_postal":78269,"State":"Texas","id":"a6am243rx0mn","lat":29.4239,"bg_accurac":"APPROXIMATE","long":-98.4935},"type":"Feature","geometry":{"type":"Point","coordinates":[-98.4935,29.4239]}},{"properties":{"City":"San Ramon","ZipCode":94583,"Country":"USA","bg_postal":0,"State":"California","id":"a6am2443d6lg","lat":37.7799273,"bg_accurac":"APPROXIMATE","long":-121.9780153},"type":"Feature","geometry":{"type":"Point","coordinates":[-121.9780153,37.7799273]}},{"properties":{"City":"Savannah","ZipCode":31404,"Country":"USA","bg_postal":31404,"State":"Georgia","id":"a6am2474nbzs","lat":32.0728891,"bg_accurac":"APPROXIMATE","long":-81.0423429},"type":"Feature","geometry":{"type":"Point","coordinates":[-81.0423429,32.0728891]}},{"properties":{"City":"Seattle","ZipCode":98177,"Country":"USA","bg_postal":98177,"State":"Washington","id":"a6am2489g6n8","lat":47.742858,"bg_accurac":"APPROXIMATE","long":-122.3671104},"type":"Feature","geometry":{"type":"Point","coordinates":[-122.3671104,47.742858]}},{"properties":{"City":"Sergeant Bluff","ZipCode":51054,"Country":"USA","bg_postal":0,"State":"Iowa","id":"a6am242zqf5v","lat":42.400651,"bg_accurac":"APPROXIMATE","long":-96.355592},"type":"Feature","geometry":{"type":"Point","coordinates":[-96.355592,42.400651]}},{"properties":{"City":"South Shelby","ZipCode":0,"Country":"USA","bg_postal":28151,"State":"North Carolina","id":"a6am23zipjki","lat":35.29,"bg_accurac":"APPROXIMATE","long":-81.54},"type":"Feature","geometry":{"type":"Point","coordinates":[-81.54,35.29]}},{"properties":{"City":"St Lima","ZipCode":44451,"Country":"USA","bg_postal":45805,"State":"Ohio","id":"a6am23whzyhu","lat":40.7372729,"bg_accurac":"APPROXIMATE","long":-84.1452267},"type":"Feature","geometry":{"type":"Point","coordinates":[-84.1452267,40.7372729]}},{"properties":{"City":"Sulphur","ZipCode":70665,"Country":"USA","bg_postal":0,"State":"Louisiana","id":"a6am23y1dydi","lat":30.2365943,"bg_accurac":"APPROXIMATE","long":-93.3773783},"type":"Feature","geometry":{"type":"Point","coordinates":[-93.3773783,30.2365943]}},{"properties":{"City":"Sulphur","ZipCode":0,"Country":"USA","bg_postal":0,"State":"Louisiana","id":"a6am23zfjb71","lat":30.2365943,"bg_accurac":"APPROXIMATE","long":-93.3773783},"type":"Feature","geometry":{"type":"Point","coordinates":[-93.3773783,30.2365943]}},{"properties":{"City":"Sunray","ZipCode":79086,"Country":"USA","bg_postal":0,"State":"Texas","id":"a6am23w8t9hv","lat":36.0167027,"bg_accurac":"APPROXIMATE","long":-101.824616},"type":"Feature","geometry":{"type":"Point","coordinates":[-101.824616,36.0167027]}},{"properties":{"City":"Superior","ZipCode":54880,"Country":"USA","bg_postal":0,"State":"Wisconsin","id":"a6am23utdacp","lat":46.7207737,"bg_accurac":"APPROXIMATE","long":-92.1040796},"type":"Feature","geometry":{"type":"Point","coordinates":[-92.1040796,46.7207737]}},{"properties":{"City":"Sweeny","ZipCode":77480,"Country":"USA","bg_postal":0,"State":"Texas","id":"a6am2433rpp3","lat":29.0388615,"bg_accurac":"APPROXIMATE","long":-95.6985608},"type":"Feature","geometry":{"type":"Point","coordinates":[-95.6985608,29.0388615]}},{"properties":{"City":"Sydney","ZipCode":2000,"Country":"australia","bg_postal":0,"State":"New South Wales","id":"a6am23zu7hz3","lat":-33.867139,"bg_accurac":"APPROXIMATE","long":151.207114},"type":"Feature","geometry":{"type":"Point","coordinates":[151.0499906605,-33.7971810052413]}},{"properties":{"City":"Three Rivers","ZipCode":78071,"Country":"USA","bg_postal":0,"State":"Texas","id":"a6am23s8lse3","lat":28.4602717,"bg_accurac":"APPROXIMATE","long":-98.1825071},"type":"Feature","geometry":{"type":"Point","coordinates":[-98.1825071,28.4602717]}},{"properties":{"City":"Trainer","ZipCode":19061,"Country":"USA","bg_postal":0,"State":"Pennsylvania","id":"a6am242yw9o5","lat":39.8276126,"bg_accurac":"APPROXIMATE","long":-75.4143604},"type":"Feature","geometry":{"type":"Point","coordinates":[-75.4143604,39.8276126]}},{"properties":{"City":"Tulsa","ZipCode":74107,"Country":"USA","bg_postal":74107,"State":"Oklahoma","id":"a6am2422zix0","lat":36.1004591,"bg_accurac":"APPROXIMATE","long":-96.0361574},"type":"Feature","geometry":{"type":"Point","coordinates":[-96.0361574,36.1004591]}},{"properties":{"City":"Vancouver","ZipCode":0,"Country":"canada","bg_postal":0,"State":"British Columbia","id":"a6am240lffg9","lat":49.2870088,"bg_accurac":"APPROXIMATE","long":-123.1192901},"type":"Feature","geometry":{"type":"Point","coordinates":[-123.1192901,49.2870088]}},{"properties":{"City":"Vansant","ZipCode":24656,"Country":"USA","bg_postal":24656,"State":"Virginia","id":"a6am23y2r9te","lat":37.1753174,"bg_accurac":"APPROXIMATE","long":-82.1387233},"type":"Feature","geometry":{"type":"Point","coordinates":[-82.1387233,37.1753174]}},{"properties":{"City":"Vernon","ZipCode":90058,"Country":"USA","bg_postal":0,"State":"California","id":"a6am240rrxwu","lat":34.003903,"bg_accurac":"APPROXIMATE","long":-118.230073},"type":"Feature","geometry":{"type":"Point","coordinates":[-118.230073,34.003903]}},{"properties":{"City":"Wichita","ZipCode":67220,"Country":"USA","bg_postal":67220,"State":"Kansas","id":"a6am23u5kddo","lat":37.7434078,"bg_accurac":"APPROXIMATE","long":-97.276076},"type":"Feature","geometry":{"type":"Point","coordinates":[-97.276076,37.7434078]}},{"properties":{"City":"Wilmington","ZipCode":90744,"Country":"USA","bg_postal":90744,"State":"California","id":"a6am23y181r2","lat":33.7857948,"bg_accurac":"APPROXIMATE","long":-118.2643567},"type":"Feature","geometry":{"type":"Point","coordinates":[-118.2643567,33.7857948]}},{"properties":{"City":"Wilmington","ZipCode":90748,"Country":"USA","bg_postal":90748,"State":"California","id":"a6am23t2c6ys","lat":33.78,"bg_accurac":"APPROXIMATE","long":-118.26},"type":"Feature","geometry":{"type":"Point","coordinates":[-118.26,33.78]}},{"properties":{"City":"Wilmington","ZipCode":0,"Country":"USA","bg_postal":28402,"State":"North Carolina","id":"a6am23yce7ow","lat":34.2259,"bg_accurac":"APPROXIMATE","long":-77.9451},"type":"Feature","geometry":{"type":"Point","coordinates":[-77.9451,34.2259]}},{"properties":{"City":"Woodbridge","ZipCode":7095,"Country":"USA","bg_postal":7095,"State":"New Jersey","id":"a6am2476u5uk","lat":40.5497046,"bg_accurac":"APPROXIMATE","long":-74.2764207},"type":"Feature","geometry":{"type":"Point","coordinates":[-74.2764207,40.5497046]}},{"properties":{"City":"Woods Cross","ZipCode":84087,"Country":"USA","bg_postal":0,"State":"Utah","id":"a6am23yn72n3","lat":40.8716119,"bg_accurac":"APPROXIMATE","long":-111.89216},"type":"Feature","geometry":{"type":"Point","coordinates":[-111.89216,40.8716119]}},{"properties":{"City":"Woodward","ZipCode":73801,"Country":"USA","bg_postal":0,"State":"Oklahoma","id":"a6am23yt7o6z","lat":36.4336481,"bg_accurac":"APPROXIMATE","long":-99.3903862},"type":"Feature","geometry":{"type":"Point","coordinates":[-99.3903862,36.4336481]}},{"properties":{"City":"Yazoo City","ZipCode":39194,"Country":"USA","bg_postal":0,"State":"Mississippi","id":"a6am245q5ean","lat":32.8551326,"bg_accurac":"APPROXIMATE","long":-90.4056468},"type":"Feature","geometry":{"type":"Point","coordinates":[-90.4056468,32.8551326]}}],"is_temporal":false,"author":{"url":"","metadata":"","contact_name":"","contact_address":"","source":"","contact_phone":""},"source":"","pagination":{"sort":null,"start":0,"total":141,"limit":1000000},"state":"complete","tags":"","published":"2014-08-10T18:34:02-04:00","id":57486}