{"type":"FeatureCollection","data_type":"Dataset","url_type":null,"permissions":[{"permissions":{"download":true,"view":true},"group_id":"everyone"}],"classification":null,"title":"BarbertonInpatients","count":91,"stream_id":57846,"contributor":{"url":"http://geocommons.com/users/14342","name":"koskinas"},"data_attributes":null,"calculation_params":null,"icon_link":null,"link":"http://geocommons.com/overlays/57846.json","extent":[-84.4841,38.9804,-76.7769,42.8283],"geometry_types":["point"],"unique_name":null,"name":"BarbertonInpatients","feature_count":91,"description":"Barberton Inpatients","next_feature":null,"is_raster":false,"short_classification":"Y","stats":{"geo_score":{"max":0.857,"mean":0.77910989010989,"variance":0.00355001001221001,"stdev":0.0595819604596057,"min":0.714,"median":0.75},"count":{"max":170,"mean":8.67032967032967,"variance":467.69010989011,"stdev":21.6261441290423,"min":1,"median":2}},"features":[{"properties":{"city":"#N/A","zipcode":"14059","geo_score":0.75,"count":1,"id":"a6m1rkiu3hun","geo_precision":"zip"},"type":"Feature","geometry":{"type":"Point","coordinates":[-78.628966,42.828309]}},{"properties":{"city":"#N/A","zipcode":"20715","geo_score":0.723,"count":1,"id":"a6m1rkbo5kf9","geo_precision":"zip"},"type":"Feature","geometry":{"type":"Point","coordinates":[-76.776914,38.980388]}},{"properties":{"city":"Lancaster","zipcode":"43130","geo_score":0.746,"count":2,"id":"a6m1rkhtxkmv","geo_precision":"zip"},"type":"Feature","geometry":{"type":"Point","coordinates":[-82.76656,39.727564]}},{"properties":{"city":"Stone Creek","zipcode":"43840","geo_score":0.857,"count":1,"id":"a6m1rkb4vbqb","geo_precision":"zip"},"type":"Feature","geometry":{"type":"Point","coordinates":[-81.602889,40.404888]}},{"properties":{"city":"Elyria","zipcode":"44074","geo_score":0.755,"count":1,"id":"a6m1rkfg3ccc","geo_precision":"zip"},"type":"Feature","geometry":{"type":"Point","coordinates":[-82.227628,41.294649]}},{"properties":{"city":"Bedford","zipcode":"44146","geo_score":0.727,"count":1,"id":"a6m1rkk6fcxj","geo_precision":"zip"},"type":"Feature","geometry":{"type":"Point","coordinates":[-81.561232,41.36561]}},{"properties":{"city":"Barb","zipcode":"44203","geo_score":0.727,"count":170,"id":"a6m1rkim9bpv","geo_precision":"zip"},"type":"Feature","geometry":{"type":"Point","coordinates":[-81.687905,41.02561]}},{"properties":{"city":"Brunswick","zipcode":"44212","geo_score":0.857,"count":2,"id":"a6m1rkdxeqo5","geo_precision":"zip"},"type":"Feature","geometry":{"type":"Point","coordinates":[-81.82281,41.206132]}},{"properties":{"city":"Briarwood Beach","zipcode":"44215","geo_score":0.743,"count":1,"id":"a6m1rkb8xach","geo_precision":"zip"},"type":"Feature","geometry":{"type":"Point","coordinates":[-81.897917,41.058388]}},{"properties":{"city":"Clinton","zipcode":"44216","geo_score":0.714,"count":18,"id":"a6m1rkbi557o","geo_precision":"zip"},"type":"Feature","geometry":{"type":"Point","coordinates":[-81.640958,40.922278]}},{"properties":{"city":"Creston","zipcode":"44217","geo_score":0.755,"count":7,"id":"a6m1rkeaqkos","geo_precision":"zip"},"type":"Feature","geometry":{"type":"Point","coordinates":[-81.899307,40.960333]}},{"properties":{"city":"Cuyahoga Falls","zipcode":"44221","geo_score":0.857,"count":5,"id":"a6m1rkhd73f3","geo_precision":"zip"},"type":"Feature","geometry":{"type":"Point","coordinates":[-81.473585,41.143906]}},{"properties":{"city":"Cuyahoga Falls","zipcode":"44223","geo_score":0.857,"count":1,"id":"a6m1rkc9d8vq","geo_precision":"zip"},"type":"Feature","geometry":{"type":"Point","coordinates":[-81.526738,41.170605]}},{"properties":{"city":"Cuyahoga Falls","zipcode":"44224","geo_score":0.725,"count":1,"id":"a6m1rkgrzc29","geo_precision":"zip"},"type":"Feature","geometry":{"type":"Point","coordinates":[-81.454279,41.158945]}},{"properties":{"city":"Doylestown","zipcode":"44230","geo_score":0.857,"count":24,"id":"a6m1rkbav17x","geo_precision":"zip"},"type":"Feature","geometry":{"type":"Point","coordinates":[-81.770787,40.958926]}},{"properties":{"city":"Garrettsville","zipcode":"44231","geo_score":0.736,"count":1,"id":"a6m1rkd1flmw","geo_precision":"zip"},"type":"Feature","geometry":{"type":"Point","coordinates":[-81.051484,41.310056]}},{"properties":{"city":"Hudson","zipcode":"44236","geo_score":0.721,"count":2,"id":"a6m1rkkco1q6","geo_precision":"zip"},"type":"Feature","geometry":{"type":"Point","coordinates":[-81.410666,41.264223]}},{"properties":{"city":"Kent","zipcode":"44240","geo_score":0.73,"count":5,"id":"a6m1rkiiis6j","geo_precision":"zip"},"type":"Feature","geometry":{"type":"Point","coordinates":[-81.340663,41.201723]}},{"properties":{"city":"Westfield Center","zipcode":"44251","geo_score":0.857,"count":1,"id":"a6m1rkmcwvp9","geo_precision":"zip"},"type":"Feature","geometry":{"type":"Point","coordinates":[-81.928342,41.028837]}},{"properties":{"city":"Litchfield","zipcode":"44253","geo_score":0.857,"count":1,"id":"a6m1rk8m320u","geo_precision":"zip"},"type":"Feature","geometry":{"type":"Point","coordinates":[-82.020109,41.162553]}},{"properties":{"city":"Lodi","zipcode":"44254","geo_score":0.714,"count":2,"id":"a6m1rkhrr4zi","geo_precision":"zip"},"type":"Feature","geometry":{"type":"Point","coordinates":[-82.076816,41.067555]}},{"properties":{"city":"Chatham","zipcode":"44256","geo_score":0.725,"count":16,"id":"a6m1rkcavv97","geo_precision":"zip"},"type":"Feature","geometry":{"type":"Point","coordinates":[-81.73513,41.136165]}},{"properties":{"city":"Black Horse","zipcode":"44266","geo_score":0.727,"count":7,"id":"a6m1rk9aa47m","geo_precision":"zip"},"type":"Feature","geometry":{"type":"Point","coordinates":[-81.147877,41.163112]}},{"properties":{"city":"Easton","zipcode":"44270","geo_score":0.857,"count":25,"id":"a6m1rk7n9c4m","geo_precision":"zip"},"type":"Feature","geometry":{"type":"Point","coordinates":[-81.735408,40.952555]}},{"properties":{"city":"Blake","zipcode":"44273","geo_score":0.857,"count":8,"id":"a6m1rkiisr36","geo_precision":"zip"},"type":"Feature","geometry":{"type":"Point","coordinates":[-81.815135,41.046999]}},{"properties":{"city":"Sterling","zipcode":"44276","geo_score":0.857,"count":2,"id":"a6m1rkdf0qdp","geo_precision":"zip"},"type":"Feature","geometry":{"type":"Point","coordinates":[-81.830515,40.936853]}},{"properties":{"city":"Tallmadge","zipcode":"44278","geo_score":0.857,"count":2,"id":"a6m1rkf93esl","geo_precision":"zip"},"type":"Feature","geometry":{"type":"Point","coordinates":[-81.428883,41.096656]}},{"properties":{"city":"Wadsworth","zipcode":"44281","geo_score":0.727,"count":40,"id":"a6m1rkaavn8n","geo_precision":"zip"},"type":"Feature","geometry":{"type":"Point","coordinates":[-81.751008,41.071841]}},{"properties":{"city":"Wadsworth","zipcode":"44282","geo_score":0.857,"count":1,"id":"a6m1rk8xp8sc","geo_precision":"zip"},"type":"Feature","geometry":{"type":"Point","coordinates":[-81.929185,41.132725]}},{"properties":{"city":"Albion","zipcode":"44287","geo_score":0.738,"count":7,"id":"a6m1rkc1tenq","geo_precision":"zip"},"type":"Feature","geometry":{"type":"Point","coordinates":[-82.109041,40.915612]}},{"properties":{"city":"Drakesburg","zipcode":"44288","geo_score":0.743,"count":1,"id":"a6m1rkl416vt","geo_precision":"zip"},"type":"Feature","geometry":{"type":"Point","coordinates":[-81.147599,41.205612]}},{"properties":{"city":"Akron","zipcode":"44301","geo_score":0.747,"count":7,"id":"a6m1rkgsglrt","geo_precision":"zip"},"type":"Feature","geometry":{"type":"Point","coordinates":[-81.516228,41.035056]}},{"properties":{"city":"Akron","zipcode":"44302","geo_score":0.857,"count":3,"id":"a6m1rkbqixpk","geo_precision":"zip"},"type":"Feature","geometry":{"type":"Point","coordinates":[-81.539039,41.090605]}},{"properties":{"city":"Akron","zipcode":"44305","geo_score":0.794,"count":15,"id":"a6m1rk9ewcyi","geo_precision":"zip"},"type":"Feature","geometry":{"type":"Point","coordinates":[-81.489281,41.071167]}},{"properties":{"city":"Akron","zipcode":"44306","geo_score":0.857,"count":2,"id":"a6m1rkd8uhs7","geo_precision":"zip"},"type":"Feature","geometry":{"type":"Point","coordinates":[-81.479986,41.041805]}},{"properties":{"city":"Akron","zipcode":"44307","geo_score":0.794,"count":4,"id":"a6m1rklvzq2c","geo_precision":"zip"},"type":"Feature","geometry":{"type":"Point","coordinates":[-81.547618,41.0745]}},{"properties":{"city":"Akron","zipcode":"44310","geo_score":0.857,"count":2,"id":"a6m1rk9yvx0k","geo_precision":"zip"},"type":"Feature","geometry":{"type":"Point","coordinates":[-81.498182,41.105505]}},{"properties":{"city":"Akron","zipcode":"44311","geo_score":0.857,"count":6,"id":"a6m1rk9pm5xr","geo_precision":"zip"},"type":"Feature","geometry":{"type":"Point","coordinates":[-81.522838,41.064955]}},{"properties":{"city":"Akron","zipcode":"44312","geo_score":0.714,"count":7,"id":"a6m1rknaj4b1","geo_precision":"zip"},"type":"Feature","geometry":{"type":"Point","coordinates":[-81.43539,41.051445]}},{"properties":{"city":"Akron","zipcode":"44313","geo_score":0.757,"count":1,"id":"a6m1rkfkgbh6","geo_precision":"zip"},"type":"Feature","geometry":{"type":"Point","coordinates":[-81.440946,41.037834]}},{"properties":{"city":"Akron","zipcode":"44314","geo_score":0.735,"count":19,"id":"a6m1rk7mupb8","geo_precision":"zip"},"type":"Feature","geometry":{"type":"Point","coordinates":[-81.560675,41.044778]}},{"properties":{"city":"Akron","zipcode":"44319","geo_score":0.726,"count":36,"id":"a6m1rkfx37j6","geo_precision":"zip"},"type":"Feature","geometry":{"type":"Point","coordinates":[-81.527062,41.007278]}},{"properties":{"city":"Akron","zipcode":"44320","geo_score":0.727,"count":7,"id":"a6m1rkkzrkpo","geo_precision":"zip"},"type":"Feature","geometry":{"type":"Point","coordinates":[-81.57012,41.083944]}},{"properties":{"city":"Akron","zipcode":"44333","geo_score":0.768,"count":1,"id":"a6m1rkgc3sxe","geo_precision":"zip"},"type":"Feature","geometry":{"type":"Point","coordinates":[-81.609844,41.127833]}},{"properties":{"city":"Burghill","zipcode":"44404","geo_score":0.729,"count":1,"id":"a6m1rkk389xi","geo_precision":"zip"},"type":"Feature","geometry":{"type":"Point","coordinates":[-80.51896,41.311444]}},{"properties":{"city":"Patmos","zipcode":"44460","geo_score":0.738,"count":2,"id":"a6m1rke13odk","geo_precision":"zip"},"type":"Feature","geometry":{"type":"Point","coordinates":[-80.948144,40.865614]}},{"properties":{"city":"Youngstown","zipcode":"44501","geo_score":0.857,"count":1,"id":"a6m1rkm2v55v","geo_precision":"zip"},"type":"Feature","geometry":{"type":"Point","coordinates":[-80.802854,41.017082]}},{"properties":{"city":"Alliance","zipcode":"44601","geo_score":0.762,"count":12,"id":"a6m1rkko8l3q","geo_precision":"zip"},"type":"Feature","geometry":{"type":"Point","coordinates":[-81.249549,40.984502]}},{"properties":{"city":"Apple Creek","zipcode":"44606","geo_score":0.729,"count":5,"id":"a6m1rkge4554","geo_precision":"zip"},"type":"Feature","geometry":{"type":"Point","coordinates":[-81.792634,40.69728]}},{"properties":{"city":"Bolivar","zipcode":"44612","geo_score":0.857,"count":2,"id":"a6m1rkl7pls8","geo_precision":"zip"},"type":"Feature","geometry":{"type":"Point","coordinates":[-81.449534,40.618002]}},{"properties":{"city":"Canal Fulton","zipcode":"44614","geo_score":0.745,"count":20,"id":"a6m1rkiiknfq","geo_precision":"zip"},"type":"Feature","geometry":{"type":"Point","coordinates":[-81.534287,40.849224]}},{"properties":{"city":"Carrollton","zipcode":"44615","geo_score":0.726,"count":1,"id":"a6m1rkhekrtr","geo_precision":"zip"},"type":"Feature","geometry":{"type":"Point","coordinates":[-80.960924,40.57784]}},{"properties":{"city":"Dalton","zipcode":"44618","geo_score":0.753,"count":4,"id":"a6m1rkc1pxhq","geo_precision":"zip"},"type":"Feature","geometry":{"type":"Point","coordinates":[-81.667628,40.724502]}},{"properties":{"city":"Dennison","zipcode":"44621","geo_score":0.857,"count":1,"id":"a6m1rka6vir3","geo_precision":"zip"},"type":"Feature","geometry":{"type":"Point","coordinates":[-81.352297,40.416656]}},{"properties":{"city":"Columbia","zipcode":"44622","geo_score":0.714,"count":3,"id":"a6m1rk9yzy41","geo_precision":"zip"},"type":"Feature","geometry":{"type":"Point","coordinates":[-81.558454,40.548674]}},{"properties":{"city":"Congress Lake","zipcode":"44632","geo_score":0.75,"count":1,"id":"a6m1rklk8wen","geo_precision":"zip"},"type":"Feature","geometry":{"type":"Point","coordinates":[-81.442635,40.822158]}},{"properties":{"city":"Holmesville","zipcode":"44633","geo_score":0.857,"count":2,"id":"a6m1rk9xvenb","geo_precision":"zip"},"type":"Feature","geometry":{"type":"Point","coordinates":[-81.937501,40.624618]}},{"properties":{"city":"Killbuck","zipcode":"44637","geo_score":0.762,"count":1,"id":"a6m1rkk5zzpp","geo_precision":"zip"},"type":"Feature","geometry":{"type":"Point","coordinates":[-82.094317,40.460621]}},{"properties":{"city":"Lakeville","zipcode":"44638","geo_score":0.73,"count":2,"id":"a6m1rkj2d5cp","geo_precision":"zip"},"type":"Feature","geometry":{"type":"Point","coordinates":[-82.137376,40.697281]}},{"properties":{"city":"Fairhope","zipcode":"44641","geo_score":0.743,"count":2,"id":"a6m1rkhd7886","geo_precision":"zip"},"type":"Feature","geometry":{"type":"Point","coordinates":[-81.227327,40.893392]}},{"properties":{"city":"Malvern","zipcode":"44644","geo_score":0.714,"count":1,"id":"a6m1rkbheg75","geo_precision":"zip"},"type":"Feature","geometry":{"type":"Point","coordinates":[-81.148991,40.698671]}},{"properties":{"city":"Marshallville","zipcode":"44645","geo_score":0.857,"count":3,"id":"a6m1rkftrlir","geo_precision":"zip"},"type":"Feature","geometry":{"type":"Point","coordinates":[-81.725668,40.908987]}},{"properties":{"city":"Massillon","zipcode":"44646","geo_score":0.73,"count":18,"id":"a6m1rklg55q7","geo_precision":"zip"},"type":"Feature","geometry":{"type":"Point","coordinates":[-81.5454,40.773947]}},{"properties":{"city":"Massillon","zipcode":"44647","geo_score":0.857,"count":2,"id":"a6m1rkfmzmk7","geo_precision":"zip"},"type":"Feature","geometry":{"type":"Point","coordinates":[-81.575795,40.801057]}},{"properties":{"city":"Becks Mills","zipcode":"44654","geo_score":0.714,"count":11,"id":"a6m1rkdu9k15","geo_precision":"zip"},"type":"Feature","geometry":{"type":"Point","coordinates":[-81.825414,40.613672]}},{"properties":{"city":"Nashville","zipcode":"44661","geo_score":0.857,"count":1,"id":"a6m1rkb26t2v","geo_precision":"zip"},"type":"Feature","geometry":{"type":"Point","coordinates":[-82.11676,40.593256]}},{"properties":{"city":"New Phila","zipcode":"44663","geo_score":0.746,"count":4,"id":"a6m1rkgeiub7","geo_precision":"zip"},"type":"Feature","geometry":{"type":"Point","coordinates":[-81.44956,40.47701]}},{"properties":{"city":"East Greenville","zipcode":"44666","geo_score":0.857,"count":1,"id":"a6m1rkauer8b","geo_precision":"zip"},"type":"Feature","geometry":{"type":"Point","coordinates":[-81.631515,40.799501]}},{"properties":{"city":"Burton City","zipcode":"44667","geo_score":0.729,"count":36,"id":"a6m1rkg9751t","geo_precision":"zip"},"type":"Feature","geometry":{"type":"Point","coordinates":[-81.76541,40.796445]}},{"properties":{"city":"Craigton","zipcode":"44676","geo_score":0.74,"count":13,"id":"a6m1rkhn8nzu","geo_precision":"zip"},"type":"Feature","geometry":{"type":"Point","coordinates":[-82.032649,40.736169]}},{"properties":{"city":"Smithville","zipcode":"44677","geo_score":0.857,"count":4,"id":"a6m1rk9vvaqz","geo_precision":"zip"},"type":"Feature","geometry":{"type":"Point","coordinates":[-81.855266,40.872545]}},{"properties":{"city":"Uniontown","zipcode":"44685","geo_score":0.714,"count":11,"id":"a6m1rk9366wc","geo_precision":"zip"},"type":"Feature","geometry":{"type":"Point","coordinates":[-81.423724,40.976168]}},{"properties":{"city":"Winesburg","zipcode":"44690","geo_score":0.857,"count":1,"id":"a6m1rkbc0cep","geo_precision":"zip"},"type":"Feature","geometry":{"type":"Point","coordinates":[-81.681707,40.616536]}},{"properties":{"city":"Wooster","zipcode":"44691","geo_score":0.75,"count":106,"id":"a6m1rknbfdhf","geo_precision":"zip"},"type":"Feature","geometry":{"type":"Point","coordinates":[-81.959867,40.781446]}},{"properties":{"city":"Tippecanoe","zipcode":"44699","geo_score":0.727,"count":1,"id":"a6m1rkiwjpqi","geo_precision":"zip"},"type":"Feature","geometry":{"type":"Point","coordinates":[-81.344278,40.23368]}},{"properties":{"city":"Canton","zipcode":"44701","geo_score":0.857,"count":3,"id":"a6m1rk9k29sq","geo_precision":"zip"},"type":"Feature","geometry":{"type":"Point","coordinates":[-81.371185,40.782408]}},{"properties":{"city":"Canton","zipcode":"44702","geo_score":0.857,"count":2,"id":"a6m1rk88vq4r","geo_precision":"zip"},"type":"Feature","geometry":{"type":"Point","coordinates":[-81.379535,40.800108]}},{"properties":{"city":"Canton","zipcode":"44703","geo_score":0.857,"count":3,"id":"a6m1rk7goesl","geo_precision":"zip"},"type":"Feature","geometry":{"type":"Point","coordinates":[-81.379886,40.808808]}},{"properties":{"city":"Canton","zipcode":"44704","geo_score":0.857,"count":3,"id":"a6m1rkitu9px","geo_precision":"zip"},"type":"Feature","geometry":{"type":"Point","coordinates":[-81.345934,40.799158]}},{"properties":{"city":"Canton","zipcode":"44705","geo_score":0.857,"count":3,"id":"a6m1rk7phfs3","geo_precision":"zip"},"type":"Feature","geometry":{"type":"Point","coordinates":[-81.330583,40.830092]}},{"properties":{"city":"Canton","zipcode":"44706","geo_score":0.73,"count":3,"id":"a6m1rkjhw8y8","geo_precision":"zip"},"type":"Feature","geometry":{"type":"Point","coordinates":[-81.477897,40.75117]}},{"properties":{"city":"Canton","zipcode":"44707","geo_score":0.762,"count":2,"id":"a6m1rkg5uvxq","geo_precision":"zip"},"type":"Feature","geometry":{"type":"Point","coordinates":[-81.347057,40.77867]}},{"properties":{"city":"Canton","zipcode":"44708","geo_score":0.736,"count":3,"id":"a6m1rkb0fhzr","geo_precision":"zip"},"type":"Feature","geometry":{"type":"Point","coordinates":[-81.444838,40.82978]}},{"properties":{"city":"Canton","zipcode":"44709","geo_score":0.714,"count":3,"id":"a6m1rk8gemx4","geo_precision":"zip"},"type":"Feature","geometry":{"type":"Point","coordinates":[-81.38678,40.838947]}},{"properties":{"city":"Canton","zipcode":"44710","geo_score":0.73,"count":1,"id":"a6m1rkdts5wv","geo_precision":"zip"},"type":"Feature","geometry":{"type":"Point","coordinates":[-81.436783,40.794503]}},{"properties":{"city":"Canton","zipcode":"44714","geo_score":0.857,"count":4,"id":"a6m1rkab8bgl","geo_precision":"zip"},"type":"Feature","geometry":{"type":"Point","coordinates":[-81.360834,40.834457]}},{"properties":{"city":"Belden Village Mall","zipcode":"44718","geo_score":0.723,"count":1,"id":"a6m1rkmd8gp5","geo_precision":"zip"},"type":"Feature","geometry":{"type":"Point","coordinates":[-81.440791,40.846532]}},{"properties":{"city":"Ashland","zipcode":"44805","geo_score":0.714,"count":15,"id":"a6m1rk8hm9ar","geo_precision":"zip"},"type":"Feature","geometry":{"type":"Point","coordinates":[-82.31655,40.749502]}},{"properties":{"city":"Jeromesville","zipcode":"44840","geo_score":0.774,"count":1,"id":"a6m1rkeql69i","geo_precision":"zip"},"type":"Feature","geometry":{"type":"Point","coordinates":[-82.191267,40.728114]}},{"properties":{"city":"Polk","zipcode":"44866","geo_score":0.732,"count":1,"id":"a6m1rkk38kr3","geo_precision":"zip"},"type":"Feature","geometry":{"type":"Point","coordinates":[-82.15571,40.858668]}},{"properties":{"city":"Cincinnati","zipcode":"45206","geo_score":0.727,"count":1,"id":"a6m1rkllkul0","geo_precision":"zip"},"type":"Feature","geometry":{"type":"Point","coordinates":[-84.484109,39.127004]}}],"is_temporal":false,"author":{"url":"","metadata":"","contact_name":"","contact_address":"","source":"","contact_phone":""},"source":"","pagination":{"sort":null,"start":0,"total":91,"limit":1000000},"state":"complete","tags":"","published":"2014-08-10T18:49:13-04:00","id":57846}