{"type":"FeatureCollection","data_type":"Dataset","url_type":null,"permissions":[{"permissions":{"download":true,"view":true},"group_id":"everyone"}],"classification":null,"title":"Summa_Market_Definition","count":69,"stream_id":57844,"contributor":{"url":"http://geocommons.com/users/14342","name":"koskinas"},"data_attributes":null,"calculation_params":null,"icon_link":null,"link":"http://geocommons.com/overlays/57844.json","extent":[-83.2552,40.597,-81.0515,41.3459],"geometry_types":["point"],"unique_name":null,"name":"Summa_Market_Definition","feature_count":69,"description":"","next_feature":null,"is_raster":false,"short_classification":"Y","stats":{"geo_score":{"max":0.857,"mean":0.786086956521739,"variance":0.00364666879795396,"stdev":0.0603876543504876,"min":0.714,"median":0.757}},"features":[{"properties":{"city":"Macedonia","county":"Summit","geo_score":0.857,"zip code":"44056","id":"a684knu4hc3r","geo_precision":"zip"},"type":"Feature","geometry":{"type":"Point","coordinates":[-81.492511,41.311288]}},{"properties":{"city":"Macedonia","county":"Summit","geo_score":0.747,"zip code":"44067","id":"a684ko1rvj11","geo_precision":"zip"},"type":"Feature","geometry":{"type":"Point","coordinates":[-81.568176,41.311722]}},{"properties":{"city":"Twinsburg","county":"Summit","geo_score":0.857,"zip code":"44087","id":"a684knp8ou9w","geo_precision":"zip"},"type":"Feature","geometry":{"type":"Point","coordinates":[-81.440435,41.313304]}},{"properties":{"city":"Brecksville","county":"Cuyahoga","geo_score":0.74,"zip code":"44141","id":"a684knq78r5z","geo_precision":"zip"},"type":"Feature","geometry":{"type":"Point","coordinates":[-81.573731,41.288388]}},{"properties":{"city":"Atwater","county":"Portage","geo_score":0.753,"zip code":"44201","id":"a684knvjwo06","geo_precision":"zip"},"type":"Feature","geometry":{"type":"Point","coordinates":[-81.299273,41.027279]}},{"properties":{"city":"Aurora","county":"Portage","geo_score":0.725,"zip code":"44202","id":"a684ko1p2si4","geo_precision":"zip"},"type":"Feature","geometry":{"type":"Point","coordinates":[-81.395111,41.345888]}},{"properties":{"city":"Barb","county":"Summit","geo_score":0.727,"zip code":"44203","id":"a684knt39qcu","geo_precision":"zip"},"type":"Feature","geometry":{"type":"Point","coordinates":[-81.687905,41.02561]}},{"properties":{"city":"Brunswick","county":"Medina","geo_score":0.857,"zip code":"44212","id":"a684knud3qw7","geo_precision":"zip"},"type":"Feature","geometry":{"type":"Point","coordinates":[-81.82281,41.206132]}},{"properties":{"city":"Burbank","county":"Wayne","geo_score":0.725,"zip code":"44214","id":"a684ko4hd5qj","geo_precision":"zip"},"type":"Feature","geometry":{"type":"Point","coordinates":[-81.981812,40.915056]}},{"properties":{"city":"Briarwood Beach","county":"Medina","geo_score":0.743,"zip code":"44215","id":"a684knpnvodf","geo_precision":"zip"},"type":"Feature","geometry":{"type":"Point","coordinates":[-81.897917,41.058388]}},{"properties":{"city":"Clinton","county":"Summit","geo_score":0.714,"zip code":"44216","id":"a684kntomgmc","geo_precision":"zip"},"type":"Feature","geometry":{"type":"Point","coordinates":[-81.640958,40.922278]}},{"properties":{"city":"Creston","county":"Wayne","geo_score":0.755,"zip code":"44217","id":"a684ko2eo5k7","geo_precision":"zip"},"type":"Feature","geometry":{"type":"Point","coordinates":[-81.899307,40.960333]}},{"properties":{"city":"Cuyahoga Falls","county":"Summit","geo_score":0.857,"zip code":"44221","id":"a684knsqzf7g","geo_precision":"zip"},"type":"Feature","geometry":{"type":"Point","coordinates":[-81.473585,41.143906]}},{"properties":{"city":"Cuyahoga Falls","county":"Summit","geo_score":0.857,"zip code":"44223","id":"a684knuezq6a","geo_precision":"zip"},"type":"Feature","geometry":{"type":"Point","coordinates":[-81.526738,41.170605]}},{"properties":{"city":"Cuyahoga Falls","county":"Summit","geo_score":0.725,"zip code":"44224","id":"a684ko2c6o78","geo_precision":"zip"},"type":"Feature","geometry":{"type":"Point","coordinates":[-81.454279,41.158945]}},{"properties":{"city":"Doylestown","county":"Wayne","geo_score":0.857,"zip code":"44230","id":"a684knwo9uqr","geo_precision":"zip"},"type":"Feature","geometry":{"type":"Point","coordinates":[-81.770787,40.958926]}},{"properties":{"city":"Garrettsville","county":"Portage","geo_score":0.736,"zip code":"44231","id":"a684knqyd6s0","geo_precision":"zip"},"type":"Feature","geometry":{"type":"Point","coordinates":[-81.051484,41.310056]}},{"properties":{"city":"Hinckley","county":"Medina","geo_score":0.857,"zip code":"44233","id":"a684ko4fgab4","geo_precision":"zip"},"type":"Feature","geometry":{"type":"Point","coordinates":[-81.736072,41.23648]}},{"properties":{"city":"Hiram","county":"Portage","geo_score":0.779,"zip code":"44234","id":"a684ko4w7s82","geo_precision":"zip"},"type":"Feature","geometry":{"type":"Point","coordinates":[-81.166211,41.340055]}},{"properties":{"city":"Hudson","county":"Summit","geo_score":0.721,"zip code":"44236","id":"a684knrrw7c7","geo_precision":"zip"},"type":"Feature","geometry":{"type":"Point","coordinates":[-81.410666,41.264223]}},{"properties":{"city":"Kent","county":"Portage","geo_score":0.73,"zip code":"44240","id":"a684knrftuj4","geo_precision":"zip"},"type":"Feature","geometry":{"type":"Point","coordinates":[-81.340663,41.201723]}},{"properties":{"city":"Streetsboro","county":"Portage","geo_score":0.857,"zip code":"44241","id":"a684knwa2c2q","geo_precision":"zip"},"type":"Feature","geometry":{"type":"Point","coordinates":[-81.340528,41.241655]}},{"properties":{"city":"Kent","county":"Portage","geo_score":0.857,"zip code":"44243","id":"a684knt0fbsc","geo_precision":"zip"},"type":"Feature","geometry":{"type":"Point","coordinates":[-81.341531,41.147537]}},{"properties":{"city":"Lodi","county":"Medina","geo_score":0.714,"zip code":"44254","id":"a684ko4fuoca","geo_precision":"zip"},"type":"Feature","geometry":{"type":"Point","coordinates":[-82.076816,41.067555]}},{"properties":{"city":"Mantua","county":"Portage","geo_score":0.714,"zip code":"44255","id":"a684knrkixri","geo_precision":"zip"},"type":"Feature","geometry":{"type":"Point","coordinates":[-81.281216,41.308944]}},{"properties":{"city":"Chatham","county":"Medina","geo_score":0.725,"zip code":"44256","id":"a684ko1idwnc","geo_precision":"zip"},"type":"Feature","geometry":{"type":"Point","coordinates":[-81.73513,41.136165]}},{"properties":{"city":"Medina","county":"Medina","geo_score":0.857,"zip code":"44258","id":"a684knz9ky5t","geo_precision":"zip"},"type":"Feature","geometry":{"type":"Point","coordinates":[-81.841079,41.127594]}},{"properties":{"city":"Mogadore","county":"Portage","geo_score":0.714,"zip code":"44260","id":"a684kntcp9qx","geo_precision":"zip"},"type":"Feature","geometry":{"type":"Point","coordinates":[-81.347331,41.023113]}},{"properties":{"city":"Munroe Falls","county":"Summit","geo_score":0.857,"zip code":"44262","id":"a684knt131hr","geo_precision":"zip"},"type":"Feature","geometry":{"type":"Point","coordinates":[-81.431677,41.138206]}},{"properties":{"city":"Everett","county":"Summit","geo_score":0.735,"zip code":"44264","id":"a684knyo2ww1","geo_precision":"zip"},"type":"Feature","geometry":{"type":"Point","coordinates":[-81.584287,41.181444]}},{"properties":{"city":"Black Horse","county":"Portage","geo_score":0.727,"zip code":"44266","id":"a684ko0d7ho7","geo_precision":"zip"},"type":"Feature","geometry":{"type":"Point","coordinates":[-81.147877,41.163112]}},{"properties":{"city":"Easton","county":"Wayne","geo_score":0.857,"zip code":"44270","id":"a684ko1w5kjd","geo_precision":"zip"},"type":"Feature","geometry":{"type":"Point","coordinates":[-81.735408,40.952555]}},{"properties":{"city":"Edinburg","county":"Portage","geo_score":0.857,"zip code":"44272","id":"a684knqucxjf","geo_precision":"zip"},"type":"Feature","geometry":{"type":"Point","coordinates":[-81.145932,41.099779]}},{"properties":{"city":"Blake","county":"Medina","geo_score":0.857,"zip code":"44273","id":"a684ko4rnhu5","geo_precision":"zip"},"type":"Feature","geometry":{"type":"Point","coordinates":[-81.815135,41.046999]}},{"properties":{"city":"Sterling","county":"Wayne","geo_score":0.857,"zip code":"44276","id":"a684knuzoiyw","geo_precision":"zip"},"type":"Feature","geometry":{"type":"Point","coordinates":[-81.830515,40.936853]}},{"properties":{"city":"Tallmadge","county":"Summit","geo_score":0.857,"zip code":"44278","id":"a684knwjw6wx","geo_precision":"zip"},"type":"Feature","geometry":{"type":"Point","coordinates":[-81.428883,41.096656]}},{"properties":{"city":"Wadsworth","county":"Medina","geo_score":0.727,"zip code":"44281","id":"a684ko55pw17","geo_precision":"zip"},"type":"Feature","geometry":{"type":"Point","coordinates":[-81.751008,41.071841]}},{"properties":{"city":"Wadsworth","county":"Medina","geo_score":0.857,"zip code":"44282","id":"a684kntcw5jy","geo_precision":"zip"},"type":"Feature","geometry":{"type":"Point","coordinates":[-81.929185,41.132725]}},{"properties":{"city":"Richfield","county":"Summit","geo_score":0.813,"zip code":"44286","id":"a684ko2v1z4l","geo_precision":"zip"},"type":"Feature","geometry":{"type":"Point","coordinates":[-81.655124,41.239499]}},{"properties":{"city":"Drakesburg","county":"Portage","geo_score":0.743,"zip code":"44288","id":"a684ko16fjbu","geo_precision":"zip"},"type":"Feature","geometry":{"type":"Point","coordinates":[-81.147599,41.205612]}},{"properties":{"city":"Akron","county":"Summit","geo_score":0.747,"zip code":"44301","id":"a684knzcsz7w","geo_precision":"zip"},"type":"Feature","geometry":{"type":"Point","coordinates":[-81.516228,41.035056]}},{"properties":{"city":"Akron","county":"Summit","geo_score":0.857,"zip code":"44302","id":"a684knorafj6","geo_precision":"zip"},"type":"Feature","geometry":{"type":"Point","coordinates":[-81.539039,41.090605]}},{"properties":{"city":"Akron","county":"Summit","geo_score":0.857,"zip code":"44303","id":"a684knuxh8ta","geo_precision":"zip"},"type":"Feature","geometry":{"type":"Point","coordinates":[-81.535089,41.104355]}},{"properties":{"city":"Akron","county":"Summit","geo_score":0.857,"zip code":"44304","id":"a684knup3tul","geo_precision":"zip"},"type":"Feature","geometry":{"type":"Point","coordinates":[-81.506187,41.083293]}},{"properties":{"city":"Akron","county":"Summit","geo_score":0.794,"zip code":"44305","id":"a684knu0bdog","geo_precision":"zip"},"type":"Feature","geometry":{"type":"Point","coordinates":[-81.489281,41.071167]}},{"properties":{"city":"Akron","county":"Summit","geo_score":0.857,"zip code":"44306","id":"a684knpc3u12","geo_precision":"zip"},"type":"Feature","geometry":{"type":"Point","coordinates":[-81.479986,41.041805]}},{"properties":{"city":"Akron","county":"Summit","geo_score":0.794,"zip code":"44307","id":"a684knvf5yo0","geo_precision":"zip"},"type":"Feature","geometry":{"type":"Point","coordinates":[-81.547618,41.0745]}},{"properties":{"city":"Akron","county":"Summit","geo_score":0.714,"zip code":"44308","id":"a684knw3t410","geo_precision":"zip"},"type":"Feature","geometry":{"type":"Point","coordinates":[-83.255196,40.597002]}},{"properties":{"city":"Akron","county":"Summit","geo_score":0.857,"zip code":"44310","id":"a684knygri7a","geo_precision":"zip"},"type":"Feature","geometry":{"type":"Point","coordinates":[-81.498182,41.105505]}},{"properties":{"city":"Akron","county":"Summit","geo_score":0.857,"zip code":"44311","id":"a684ko35x3uh","geo_precision":"zip"},"type":"Feature","geometry":{"type":"Point","coordinates":[-81.522838,41.064955]}},{"properties":{"city":"Akron","county":"Summit","geo_score":0.714,"zip code":"44312","id":"a684knqn3n7b","geo_precision":"zip"},"type":"Feature","geometry":{"type":"Point","coordinates":[-81.43539,41.051445]}},{"properties":{"city":"Akron","county":"Summit","geo_score":0.757,"zip code":"44313","id":"a684knq8kgy0","geo_precision":"zip"},"type":"Feature","geometry":{"type":"Point","coordinates":[-81.440946,41.037834]}},{"properties":{"city":"Akron","county":"Summit","geo_score":0.735,"zip code":"44314","id":"a684knzroace","geo_precision":"zip"},"type":"Feature","geometry":{"type":"Point","coordinates":[-81.560675,41.044778]}},{"properties":{"city":"Akron","county":"Summit","geo_score":0.726,"zip code":"44319","id":"a684knqnf1lw","geo_precision":"zip"},"type":"Feature","geometry":{"type":"Point","coordinates":[-81.527062,41.007278]}},{"properties":{"city":"Akron","county":"Summit","geo_score":0.727,"zip code":"44320","id":"a684knrdebv4","geo_precision":"zip"},"type":"Feature","geometry":{"type":"Point","coordinates":[-81.57012,41.083944]}},{"properties":{"city":"Akron","county":"Summit","geo_score":0.714,"zip code":"44321","id":"a684ko0rr78p","geo_precision":"zip"},"type":"Feature","geometry":{"type":"Point","coordinates":[-81.644569,41.098944]}},{"properties":{"city":"Akron","county":"Summit","geo_score":0.857,"zip code":"44325","id":"a684knyymvod","geo_precision":"zip"},"type":"Feature","geometry":{"type":"Point","coordinates":[-81.51026,41.076425]}},{"properties":{"city":"Akron","county":"Summit","geo_score":0.768,"zip code":"44333","id":"a684ko4cfk6r","geo_precision":"zip"},"type":"Feature","geometry":{"type":"Point","coordinates":[-81.609844,41.127833]}},{"properties":{"city":"Alliance","county":"Stark","geo_score":0.762,"zip code":"44601","id":"a684knuiwlkd","geo_precision":"zip"},"type":"Feature","geometry":{"type":"Point","coordinates":[-81.249549,40.984502]}},{"properties":{"city":"Canal Fulton","county":"Summit","geo_score":0.745,"zip code":"44614","id":"a684knvlth58","geo_precision":"zip"},"type":"Feature","geometry":{"type":"Point","coordinates":[-81.534287,40.849224]}},{"properties":{"city":"Congress Lake","county":"Stark","geo_score":0.75,"zip code":"44632","id":"a684knwlzb6k","geo_precision":"zip"},"type":"Feature","geometry":{"type":"Point","coordinates":[-81.442635,40.822158]}},{"properties":{"city":"Fairhope","county":"Stark","geo_score":0.743,"zip code":"44641","id":"a684ko20msbu","geo_precision":"zip"},"type":"Feature","geometry":{"type":"Point","coordinates":[-81.227327,40.893392]}},{"properties":{"city":"Marshallville","county":"Wayne","geo_score":0.857,"zip code":"44645","id":"a684knxso7nm","geo_precision":"zip"},"type":"Feature","geometry":{"type":"Point","coordinates":[-81.725668,40.908987]}},{"properties":{"city":"East Greenville","county":"Stark","geo_score":0.857,"zip code":"44666","id":"a684ko1slan5","geo_precision":"zip"},"type":"Feature","geometry":{"type":"Point","coordinates":[-81.631515,40.799501]}},{"properties":{"city":"Burton City","county":"Wayne","geo_score":0.729,"zip code":"44667","id":"a684knssvs4g","geo_precision":"zip"},"type":"Feature","geometry":{"type":"Point","coordinates":[-81.76541,40.796445]}},{"properties":{"city":"Smithville","county":"Wayne","geo_score":0.857,"zip code":"44677","id":"a684knufm9bx","geo_precision":"zip"},"type":"Feature","geometry":{"type":"Point","coordinates":[-81.855266,40.872545]}},{"properties":{"city":"Uniontown","county":"Stark","geo_score":0.714,"zip code":"44685","id":"a684knykc0fo","geo_precision":"zip"},"type":"Feature","geometry":{"type":"Point","coordinates":[-81.423724,40.976168]}},{"properties":{"city":"Akron Canton Region Airport","county":"Stark","geo_score":0.75,"zip code":"44720","id":"a684ko4976q1","geo_precision":"zip"},"type":"Feature","geometry":{"type":"Point","coordinates":[-81.405391,40.907835]}},{"properties":{"city":"Canton","county":"Stark","geo_score":0.786,"zip code":"44721","id":"a684ko48iera","geo_precision":"zip"},"type":"Feature","geometry":{"type":"Point","coordinates":[-81.360389,40.904502]}}],"is_temporal":false,"author":{"url":"","metadata":"","contact_name":"","contact_address":"","source":"","contact_phone":""},"source":"","pagination":{"sort":null,"start":0,"total":69,"limit":1000000},"state":"complete","tags":"","published":"2014-08-10T18:49:10-04:00","id":57844}