{"type":"FeatureCollection","data_type":"Dataset","url_type":null,"permissions":[{"permissions":{"download":true,"view":true},"group_id":"everyone"}],"classification":null,"title":"Asian Population 2006","count":51,"stream_id":5800,"contributor":{"url":"http://geocommons.com/users/2464","name":"andrewsousa@gmail.com"},"data_attributes":null,"calculation_params":null,"icon_link":null,"link":"http://geocommons.com/overlays/5800.json","extent":[-155.434,19.5896,-69.0083,62.8903],"geometry_types":["point"],"unique_name":null,"name":"Asian Population 2006","feature_count":51,"description":"","next_feature":null,"is_raster":false,"short_classification":"Y","stats":{"asian":{"max":4896851,"mean":287384.470588235,"variance":503818714894.454,"stdev":709801.884256765,"min":5057,"median":87792},"lat":{"max":62.890301,"mean":39.472806745098,"variance":39.9527220975457,"stdev":6.32081656888931,"min":19.58964,"median":39.499611},"long":{"max":-69.008301,"mean":-93.3492807254902,"variance":358.24313484376,"stdev":18.927311875799,"min":-155.434036,"median":-89.876381}},"features":[{"properties":{"asian":40837,"id":"a63grsjluy2j","lat":62.890301,"state":"AK","long":-149.054077},"type":"Feature","geometry":{"type":"Point","coordinates":[-149.054077,62.890301]}},{"properties":{"asian":54032,"id":"a63grsl6ai0q","lat":32.614471,"state":"AL","long":-86.68074},"type":"Feature","geometry":{"type":"Point","coordinates":[-86.68074,32.614471]}},{"properties":{"asian":33322,"id":"a63grsd5cs39","lat":34.751888,"state":"AR","long":-92.131348},"type":"Feature","geometry":{"type":"Point","coordinates":[-92.131348,34.751888]}},{"properties":{"asian":178062,"id":"a63grs93nmqh","lat":34.168091,"state":"AZ","long":-111.930344},"type":"Feature","geometry":{"type":"Point","coordinates":[-111.930344,34.168091]}},{"properties":{"asian":4896851,"id":"a63grsovwuml","lat":37.271832,"state":"CA","long":-119.270203},"type":"Feature","geometry":{"type":"Point","coordinates":[-119.270203,37.271832]}},{"properties":{"asian":160566,"id":"a63grsn3uy3i","lat":38.997841,"state":"CO","long":-105.550911},"type":"Feature","geometry":{"type":"Point","coordinates":[-105.550911,38.997841]}},{"properties":{"asian":129057,"id":"a63grsjvo0yk","lat":41.515572,"state":"CT","long":-72.757477},"type":"Feature","geometry":{"type":"Point","coordinates":[-72.757477,41.515572]}},{"properties":{"asian":20962,"id":"a63grsifssq9","lat":38.89037,"state":"DC","long":-77.031959},"type":"Feature","geometry":{"type":"Point","coordinates":[-77.031959,38.89037]}},{"properties":{"asian":26988,"id":"a63grsbhsapc","lat":39.145199,"state":"DE","long":-75.41861},"type":"Feature","geometry":{"type":"Point","coordinates":[-75.41861,39.145199]}},{"properties":{"asian":460641,"id":"a63grsmbwjlb","lat":27.975639,"state":"FL","long":-81.541183},"type":"Feature","geometry":{"type":"Point","coordinates":[-81.541183,27.975639]}},{"properties":{"asian":282219,"id":"a63grso3p8pe","lat":32.678131,"state":"GA","long":-83.222931},"type":"Feature","geometry":{"type":"Point","coordinates":[-83.222931,32.678131]}},{"properties":{"asian":725436,"id":"a63grskcsta8","lat":19.58964,"state":"HI","long":-155.434036},"type":"Feature","geometry":{"type":"Point","coordinates":[-155.434036,19.58964]}},{"properties":{"asian":51992,"id":"a63grsl4ovds","lat":41.938221,"state":"IA","long":-93.3899},"type":"Feature","geometry":{"type":"Point","coordinates":[-93.3899,41.938221]}},{"properties":{"asian":22114,"id":"a63grsn3f920","lat":45.494419,"state":"ID","long":-114.143219},"type":"Feature","geometry":{"type":"Point","coordinates":[-114.143219,45.494419]}},{"properties":{"asian":583538,"id":"a63grsn4y9bc","lat":39.739281,"state":"IL","long":-89.504128},"type":"Feature","geometry":{"type":"Point","coordinates":[-89.504128,39.739281]}},{"properties":{"asian":93568,"id":"a63grshxft4w","lat":39.766201,"state":"IN","long":-86.441254},"type":"Feature","geometry":{"type":"Point","coordinates":[-86.441254,39.766201]}},{"properties":{"asian":70708,"id":"a63grsccd2bk","lat":38.498058,"state":"KS","long":-98.320213},"type":"Feature","geometry":{"type":"Point","coordinates":[-98.320213,38.498058]}},{"properties":{"asian":46219,"id":"a63grsaz698y","lat":37.822399,"state":"KY","long":-85.691101},"type":"Feature","geometry":{"type":"Point","coordinates":[-85.691101,37.822399]}},{"properties":{"asian":64820,"id":"a63grskl0tim","lat":31.244823,"state":"LA","long":-92.145024},"type":"Feature","geometry":{"type":"Point","coordinates":[-92.145024,31.244823]}},{"properties":{"asian":334954,"id":"a63grslnvs2v","lat":42.163891,"state":"MA","long":-71.717941},"type":"Feature","geometry":{"type":"Point","coordinates":[-71.717941,42.163891]}},{"properties":{"asian":305024,"id":"a63grsjtavb2","lat":38.823399,"state":"MD","long":-75.923759},"type":"Feature","geometry":{"type":"Point","coordinates":[-75.923759,38.823399]}},{"properties":{"asian":15058,"id":"a63grshrqfau","lat":45.262379,"state":"ME","long":-69.008301},"type":"Feature","geometry":{"type":"Point","coordinates":[-69.008301,45.262379]}},{"properties":{"asian":267794,"id":"a63grsjwww7f","lat":43.742691,"state":"MI","long":-84.62162},"type":"Feature","geometry":{"type":"Point","coordinates":[-84.62162,43.742691]}},{"properties":{"asian":198642,"id":"a63grsa00j46","lat":46.441929,"state":"MN","long":-93.365471},"type":"Feature","geometry":{"type":"Point","coordinates":[-93.365471,46.441929]}},{"properties":{"asian":98997,"id":"a63grsnn0tmi","lat":38.304611,"state":"MO","long":-92.436653},"type":"Feature","geometry":{"type":"Point","coordinates":[-92.436653,38.304611]}},{"properties":{"asian":24425,"id":"a63grsanujbz","lat":32.585159,"state":"MS","long":-89.876381},"type":"Feature","geometry":{"type":"Point","coordinates":[-89.876381,32.585159]}},{"properties":{"asian":7537,"id":"a63grsp5gopn","lat":46.67944,"state":"MT","long":-110.044472},"type":"Feature","geometry":{"type":"Point","coordinates":[-110.044472,46.67944]}},{"properties":{"asian":183804,"id":"a63grseqxkmn","lat":35.21941,"state":"NC","long":-80.018333},"type":"Feature","geometry":{"type":"Point","coordinates":[-80.018333,35.21941]}},{"properties":{"asian":6493,"id":"a63grsfnzu2d","lat":47.467731,"state":"ND","long":-100.301712},"type":"Feature","geometry":{"type":"Point","coordinates":[-100.301712,47.467731]}},{"properties":{"asian":34204,"id":"a63grscd4rlh","lat":41.500839,"state":"NE","long":-99.680771},"type":"Feature","geometry":{"type":"Point","coordinates":[-99.680771,41.500839]}},{"properties":{"asian":28779,"id":"a63grshv7o81","lat":44.001301,"state":"NH","long":-71.632828},"type":"Feature","geometry":{"type":"Point","coordinates":[-71.632828,44.001301]}},{"properties":{"asian":685013,"id":"a63grsbrvha8","lat":40.14278,"state":"NJ","long":-74.726723},"type":"Feature","geometry":{"type":"Point","coordinates":[-74.726723,40.14278]}},{"properties":{"asian":32243,"id":"a63grs9rc89u","lat":34.166161,"state":"NM","long":-106.026123},"type":"Feature","geometry":{"type":"Point","coordinates":[-106.026123,34.166161]}},{"properties":{"asian":177162,"id":"a63grsfoazw5","lat":38.50246,"state":"NV","long":-117.02272},"type":"Feature","geometry":{"type":"Point","coordinates":[-117.02272,38.50246]}},{"properties":{"asian":1391510,"id":"a63grsk0y42b","lat":40.71455,"state":"NY","long":-74.007124},"type":"Feature","geometry":{"type":"Point","coordinates":[-74.007124,40.71455]}},{"properties":{"asian":202066,"id":"a63grscvm4j4","lat":40.190269,"state":"OH","long":-82.669403},"type":"Feature","geometry":{"type":"Point","coordinates":[-82.669403,40.190269]}},{"properties":{"asian":73643,"id":"a63grskofuxm","lat":35.30896,"state":"OK","long":-98.716942},"type":"Feature","geometry":{"type":"Point","coordinates":[-98.716942,35.30896]}},{"properties":{"asian":164332,"id":"a63grsp0yykw","lat":44.114552,"state":"OR","long":-120.514908},"type":"Feature","geometry":{"type":"Point","coordinates":[-120.514908,44.114552]}},{"properties":{"asian":317686,"id":"a63grsoxtjb7","lat":40.99464,"state":"PA","long":-77.604507},"type":"Feature","geometry":{"type":"Point","coordinates":[-77.604507,40.99464]}},{"properties":{"asian":32524,"id":"a63grs9ke9eh","lat":41.661171,"state":"RI","long":-71.555771},"type":"Feature","geometry":{"type":"Point","coordinates":[-71.555771,41.661171]}},{"properties":{"asian":56723,"id":"a63grscen4ij","lat":33.624981,"state":"SC","long":-80.947441},"type":"Feature","geometry":{"type":"Point","coordinates":[-80.947441,33.624981]}},{"properties":{"asian":8542,"id":"a63grsivguyr","lat":44.212391,"state":"SD","long":-100.247101},"type":"Feature","geometry":{"type":"Point","coordinates":[-100.247101,44.212391]}},{"properties":{"asian":87792,"id":"a63grsltx40w","lat":35.83062,"state":"TN","long":-85.978554},"type":"Feature","geometry":{"type":"Point","coordinates":[-85.978554,35.83062]}},{"properties":{"asian":859588,"id":"a63grslya5fp","lat":31.168989,"state":"TX","long":-100.07679},"type":"Feature","geometry":{"type":"Point","coordinates":[-100.07679,31.168989]}},{"properties":{"asian":63778,"id":"a63grsn85zpm","lat":39.499611,"state":"UT","long":-111.54705},"type":"Feature","geometry":{"type":"Point","coordinates":[-111.54705,39.499611]}},{"properties":{"asian":409035,"id":"a63grslpsqil","lat":38.003349,"state":"VA","long":-79.771446},"type":"Feature","geometry":{"type":"Point","coordinates":[-79.771446,38.003349]}},{"properties":{"asian":7278,"id":"a63grsb6s6el","lat":43.871769,"state":"VT","long":-72.451218},"type":"Feature","geometry":{"type":"Point","coordinates":[-72.451218,43.871769]}},{"properties":{"asian":497782,"id":"a63grsacnkpo","lat":47.273071,"state":"WA","long":-120.8246},"type":"Feature","geometry":{"type":"Point","coordinates":[-120.8246,47.273071]}},{"properties":{"asian":124714,"id":"a63grsa4opuw","lat":44.727242,"state":"WI","long":-90.101562},"type":"Feature","geometry":{"type":"Point","coordinates":[-90.101562,44.727242]}},{"properties":{"asian":12497,"id":"a63grsm6fy0i","lat":38.920101,"state":"WV","long":-80.181808},"type":"Feature","geometry":{"type":"Point","coordinates":[-80.181808,38.920101]}},{"properties":{"asian":5057,"id":"a63grsh5i44s","lat":43.00032,"state":"WY","long":-107.554626},"type":"Feature","geometry":{"type":"Point","coordinates":[-107.554626,43.00032]}}],"is_temporal":false,"author":{"url":"","metadata":"","contact_name":"","contact_address":"","source":"","contact_phone":""},"source":"","pagination":{"sort":null,"start":0,"total":51,"limit":1000000},"state":"complete","tags":"","published":"2014-08-11T06:28:32-04:00","id":5800}