{"type":"FeatureCollection","data_type":"Dataset","url_type":null,"permissions":[{"permissions":{"download":true,"view":true},"group_id":"everyone"}],"classification":null,"title":"WR Itunes Geo 3.10 pt 1","count":959,"stream_id":58419,"contributor":{"url":"http://geocommons.com/users/14689","name":"riley"},"data_attributes":null,"calculation_params":null,"icon_link":null,"link":"http://geocommons.com/overlays/58419.json","extent":[-168.022,20.8581,-70.2892,59.3278],"geometry_types":["point"],"unique_name":null,"name":"WR Itunes Geo 3.10 pt 1","feature_count":959,"description":"","next_feature":null,"is_raster":false,"short_classification":"Y","stats":{"geo_score":{"max":1.0,"mean":0.92424400417101,"variance":0.00363492787372026,"stdev":0.0602903630252817,"min":0.753,"median":0.893}},"features":[{"properties":{"city":"ABBOTT","zip":"76621","geo_score":0.857,"id":"a6806xk01hnx","geo_precision":"zip","state":"TX"},"type":"Feature","geometry":{"type":"Point","coordinates":[-97.160562,31.869604]}},{"properties":{"city":"ABILENE","zip":"79605","geo_score":0.898,"id":"a6806xk93mhd","geo_precision":"zip","state":"TX"},"type":"Feature","geometry":{"type":"Point","coordinates":[-99.775367,32.372905]}},{"properties":{"city":"ACWORTH","zip":"30102","geo_score":1.0,"id":"a6806xcqoi43","geo_precision":"zip","state":"GA"},"type":"Feature","geometry":{"type":"Point","coordinates":[-84.589406,34.07068]}},{"properties":{"city":"ADA","zip":"74820","geo_score":0.881,"id":"a6806x4g45cy","geo_precision":"zip","state":"OK"},"type":"Feature","geometry":{"type":"Point","coordinates":[-96.871961,34.763974]}},{"properties":{"city":"AKRON","zip":"44319","geo_score":0.869,"id":"a6806xi9pk9v","geo_precision":"zip","state":"OH"},"type":"Feature","geometry":{"type":"Point","coordinates":[-81.527062,41.007278]}},{"properties":{"city":"AKRON","zip":"44319","geo_score":0.869,"id":"a6806xf8jjxb","geo_precision":"zip","state":"OH"},"type":"Feature","geometry":{"type":"Point","coordinates":[-81.527062,41.007278]}},{"properties":{"city":"AKRON","zip":"44314","geo_score":0.878,"id":"a6806xgo90yx","geo_precision":"zip","state":"OH"},"type":"Feature","geometry":{"type":"Point","coordinates":[-81.560675,41.044778]}},{"properties":{"city":"AKRON","zip":"44319","geo_score":0.869,"id":"a6806xi896dq","geo_precision":"zip","state":"OH"},"type":"Feature","geometry":{"type":"Point","coordinates":[-81.527062,41.007278]}},{"properties":{"city":"ALBUQUERQUE","zip":"87116","geo_score":1.0,"id":"a6806xbm9h92","geo_precision":"zip","state":"NM"},"type":"Feature","geometry":{"type":"Point","coordinates":[-106.561576,35.054355]}},{"properties":{"city":"ALEDO","zip":"76008","geo_score":0.898,"id":"a6806xb00l5a","geo_precision":"zip","state":"TX"},"type":"Feature","geometry":{"type":"Point","coordinates":[-97.676138,32.709297]}},{"properties":{"city":"ALEXANDRIA","zip":"41001","geo_score":0.871,"id":"a6806x6xcv21","geo_precision":"zip","state":"KY"},"type":"Feature","geometry":{"type":"Point","coordinates":[-84.397716,38.860344]}},{"properties":{"city":"ALGONQUIN","zip":"60102","geo_score":0.896,"id":"a6806xcvv9ne","geo_precision":"zip","state":"IL"},"type":"Feature","geometry":{"type":"Point","coordinates":[-88.260638,42.188913]}},{"properties":{"city":"ALGONQUIN","zip":"60102","geo_score":0.896,"id":"a6806xczltkz","geo_precision":"zip","state":"IL"},"type":"Feature","geometry":{"type":"Point","coordinates":[-88.260638,42.188913]}},{"properties":{"city":"ALLEN","zip":"75002","geo_score":0.905,"id":"a6806xfu175e","geo_precision":"zip","state":"TX"},"type":"Feature","geometry":{"type":"Point","coordinates":[-96.621938,33.055398]}},{"properties":{"city":"ALMA","zip":"48801","geo_score":1.0,"id":"a6806xf7it06","geo_precision":"zip","state":"MI"},"type":"Feature","geometry":{"type":"Point","coordinates":[-84.63017,43.298805]}},{"properties":{"city":"ALMO","zip":"42020","geo_score":0.869,"id":"a6806xivzn5l","geo_precision":"zip","state":"KY"},"type":"Feature","geometry":{"type":"Point","coordinates":[-88.29337,36.713944]}},{"properties":{"city":"ALMO","zip":"42020","geo_score":0.869,"id":"a6806xcjqj4i","geo_precision":"zip","state":"KY"},"type":"Feature","geometry":{"type":"Point","coordinates":[-88.29337,36.713944]}},{"properties":{"city":"ALMO","zip":"42020","geo_score":0.869,"id":"a6806x9lv2u2","geo_precision":"zip","state":"KY"},"type":"Feature","geometry":{"type":"Point","coordinates":[-88.29337,36.713944]}},{"properties":{"city":"ALPHARETTA","zip":"30004","geo_score":1.0,"id":"a6806xfvbpcf","geo_precision":"zip","state":"GA"},"type":"Feature","geometry":{"type":"Point","coordinates":[-84.30205,34.112373]}},{"properties":{"city":"AMARILLO","zip":"79109","geo_score":0.857,"id":"a6806xcb0n70","geo_precision":"zip","state":"TX"},"type":"Feature","geometry":{"type":"Point","coordinates":[-101.70657,35.196164]}},{"properties":{"city":"ANDERSON","zip":"29624","geo_score":1.0,"id":"a6806x5xuopo","geo_precision":"zip","state":"SC"},"type":"Feature","geometry":{"type":"Point","coordinates":[-82.708334,34.51236]}},{"properties":{"city":"ANDOVER","zip":"1810","geo_score":0.948,"id":"a6806x6jlfgh","geo_precision":"zip","state":"MA"},"type":"Feature","geometry":{"type":"Point","coordinates":[-71.158391,42.661203]}},{"properties":{"city":"APOPKA","zip":"32703","geo_score":0.935,"id":"a6806x93od0m","geo_precision":"zip","state":"FL"},"type":"Feature","geometry":{"type":"Point","coordinates":[-81.509517,28.661943]}},{"properties":{"city":"ARLINGTON","zip":"76018","geo_score":1.0,"id":"a6806xdgwck7","geo_precision":"zip","state":"TX"},"type":"Feature","geometry":{"type":"Point","coordinates":[-97.291484,32.771419]}},{"properties":{"city":"ARLINGTON","zip":"22205","geo_score":1.0,"id":"a6806xa8vd6b","geo_precision":"zip","state":"VA"},"type":"Feature","geometry":{"type":"Point","coordinates":[-77.140021,38.875811]}},{"properties":{"city":"ARLINGTON","zip":"22207","geo_score":1.0,"id":"a6806xk84ape","geo_precision":"zip","state":"VA"},"type":"Feature","geometry":{"type":"Point","coordinates":[-77.122344,38.907416]}},{"properties":{"city":"ARVADA","zip":"80007","geo_score":1.0,"id":"a6806x5p7nv4","geo_precision":"zip","state":"CO"},"type":"Feature","geometry":{"type":"Point","coordinates":[-105.172429,39.863369]}},{"properties":{"city":"ASHEBORO","zip":"27203","geo_score":0.857,"id":"a6806x4fx4t9","geo_precision":"zip","state":"NC"},"type":"Feature","geometry":{"type":"Point","coordinates":[-79.826702,35.635415]}},{"properties":{"city":"ASHLAND","zip":"44805","geo_score":0.857,"id":"a6806xbv4n8g","geo_precision":"zip","state":"OH"},"type":"Feature","geometry":{"type":"Point","coordinates":[-82.31655,40.749502]}},{"properties":{"city":"ASHLAND","zip":"54806","geo_score":0.878,"id":"a6806xkcfuez","geo_precision":"zip","state":"WI"},"type":"Feature","geometry":{"type":"Point","coordinates":[-90.9088,46.433004]}},{"properties":{"city":"ASHLAND CITY","zip":"37015","geo_score":0.87,"id":"a6806x6naind","geo_precision":"zip","state":"TN"},"type":"Feature","geometry":{"type":"Point","coordinates":[-87.133615,36.413939]}},{"properties":{"city":"ATHENS","zip":"35613","geo_score":1.0,"id":"a6806x5aaozq","geo_precision":"zip","state":"AL"},"type":"Feature","geometry":{"type":"Point","coordinates":[-86.886679,34.831704]}},{"properties":{"city":"ATLANTA","zip":"30328","geo_score":0.881,"id":"a6806xfpwsqy","geo_precision":"zip","state":"GA"},"type":"Feature","geometry":{"type":"Point","coordinates":[-84.378538,33.924269]}},{"properties":{"city":"AUBURN","zip":"46706","geo_score":0.918,"id":"a6806xe8t67w","geo_precision":"zip","state":"IN"},"type":"Feature","geometry":{"type":"Point","coordinates":[-85.074691,41.351994]}},{"properties":{"city":"AUBURN","zip":"95602","geo_score":1.0,"id":"a6806xjahdqo","geo_precision":"zip","state":"CA"},"type":"Feature","geometry":{"type":"Point","coordinates":[-121.07047,39.014933]}},{"properties":{"city":"AUGUSTA","zip":"30907","geo_score":0.873,"id":"a6806x7aee72","geo_precision":"zip","state":"GA"},"type":"Feature","geometry":{"type":"Point","coordinates":[-82.068729,33.509025]}},{"properties":{"city":"AURORA","zip":"80013","geo_score":1.0,"id":"a6806x9dygwx","geo_precision":"zip","state":"CO"},"type":"Feature","geometry":{"type":"Point","coordinates":[-104.76275,39.660654]}},{"properties":{"city":"AUSTIN","zip":"78736","geo_score":1.0,"id":"a6806xjl9zn5","geo_precision":"zip","state":"TX"},"type":"Feature","geometry":{"type":"Point","coordinates":[-97.973888,30.272424]}},{"properties":{"city":"AUSTIN","zip":"78749","geo_score":1.0,"id":"a6806x73nii8","geo_precision":"zip","state":"TX"},"type":"Feature","geometry":{"type":"Point","coordinates":[-97.857187,30.207969]}},{"properties":{"city":"AUSTIN","zip":"78746","geo_score":0.89,"id":"a6806xejzf9o","geo_precision":"zip","state":"TX"},"type":"Feature","geometry":{"type":"Point","coordinates":[-97.801952,30.297984]}},{"properties":{"city":"AUSTIN","zip":"78749","geo_score":1.0,"id":"a6806x9mqaqi","geo_precision":"zip","state":"TX"},"type":"Feature","geometry":{"type":"Point","coordinates":[-97.857187,30.207969]}},{"properties":{"city":"AUSTIN","zip":"78727","geo_score":1.0,"id":"a6806xf9gwnh","geo_precision":"zip","state":"TX"},"type":"Feature","geometry":{"type":"Point","coordinates":[-97.719678,30.427402]}},{"properties":{"city":"AUSTIN","zip":"78746","geo_score":0.89,"id":"a6806xdbi0ko","geo_precision":"zip","state":"TX"},"type":"Feature","geometry":{"type":"Point","coordinates":[-97.801952,30.297984]}},{"properties":{"city":"AUSTIN","zip":"78705","geo_score":1.0,"id":"a6806x9qhifk","geo_precision":"zip","state":"TX"},"type":"Feature","geometry":{"type":"Point","coordinates":[-97.736932,30.293057]}},{"properties":{"city":"AUSTIN","zip":"78750","geo_score":1.0,"id":"a6806xiyf3gw","geo_precision":"zip","state":"TX"},"type":"Feature","geometry":{"type":"Point","coordinates":[-97.8155,30.406729]}},{"properties":{"city":"AUSTIN","zip":"78753","geo_score":0.881,"id":"a6806xcaqfbv","geo_precision":"zip","state":"TX"},"type":"Feature","geometry":{"type":"Point","coordinates":[-97.671672,30.382982]}},{"properties":{"city":"AVELLA","zip":"15312","geo_score":0.881,"id":"a6806xku2q9x","geo_precision":"zip","state":"PA"},"type":"Feature","geometry":{"type":"Point","coordinates":[-80.446733,40.303681]}},{"properties":{"city":"AVON","zip":"46123","geo_score":1.0,"id":"a6806xhwq65a","geo_precision":"zip","state":"IN"},"type":"Feature","geometry":{"type":"Point","coordinates":[-86.488881,39.721434]}},{"properties":{"city":"AVON","zip":"46123","geo_score":1.0,"id":"a6806xhqs9bt","geo_precision":"zip","state":"IN"},"type":"Feature","geometry":{"type":"Point","coordinates":[-86.488881,39.721434]}},{"properties":{"city":"BAKERSFIELD","zip":"93309","geo_score":1.0,"id":"a6806xgz39vp","geo_precision":"zip","state":"CA"},"type":"Feature","geometry":{"type":"Point","coordinates":[-118.905173,35.294405]}},{"properties":{"city":"BAKERSFIELD","zip":"93308","geo_score":0.87,"id":"a6806xcpb263","geo_precision":"zip","state":"CA"},"type":"Feature","geometry":{"type":"Point","coordinates":[-119.083159,35.383292]}},{"properties":{"city":"BALLSTON LAKE","zip":"12019","geo_score":0.888,"id":"a6806xbh9vah","geo_precision":"zip","state":"NY"},"type":"Feature","geometry":{"type":"Point","coordinates":[-73.938458,42.903132]}},{"properties":{"city":"BALTIMORE","zip":"21230","geo_score":0.905,"id":"a6806xa0a68i","geo_precision":"zip","state":"MD"},"type":"Feature","geometry":{"type":"Point","coordinates":[-76.635523,39.262052]}},{"properties":{"city":"BARDSTOWN","zip":"40004","geo_score":0.905,"id":"a6806xj8kbr1","geo_precision":"zip","state":"KY"},"type":"Feature","geometry":{"type":"Point","coordinates":[-85.365236,37.813117]}},{"properties":{"city":"BARRINGTON","zip":"60010","geo_score":0.857,"id":"a6806xkjowx4","geo_precision":"zip","state":"IL"},"type":"Feature","geometry":{"type":"Point","coordinates":[-88.152025,42.231968]}},{"properties":{"city":"BATON ROUGE","zip":"70820","geo_score":1.0,"id":"a6806x8at7dm","geo_precision":"zip","state":"LA"},"type":"Feature","geometry":{"type":"Point","coordinates":[-91.176156,30.373042]}},{"properties":{"city":"BATON ROUGE","zip":"70818","geo_score":1.0,"id":"a6806xirax56","geo_precision":"zip","state":"LA"},"type":"Feature","geometry":{"type":"Point","coordinates":[-91.037528,30.4731]}},{"properties":{"city":"BATON ROUGE","zip":"70808","geo_score":0.897,"id":"a6806xgxgwvr","geo_precision":"zip","state":"LA"},"type":"Feature","geometry":{"type":"Point","coordinates":[-91.067326,30.362137]}},{"properties":{"city":"BATON ROUGE","zip":"70820","geo_score":1.0,"id":"a6806xa9bwj8","geo_precision":"zip","state":"LA"},"type":"Feature","geometry":{"type":"Point","coordinates":[-91.176156,30.373042]}},{"properties":{"city":"BATON ROUGE","zip":"70818","geo_score":1.0,"id":"a6806x535uka","geo_precision":"zip","state":"LA"},"type":"Feature","geometry":{"type":"Point","coordinates":[-91.037528,30.4731]}},{"properties":{"city":"BATTLE GROUND","zip":"98604","geo_score":0.869,"id":"a6806x9xpvrn","geo_precision":"zip","state":"WA"},"type":"Feature","geometry":{"type":"Point","coordinates":[-122.42454,45.773727]}},{"properties":{"city":"BAY VILLAGE","zip":"44140","geo_score":1.0,"id":"a6806xfrbc3t","geo_precision":"zip","state":"OH"},"type":"Feature","geometry":{"type":"Point","coordinates":[-81.921513,41.490967]}},{"properties":{"city":"BEAUMONT","zip":"92223","geo_score":0.869,"id":"a6806xdtx3ug","geo_precision":"zip","state":"CA"},"type":"Feature","geometry":{"type":"Point","coordinates":[-116.977248,33.972515]}},{"properties":{"city":"BEAVERTON","zip":"97007","geo_score":0.873,"id":"a6806x68xzgk","geo_precision":"zip","state":"OR"},"type":"Feature","geometry":{"type":"Point","coordinates":[-122.867045,45.494284]}},{"properties":{"city":"BEDFORD","zip":"3110","geo_score":1.0,"id":"a6806xhotfll","geo_precision":"zip","state":"NH"},"type":"Feature","geometry":{"type":"Point","coordinates":[-71.535515,42.93743]}},{"properties":{"city":"BEECH GROVE","zip":"42322","geo_score":1.0,"id":"a6806xbk5i01","geo_precision":"zip","state":"KY"},"type":"Feature","geometry":{"type":"Point","coordinates":[-87.406866,37.615062]}},{"properties":{"city":"BEL AIR","zip":"21014","geo_score":0.884,"id":"a6806x9jybmr","geo_precision":"zip","state":"MD"},"type":"Feature","geometry":{"type":"Point","coordinates":[-76.339404,39.520941]}},{"properties":{"city":"BELLEVUE","zip":"68005","geo_score":1.0,"id":"a6806xcbm7h0","geo_precision":"zip","state":"NE"},"type":"Feature","geometry":{"type":"Point","coordinates":[-95.903956,41.132948]}},{"properties":{"city":"BELLEVUE","zip":"68005","geo_score":1.0,"id":"a6806x82h1xp","geo_precision":"zip","state":"NE"},"type":"Feature","geometry":{"type":"Point","coordinates":[-95.903956,41.132948]}},{"properties":{"city":"BELOIT","zip":"53511","geo_score":0.881,"id":"a6806xa88jis","geo_precision":"zip","state":"WI"},"type":"Feature","geometry":{"type":"Point","coordinates":[-89.227614,42.542234]}},{"properties":{"city":"BELTON","zip":"76513","geo_score":0.889,"id":"a6806xa4vlvo","geo_precision":"zip","state":"TX"},"type":"Feature","geometry":{"type":"Point","coordinates":[-97.516401,31.115177]}},{"properties":{"city":"BENTON","zip":"72019","geo_score":0.873,"id":"a6806x8vueze","geo_precision":"zip","state":"AR"},"type":"Feature","geometry":{"type":"Point","coordinates":[-92.841278,35.222305]}},{"properties":{"city":"BENTON","zip":"72015","geo_score":0.857,"id":"a6806xhull0h","geo_precision":"zip","state":"AR"},"type":"Feature","geometry":{"type":"Point","coordinates":[-92.576272,34.447872]}},{"properties":{"city":"BETHPAGE","zip":"11714","geo_score":1.0,"id":"a6806xgk11a8","geo_precision":"zip","state":"NY"},"type":"Feature","geometry":{"type":"Point","coordinates":[-73.495369,40.728449]}},{"properties":{"city":"BETTENDORF","zip":"52722","geo_score":0.886,"id":"a6806xdkebxd","geo_precision":"zip","state":"IA"},"type":"Feature","geometry":{"type":"Point","coordinates":[-90.458188,41.544478]}},{"properties":{"city":"BIGLERVILLE","zip":"17307","geo_score":0.896,"id":"a6806xjjrxlu","geo_precision":"zip","state":"PA"},"type":"Feature","geometry":{"type":"Point","coordinates":[-77.221372,39.913428]}},{"properties":{"city":"BILLERICA","zip":"1821","geo_score":0.9,"id":"a6806xh4f38r","geo_precision":"zip","state":"MA"},"type":"Feature","geometry":{"type":"Point","coordinates":[-71.288392,42.563982]}},{"properties":{"city":"BINGHAMTON","zip":"13903","geo_score":0.857,"id":"a6806x9mjylb","geo_precision":"zip","state":"NY"},"type":"Feature","geometry":{"type":"Point","coordinates":[-75.912973,42.069798]}},{"properties":{"city":"BIRMINGHAM","zip":"35210","geo_score":0.871,"id":"a6806xc4cf31","geo_precision":"zip","state":"AL"},"type":"Feature","geometry":{"type":"Point","coordinates":[-86.70471,33.549549]}},{"properties":{"city":"BIRMINGHAM","zip":"35216","geo_score":0.893,"id":"a6806x8o1jyp","geo_precision":"zip","state":"AL"},"type":"Feature","geometry":{"type":"Point","coordinates":[-86.798045,33.394276]}},{"properties":{"city":"BIRMINGHAM","zip":"35213","geo_score":0.893,"id":"a6806xgsxdpz","geo_precision":"zip","state":"AL"},"type":"Feature","geometry":{"type":"Point","coordinates":[-86.752766,33.506772]}},{"properties":{"city":"BIRMINGHAM","zip":"35215","geo_score":0.876,"id":"a6806xi29p7d","geo_precision":"zip","state":"AL"},"type":"Feature","geometry":{"type":"Point","coordinates":[-86.682211,33.65788]}},{"properties":{"city":"BIRMINGHAM","zip":"35242","geo_score":1.0,"id":"a6806xcixj13","geo_precision":"zip","state":"AL"},"type":"Feature","geometry":{"type":"Point","coordinates":[-86.704571,33.381339]}},{"properties":{"city":"BISMARCK","zip":"58503","geo_score":1.0,"id":"a6806xjsk7tq","geo_precision":"zip","state":"ND"},"type":"Feature","geometry":{"type":"Point","coordinates":[-100.769066,46.810594]}},{"properties":{"city":"BIXBY","zip":"74008","geo_score":1.0,"id":"a6806xj9pq9f","geo_precision":"zip","state":"OK"},"type":"Feature","geometry":{"type":"Point","coordinates":[-95.877617,35.93345]}},{"properties":{"city":"BLAIR","zip":"68008","geo_score":0.857,"id":"a6806xbjk06n","geo_precision":"zip","state":"NE"},"type":"Feature","geometry":{"type":"Point","coordinates":[-96.270575,41.545828]}},{"properties":{"city":"BLOOMFIELD HILLS","zip":"48302","geo_score":1.0,"id":"a6806xigc3m0","geo_precision":"zip","state":"MI"},"type":"Feature","geometry":{"type":"Point","coordinates":[-83.282116,42.584789]}},{"properties":{"city":"BLOOMINGBURG","zip":"43106","geo_score":0.857,"id":"a6806x734onc","geo_precision":"zip","state":"OH"},"type":"Feature","geometry":{"type":"Point","coordinates":[-83.449363,39.677839]}},{"properties":{"city":"BLOOMINGBURG","zip":"43106","geo_score":0.857,"id":"a6806xk2i0ds","geo_precision":"zip","state":"OH"},"type":"Feature","geometry":{"type":"Point","coordinates":[-83.449363,39.677839]}},{"properties":{"city":"BLUE SPRINGS","zip":"64015","geo_score":0.912,"id":"a6806xgb1aua","geo_precision":"zip","state":"MO"},"type":"Feature","geometry":{"type":"Point","coordinates":[-94.311616,39.021395]}},{"properties":{"city":"BOGALUSA","zip":"70427","geo_score":0.857,"id":"a6806xa65wp8","geo_precision":"zip","state":"LA"},"type":"Feature","geometry":{"type":"Point","coordinates":[-89.890074,30.692967]}},{"properties":{"city":"BOGART","zip":"30622","geo_score":1.0,"id":"a6806xkb3fe3","geo_precision":"zip","state":"GA"},"type":"Feature","geometry":{"type":"Point","coordinates":[-83.518452,33.901988]}},{"properties":{"city":"BOILING SPRINGS","zip":"29316","geo_score":1.0,"id":"a6806x4ww7wf","geo_precision":"zip","state":"SC"},"type":"Feature","geometry":{"type":"Point","coordinates":[-81.981773,35.046508]}},{"properties":{"city":"BOISE","zip":"83716","geo_score":1.0,"id":"a6806x64sm88","geo_precision":"zip","state":"ID"},"type":"Feature","geometry":{"type":"Point","coordinates":[-116.079142,43.441445]}},{"properties":{"city":"BOTHELL","zip":"98011","geo_score":0.891,"id":"a6806xkr9zdc","geo_precision":"zip","state":"WA"},"type":"Feature","geometry":{"type":"Point","coordinates":[-122.23167,47.720492]}},{"properties":{"city":"BOZEMAN","zip":"59715","geo_score":1.0,"id":"a6806x95ti6m","geo_precision":"zip","state":"MT"},"type":"Feature","geometry":{"type":"Point","coordinates":[-111.168212,45.809998]}},{"properties":{"city":"BREAUX BRIDGE","zip":"70517","geo_score":0.881,"id":"a6806xc0p7ns","geo_precision":"zip","state":"LA"},"type":"Feature","geometry":{"type":"Point","coordinates":[-91.881783,30.237977]}},{"properties":{"city":"BRENTWOOD","zip":"37024","geo_score":1.0,"id":"a6806xgfqfs0","geo_precision":"zip","state":"TN"},"type":"Feature","geometry":{"type":"Point","coordinates":[-86.907565,35.874553]}},{"properties":{"city":"BRENTWOOD","zip":"37027","geo_score":1.0,"id":"a6806xi97f6e","geo_precision":"zip","state":"TN"},"type":"Feature","geometry":{"type":"Point","coordinates":[-86.816058,35.982981]}},{"properties":{"city":"BRIDGEPORT","zip":"26330","geo_score":0.871,"id":"a6806xdnxi9e","geo_precision":"zip","state":"WV"},"type":"Feature","geometry":{"type":"Point","coordinates":[-80.271197,39.363977]}},{"properties":{"city":"BRIGHTON","zip":"48114","geo_score":1.0,"id":"a6806xgx3anh","geo_precision":"zip","state":"MI"},"type":"Feature","geometry":{"type":"Point","coordinates":[-83.877776,42.546402]}},{"properties":{"city":"BRIGHTON","zip":"48114","geo_score":1.0,"id":"a6806x5xjl2i","geo_precision":"zip","state":"MI"},"type":"Feature","geometry":{"type":"Point","coordinates":[-83.877776,42.546402]}},{"properties":{"city":"BRISTOL","zip":"53104","geo_score":1.0,"id":"a6806xdj0mjj","geo_precision":"zip","state":"WI"},"type":"Feature","geometry":{"type":"Point","coordinates":[-88.028986,42.553518]}},{"properties":{"city":"BRISTOL","zip":"37621","geo_score":1.0,"id":"a6806xjiwcvp","geo_precision":"zip","state":"TN"},"type":"Feature","geometry":{"type":"Point","coordinates":[-82.26446,36.504158]}},{"properties":{"city":"BRISTOL","zip":"5443","geo_score":0.896,"id":"a6806x8daenw","geo_precision":"zip","state":"VT"},"type":"Feature","geometry":{"type":"Point","coordinates":[-73.020118,44.118948]}},{"properties":{"city":"BRISTOW","zip":"20136","geo_score":1.0,"id":"a6806xkvo5fa","geo_precision":"zip","state":"VA"},"type":"Feature","geometry":{"type":"Point","coordinates":[-77.547383,38.734255]}},{"properties":{"city":"BRISTOW","zip":"74010","geo_score":0.857,"id":"a6806x54nutm","geo_precision":"zip","state":"OK"},"type":"Feature","geometry":{"type":"Point","coordinates":[-96.281114,35.653142]}},{"properties":{"city":"BROKEN ARROW","zip":"74012","geo_score":0.883,"id":"a6806xftftx5","geo_precision":"zip","state":"OK"},"type":"Feature","geometry":{"type":"Point","coordinates":[-95.864712,36.073708]}},{"properties":{"city":"BROKEN BOW","zip":"68822","geo_score":1.0,"id":"a6806x4i5ctw","geo_precision":"zip","state":"NE"},"type":"Feature","geometry":{"type":"Point","coordinates":[-99.621491,41.451119]}},{"properties":{"city":"BROOKELAND","zip":"75931","geo_score":0.914,"id":"a6806xc1elv5","geo_precision":"zip","state":"TX"},"type":"Feature","geometry":{"type":"Point","coordinates":[-93.962965,31.109082]}},{"properties":{"city":"BROOKINGS","zip":"57006","geo_score":1.0,"id":"a6806x61ld0v","geo_precision":"zip","state":"SD"},"type":"Feature","geometry":{"type":"Point","coordinates":[-96.762102,44.355091]}},{"properties":{"city":"BROOKLINE","zip":"65619","geo_score":1.0,"id":"a6806x7dwlub","geo_precision":"zip","state":"MO"},"type":"Feature","geometry":{"type":"Point","coordinates":[-93.420192,37.163384]}},{"properties":{"city":"BROWNSVILLE","zip":"38012","geo_score":0.87,"id":"a6806xjjk6x9","geo_precision":"zip","state":"TN"},"type":"Feature","geometry":{"type":"Point","coordinates":[-89.098954,35.564521]}},{"properties":{"city":"BUFFALO","zip":"55313","geo_score":0.878,"id":"a6806xdtm2s5","geo_precision":"zip","state":"MN"},"type":"Feature","geometry":{"type":"Point","coordinates":[-93.99192,45.152187]}},{"properties":{"city":"BUFFALO","zip":"14218","geo_score":0.871,"id":"a6806xilhibs","geo_precision":"zip","state":"NY"},"type":"Feature","geometry":{"type":"Point","coordinates":[-78.823366,42.825614]}},{"properties":{"city":"BUFORD","zip":"30518","geo_score":0.889,"id":"a6806xj2e60q","geo_precision":"zip","state":"GA"},"type":"Feature","geometry":{"type":"Point","coordinates":[-84.03352,34.10649]}},{"properties":{"city":"BURKE","zip":"22015","geo_score":0.857,"id":"a6806xfy52lq","geo_precision":"zip","state":"VA"},"type":"Feature","geometry":{"type":"Point","coordinates":[-77.24665,38.79428]}},{"properties":{"city":"BURLESON","zip":"76028","geo_score":0.893,"id":"a6806x8c1q7v","geo_precision":"zip","state":"TX"},"type":"Feature","geometry":{"type":"Point","coordinates":[-97.235569,32.55236]}},{"properties":{"city":"BURLINGTON","zip":"53105","geo_score":0.857,"id":"a6806x8fs4t6","geo_precision":"zip","state":"WI"},"type":"Feature","geometry":{"type":"Point","coordinates":[-88.208422,42.593907]}},{"properties":{"city":"BURLINGTON","zip":"1803","geo_score":1.0,"id":"a6806xjeg2i5","geo_precision":"zip","state":"MA"},"type":"Feature","geometry":{"type":"Point","coordinates":[-71.201539,42.504844]}},{"properties":{"city":"BURLINGTON","zip":"5401","geo_score":0.952,"id":"a6806xcda4f1","geo_precision":"zip","state":"VT"},"type":"Feature","geometry":{"type":"Point","coordinates":[-73.17096,44.466994]}},{"properties":{"city":"BURLINGTON","zip":"52601","geo_score":0.909,"id":"a6806xeq20mq","geo_precision":"zip","state":"IA"},"type":"Feature","geometry":{"type":"Point","coordinates":[-91.158202,40.739762]}},{"properties":{"city":"BURLINGTON","zip":"5401","geo_score":0.952,"id":"a6806xjsydsg","geo_precision":"zip","state":"VT"},"type":"Feature","geometry":{"type":"Point","coordinates":[-73.17096,44.466994]}},{"properties":{"city":"BURNSVILLE","zip":"28714","geo_score":0.871,"id":"a6806x9gqids","geo_precision":"zip","state":"NC"},"type":"Feature","geometry":{"type":"Point","coordinates":[-82.254848,35.91817]}},{"properties":{"city":"CABIN CREEK","zip":"25035","geo_score":0.886,"id":"a6806xkgg7bz","geo_precision":"zip","state":"WV"},"type":"Feature","geometry":{"type":"Point","coordinates":[-81.459283,38.207603]}},{"properties":{"city":"CALDWELL","zip":"83606","geo_score":1.0,"id":"a6806xa8d7vq","geo_precision":"zip","state":"ID"},"type":"Feature","geometry":{"type":"Point","coordinates":[-116.798923,43.724917]}},{"properties":{"city":"CALEDONIA","zip":"53108","geo_score":0.889,"id":"a6806x8s2wqq","geo_precision":"zip","state":"WI"},"type":"Feature","geometry":{"type":"Point","coordinates":[-88.008418,42.826684]}},{"properties":{"city":"CAMPBELLSPORT","zip":"53010","geo_score":0.879,"id":"a6806xe85llt","geo_precision":"zip","state":"WI"},"type":"Feature","geometry":{"type":"Point","coordinates":[-88.361488,43.543051]}},{"properties":{"city":"CANAAN","zip":"6018","geo_score":0.776,"id":"a6806xfxr60r","geo_precision":"zip","state":"CT"},"type":"Feature","geometry":{"type":"Point","coordinates":[-73.287059,42.043148]}},{"properties":{"city":"CANAL WINCHESTER","zip":"43110","geo_score":0.876,"id":"a6806x5q0q41","geo_precision":"zip","state":"OH"},"type":"Feature","geometry":{"type":"Point","coordinates":[-82.784895,39.839786]}},{"properties":{"city":"CANTON","zip":"44718","geo_score":1.0,"id":"a6806xcwyz66","geo_precision":"zip","state":"OH"},"type":"Feature","geometry":{"type":"Point","coordinates":[-81.440791,40.846532]}},{"properties":{"city":"CANTON","zip":"75103","geo_score":0.918,"id":"a6806xiwdbh4","geo_precision":"zip","state":"TX"},"type":"Feature","geometry":{"type":"Point","coordinates":[-95.995247,32.482639]}},{"properties":{"city":"CANYON","zip":"79015","geo_score":1.0,"id":"a6806xewmud7","geo_precision":"zip","state":"TX"},"type":"Feature","geometry":{"type":"Point","coordinates":[-101.91008,35.004998]}},{"properties":{"city":"CARBON HILL","zip":"35549","geo_score":0.88,"id":"a6806xksn615","geo_precision":"zip","state":"AL"},"type":"Feature","geometry":{"type":"Point","coordinates":[-87.587512,33.808442]}},{"properties":{"city":"CARLETON","zip":"48117","geo_score":1.0,"id":"a6806x6y31cx","geo_precision":"zip","state":"MI"},"type":"Feature","geometry":{"type":"Point","coordinates":[-83.428904,42.0413]}},{"properties":{"city":"CARLISLE","zip":"17013","geo_score":0.875,"id":"a6806xgn2awy","geo_precision":"zip","state":"PA"},"type":"Feature","geometry":{"type":"Point","coordinates":[-77.313317,40.203143]}},{"properties":{"city":"CARPINTERIA","zip":"93013","geo_score":0.883,"id":"a6806xj1wotd","geo_precision":"zip","state":"CA"},"type":"Feature","geometry":{"type":"Point","coordinates":[-119.572627,34.418606]}},{"properties":{"city":"CARTERSVILLE","zip":"30120","geo_score":0.881,"id":"a6806xebuy2r","geo_precision":"zip","state":"GA"},"type":"Feature","geometry":{"type":"Point","coordinates":[-84.915776,34.10482]}},{"properties":{"city":"CARTHAGE","zip":"62321","geo_score":0.857,"id":"a6806xenfn0v","geo_precision":"zip","state":"IL"},"type":"Feature","geometry":{"type":"Point","coordinates":[-91.000694,40.466432]}},{"properties":{"city":"CARUTHERSVILLE","zip":"63830","geo_score":0.878,"id":"a6806x95ymvc","geo_precision":"zip","state":"MO"},"type":"Feature","geometry":{"type":"Point","coordinates":[-89.698969,36.117848]}},{"properties":{"city":"CASTLE ROCK","zip":"80108","geo_score":0.9,"id":"a6806x53l8gi","geo_precision":"zip","state":"CO"},"type":"Feature","geometry":{"type":"Point","coordinates":[-104.773313,39.505205]}},{"properties":{"city":"CATONSVILLE","zip":"21228","geo_score":0.869,"id":"a6806xiv4d9n","geo_precision":"zip","state":"MD"},"type":"Feature","geometry":{"type":"Point","coordinates":[-76.738861,39.296773]}},{"properties":{"city":"CEDAR CITY","zip":"84720","geo_score":0.857,"id":"a6806x4nmibb","geo_precision":"zip","state":"UT"},"type":"Feature","geometry":{"type":"Point","coordinates":[-113.431632,38.007469]}},{"properties":{"city":"CEDAR FALLS","zip":"50613","geo_score":0.857,"id":"a6806xj7cad1","geo_precision":"zip","state":"IA"},"type":"Feature","geometry":{"type":"Point","coordinates":[-92.455743,42.554706]}},{"properties":{"city":"CEDAR HILL","zip":"75104","geo_score":1.0,"id":"a6806xbbaxf6","geo_precision":"zip","state":"TX"},"type":"Feature","geometry":{"type":"Point","coordinates":[-96.777626,32.767268]}},{"properties":{"city":"CHANDLER","zip":"85226","geo_score":1.0,"id":"a6806xbacufq","geo_precision":"zip","state":"AZ"},"type":"Feature","geometry":{"type":"Point","coordinates":[-111.932892,33.303777]}},{"properties":{"city":"CHANDLER","zip":"85225","geo_score":1.0,"id":"a6806xd8llbh","geo_precision":"zip","state":"AZ"},"type":"Feature","geometry":{"type":"Point","coordinates":[-111.824367,33.325991]}},{"properties":{"city":"CHAPMANVILLE","zip":"25508","geo_score":0.857,"id":"a6806xi2hqgl","geo_precision":"zip","state":"WV"},"type":"Feature","geometry":{"type":"Point","coordinates":[-82.021795,37.960656]}},{"properties":{"city":"CHARLESTON","zip":"25304","geo_score":1.0,"id":"a6806xgkvot1","geo_precision":"zip","state":"WV"},"type":"Feature","geometry":{"type":"Point","coordinates":[-81.595903,38.305728]}},{"properties":{"city":"CHARLESTON","zip":"29414","geo_score":1.0,"id":"a6806xaa3efn","geo_precision":"zip","state":"SC"},"type":"Feature","geometry":{"type":"Point","coordinates":[-80.025928,32.810035]}},{"properties":{"city":"CHARLOTTE","zip":"28214","geo_score":0.889,"id":"a6806x9yyo68","geo_precision":"zip","state":"NC"},"type":"Feature","geometry":{"type":"Point","coordinates":[-80.894795,35.301807]}},{"properties":{"city":"CHARLOTTE","zip":"28277","geo_score":1.0,"id":"a6806x900032","geo_precision":"zip","state":"NC"},"type":"Feature","geometry":{"type":"Point","coordinates":[-80.819488,35.055216]}},{"properties":{"city":"CHARLOTTE","zip":"28277","geo_score":1.0,"id":"a6806xh6fj2b","geo_precision":"zip","state":"NC"},"type":"Feature","geometry":{"type":"Point","coordinates":[-80.819488,35.055216]}},{"properties":{"city":"CHARLOTTE","zip":"28277","geo_score":1.0,"id":"a6806xgkh8hp","geo_precision":"zip","state":"NC"},"type":"Feature","geometry":{"type":"Point","coordinates":[-80.819488,35.055216]}},{"properties":{"city":"CHARLOTTESVILLE","zip":"22901","geo_score":0.867,"id":"a6806xbzbxta","geo_precision":"zip","state":"VA"},"type":"Feature","geometry":{"type":"Point","coordinates":[-78.466122,38.08597]}},{"properties":{"city":"CHATTANOOGA","zip":"37421","geo_score":0.857,"id":"a6806xcl2buy","geo_precision":"zip","state":"TN"},"type":"Feature","geometry":{"type":"Point","coordinates":[-85.149953,35.057574]}},{"properties":{"city":"CHATTANOOGA","zip":"37419","geo_score":1.0,"id":"a6806xddfpax","geo_precision":"zip","state":"TN"},"type":"Feature","geometry":{"type":"Point","coordinates":[-85.340522,35.050162]}},{"properties":{"city":"CHELMSFORD","zip":"1824","geo_score":0.871,"id":"a6806xeyfvmg","geo_precision":"zip","state":"MA"},"type":"Feature","geometry":{"type":"Point","coordinates":[-71.341172,42.615369]}},{"properties":{"city":"CHENOA","zip":"61726","geo_score":0.881,"id":"a6806xcn81qg","geo_precision":"zip","state":"IL"},"type":"Feature","geometry":{"type":"Point","coordinates":[-88.622005,40.747257]}},{"properties":{"city":"CHESTERFIELD","zip":"23838","geo_score":1.0,"id":"a6806xfdvx05","geo_precision":"zip","state":"VA"},"type":"Feature","geometry":{"type":"Point","coordinates":[-77.634265,37.333271]}},{"properties":{"city":"CHESTERFIELD","zip":"23838","geo_score":1.0,"id":"a6806xfnyhqn","geo_precision":"zip","state":"VA"},"type":"Feature","geometry":{"type":"Point","coordinates":[-77.634265,37.333271]}},{"properties":{"city":"CHICAGO","zip":"60660","geo_score":1.0,"id":"a6806xk0jr37","geo_precision":"zip","state":"IL"},"type":"Feature","geometry":{"type":"Point","coordinates":[-87.68732,41.811929]}},{"properties":{"city":"CHICAGO","zip":"60632","geo_score":0.857,"id":"a6806x67g4lg","geo_precision":"zip","state":"IL"},"type":"Feature","geometry":{"type":"Point","coordinates":[-87.72172,41.793644]}},{"properties":{"city":"CHICO","zip":"95973","geo_score":0.882,"id":"a6806xfehb3g","geo_precision":"zip","state":"CA"},"type":"Feature","geometry":{"type":"Point","coordinates":[-121.776923,39.839883]}},{"properties":{"city":"CHINOOK","zip":"59523","geo_score":0.857,"id":"a6806xfed8hc","geo_precision":"zip","state":"MT"},"type":"Feature","geometry":{"type":"Point","coordinates":[-109.405184,48.589723]}},{"properties":{"city":"CHULA VISTA","zip":"91913","geo_score":1.0,"id":"a6806xi717ow","geo_precision":"zip","state":"CA"},"type":"Feature","geometry":{"type":"Point","coordinates":[-116.984669,32.639967]}},{"properties":{"city":"CINCINNATI","zip":"45236","geo_score":0.871,"id":"a6806xcfnq03","geo_precision":"zip","state":"OH"},"type":"Feature","geometry":{"type":"Point","coordinates":[-84.400496,39.192837]}},{"properties":{"city":"CITRUS HEIGHTS","zip":"95621","geo_score":1.0,"id":"a6806x5la3sa","geo_precision":"zip","state":"CA"},"type":"Feature","geometry":{"type":"Point","coordinates":[-121.309461,38.693052]}},{"properties":{"city":"CLARENDON HILLS","zip":"60514","geo_score":1.0,"id":"a6806xg4a1ev","geo_precision":"zip","state":"IL"},"type":"Feature","geometry":{"type":"Point","coordinates":[-87.966094,41.774295]}},{"properties":{"city":"CLARKSDALE","zip":"38614","geo_score":0.871,"id":"a6806xhhb29v","geo_precision":"zip","state":"MS"},"type":"Feature","geometry":{"type":"Point","coordinates":[-90.598153,34.014278]}},{"properties":{"city":"CLARKTON","zip":"28433","geo_score":0.874,"id":"a6806xc781nz","geo_precision":"zip","state":"NC"},"type":"Feature","geometry":{"type":"Point","coordinates":[-78.74113,34.444614]}},{"properties":{"city":"CLEARFIELD","zip":"40313","geo_score":1.0,"id":"a6806x9yhtbs","geo_precision":"zip","state":"KY"},"type":"Feature","geometry":{"type":"Point","coordinates":[-83.442495,38.128726]}},{"properties":{"city":"CLERMONT","zip":"34711","geo_score":1.0,"id":"a6806xc9z1w0","geo_precision":"zip","state":"FL"},"type":"Feature","geometry":{"type":"Point","coordinates":[-81.779423,28.584025]}},{"properties":{"city":"CLEVELAND","zip":"44124","geo_score":0.871,"id":"a6806xccm2xk","geo_precision":"zip","state":"OH"},"type":"Feature","geometry":{"type":"Point","coordinates":[-81.46373,41.478387]}},{"properties":{"city":"CLEVELAND","zip":"44134","geo_score":1.0,"id":"a6806xcymq9v","geo_precision":"zip","state":"OH"},"type":"Feature","geometry":{"type":"Point","coordinates":[-81.726551,41.381701]}},{"properties":{"city":"CLEVELAND","zip":"44124","geo_score":0.871,"id":"a6806xcjfok2","geo_precision":"zip","state":"OH"},"type":"Feature","geometry":{"type":"Point","coordinates":[-81.46373,41.478387]}},{"properties":{"city":"CLEVELAND","zip":"37312","geo_score":1.0,"id":"a6806x4gr5ku","geo_precision":"zip","state":"TN"},"type":"Feature","geometry":{"type":"Point","coordinates":[-84.86844,35.255097]}},{"properties":{"city":"CLEVELAND","zip":"37311","geo_score":0.893,"id":"a6806xc6val5","geo_precision":"zip","state":"TN"},"type":"Feature","geometry":{"type":"Point","coordinates":[-84.854388,35.092019]}},{"properties":{"city":"CLEVES","zip":"45002","geo_score":1.0,"id":"a6806xc8uay9","geo_precision":"zip","state":"OH"},"type":"Feature","geometry":{"type":"Point","coordinates":[-84.742376,39.191546]}},{"properties":{"city":"CLIFTON PARK","zip":"12065","geo_score":0.857,"id":"a6806x9tpgp0","geo_precision":"zip","state":"NY"},"type":"Feature","geometry":{"type":"Point","coordinates":[-73.823733,42.910076]}},{"properties":{"city":"CLINTON","zip":"70722","geo_score":0.875,"id":"a6806x4w48ej","geo_precision":"zip","state":"LA"},"type":"Feature","geometry":{"type":"Point","coordinates":[-90.936214,30.947401]}},{"properties":{"city":"CLINTON","zip":"37716","geo_score":0.871,"id":"a6806xhtygmt","geo_precision":"zip","state":"TN"},"type":"Feature","geometry":{"type":"Point","coordinates":[-84.148529,36.028135]}},{"properties":{"city":"CLINTON","zip":"52732","geo_score":0.857,"id":"a6806xbyjgkq","geo_precision":"zip","state":"IA"},"type":"Feature","geometry":{"type":"Point","coordinates":[-90.295408,41.90975]}},{"properties":{"city":"CLOVIS","zip":"93619","geo_score":0.857,"id":"a6806x6ebaxl","geo_precision":"city","state":"CA"},"type":"Feature","geometry":{"type":"Point","coordinates":[-119.592146,36.832583]}},{"properties":{"city":"CODY","zip":"82414","geo_score":0.857,"id":"a6806xjtjcfd","geo_precision":"zip","state":"WY"},"type":"Feature","geometry":{"type":"Point","coordinates":[-109.962963,44.503001]}},{"properties":{"city":"COLBERT","zip":"99005","geo_score":1.0,"id":"a6806xdbxhfo","geo_precision":"zip","state":"WA"},"type":"Feature","geometry":{"type":"Point","coordinates":[-117.337529,47.852847]}},{"properties":{"city":"COLFAX","zip":"54730","geo_score":0.878,"id":"a6806x9js4uk","geo_precision":"zip","state":"WI"},"type":"Feature","geometry":{"type":"Point","coordinates":[-91.600165,44.936628]}},{"properties":{"city":"COLLIERVILLE","zip":"38017","geo_score":0.881,"id":"a6806x5zps0s","geo_precision":"zip","state":"TN"},"type":"Feature","geometry":{"type":"Point","coordinates":[-89.621748,35.045091]}},{"properties":{"city":"COLONIAL HEIGHTS","zip":"23834","geo_score":0.867,"id":"a6806xboin17","geo_precision":"zip","state":"VA"},"type":"Feature","geometry":{"type":"Point","coordinates":[-77.411372,37.285428]}},{"properties":{"city":"COLORADO SPRINGS","zip":"80906","geo_score":0.876,"id":"a6806x8yf6i5","geo_precision":"zip","state":"CO"},"type":"Feature","geometry":{"type":"Point","coordinates":[-104.81164,38.803326]}},{"properties":{"city":"COLORADO SPRINGS","zip":"80919","geo_score":1.0,"id":"a6806xew3lp2","geo_precision":"zip","state":"CO"},"type":"Feature","geometry":{"type":"Point","coordinates":[-104.917436,38.938149]}},{"properties":{"city":"COLORADO SPRINGS","zip":"80917","geo_score":1.0,"id":"a6806xjciws0","geo_precision":"zip","state":"CO"},"type":"Feature","geometry":{"type":"Point","coordinates":[-104.746689,38.82513]}},{"properties":{"city":"COLORADO SPRINGS","zip":"80909","geo_score":0.876,"id":"a6806xhkru24","geo_precision":"zip","state":"CO"},"type":"Feature","geometry":{"type":"Point","coordinates":[-104.782752,38.839994]}},{"properties":{"city":"COLORADO SPRINGS","zip":"80921","geo_score":1.0,"id":"a6806xbiru4d","geo_precision":"zip","state":"CO"},"type":"Feature","geometry":{"type":"Point","coordinates":[-104.89122,39.055054]}},{"properties":{"city":"COLUMBIA","zip":"29206","geo_score":0.873,"id":"a6806xj50of1","geo_precision":"zip","state":"SC"},"type":"Feature","geometry":{"type":"Point","coordinates":[-80.930923,34.05932]}},{"properties":{"city":"COLUMBIA FALLS","zip":"59912","geo_score":0.912,"id":"a6806x9mucmh","geo_precision":"zip","state":"MT"},"type":"Feature","geometry":{"type":"Point","coordinates":[-114.244018,48.313019]}},{"properties":{"city":"COLUMBIA FALLS","zip":"59912","geo_score":0.912,"id":"a6806x80cmjx","geo_precision":"zip","state":"MT"},"type":"Feature","geometry":{"type":"Point","coordinates":[-114.244018,48.313019]}},{"properties":{"city":"COLUMBIA FALLS","zip":"59912","geo_score":0.912,"id":"a6806xcomiyq","geo_precision":"zip","state":"MT"},"type":"Feature","geometry":{"type":"Point","coordinates":[-114.244018,48.313019]}},{"properties":{"city":"COLUMBUS","zip":"43209","geo_score":0.857,"id":"a6806xhdkzb5","geo_precision":"zip","state":"OH"},"type":"Feature","geometry":{"type":"Point","coordinates":[-82.93768,39.968953]}},{"properties":{"city":"COLUMBUS","zip":"43214","geo_score":1.0,"id":"a6806xfk3rzb","geo_precision":"zip","state":"OH"},"type":"Feature","geometry":{"type":"Point","coordinates":[-83.011389,39.969036]}},{"properties":{"city":"COLUMBUS","zip":"43209","geo_score":0.857,"id":"a6806xartsgj","geo_precision":"zip","state":"OH"},"type":"Feature","geometry":{"type":"Point","coordinates":[-82.93768,39.968953]}},{"properties":{"city":"CONROE","zip":"77384","geo_score":1.0,"id":"a6806xfoiwux","geo_precision":"zip","state":"TX"},"type":"Feature","geometry":{"type":"Point","coordinates":[-95.499935,30.225997]}},{"properties":{"city":"COOKEVILLE","zip":"38506","geo_score":1.0,"id":"a6806xbgxor0","geo_precision":"zip","state":"TN"},"type":"Feature","geometry":{"type":"Point","coordinates":[-85.469451,36.182723]}},{"properties":{"city":"COOKSVILLE","zip":"21723","geo_score":0.943,"id":"a6806xd5sfbh","geo_precision":"zip","state":"MD"},"type":"Feature","geometry":{"type":"Point","coordinates":[-77.011646,39.354826]}},{"properties":{"city":"COOPERSVILLE","zip":"49404","geo_score":0.917,"id":"a6806xj6r1l3","geo_precision":"zip","state":"MI"},"type":"Feature","geometry":{"type":"Point","coordinates":[-85.956433,43.016967]}},{"properties":{"city":"COPPELL","zip":"75019","geo_score":1.0,"id":"a6806xfg3w2i","geo_precision":"zip","state":"TX"},"type":"Feature","geometry":{"type":"Point","coordinates":[-96.777626,32.767268]}},{"properties":{"city":"COPPERAS COVE","zip":"76522","geo_score":0.893,"id":"a6806xi460y8","geo_precision":"zip","state":"TX"},"type":"Feature","geometry":{"type":"Point","coordinates":[-97.985026,31.219058]}},{"properties":{"city":"CORINTH","zip":"38834","geo_score":0.857,"id":"a6806xev5kql","geo_precision":"zip","state":"MS"},"type":"Feature","geometry":{"type":"Point","coordinates":[-88.590605,34.987032]}},{"properties":{"city":"CORPUS CHRISTI","zip":"78414","geo_score":1.0,"id":"a6806xf997ge","geo_precision":"zip","state":"TX"},"type":"Feature","geometry":{"type":"Point","coordinates":[-97.373419,27.667387]}},{"properties":{"city":"COTATI","zip":"94931","geo_score":1.0,"id":"a6806x8c12ax","geo_precision":"zip","state":"CA"},"type":"Feature","geometry":{"type":"Point","coordinates":[-122.710565,38.323614]}},{"properties":{"city":"COTOPAXI","zip":"81223","geo_score":0.857,"id":"a6806xfn8dhc","geo_precision":"zip","state":"CO"},"type":"Feature","geometry":{"type":"Point","coordinates":[-105.580556,38.413053]}},{"properties":{"city":"COTTAGE GROVE","zip":"53527","geo_score":0.869,"id":"a6806x8gzqtw","geo_precision":"zip","state":"WI"},"type":"Feature","geometry":{"type":"Point","coordinates":[-89.234838,43.089719]}},{"properties":{"city":"COVINGTON","zip":"24426","geo_score":0.867,"id":"a6806xhsir8a","geo_precision":"zip","state":"VA"},"type":"Feature","geometry":{"type":"Point","coordinates":[-80.237839,37.644847]}},{"properties":{"city":"CRANFORD","zip":"7016","geo_score":0.879,"id":"a6806x7fowwt","geo_precision":"zip","state":"NJ"},"type":"Feature","geometry":{"type":"Point","coordinates":[-74.287092,40.658991]}},{"properties":{"city":"CRESSKILL","zip":"7626","geo_score":1.0,"id":"a6806xbuoxpq","geo_precision":"zip","state":"NJ"},"type":"Feature","geometry":{"type":"Point","coordinates":[-74.098841,40.972898]}},{"properties":{"city":"CROSSVILLE","zip":"38555","geo_score":0.871,"id":"a6806xibvh1z","geo_precision":"zip","state":"TN"},"type":"Feature","geometry":{"type":"Point","coordinates":[-85.063848,36.066734]}},{"properties":{"city":"CROWLEY","zip":"76036","geo_score":1.0,"id":"a6806xh5c25z","geo_precision":"zip","state":"TX"},"type":"Feature","geometry":{"type":"Point","coordinates":[-97.291484,32.771419]}},{"properties":{"city":"CUPERTINO","zip":"95014","geo_score":0.886,"id":"a6806x8gga6k","geo_precision":"zip","state":"CA"},"type":"Feature","geometry":{"type":"Point","coordinates":[-122.003015,37.314942]}},{"properties":{"city":"DACULA","zip":"30019","geo_score":1.0,"id":"a6806x9eqga3","geo_precision":"zip","state":"GA"},"type":"Feature","geometry":{"type":"Point","coordinates":[-83.879494,33.988309]}},{"properties":{"city":"DALLAS","zip":"30132","geo_score":0.873,"id":"a6806xdppn7p","geo_precision":"zip","state":"GA"},"type":"Feature","geometry":{"type":"Point","coordinates":[-84.995501,33.924269]}},{"properties":{"city":"DALLAS","zip":"75214","geo_score":1.0,"id":"a6806xhc0taf","geo_precision":"zip","state":"TX"},"type":"Feature","geometry":{"type":"Point","coordinates":[-96.698402,32.841252]}},{"properties":{"city":"DALLAS","zip":"75214","geo_score":1.0,"id":"a6806xhxujhm","geo_precision":"zip","state":"TX"},"type":"Feature","geometry":{"type":"Point","coordinates":[-96.698402,32.841252]}},{"properties":{"city":"DALLAS","zip":"30132","geo_score":0.873,"id":"a6806xgb1954","geo_precision":"zip","state":"GA"},"type":"Feature","geometry":{"type":"Point","coordinates":[-84.995501,33.924269]}},{"properties":{"city":"DALTON","zip":"30720","geo_score":0.881,"id":"a6806x9qi04k","geo_precision":"zip","state":"GA"},"type":"Feature","geometry":{"type":"Point","coordinates":[-84.971334,34.834523]}},{"properties":{"city":"DAPHNE","zip":"36526","geo_score":0.874,"id":"a6806xg33nxt","geo_precision":"zip","state":"AL"},"type":"Feature","geometry":{"type":"Point","coordinates":[-87.836381,30.622136]}},{"properties":{"city":"DAPHNE","zip":"36526","geo_score":0.874,"id":"a6806xdu7oum","geo_precision":"zip","state":"AL"},"type":"Feature","geometry":{"type":"Point","coordinates":[-87.836381,30.622136]}},{"properties":{"city":"DAPHNE","zip":"36526","geo_score":0.874,"id":"a6806xkq7ymg","geo_precision":"zip","state":"AL"},"type":"Feature","geometry":{"type":"Point","coordinates":[-87.836381,30.622136]}},{"properties":{"city":"DAVENPORT","zip":"52807","geo_score":1.0,"id":"a6806xgjh98z","geo_precision":"zip","state":"IA"},"type":"Feature","geometry":{"type":"Point","coordinates":[-90.555825,41.571131]}},{"properties":{"city":"DAVISON","zip":"48423","geo_score":0.881,"id":"a6806xd4cbx7","geo_precision":"zip","state":"MI"},"type":"Feature","geometry":{"type":"Point","coordinates":[-83.558286,43.091693]}},{"properties":{"city":"DECATUR","zip":"62526","geo_score":0.873,"id":"a6806x4ulxui","geo_precision":"zip","state":"IL"},"type":"Feature","geometry":{"type":"Point","coordinates":[-89.011192,39.896982]}},{"properties":{"city":"DEER RIVER","zip":"56636","geo_score":0.889,"id":"a6806xd5344z","geo_precision":"zip","state":"MN"},"type":"Feature","geometry":{"type":"Point","coordinates":[-93.785495,47.323004]}},{"properties":{"city":"DEMOPOLIS","zip":"36732","geo_score":0.873,"id":"a6806xfcoynv","geo_precision":"zip","state":"AL"},"type":"Feature","geometry":{"type":"Point","coordinates":[-87.855569,32.511803]}},{"properties":{"city":"DENHAM SPRINGS","zip":"70726","geo_score":0.868,"id":"a6806xicusjt","geo_precision":"zip","state":"LA"},"type":"Feature","geometry":{"type":"Point","coordinates":[-90.849542,30.333805]}},{"properties":{"city":"DENHAM SPRINGS","zip":"70726","geo_score":0.868,"id":"a6806xdnyjoe","geo_precision":"zip","state":"LA"},"type":"Feature","geometry":{"type":"Point","coordinates":[-90.849542,30.333805]}},{"properties":{"city":"DENISON","zip":"75020","geo_score":0.873,"id":"a6806xk39bih","geo_precision":"zip","state":"TX"},"type":"Feature","geometry":{"type":"Point","coordinates":[-96.471097,33.562052]}},{"properties":{"city":"DENVER","zip":"80237","geo_score":1.0,"id":"a6806xck7mps","geo_precision":"zip","state":"CO"},"type":"Feature","geometry":{"type":"Point","coordinates":[-104.903984,39.638537]}},{"properties":{"city":"DENVER","zip":"80227","geo_score":1.0,"id":"a6806xfnd6e6","geo_precision":"zip","state":"CO"},"type":"Feature","geometry":{"type":"Point","coordinates":[-105.067136,39.667479]}},{"properties":{"city":"DENVER","zip":"80249","geo_score":1.0,"id":"a6806x5aq2kn","geo_precision":"zip","state":"CO"},"type":"Feature","geometry":{"type":"Point","coordinates":[-104.697674,39.83776]}},{"properties":{"city":"DENVER CITY","zip":"79323","geo_score":0.869,"id":"a6806x4enfj2","geo_precision":"zip","state":"TX"},"type":"Feature","geometry":{"type":"Point","coordinates":[-102.992159,32.901214]}},{"properties":{"city":"DERBY","zip":"67037","geo_score":1.0,"id":"a6806xf5k12f","geo_precision":"zip","state":"KS"},"type":"Feature","geometry":{"type":"Point","coordinates":[-97.228475,37.566129]}},{"properties":{"city":"DES MOINES","zip":"50317","geo_score":0.889,"id":"a6806x5gbqjs","geo_precision":"zip","state":"IA"},"type":"Feature","geometry":{"type":"Point","coordinates":[-93.481602,41.593323]}},{"properties":{"city":"DES PLAINES","zip":"60018","geo_score":0.886,"id":"a6806x7iw4p6","geo_precision":"zip","state":"IL"},"type":"Feature","geometry":{"type":"Point","coordinates":[-87.884509,41.995308]}},{"properties":{"city":"DETROIT LAKES","zip":"56501","geo_score":0.881,"id":"a6806x5pclix","geo_precision":"zip","state":"MN"},"type":"Feature","geometry":{"type":"Point","coordinates":[-95.90977,46.917181]}},{"properties":{"city":"DETROIT LAKES","zip":"56501","geo_score":0.881,"id":"a6806xdf41h9","geo_precision":"zip","state":"MN"},"type":"Feature","geometry":{"type":"Point","coordinates":[-95.90977,46.917181]}},{"properties":{"city":"DEXTER","zip":"48130","geo_score":0.857,"id":"a6806xejjmea","geo_precision":"zip","state":"MI"},"type":"Feature","geometry":{"type":"Point","coordinates":[-83.839388,42.325592]}},{"properties":{"city":"DIANA","zip":"75640","geo_score":0.857,"id":"a6806x7gmo5p","geo_precision":"zip","state":"TX"},"type":"Feature","geometry":{"type":"Point","coordinates":[-94.657984,32.669864]}},{"properties":{"city":"DICKSON","zip":"37055","geo_score":0.878,"id":"a6806x5vuqsp","geo_precision":"zip","state":"TN"},"type":"Feature","geometry":{"type":"Point","coordinates":[-87.335012,36.012007]}},{"properties":{"city":"DILLSBURG","zip":"17019","geo_score":0.857,"id":"a6806x9s4zrt","geo_precision":"zip","state":"PA"},"type":"Feature","geometry":{"type":"Point","coordinates":[-77.055534,40.065371]}},{"properties":{"city":"DIX","zip":"69133","geo_score":0.878,"id":"a6806xhlgdx4","geo_precision":"zip","state":"NE"},"type":"Feature","geometry":{"type":"Point","coordinates":[-103.404101,41.225814]}},{"properties":{"city":"DOUSMAN","zip":"53118","geo_score":1.0,"id":"a6806xdyfhdc","geo_precision":"zip","state":"WI"},"type":"Feature","geometry":{"type":"Point","coordinates":[-88.444097,42.951536]}},{"properties":{"city":"DOWNINGTOWN","zip":"19335","geo_score":0.87,"id":"a6806x6z6wi9","geo_precision":"zip","state":"PA"},"type":"Feature","geometry":{"type":"Point","coordinates":[-75.672161,39.981775]}},{"properties":{"city":"DU BOIS","zip":"15801","geo_score":0.87,"id":"a6806xcls7hg","geo_precision":"zip","state":"PA"},"type":"Feature","geometry":{"type":"Point","coordinates":[-78.786975,41.078951]}},{"properties":{"city":"DUNDALK","zip":"21222","geo_score":0.878,"id":"a6806xf3miuz","geo_precision":"zip","state":"MD"},"type":"Feature","geometry":{"type":"Point","coordinates":[-76.514685,39.24483]}},{"properties":{"city":"DUNSTABLE","zip":"1827","geo_score":1.0,"id":"a6806xdum4p6","geo_precision":"zip","state":"MA"},"type":"Feature","geometry":{"type":"Point","coordinates":[-71.459405,42.446396]}},{"properties":{"city":"EARLTON","zip":"12058","geo_score":1.0,"id":"a6806xekgh3b","geo_precision":"zip","state":"NY"},"type":"Feature","geometry":{"type":"Point","coordinates":[-73.905306,42.352969]}},{"properties":{"city":"EAST BERNSTADT","zip":"40729","geo_score":0.879,"id":"a6806xiz3n15","geo_precision":"zip","state":"KY"},"type":"Feature","geometry":{"type":"Point","coordinates":[-84.097709,37.238421]}},{"properties":{"city":"EAST DUBLIN","zip":"31027","geo_score":0.943,"id":"a6806xbtr300","geo_precision":"zip","state":"GA"},"type":"Feature","geometry":{"type":"Point","coordinates":[-82.781684,32.552377]}},{"properties":{"city":"EAST LYME","zip":"6333","geo_score":0.857,"id":"a6806x75y5cu","geo_precision":"zip","state":"CT"},"type":"Feature","geometry":{"type":"Point","coordinates":[-72.217579,41.368987]}},{"properties":{"city":"EAST WENATCHEE","zip":"98802","geo_score":1.0,"id":"a6806xkezv9e","geo_precision":"zip","state":"WA"},"type":"Feature","geometry":{"type":"Point","coordinates":[-120.214402,47.497831]}},{"properties":{"city":"EASTON","zip":"18042","geo_score":0.871,"id":"a6806xdz5umo","geo_precision":"zip","state":"PA"},"type":"Feature","geometry":{"type":"Point","coordinates":[-75.244344,40.718709]}},{"properties":{"city":"EASTON","zip":"18042","geo_score":0.871,"id":"a6806xb2fokp","geo_precision":"zip","state":"PA"},"type":"Feature","geometry":{"type":"Point","coordinates":[-75.244344,40.718709]}},{"properties":{"city":"EATON","zip":"45320","geo_score":0.905,"id":"a6806xkmefv5","geo_precision":"zip","state":"OH"},"type":"Feature","geometry":{"type":"Point","coordinates":[-84.760512,39.743939]}},{"properties":{"city":"EDGEWATER","zip":"21037","geo_score":0.87,"id":"a6806xh6peqt","geo_precision":"zip","state":"MD"},"type":"Feature","geometry":{"type":"Point","coordinates":[-76.496348,38.906225]}},{"properties":{"city":"EDGEWATER","zip":"7020","geo_score":0.871,"id":"a6806x8xztvo","geo_precision":"zip","state":"NJ"},"type":"Feature","geometry":{"type":"Point","coordinates":[-73.940693,40.888155]}},{"properties":{"city":"EGG HARBOR CITY","zip":"8215","geo_score":0.868,"id":"a6806x73j912","geo_precision":"zip","state":"NJ"},"type":"Feature","geometry":{"type":"Point","coordinates":[-74.602934,39.592062]}},{"properties":{"city":"EGG HARBOR TOWNSHIP","zip":"8234","geo_score":0.933,"id":"a6806xjv8c3a","geo_precision":"zip","state":"NJ"},"type":"Feature","geometry":{"type":"Point","coordinates":[-74.611764,39.374067]}},{"properties":{"city":"EGG HARBOR TOWNSHIP","zip":"8234","geo_score":0.933,"id":"a6806xg9pit6","geo_precision":"zip","state":"NJ"},"type":"Feature","geometry":{"type":"Point","coordinates":[-74.611764,39.374067]}},{"properties":{"city":"EL PASO","zip":"79997","geo_score":1.0,"id":"a6806xeieonb","geo_precision":"zip","state":"TX"},"type":"Feature","geometry":{"type":"Point","coordinates":[-106.299987,31.694842]}},{"properties":{"city":"EL SEGUNDO","zip":"90245","geo_score":0.873,"id":"a6806xc82bt8","geo_precision":"zip","state":"CA"},"type":"Feature","geometry":{"type":"Point","coordinates":[-118.378687,33.922236]}},{"properties":{"city":"ELBERTON","zip":"30635","geo_score":0.873,"id":"a6806x8ys2zh","geo_precision":"zip","state":"GA"},"type":"Feature","geometry":{"type":"Point","coordinates":[-82.846806,34.105112]}},{"properties":{"city":"ELBOW LAKE","zip":"56531","geo_score":0.889,"id":"a6806x646fux","geo_precision":"zip","state":"MN"},"type":"Feature","geometry":{"type":"Point","coordinates":[-95.817827,45.991905]}},{"properties":{"city":"ELGIN","zip":"60123","geo_score":1.0,"id":"a6806x8aemew","geo_precision":"zip","state":"IL"},"type":"Feature","geometry":{"type":"Point","coordinates":[-88.371044,42.036325]}},{"properties":{"city":"ELGIN","zip":"60120","geo_score":0.905,"id":"a6806xfvw64b","geo_precision":"zip","state":"IL"},"type":"Feature","geometry":{"type":"Point","coordinates":[-88.235354,42.002805]}},{"properties":{"city":"ELGIN","zip":"60120","geo_score":0.905,"id":"a6806x4f5eg1","geo_precision":"zip","state":"IL"},"type":"Feature","geometry":{"type":"Point","coordinates":[-88.235354,42.002805]}},{"properties":{"city":"ELIZABETHTOWN","zip":"42701","geo_score":0.901,"id":"a6806xi8ms6q","geo_precision":"zip","state":"KY"},"type":"Feature","geometry":{"type":"Point","coordinates":[-85.966352,37.698397]}},{"properties":{"city":"ELK GROVE","zip":"95624","geo_score":0.875,"id":"a6806xgumlwp","geo_precision":"zip","state":"CA"},"type":"Feature","geometry":{"type":"Point","coordinates":[-121.300227,38.430743]}},{"properties":{"city":"ELLENSBURG","zip":"98926","geo_score":0.857,"id":"a6806xc37asi","geo_precision":"zip","state":"WA"},"type":"Feature","geometry":{"type":"Point","coordinates":[-120.51118,46.930404]}},{"properties":{"city":"ELLICOTT CITY","zip":"21042","geo_score":1.0,"id":"a6806xc60o09","geo_precision":"zip","state":"MD"},"type":"Feature","geometry":{"type":"Point","coordinates":[-76.897247,39.261897]}},{"properties":{"city":"ELLISVILLE","zip":"39437","geo_score":0.871,"id":"a6806xdyx33s","geo_precision":"zip","state":"MS"},"type":"Feature","geometry":{"type":"Point","coordinates":[-89.178114,31.643497]}},{"properties":{"city":"ENDICOTT","zip":"13760","geo_score":0.896,"id":"a6806x4e25au","geo_precision":"zip","state":"NY"},"type":"Feature","geometry":{"type":"Point","coordinates":[-76.069092,42.151464]}},{"properties":{"city":"ERIE","zip":"80516","geo_score":1.0,"id":"a6806xchmv88","geo_precision":"zip","state":"CO"},"type":"Feature","geometry":{"type":"Point","coordinates":[-104.923481,40.062204]}},{"properties":{"city":"ERIE","zip":"80516","geo_score":1.0,"id":"a6806x6k4xeh","geo_precision":"zip","state":"CO"},"type":"Feature","geometry":{"type":"Point","coordinates":[-104.923481,40.062204]}},{"properties":{"city":"ETTERS","zip":"17319","geo_score":0.873,"id":"a6806xhjxvfa","geo_precision":"zip","state":"PA"},"type":"Feature","geometry":{"type":"Point","coordinates":[-76.80386,40.158426]}},{"properties":{"city":"EUGENE","zip":"97401","geo_score":0.881,"id":"a6806xbpxrhn","geo_precision":"zip","state":"OR"},"type":"Feature","geometry":{"type":"Point","coordinates":[-123.16509,44.113457]}},{"properties":{"city":"EULESS","zip":"76039","geo_score":0.857,"id":"a6806xfbih5h","geo_precision":"zip","state":"TX"},"type":"Feature","geometry":{"type":"Point","coordinates":[-97.077232,32.816796]}},{"properties":{"city":"EUREKA","zip":"95501","geo_score":0.883,"id":"a6806xj6suis","geo_precision":"zip","state":"CA"},"type":"Feature","geometry":{"type":"Point","coordinates":[-124.197839,40.743182]}},{"properties":{"city":"FAIRMOUNT","zip":"46928","geo_score":0.87,"id":"a6806x83uhy3","geo_precision":"zip","state":"IN"},"type":"Feature","geometry":{"type":"Point","coordinates":[-85.824426,40.421705]}},{"properties":{"city":"FARMINGDALE","zip":"11735","geo_score":0.962,"id":"a6806x6ujk8x","geo_precision":"zip","state":"NY"},"type":"Feature","geometry":{"type":"Point","coordinates":[-73.416789,40.729266]}},{"properties":{"city":"FARMINGTON","zip":"84025","geo_score":1.0,"id":"a6806x83isv0","geo_precision":"zip","state":"UT"},"type":"Feature","geometry":{"type":"Point","coordinates":[-111.907344,40.969069]}},{"properties":{"city":"FARMINGTON","zip":"55024","geo_score":0.871,"id":"a6806x8qlnng","geo_precision":"zip","state":"MN"},"type":"Feature","geometry":{"type":"Point","coordinates":[-93.014657,44.659134]}},{"properties":{"city":"FAYETTEVILLE","zip":"28304","geo_score":0.869,"id":"a6806xcyr9dc","geo_precision":"zip","state":"NC"},"type":"Feature","geometry":{"type":"Point","coordinates":[-78.970306,35.05933]}},{"properties":{"city":"FLATONIA","zip":"78941","geo_score":0.893,"id":"a6806x4ykn7u","geo_precision":"zip","state":"TX"},"type":"Feature","geometry":{"type":"Point","coordinates":[-97.067207,29.668289]}},{"properties":{"city":"FLORA","zip":"46929","geo_score":0.875,"id":"a6806x8tisd5","geo_precision":"zip","state":"IN"},"type":"Feature","geometry":{"type":"Point","coordinates":[-86.391664,40.566149]}},{"properties":{"city":"FONTANA","zip":"92336","geo_score":1.0,"id":"a6806x7e5fay","geo_precision":"zip","state":"CA"},"type":"Feature","geometry":{"type":"Point","coordinates":[-116.247005,34.122307]}},{"properties":{"city":"FORT CALHOUN","zip":"68023","geo_score":0.87,"id":"a6806xf42rtp","geo_precision":"zip","state":"NE"},"type":"Feature","geometry":{"type":"Point","coordinates":[-96.057514,41.498605]}},{"properties":{"city":"FORT MYERS","zip":"33906","geo_score":1.0,"id":"a6806x7keajr","geo_precision":"zip","state":"FL"},"type":"Feature","geometry":{"type":"Point","coordinates":[-81.94861,26.552895]}},{"properties":{"city":"FORT PIERCE","zip":"34981","geo_score":1.0,"id":"a6806xacwq6i","geo_precision":"zip","state":"FL"},"type":"Feature","geometry":{"type":"Point","coordinates":[-80.374042,27.391213]}},{"properties":{"city":"FORT SMITH","zip":"72908","geo_score":1.0,"id":"a6806xa24nhf","geo_precision":"zip","state":"AR"},"type":"Feature","geometry":{"type":"Point","coordinates":[-94.402779,35.321912]}},{"properties":{"city":"FORT STEWART","zip":"31315","geo_score":1.0,"id":"a6806xdnnshu","geo_precision":"zip","state":"GA"},"type":"Feature","geometry":{"type":"Point","coordinates":[-81.654696,31.844332]}},{"properties":{"city":"FORT WAYNE","zip":"46815","geo_score":0.87,"id":"a6806xk2ppsr","geo_precision":"zip","state":"IN"},"type":"Feature","geometry":{"type":"Point","coordinates":[-85.095248,41.13116]}},{"properties":{"city":"FORT WORTH","zip":"76102","geo_score":1.0,"id":"a6806xdavbzy","geo_precision":"zip","state":"TX"},"type":"Feature","geometry":{"type":"Point","coordinates":[-97.245612,32.759437]}},{"properties":{"city":"FORT WORTH","zip":"76126","geo_score":0.873,"id":"a6806xiytd3p","geo_precision":"zip","state":"TX"},"type":"Feature","geometry":{"type":"Point","coordinates":[-97.460576,32.673188]}},{"properties":{"city":"FORT WORTH","zip":"76137","geo_score":1.0,"id":"a6806xjnw9ie","geo_precision":"zip","state":"TX"},"type":"Feature","geometry":{"type":"Point","coordinates":[-97.288144,32.853199]}},{"properties":{"city":"FOX ISLAND","zip":"98333","geo_score":1.0,"id":"a6806x5sgxvh","geo_precision":"zip","state":"WA"},"type":"Feature","geometry":{"type":"Point","coordinates":[-122.628989,47.248013]}},{"properties":{"city":"FRAMINGHAM","zip":"1701","geo_score":0.857,"id":"a6806x6nadd9","geo_precision":"zip","state":"MA"},"type":"Feature","geometry":{"type":"Point","coordinates":[-71.436451,42.329262]}},{"properties":{"city":"FRANKFORT","zip":"40601","geo_score":0.857,"id":"a6806x9txzcq","geo_precision":"zip","state":"KY"},"type":"Feature","geometry":{"type":"Point","coordinates":[-84.753559,38.210628]}},{"properties":{"city":"FRANKLIN","zip":"37064","geo_score":0.857,"id":"a6806xgsn07i","geo_precision":"zip","state":"TN"},"type":"Feature","geometry":{"type":"Point","coordinates":[-86.926391,35.892565]}},{"properties":{"city":"FRANKLIN","zip":"37069","geo_score":1.0,"id":"a6806xivm566","geo_precision":"zip","state":"TN"},"type":"Feature","geometry":{"type":"Point","coordinates":[-86.910623,35.979553]}},{"properties":{"city":"FRANKLIN","zip":"37067","geo_score":1.0,"id":"a6806xj41a05","geo_precision":"zip","state":"TN"},"type":"Feature","geometry":{"type":"Point","coordinates":[-86.765537,35.912072]}},{"properties":{"city":"FRANKLIN","zip":"37067","geo_score":1.0,"id":"a6806xg6ymz2","geo_precision":"zip","state":"TN"},"type":"Feature","geometry":{"type":"Point","coordinates":[-86.765537,35.912072]}},{"properties":{"city":"FRANKLIN","zip":"37069","geo_score":1.0,"id":"a6806xdf0x8e","geo_precision":"zip","state":"TN"},"type":"Feature","geometry":{"type":"Point","coordinates":[-86.910623,35.979553]}},{"properties":{"city":"FRANKLIN","zip":"37064","geo_score":0.857,"id":"a6806x739ns4","geo_precision":"zip","state":"TN"},"type":"Feature","geometry":{"type":"Point","coordinates":[-86.926391,35.892565]}},{"properties":{"city":"FREEPORT","zip":"61032","geo_score":0.871,"id":"a6806xd829lj","geo_precision":"zip","state":"IL"},"type":"Feature","geometry":{"type":"Point","coordinates":[-89.527338,42.344462]}},{"properties":{"city":"FRESNO","zip":"93722","geo_score":1.0,"id":"a6806xd8qpcq","geo_precision":"zip","state":"CA"},"type":"Feature","geometry":{"type":"Point","coordinates":[-119.931132,36.793291]}},{"properties":{"city":"FRESNO","zip":"93722","geo_score":1.0,"id":"a6806x7unksc","geo_precision":"zip","state":"CA"},"type":"Feature","geometry":{"type":"Point","coordinates":[-119.931132,36.793291]}},{"properties":{"city":"FRESNO","zip":"93722","geo_score":1.0,"id":"a6806x73i61s","geo_precision":"zip","state":"CA"},"type":"Feature","geometry":{"type":"Point","coordinates":[-119.931132,36.793291]}},{"properties":{"city":"FULLERTON","zip":"92831","geo_score":1.0,"id":"a6806x5grenr","geo_precision":"zip","state":"CA"},"type":"Feature","geometry":{"type":"Point","coordinates":[-117.769442,33.640302]}},{"properties":{"city":"GAINESVILLE","zip":"30506","geo_score":1.0,"id":"a6806xa365rp","geo_precision":"zip","state":"GA"},"type":"Feature","geometry":{"type":"Point","coordinates":[-83.860031,34.336238]}},{"properties":{"city":"GAINESVILLE","zip":"76240","geo_score":0.883,"id":"a6806xjeevxm","geo_precision":"zip","state":"TX"},"type":"Feature","geometry":{"type":"Point","coordinates":[-97.015564,33.610664]}},{"properties":{"city":"GAITHERSBURG","zip":"20882","geo_score":0.881,"id":"a6806xfvkn4s","geo_precision":"zip","state":"MD"},"type":"Feature","geometry":{"type":"Point","coordinates":[-77.142759,39.212051]}},{"properties":{"city":"GAITHERSBURG","zip":"20882","geo_score":0.881,"id":"a6806xk2tcgx","geo_precision":"zip","state":"MD"},"type":"Feature","geometry":{"type":"Point","coordinates":[-77.142759,39.212051]}},{"properties":{"city":"GALLATIN","zip":"37066","geo_score":0.883,"id":"a6806xjy1jw3","geo_precision":"zip","state":"TN"},"type":"Feature","geometry":{"type":"Point","coordinates":[-86.466104,36.480322]}},{"properties":{"city":"GARDEN CITY","zip":"67846","geo_score":0.9,"id":"a6806xcu2qmi","geo_precision":"zip","state":"KS"},"type":"Feature","geometry":{"type":"Point","coordinates":[-100.910993,38.163356]}},{"properties":{"city":"GARDENA","zip":"90249","geo_score":1.0,"id":"a6806xg15gz2","geo_precision":"zip","state":"CA"},"type":"Feature","geometry":{"type":"Point","coordinates":[-118.299106,33.858866]}},{"properties":{"city":"GASTON","zip":"97119","geo_score":0.905,"id":"a6806x8hjncl","geo_precision":"zip","state":"OR"},"type":"Feature","geometry":{"type":"Point","coordinates":[-123.123995,45.406226]}},{"properties":{"city":"GATESVILLE","zip":"76528","geo_score":0.868,"id":"a6806x83lmcd","geo_precision":"zip","state":"TX"},"type":"Feature","geometry":{"type":"Point","coordinates":[-97.67752,31.427665]}},{"properties":{"city":"GAYLORDSVILLE","zip":"6755","geo_score":1.0,"id":"a6806x8sz2ko","geo_precision":"zip","state":"CT"},"type":"Feature","geometry":{"type":"Point","coordinates":[-73.472048,41.634686]}},{"properties":{"city":"GEORGETOWN","zip":"45121","geo_score":0.857,"id":"a6806xbsxisu","geo_precision":"zip","state":"OH"},"type":"Feature","geometry":{"type":"Point","coordinates":[-83.902706,38.91368]}},{"properties":{"city":"GEORGETOWN","zip":"61846","geo_score":0.886,"id":"a6806xa97swa","geo_precision":"zip","state":"IL"},"type":"Feature","geometry":{"type":"Point","coordinates":[-87.643633,39.941981]}},{"properties":{"city":"GERALDINE","zip":"59446","geo_score":1.0,"id":"a6806x8dzbz8","geo_precision":"zip","state":"MT"},"type":"Feature","geometry":{"type":"Point","coordinates":[-110.26891,47.600099]}},{"properties":{"city":"GERMANTOWN","zip":"38138","geo_score":0.871,"id":"a6806xkm5ews","geo_precision":"zip","state":"TN"},"type":"Feature","geometry":{"type":"Point","coordinates":[-89.759251,35.063147]}},{"properties":{"city":"GIG HARBOR","zip":"98335","geo_score":0.857,"id":"a6806x74nt1q","geo_precision":"zip","state":"WA"},"type":"Feature","geometry":{"type":"Point","coordinates":[-122.584017,47.268709]}},{"properties":{"city":"GLEN ELLYN","zip":"60137","geo_score":0.871,"id":"a6806x8eatds","geo_precision":"zip","state":"IL"},"type":"Feature","geometry":{"type":"Point","coordinates":[-88.067844,41.830308]}},{"properties":{"city":"GLENS FALLS","zip":"12801","geo_score":0.959,"id":"a6806xh2u3ts","geo_precision":"zip","state":"NY"},"type":"Feature","geometry":{"type":"Point","coordinates":[-73.684007,43.300072]}},{"properties":{"city":"GLIDDEN","zip":"51443","geo_score":1.0,"id":"a6806x4yjjo1","geo_precision":"zip","state":"IA"},"type":"Feature","geometry":{"type":"Point","coordinates":[-94.802643,42.049241]}},{"properties":{"city":"GOLDEN","zip":"80401","geo_score":0.911,"id":"a6806xbbzg76","geo_precision":"zip","state":"CO"},"type":"Feature","geometry":{"type":"Point","coordinates":[-105.394994,39.925542]}},{"properties":{"city":"GOLDSBORO","zip":"27534","geo_score":1.0,"id":"a6806xkhszfg","geo_precision":"zip","state":"NC"},"type":"Feature","geometry":{"type":"Point","coordinates":[-78.03207,35.385571]}},{"properties":{"city":"GOLETA","zip":"93117","geo_score":0.857,"id":"a6806xcv682x","geo_precision":"zip","state":"CA"},"type":"Feature","geometry":{"type":"Point","coordinates":[-120.22904,34.508044]}},{"properties":{"city":"GRAFTON","zip":"53024","geo_score":0.873,"id":"a6806xif09zu","geo_precision":"zip","state":"WI"},"type":"Feature","geometry":{"type":"Point","coordinates":[-87.925644,43.295005]}},{"properties":{"city":"GRAIN VALLEY","zip":"64029","geo_score":1.0,"id":"a6806xfikhh6","geo_precision":"zip","state":"MO"},"type":"Feature","geometry":{"type":"Point","coordinates":[-94.193874,38.984966]}},{"properties":{"city":"GRAND FORKS","zip":"58201","geo_score":0.922,"id":"a6806xeluy3r","geo_precision":"zip","state":"ND"},"type":"Feature","geometry":{"type":"Point","coordinates":[-97.386642,47.954932]}},{"properties":{"city":"GRAND FORKS","zip":"58201","geo_score":0.922,"id":"a6806xd25432","geo_precision":"zip","state":"ND"},"type":"Feature","geometry":{"type":"Point","coordinates":[-97.386642,47.954932]}},{"properties":{"city":"GRAYSON","zip":"71435","geo_score":0.857,"id":"a6806x832l8a","geo_precision":"zip","state":"LA"},"type":"Feature","geometry":{"type":"Point","coordinates":[-91.998744,31.890997]}},{"properties":{"city":"GREAT BEND","zip":"67530","geo_score":0.889,"id":"a6806x9oijrz","geo_precision":"zip","state":"KS"},"type":"Feature","geometry":{"type":"Point","coordinates":[-98.889257,38.422235]}},{"properties":{"city":"GREELEY","zip":"80633","geo_score":1.0,"id":"a6806xgixbcy","geo_precision":"zip","state":"CO"},"type":"Feature","geometry":{"type":"Point","coordinates":[-104.31497,40.500919]}},{"properties":{"city":"GREEN BAY","zip":"54313","geo_score":1.0,"id":"a6806xeae7ey","geo_precision":"zip","state":"WI"},"type":"Feature","geometry":{"type":"Point","coordinates":[-87.99597,44.54964]}},{"properties":{"city":"GREENFIELD","zip":"46140","geo_score":0.886,"id":"a6806xdj9exf","geo_precision":"zip","state":"IN"},"type":"Feature","geometry":{"type":"Point","coordinates":[-85.687755,39.750322]}},{"properties":{"city":"GREENFIELD","zip":"46140","geo_score":0.886,"id":"a6806xj4p1b5","geo_precision":"zip","state":"IN"},"type":"Feature","geometry":{"type":"Point","coordinates":[-85.687755,39.750322]}},{"properties":{"city":"GREENSBORO","zip":"27406","geo_score":0.871,"id":"a6806xanbzwp","geo_precision":"zip","state":"NC"},"type":"Feature","geometry":{"type":"Point","coordinates":[-79.776419,36.016524]}},{"properties":{"city":"GREENSBORO","zip":"15338","geo_score":0.886,"id":"a6806xcahkrn","geo_precision":"zip","state":"PA"},"type":"Feature","geometry":{"type":"Point","coordinates":[-79.956168,39.827855]}},{"properties":{"city":"GREENVILLE","zip":"29607","geo_score":0.87,"id":"a6806xebxdi2","geo_precision":"zip","state":"SC"},"type":"Feature","geometry":{"type":"Point","coordinates":[-82.333173,34.903728]}},{"properties":{"city":"GREENWELL SPRINGS","zip":"70739","geo_score":0.875,"id":"a6806xa54dey","geo_precision":"zip","state":"LA"},"type":"Feature","geometry":{"type":"Point","coordinates":[-91.032048,30.505467]}},{"properties":{"city":"GREENWELL SPRINGS","zip":"70739","geo_score":0.875,"id":"a6806xdfafip","geo_precision":"zip","state":"LA"},"type":"Feature","geometry":{"type":"Point","coordinates":[-91.032048,30.505467]}},{"properties":{"city":"GREENWOOD","zip":"46143","geo_score":1.0,"id":"a6806xk941na","geo_precision":"zip","state":"IN"},"type":"Feature","geometry":{"type":"Point","coordinates":[-86.10149,39.50708]}},{"properties":{"city":"GUILFORD","zip":"6437","geo_score":0.871,"id":"a6806xemf9h9","geo_precision":"zip","state":"CT"},"type":"Feature","geometry":{"type":"Point","coordinates":[-72.703707,41.245931]}},{"properties":{"city":"GULF BREEZE","zip":"32563","geo_score":0.871,"id":"a6806xf0osyg","geo_precision":"zip","state":"FL"},"type":"Feature","geometry":{"type":"Point","coordinates":[-87.04972,30.659159]}},{"properties":{"city":"GULFPORT","zip":"39501","geo_score":0.945,"id":"a6806xhd335v","geo_precision":"zip","state":"MS"},"type":"Feature","geometry":{"type":"Point","coordinates":[-89.094205,30.414364]}},{"properties":{"city":"GULFPORT","zip":"39507","geo_score":1.0,"id":"a6806xard9a5","geo_precision":"zip","state":"MS"},"type":"Feature","geometry":{"type":"Point","coordinates":[-89.031635,30.400079]}},{"properties":{"city":"GUNNISON","zip":"81230","geo_score":0.871,"id":"a6806xalmecv","geo_precision":"zip","state":"CO"},"type":"Feature","geometry":{"type":"Point","coordinates":[-106.609477,38.45166]}},{"properties":{"city":"GUNTERSVILLE","zip":"35976","geo_score":0.869,"id":"a6806xjma15q","geo_precision":"zip","state":"AL"},"type":"Feature","geometry":{"type":"Point","coordinates":[-86.359428,34.356759]}},{"properties":{"city":"HAGERSTOWN","zip":"21742","geo_score":1.0,"id":"a6806xbs0zzp","geo_precision":"zip","state":"MD"},"type":"Feature","geometry":{"type":"Point","coordinates":[-77.652779,39.642995]}},{"properties":{"city":"HAMMOND","zip":"70401","geo_score":0.879,"id":"a6806xe50x0x","geo_precision":"zip","state":"LA"},"type":"Feature","geometry":{"type":"Point","coordinates":[-90.542035,30.454915]}},{"properties":{"city":"HAMPSHIRE","zip":"60140","geo_score":0.873,"id":"a6806xa9y5kw","geo_precision":"zip","state":"IL"},"type":"Feature","geometry":{"type":"Point","coordinates":[-88.456751,42.088359]}},{"properties":{"city":"HAMPTON","zip":"50441","geo_score":1.0,"id":"a6806xh3wgq9","geo_precision":"zip","state":"IA"},"type":"Feature","geometry":{"type":"Point","coordinates":[-93.230657,42.731454]}},{"properties":{"city":"HARTSELLE","zip":"35640","geo_score":0.879,"id":"a6806xjv2rha","geo_precision":"zip","state":"AL"},"type":"Feature","geometry":{"type":"Point","coordinates":[-86.931395,34.422318]}},{"properties":{"city":"HARTSVILLE","zip":"29550","geo_score":0.871,"id":"a6806xil5i2m","geo_precision":"zip","state":"SC"},"type":"Feature","geometry":{"type":"Point","coordinates":[-80.131735,34.384043]}},{"properties":{"city":"HARWOOD","zip":"58042","geo_score":0.857,"id":"a6806xkj26w1","geo_precision":"zip","state":"ND"},"type":"Feature","geometry":{"type":"Point","coordinates":[-97.019808,46.963027]}},{"properties":{"city":"HASTINGS","zip":"68901","geo_score":0.857,"id":"a6806xdt8pv8","geo_precision":"zip","state":"NE"},"type":"Feature","geometry":{"type":"Point","coordinates":[-98.444228,40.580014]}},{"properties":{"city":"HAYES","zip":"23072","geo_score":0.875,"id":"a6806xg8j1ku","geo_precision":"zip","state":"VA"},"type":"Feature","geometry":{"type":"Point","coordinates":[-76.483005,37.267921]}},{"properties":{"city":"HAYWARD","zip":"94544","geo_score":1.0,"id":"a6806xc56dhb","geo_precision":"zip","state":"CA"},"type":"Feature","geometry":{"type":"Point","coordinates":[-122.061673,37.613883]}},{"properties":{"city":"HAZLETON","zip":"18202","geo_score":0.952,"id":"a6806xa23jd1","geo_precision":"zip","state":"PA"},"type":"Feature","geometry":{"type":"Point","coordinates":[-76.013856,40.970058]}},{"properties":{"city":"HELOTES","zip":"78023","geo_score":0.883,"id":"a6806xjb3yni","geo_precision":"zip","state":"TX"},"type":"Feature","geometry":{"type":"Point","coordinates":[-98.793915,29.623004]}},{"properties":{"city":"HEMLOCK","zip":"48626","geo_score":0.857,"id":"a6806xe38ln5","geo_precision":"zip","state":"MI"},"type":"Feature","geometry":{"type":"Point","coordinates":[-84.19026,43.349193]}},{"properties":{"city":"HENDERSON","zip":"75654","geo_score":1.0,"id":"a6806x5iva5z","geo_precision":"zip","state":"TX"},"type":"Feature","geometry":{"type":"Point","coordinates":[-94.748825,32.125958]}},{"properties":{"city":"HENDERSON","zip":"75654","geo_score":1.0,"id":"a6806xgcfby2","geo_precision":"zip","state":"TX"},"type":"Feature","geometry":{"type":"Point","coordinates":[-94.748825,32.125958]}},{"properties":{"city":"HENDERSON","zip":"75654","geo_score":1.0,"id":"a6806xdvzc67","geo_precision":"zip","state":"TX"},"type":"Feature","geometry":{"type":"Point","coordinates":[-94.748825,32.125958]}},{"properties":{"city":"HENDERSON","zip":"89053","geo_score":1.0,"id":"a6806x6lsw0d","geo_precision":"zip","state":"NV"},"type":"Feature","geometry":{"type":"Point","coordinates":[-114.972061,35.927901]}},{"properties":{"city":"HENDERSONVILLE","zip":"37075","geo_score":0.949,"id":"a6806x8x6udc","geo_precision":"zip","state":"TN"},"type":"Feature","geometry":{"type":"Point","coordinates":[-86.564439,36.325884]}},{"properties":{"city":"HERRIMAN","zip":"84096","geo_score":0.857,"id":"a6806x83c6xv","geo_precision":"city","state":"UT"},"type":"Feature","geometry":{"type":"Point","coordinates":[-112.032994,40.514115]}},{"properties":{"city":"HIGH POINT","zip":"27265","geo_score":1.0,"id":"a6806xcq4r35","geo_precision":"zip","state":"NC"},"type":"Feature","geometry":{"type":"Point","coordinates":[-79.991542,36.029892]}},{"properties":{"city":"HILTON HEAD ISLAND","zip":"29926","geo_score":1.0,"id":"a6806xh074z7","geo_precision":"zip","state":"SC"},"type":"Feature","geometry":{"type":"Point","coordinates":[-80.747577,32.207724]}},{"properties":{"city":"HINESVILLE","zip":"31313","geo_score":0.857,"id":"a6806x7ev2la","geo_precision":"zip","state":"GA"},"type":"Feature","geometry":{"type":"Point","coordinates":[-81.72678,31.858264]}},{"properties":{"city":"HOBART","zip":"46342","geo_score":0.886,"id":"a6806xilqssv","geo_precision":"zip","state":"IN"},"type":"Feature","geometry":{"type":"Point","coordinates":[-87.274481,41.55837]}},{"properties":{"city":"HOLBROOK","zip":"86025","geo_score":1.0,"id":"a6806xc0un9d","geo_precision":"zip","state":"AZ"},"type":"Feature","geometry":{"type":"Point","coordinates":[-110.089544,34.776828]}},{"properties":{"city":"HOLDEN","zip":"64040","geo_score":0.871,"id":"a6806xfowglw","geo_precision":"zip","state":"MO"},"type":"Feature","geometry":{"type":"Point","coordinates":[-93.990221,38.850565]}},{"properties":{"city":"HOLYOKE","zip":"1040","geo_score":0.871,"id":"a6806xan43ke","geo_precision":"zip","state":"MA"},"type":"Feature","geometry":{"type":"Point","coordinates":[-72.620368,42.191759]}},{"properties":{"city":"HONOLULU","zip":"96813","geo_score":1.0,"id":"a6806xbpkzc1","geo_precision":"zip","state":"HI"},"type":"Feature","geometry":{"type":"Point","coordinates":[-168.021815,24.859832]}},{"properties":{"city":"HOPE MILLS","zip":"28348","geo_score":0.889,"id":"a6806xg4nil0","geo_precision":"zip","state":"NC"},"type":"Feature","geometry":{"type":"Point","coordinates":[-78.961695,34.981275]}},{"properties":{"city":"HOPE MILLS","zip":"28348","geo_score":0.889,"id":"a6806x9ev2l0","geo_precision":"zip","state":"NC"},"type":"Feature","geometry":{"type":"Point","coordinates":[-78.961695,34.981275]}},{"properties":{"city":"HOPKINTON","zip":"1748","geo_score":1.0,"id":"a6806x6la6mv","geo_precision":"zip","state":"MA"},"type":"Feature","geometry":{"type":"Point","coordinates":[-71.459405,42.446396]}},{"properties":{"city":"HORN LAKE","zip":"38637","geo_score":0.875,"id":"a6806xfwwlk8","geo_precision":"zip","state":"MS"},"type":"Feature","geometry":{"type":"Point","coordinates":[-89.976757,34.936206]}},{"properties":{"city":"HOT SPRINGS NATIONAL PARK","zip":"71913","geo_score":0.87,"id":"a6806x9vlv7f","geo_precision":"zip","state":"AR"},"type":"Feature","geometry":{"type":"Point","coordinates":[-93.133793,34.464257]}},{"properties":{"city":"HOUMA","zip":"70360","geo_score":0.893,"id":"a6806x4iaeuu","geo_precision":"zip","state":"LA"},"type":"Feature","geometry":{"type":"Point","coordinates":[-90.672589,29.554104]}},{"properties":{"city":"HOUMA","zip":"70364","geo_score":1.0,"id":"a6806xdm9v6j","geo_precision":"zip","state":"LA"},"type":"Feature","geometry":{"type":"Point","coordinates":[-90.732776,29.597188]}},{"properties":{"city":"HOUSTON","zip":"77056","geo_score":1.0,"id":"a6806xfj77d3","geo_precision":"zip","state":"TX"},"type":"Feature","geometry":{"type":"Point","coordinates":[-95.207161,29.698579]}},{"properties":{"city":"HOUSTON","zip":"77079","geo_score":0.857,"id":"a6806x8o7dy6","geo_precision":"zip","state":"TX"},"type":"Feature","geometry":{"type":"Point","coordinates":[-95.642446,29.782451]}},{"properties":{"city":"HOUSTON","zip":"77079","geo_score":0.857,"id":"a6806xcx01z0","geo_precision":"zip","state":"TX"},"type":"Feature","geometry":{"type":"Point","coordinates":[-95.642446,29.782451]}},{"properties":{"city":"HOUSTON","zip":"77024","geo_score":0.857,"id":"a6806xkul15b","geo_precision":"zip","state":"TX"},"type":"Feature","geometry":{"type":"Point","coordinates":[-95.503553,29.789672]}},{"properties":{"city":"HOUSTON","zip":"77080","geo_score":1.0,"id":"a6806xclfik1","geo_precision":"zip","state":"TX"},"type":"Feature","geometry":{"type":"Point","coordinates":[-95.434241,29.83399]}},{"properties":{"city":"HOWELL","zip":"48843","geo_score":0.878,"id":"a6806xix3gc9","geo_precision":"zip","state":"MI"},"type":"Feature","geometry":{"type":"Point","coordinates":[-83.861613,42.526978]}},{"properties":{"city":"HUMBLE","zip":"77346","geo_score":0.857,"id":"a6806x4q2w1g","geo_precision":"zip","state":"TX"},"type":"Feature","geometry":{"type":"Point","coordinates":[-95.176598,29.998831]}},{"properties":{"city":"HUMBLE","zip":"77346","geo_score":0.857,"id":"a6806x579c3p","geo_precision":"zip","state":"TX"},"type":"Feature","geometry":{"type":"Point","coordinates":[-95.176598,29.998831]}},{"properties":{"city":"HUNTINGTON STATION","zip":"11746","geo_score":0.899,"id":"a6806xcltfh1","geo_precision":"zip","state":"NY"},"type":"Feature","geometry":{"type":"Point","coordinates":[-73.398731,40.82371]}},{"properties":{"city":"HUNTINGTOWN","zip":"20639","geo_score":0.883,"id":"a6806x5jbp2r","geo_precision":"zip","state":"MD"},"type":"Feature","geometry":{"type":"Point","coordinates":[-76.512176,38.614287]}},{"properties":{"city":"HUNTSVILLE","zip":"35803","geo_score":0.896,"id":"a6806xk85esz","geo_precision":"zip","state":"AL"},"type":"Feature","geometry":{"type":"Point","coordinates":[-86.534712,34.537036]}},{"properties":{"city":"HURDLE MILLS","zip":"27541","geo_score":0.883,"id":"a6806xdt36vc","geo_precision":"zip","state":"NC"},"type":"Feature","geometry":{"type":"Point","coordinates":[-79.126959,36.280972]}},{"properties":{"city":"HUTCHINSON","zip":"67502","geo_score":0.857,"id":"a6806xfhf680","geo_precision":"zip","state":"KS"},"type":"Feature","geometry":{"type":"Point","coordinates":[-97.845605,38.148899]}},{"properties":{"city":"HYDRO","zip":"73048","geo_score":1.0,"id":"a6806xekvmvt","geo_precision":"zip","state":"OK"},"type":"Feature","geometry":{"type":"Point","coordinates":[-98.43108,35.327225]}},{"properties":{"city":"IDAHO FALLS","zip":"83401","geo_score":0.896,"id":"a6806xefmv83","geo_precision":"zip","state":"ID"},"type":"Feature","geometry":{"type":"Point","coordinates":[-112.036637,43.382693]}},{"properties":{"city":"INDIAN TRAIL","zip":"28079","geo_score":0.857,"id":"a6806xbhdnoc","geo_precision":"zip","state":"NC"},"type":"Feature","geometry":{"type":"Point","coordinates":[-80.630346,35.118757]}},{"properties":{"city":"INDIANAPOLIS","zip":"46227","geo_score":0.882,"id":"a6806x6d8n4y","geo_precision":"zip","state":"IN"},"type":"Feature","geometry":{"type":"Point","coordinates":[-86.13443,39.704767]}},{"properties":{"city":"INDIANAPOLIS","zip":"46216","geo_score":1.0,"id":"a6806xa5onj2","geo_precision":"zip","state":"IN"},"type":"Feature","geometry":{"type":"Point","coordinates":[-86.013632,39.864689]}},{"properties":{"city":"INDIANAPOLIS","zip":"46221","geo_score":1.0,"id":"a6806xh86t7f","geo_precision":"zip","state":"IN"},"type":"Feature","geometry":{"type":"Point","coordinates":[-86.130655,39.764258]}},{"properties":{"city":"INDIANAPOLIS","zip":"46235","geo_score":1.0,"id":"a6806xcslit9","geo_precision":"zip","state":"IN"},"type":"Feature","geometry":{"type":"Point","coordinates":[-85.974081,39.84709]}},{"properties":{"city":"IOWA FALLS","zip":"50126","geo_score":0.921,"id":"a6806xdzu8fb","geo_precision":"zip","state":"IA"},"type":"Feature","geometry":{"type":"Point","coordinates":[-93.207147,42.433593]}},{"properties":{"city":"IRVINE","zip":"92604","geo_score":1.0,"id":"a6806xeo764z","geo_precision":"zip","state":"CA"},"type":"Feature","geometry":{"type":"Point","coordinates":[-117.790059,33.690475]}},{"properties":{"city":"IRVINE","zip":"92604","geo_score":1.0,"id":"a6806x8x4vvv","geo_precision":"zip","state":"CA"},"type":"Feature","geometry":{"type":"Point","coordinates":[-117.790059,33.690475]}},{"properties":{"city":"IRVINGTON","zip":"10533","geo_score":0.956,"id":"a6806xanuozb","geo_precision":"zip","state":"NY"},"type":"Feature","geometry":{"type":"Point","coordinates":[-73.848746,41.047597]}},{"properties":{"city":"IRWINTON","zip":"31042","geo_score":0.869,"id":"a6806x7jxcfh","geo_precision":"zip","state":"GA"},"type":"Feature","geometry":{"type":"Point","coordinates":[-83.085428,32.686268]}},{"properties":{"city":"ISLE OF PALMS","zip":"29451","geo_score":1.0,"id":"a6806xjf8x4h","geo_precision":"zip","state":"SC"},"type":"Feature","geometry":{"type":"Point","coordinates":[-79.760516,32.807206]}},{"properties":{"city":"JACKSON","zip":"53037","geo_score":0.875,"id":"a6806xcijpj3","geo_precision":"zip","state":"WI"},"type":"Feature","geometry":{"type":"Point","coordinates":[-88.19676,43.329169]}},{"properties":{"city":"JACKSON","zip":"95642","geo_score":0.898,"id":"a6806xhzc8se","geo_precision":"zip","state":"CA"},"type":"Feature","geometry":{"type":"Point","coordinates":[-120.668265,38.376024]}},{"properties":{"city":"JACKSONVILLE","zip":"32223","geo_score":0.881,"id":"a6806xc7tkop","geo_precision":"zip","state":"FL"},"type":"Feature","geometry":{"type":"Point","coordinates":[-81.578701,30.206074]}},{"properties":{"city":"JACKSONVILLE","zip":"32221","geo_score":1.0,"id":"a6806xh0qy2p","geo_precision":"zip","state":"FL"},"type":"Feature","geometry":{"type":"Point","coordinates":[-81.848561,30.259438]}},{"properties":{"city":"JACKSONVILLE","zip":"32226","geo_score":0.869,"id":"a6806xfdsezs","geo_precision":"zip","state":"FL"},"type":"Feature","geometry":{"type":"Point","coordinates":[-81.632595,30.359684]}},{"properties":{"city":"JAMESVILLE","zip":"27846","geo_score":0.871,"id":"a6806xjdnloy","geo_precision":"zip","state":"NC"},"type":"Feature","geometry":{"type":"Point","coordinates":[-76.815502,35.820439]}},{"properties":{"city":"JANESVILLE","zip":"53546","geo_score":1.0,"id":"a6806xgtz0jl","geo_precision":"zip","state":"WI"},"type":"Feature","geometry":{"type":"Point","coordinates":[-88.947859,42.663574]}},{"properties":{"city":"JANESVILLE","zip":"50647","geo_score":0.871,"id":"a6806xk62xrs","geo_precision":"zip","state":"IA"},"type":"Feature","geometry":{"type":"Point","coordinates":[-92.5438,42.627204]}},{"properties":{"city":"JANESVILLE","zip":"53546","geo_score":1.0,"id":"a6806xhhckbm","geo_precision":"zip","state":"WI"},"type":"Feature","geometry":{"type":"Point","coordinates":[-88.947859,42.663574]}},{"properties":{"city":"JASPER","zip":"75951","geo_score":0.881,"id":"a6806xfzf6k0","geo_precision":"zip","state":"TX"},"type":"Feature","geometry":{"type":"Point","coordinates":[-93.884072,30.897144]}},{"properties":{"city":"JASPER","zip":"32052","geo_score":0.87,"id":"a6806xckuhjg","geo_precision":"zip","state":"FL"},"type":"Feature","geometry":{"type":"Point","coordinates":[-82.760407,30.428277]}},{"properties":{"city":"JERSEYVILLE","zip":"62052","geo_score":0.857,"id":"a6806x4j18vt","geo_precision":"zip","state":"IL"},"type":"Feature","geometry":{"type":"Point","coordinates":[-90.320391,39.043381]}},{"properties":{"city":"JERSEYVILLE","zip":"62052","geo_score":0.857,"id":"a6806xf9ztvx","geo_precision":"zip","state":"IL"},"type":"Feature","geometry":{"type":"Point","coordinates":[-90.320391,39.043381]}},{"properties":{"city":"JOPPA","zip":"21085","geo_score":0.886,"id":"a6806xgm4ebm","geo_precision":"zip","state":"MD"},"type":"Feature","geometry":{"type":"Point","coordinates":[-76.373849,39.483441]}},{"properties":{"city":"JUNEAU","zip":"99803","geo_score":1.0,"id":"a6806xjunyfw","geo_precision":"zip","state":"AK"},"type":"Feature","geometry":{"type":"Point","coordinates":[-134.617383,58.377074]}},{"properties":{"city":"KAHULUI","zip":"96732","geo_score":1.0,"id":"a6806xe5lw1y","geo_precision":"zip","state":"HI"},"type":"Feature","geometry":{"type":"Point","coordinates":[-156.259166,20.859244]}},{"properties":{"city":"KALAMAZOO","zip":"49008","geo_score":1.0,"id":"a6806x84nmio","geo_precision":"zip","state":"MI"},"type":"Feature","geometry":{"type":"Point","coordinates":[-85.618046,42.263007]}},{"properties":{"city":"KAYENTA","zip":"86033","geo_score":0.889,"id":"a6806x79i12x","geo_precision":"zip","state":"AZ"},"type":"Feature","geometry":{"type":"Point","coordinates":[-109.709002,36.943058]}},{"properties":{"city":"KENNEBUNK","zip":"4043","geo_score":0.938,"id":"a6806xhurx2t","geo_precision":"zip","state":"ME"},"type":"Feature","geometry":{"type":"Point","coordinates":[-70.508663,43.377863]}},{"properties":{"city":"KENNETT","zip":"63857","geo_score":0.883,"id":"a6806xa2cz8k","geo_precision":"zip","state":"MO"},"type":"Feature","geometry":{"type":"Point","coordinates":[-89.959812,36.190623]}},{"properties":{"city":"KENT","zip":"44240","geo_score":0.873,"id":"a6806xgjmc4n","geo_precision":"zip","state":"OH"},"type":"Feature","geometry":{"type":"Point","coordinates":[-81.340663,41.201723]}},{"properties":{"city":"KENT","zip":"98032","geo_score":0.879,"id":"a6806xcp8zx9","geo_precision":"zip","state":"WA"},"type":"Feature","geometry":{"type":"Point","coordinates":[-122.312067,47.361489]}},{"properties":{"city":"KENTON","zip":"43326","geo_score":0.905,"id":"a6806xjryioq","geo_precision":"zip","state":"OH"},"type":"Feature","geometry":{"type":"Point","coordinates":[-83.107134,40.498949]}},{"properties":{"city":"KETCHIKAN","zip":"99901","geo_score":0.873,"id":"a6806x5o33ev","geo_precision":"zip","state":"AK"},"type":"Feature","geometry":{"type":"Point","coordinates":[-133.240556,55.297222]}},{"properties":{"city":"KETCHIKAN","zip":"99901","geo_score":0.873,"id":"a6806xdp4xw0","geo_precision":"zip","state":"AK"},"type":"Feature","geometry":{"type":"Point","coordinates":[-133.240556,55.297222]}},{"properties":{"city":"KILLEEN","zip":"76542","geo_score":0.857,"id":"a6806xgk73n7","geo_precision":"zip","state":"TX"},"type":"Feature","geometry":{"type":"Point","coordinates":[-97.719182,30.957403]}},{"properties":{"city":"KING SALMON","zip":"99613","geo_score":0.886,"id":"a6806x8kb9er","geo_precision":"zip","state":"AK"},"type":"Feature","geometry":{"type":"Point","coordinates":[-155.894722,59.327778]}},{"properties":{"city":"KINGMAN","zip":"86401","geo_score":0.872,"id":"a6806x6om18p","geo_precision":"zip","state":"AZ"},"type":"Feature","geometry":{"type":"Point","coordinates":[-114.25968,35.396939]}},{"properties":{"city":"KINGS MOUNTAIN","zip":"28086","geo_score":0.879,"id":"a6806x9hcpp5","geo_precision":"zip","state":"NC"},"type":"Feature","geometry":{"type":"Point","coordinates":[-81.424531,35.273187]}},{"properties":{"city":"KINGWOOD","zip":"77345","geo_score":0.857,"id":"a6806x6fg6nq","geo_precision":"zip","state":"TX"},"type":"Feature","geometry":{"type":"Point","coordinates":[-95.434241,29.83399]}},{"properties":{"city":"KINGWOOD","zip":"77345","geo_score":0.857,"id":"a6806x8x8dsi","geo_precision":"zip","state":"TX"},"type":"Feature","geometry":{"type":"Point","coordinates":[-95.434241,29.83399]}},{"properties":{"city":"KIT CARSON","zip":"80825","geo_score":1.0,"id":"a6806x9rqm5v","geo_precision":"zip","state":"CO"},"type":"Feature","geometry":{"type":"Point","coordinates":[-102.598136,38.827174]}},{"properties":{"city":"KNOTT","zip":"79748","geo_score":1.0,"id":"a6806x8c1cxx","geo_precision":"zip","state":"TX"},"type":"Feature","geometry":{"type":"Point","coordinates":[-101.61263,32.378209]}},{"properties":{"city":"KNOXVILLE","zip":"37931","geo_score":1.0,"id":"a6806x9wrbq2","geo_precision":"zip","state":"TN"},"type":"Feature","geometry":{"type":"Point","coordinates":[-84.125653,35.976167]}},{"properties":{"city":"KNOXVILLE","zip":"37932","geo_score":1.0,"id":"a6806x9mexbo","geo_precision":"zip","state":"TN"},"type":"Feature","geometry":{"type":"Point","coordinates":[-84.148074,35.933487]}},{"properties":{"city":"KNOXVILLE","zip":"37931","geo_score":1.0,"id":"a6806xicz98r","geo_precision":"zip","state":"TN"},"type":"Feature","geometry":{"type":"Point","coordinates":[-84.125653,35.976167]}},{"properties":{"city":"KNOXVILLE","zip":"37934","geo_score":1.0,"id":"a6806xe27c4g","geo_precision":"zip","state":"TN"},"type":"Feature","geometry":{"type":"Point","coordinates":[-83.920739,35.960638]}},{"properties":{"city":"KNOXVILLE","zip":"37922","geo_score":0.869,"id":"a6806xbfcywy","geo_precision":"zip","state":"TN"},"type":"Feature","geometry":{"type":"Point","coordinates":[-84.167416,35.884246]}},{"properties":{"city":"KNOXVILLE","zip":"37938","geo_score":0.869,"id":"a6806xa7htpr","geo_precision":"zip","state":"TN"},"type":"Feature","geometry":{"type":"Point","coordinates":[-83.937408,36.032026]}},{"properties":{"city":"KREMMLING","zip":"80459","geo_score":1.0,"id":"a6806xc669f6","geo_precision":"zip","state":"CO"},"type":"Feature","geometry":{"type":"Point","coordinates":[-106.378296,40.147681]}},{"properties":{"city":"KYLE","zip":"78640","geo_score":0.881,"id":"a6806xg3llmm","geo_precision":"zip","state":"TX"},"type":"Feature","geometry":{"type":"Point","coordinates":[-97.786114,29.957718]}},{"properties":{"city":"KYLE","zip":"78640","geo_score":0.881,"id":"a6806xeaq2h7","geo_precision":"zip","state":"TX"},"type":"Feature","geometry":{"type":"Point","coordinates":[-97.786114,29.957718]}},{"properties":{"city":"LA CANADA FLINTRIDGE","zip":"91011","geo_score":1.0,"id":"a6806xb5tcmw","geo_precision":"zip","state":"CA"},"type":"Feature","geometry":{"type":"Point","coordinates":[-118.298662,33.786594]}},{"properties":{"city":"LA CANADA FLINTRIDGE","zip":"91011","geo_score":1.0,"id":"a6806xe9c1es","geo_precision":"zip","state":"CA"},"type":"Feature","geometry":{"type":"Point","coordinates":[-118.298662,33.786594]}},{"properties":{"city":"LA JUNTA","zip":"81050","geo_score":0.857,"id":"a6806xjnxmdt","geo_precision":"zip","state":"CO"},"type":"Feature","geometry":{"type":"Point","coordinates":[-103.774119,37.818067]}},{"properties":{"city":"LA VETA","zip":"81055","geo_score":0.878,"id":"a6806x51kgv2","geo_precision":"zip","state":"CO"},"type":"Feature","geometry":{"type":"Point","coordinates":[-105.100281,37.37918]}},{"properties":{"city":"LACONIA","zip":"3246","geo_score":0.873,"id":"a6806xi4qe51","geo_precision":"zip","state":"NH"},"type":"Feature","geometry":{"type":"Point","coordinates":[-71.311181,43.551189]}},{"properties":{"city":"LAKE HAVASU CITY","zip":"86403","geo_score":0.867,"id":"a6806x7w4t3r","geo_precision":"zip","state":"AZ"},"type":"Feature","geometry":{"type":"Point","coordinates":[-114.372457,34.5539]}},{"properties":{"city":"LAKE STEVENS","zip":"98258","geo_score":0.883,"id":"a6806xcpwqr8","geo_precision":"zip","state":"WA"},"type":"Feature","geometry":{"type":"Point","coordinates":[-122.032076,48.051488]}},{"properties":{"city":"LAMAR","zip":"64759","geo_score":0.881,"id":"a6806xfg83wk","geo_precision":"zip","state":"MO"},"type":"Feature","geometry":{"type":"Point","coordinates":[-94.354117,37.458105]}},{"properties":{"city":"LAMAR","zip":"64759","geo_score":0.881,"id":"a6806xhkefdo","geo_precision":"zip","state":"MO"},"type":"Feature","geometry":{"type":"Point","coordinates":[-94.354117,37.458105]}},{"properties":{"city":"LANCASTER","zip":"43130","geo_score":0.889,"id":"a6806x8xx1rq","geo_precision":"zip","state":"OH"},"type":"Feature","geometry":{"type":"Point","coordinates":[-82.76656,39.727564]}},{"properties":{"city":"LANCING","zip":"37770","geo_score":0.89,"id":"a6806xdboj3t","geo_precision":"zip","state":"TN"},"type":"Feature","geometry":{"type":"Point","coordinates":[-84.660499,36.19952]}},{"properties":{"city":"LAROSE","zip":"70373","geo_score":1.0,"id":"a6806x4zh722","geo_precision":"zip","state":"LA"},"type":"Feature","geometry":{"type":"Point","coordinates":[-90.347406,29.520061]}},{"properties":{"city":"LAS VEGAS","zip":"89117","geo_score":1.0,"id":"a6806x5tkwro","geo_precision":"zip","state":"NV"},"type":"Feature","geometry":{"type":"Point","coordinates":[-115.217932,36.130992]}},{"properties":{"city":"LAS VEGAS","zip":"89139","geo_score":1.0,"id":"a6806xc06haq","geo_precision":"zip","state":"NV"},"type":"Feature","geometry":{"type":"Point","coordinates":[-115.211805,36.012873]}},{"properties":{"city":"LAS VEGAS","zip":"89117","geo_score":1.0,"id":"a6806xauaun4","geo_precision":"zip","state":"NV"},"type":"Feature","geometry":{"type":"Point","coordinates":[-115.217932,36.130992]}},{"properties":{"city":"LATONIA","zip":"41015","geo_score":0.9,"id":"a6806xi4zexl","geo_precision":"zip","state":"KY"},"type":"Feature","geometry":{"type":"Point","coordinates":[-84.496331,38.997562]}},{"properties":{"city":"LATONIA","zip":"41015","geo_score":0.9,"id":"a6806xk7qvf3","geo_precision":"zip","state":"KY"},"type":"Feature","geometry":{"type":"Point","coordinates":[-84.496331,38.997562]}},{"properties":{"city":"LATONIA","zip":"41015","geo_score":0.9,"id":"a6806xki9ssu","geo_precision":"zip","state":"KY"},"type":"Feature","geometry":{"type":"Point","coordinates":[-84.496331,38.997562]}},{"properties":{"city":"LAWTON","zip":"73507","geo_score":1.0,"id":"a6806xcq4be4","geo_precision":"zip","state":"OK"},"type":"Feature","geometry":{"type":"Point","coordinates":[-98.387482,34.560957]}},{"properties":{"city":"LEAGUE CITY","zip":"77573","geo_score":1.0,"id":"a6806x8e2cb2","geo_precision":"zip","state":"TX"},"type":"Feature","geometry":{"type":"Point","coordinates":[-95.052262,29.496451]}},{"properties":{"city":"LEWISBURG","zip":"17837","geo_score":0.873,"id":"a6806x56rqri","geo_precision":"zip","state":"PA"},"type":"Feature","geometry":{"type":"Point","coordinates":[-76.901356,40.952029]}},{"properties":{"city":"LEXINGTON","zip":"40502","geo_score":0.857,"id":"a6806x5wy7t0","geo_precision":"zip","state":"KY"},"type":"Feature","geometry":{"type":"Point","coordinates":[-84.437714,37.872579]}},{"properties":{"city":"LISLE","zip":"60532","geo_score":1.0,"id":"a6806xj8pam1","geo_precision":"zip","state":"IL"},"type":"Feature","geometry":{"type":"Point","coordinates":[-88.037714,41.79818]}},{"properties":{"city":"LISLE","zip":"60532","geo_score":1.0,"id":"a6806xk9axoj","geo_precision":"zip","state":"IL"},"type":"Feature","geometry":{"type":"Point","coordinates":[-88.037714,41.79818]}},{"properties":{"city":"LITTLE EGG HARBOR TWP","zip":"8087","geo_score":0.881,"id":"a6806xb3aj5c","geo_precision":"zip","state":"NJ"},"type":"Feature","geometry":{"type":"Point","coordinates":[-74.353479,39.601507]}},{"properties":{"city":"LITTLETON","zip":"80125","geo_score":1.0,"id":"a6806xk073ei","geo_precision":"zip","state":"CO"},"type":"Feature","geometry":{"type":"Point","coordinates":[-105.05897,39.495327]}},{"properties":{"city":"LITTLETON","zip":"80127","geo_score":1.0,"id":"a6806xdi5vs1","geo_precision":"zip","state":"CO"},"type":"Feature","geometry":{"type":"Point","coordinates":[-105.153074,39.544307]}},{"properties":{"city":"LITTLETON","zip":"80120","geo_score":0.857,"id":"a6806x68ijbj","geo_precision":"zip","state":"CO"},"type":"Feature","geometry":{"type":"Point","coordinates":[-105.06943,39.587766]}},{"properties":{"city":"LITTLETON","zip":"80130","geo_score":0.889,"id":"a6806xizq8cr","geo_precision":"zip","state":"CO"},"type":"Feature","geometry":{"type":"Point","coordinates":[-104.920445,39.541893]}},{"properties":{"city":"LIVE OAK","zip":"32064","geo_score":1.0,"id":"a6806x58k41d","geo_precision":"zip","state":"FL"},"type":"Feature","geometry":{"type":"Point","coordinates":[-82.957151,30.331517]}},{"properties":{"city":"LIVERMORE","zip":"94550","geo_score":0.889,"id":"a6806x759lz4","geo_precision":"zip","state":"CA"},"type":"Feature","geometry":{"type":"Point","coordinates":[-121.716063,37.702985]}},{"properties":{"city":"LIVONIA","zip":"48154","geo_score":1.0,"id":"a6806xg2u0sy","geo_precision":"zip","state":"MI"},"type":"Feature","geometry":{"type":"Point","coordinates":[-83.389962,42.375986]}},{"properties":{"city":"LOCKPORT","zip":"70374","geo_score":0.875,"id":"a6806xfh8b8a","geo_precision":"zip","state":"LA"},"type":"Feature","geometry":{"type":"Point","coordinates":[-90.491196,29.614103]}},{"properties":{"city":"LOCKPORT","zip":"70374","geo_score":0.875,"id":"a6806xgw65pn","geo_precision":"zip","state":"LA"},"type":"Feature","geometry":{"type":"Point","coordinates":[-90.491196,29.614103]}},{"properties":{"city":"LOCKPORT","zip":"70374","geo_score":0.875,"id":"a6806xjganeu","geo_precision":"zip","state":"LA"},"type":"Feature","geometry":{"type":"Point","coordinates":[-90.491196,29.614103]}},{"properties":{"city":"LOCKPORT","zip":"70374","geo_score":0.875,"id":"a6806xg4bzoi","geo_precision":"zip","state":"LA"},"type":"Feature","geometry":{"type":"Point","coordinates":[-90.491196,29.614103]}},{"properties":{"city":"LOCKPORT","zip":"70374","geo_score":0.875,"id":"a6806x7e5rii","geo_precision":"zip","state":"LA"},"type":"Feature","geometry":{"type":"Point","coordinates":[-90.491196,29.614103]}},{"properties":{"city":"LODI","zip":"95242","geo_score":1.0,"id":"a6806xj6lbm2","geo_precision":"zip","state":"CA"},"type":"Feature","geometry":{"type":"Point","coordinates":[-121.422011,38.138318]}},{"properties":{"city":"LOGAN","zip":"43138","geo_score":0.937,"id":"a6806x9jm3og","geo_precision":"zip","state":"OH"},"type":"Feature","geometry":{"type":"Point","coordinates":[-82.428488,39.538956]}},{"properties":{"city":"LONDON","zip":"43140","geo_score":0.869,"id":"a6806xan2vr2","geo_precision":"zip","state":"OH"},"type":"Feature","geometry":{"type":"Point","coordinates":[-83.498533,39.999783]}},{"properties":{"city":"LONG BEACH","zip":"39560","geo_score":1.0,"id":"a6806xk0fd8g","geo_precision":"zip","state":"MS"},"type":"Feature","geometry":{"type":"Point","coordinates":[-89.177143,30.374646]}},{"properties":{"city":"LONG LAKE","zip":"54542","geo_score":0.875,"id":"a6806xic6asx","geo_precision":"zip","state":"WI"},"type":"Feature","geometry":{"type":"Point","coordinates":[-88.634849,45.924958]}},{"properties":{"city":"LONGMONT","zip":"80502","geo_score":1.0,"id":"a6806xk7jgwh","geo_precision":"zip","state":"CO"},"type":"Feature","geometry":{"type":"Point","coordinates":[-105.373507,40.087835]}},{"properties":{"city":"LONGMONT","zip":"80501","geo_score":0.893,"id":"a6806x7zzfao","geo_precision":"zip","state":"CO"},"type":"Feature","geometry":{"type":"Point","coordinates":[-104.998868,40.138873]}},{"properties":{"city":"LONGMONT","zip":"80502","geo_score":1.0,"id":"a6806x59eyz1","geo_precision":"zip","state":"CO"},"type":"Feature","geometry":{"type":"Point","coordinates":[-105.373507,40.087835]}},{"properties":{"city":"LORANGER","zip":"70446","geo_score":0.875,"id":"a6806xc4kik3","geo_precision":"zip","state":"LA"},"type":"Feature","geometry":{"type":"Point","coordinates":[-90.311475,30.650744]}},{"properties":{"city":"LOS ANGELES","zip":"90045","geo_score":0.89,"id":"a6806xdhir3m","geo_precision":"zip","state":"CA"},"type":"Feature","geometry":{"type":"Point","coordinates":[-118.375354,33.994179]}},{"properties":{"city":"LOS GATOS","zip":"95030","geo_score":0.875,"id":"a6806xh2744d","geo_precision":"zip","state":"CA"},"type":"Feature","geometry":{"type":"Point","coordinates":[-121.966348,37.116614]}},{"properties":{"city":"LOUISVILLE","zip":"40206","geo_score":1.0,"id":"a6806xhdf4ks","geo_precision":"zip","state":"KY"},"type":"Feature","geometry":{"type":"Point","coordinates":[-85.703411,38.25032]}},{"properties":{"city":"LOVELAND","zip":"80538","geo_score":1.0,"id":"a6806x6up9kz","geo_precision":"zip","state":"CO"},"type":"Feature","geometry":{"type":"Point","coordinates":[-105.183385,40.551116]}},{"properties":{"city":"LUCEDALE","zip":"39452","geo_score":0.893,"id":"a6806xgpzy3f","geo_precision":"zip","state":"MS"},"type":"Feature","geometry":{"type":"Point","coordinates":[-88.610858,31.038518]}},{"properties":{"city":"LUNENBURG","zip":"23952","geo_score":1.0,"id":"a6806xaxff9r","geo_precision":"zip","state":"VA"},"type":"Feature","geometry":{"type":"Point","coordinates":[-78.285967,36.979498]}},{"properties":{"city":"LUTHERVILLE TIMONIUM","zip":"21093","geo_score":0.887,"id":"a6806x6y790n","geo_precision":"zip","state":"MD"},"type":"Feature","geometry":{"type":"Point","coordinates":[-76.601635,39.436495]}},{"properties":{"city":"LYNCHBURG","zip":"24501","geo_score":0.868,"id":"a6806x6z2rbz","geo_precision":"zip","state":"VA"},"type":"Feature","geometry":{"type":"Point","coordinates":[-79.01391,37.374033]}},{"properties":{"city":"LYONS","zip":"60534","geo_score":1.0,"id":"a6806x4x6a4f","geo_precision":"zip","state":"IL"},"type":"Feature","geometry":{"type":"Point","coordinates":[-87.68732,41.811929]}},{"properties":{"city":"MADISON HEIGHTS","zip":"24572","geo_score":0.888,"id":"a6806x8vlwyh","geo_precision":"zip","state":"VA"},"type":"Feature","geometry":{"type":"Point","coordinates":[-79.088912,37.443198]}},{"properties":{"city":"MADISON LAKE","zip":"56063","geo_score":0.896,"id":"a6806x7m3kcv","geo_precision":"zip","state":"MN"},"type":"Feature","geometry":{"type":"Point","coordinates":[-93.816897,44.240245]}},{"properties":{"city":"MAGNOLIA","zip":"77354","geo_score":1.0,"id":"a6806xidigf1","geo_precision":"zip","state":"TX"},"type":"Feature","geometry":{"type":"Point","coordinates":[-95.550188,30.233328]}},{"properties":{"city":"MAGNOLIA","zip":"77354","geo_score":1.0,"id":"a6806x9kg6ty","geo_precision":"zip","state":"TX"},"type":"Feature","geometry":{"type":"Point","coordinates":[-95.550188,30.233328]}},{"properties":{"city":"MAHWAH","zip":"7430","geo_score":0.943,"id":"a6806xf7douv","geo_precision":"zip","state":"NJ"},"type":"Feature","geometry":{"type":"Point","coordinates":[-74.151533,41.102874]}},{"properties":{"city":"MAHWAH","zip":"7430","geo_score":0.943,"id":"a6806xh8xbiz","geo_precision":"zip","state":"NJ"},"type":"Feature","geometry":{"type":"Point","coordinates":[-74.151533,41.102874]}},{"properties":{"city":"MANCHESTER","zip":"37355","geo_score":0.871,"id":"a6806xfomrp9","geo_precision":"zip","state":"TN"},"type":"Feature","geometry":{"type":"Point","coordinates":[-85.916372,35.473132]}},{"properties":{"city":"MANHASSET","zip":"11030","geo_score":0.879,"id":"a6806xji9m49","geo_precision":"zip","state":"NY"},"type":"Feature","geometry":{"type":"Point","coordinates":[-73.697353,40.816212]}},{"properties":{"city":"MANHATTAN","zip":"60442","geo_score":0.881,"id":"a6806xc19mzv","geo_precision":"zip","state":"IL"},"type":"Feature","geometry":{"type":"Point","coordinates":[-87.959773,41.351421]}},{"properties":{"city":"MANISTEE","zip":"49660","geo_score":0.857,"id":"a6806xbnp98m","geo_precision":"zip","state":"MI"},"type":"Feature","geometry":{"type":"Point","coordinates":[-86.242866,44.351946]}},{"properties":{"city":"MANITO","zip":"61546","geo_score":0.898,"id":"a6806x7pri2t","geo_precision":"zip","state":"IL"},"type":"Feature","geometry":{"type":"Point","coordinates":[-89.784553,40.510317]}},{"properties":{"city":"MANSFIELD","zip":"76063","geo_score":0.909,"id":"a6806xahx9r5","geo_precision":"zip","state":"TX"},"type":"Feature","geometry":{"type":"Point","coordinates":[-97.13251,32.614857]}},{"properties":{"city":"MANSFIELD","zip":"76063","geo_score":0.909,"id":"a6806x90m884","geo_precision":"zip","state":"TX"},"type":"Feature","geometry":{"type":"Point","coordinates":[-97.13251,32.614857]}},{"properties":{"city":"MARIETTA","zip":"30062","geo_score":1.0,"id":"a6806xfzptbv","geo_precision":"zip","state":"GA"},"type":"Feature","geometry":{"type":"Point","coordinates":[-84.48803,33.982269]}},{"properties":{"city":"MARIETTA","zip":"30062","geo_score":1.0,"id":"a6806x7c1iem","geo_precision":"zip","state":"GA"},"type":"Feature","geometry":{"type":"Point","coordinates":[-84.48803,33.982269]}},{"properties":{"city":"MARIETTA","zip":"45750","geo_score":0.952,"id":"a6806xcy0e33","geo_precision":"zip","state":"OH"},"type":"Feature","geometry":{"type":"Point","coordinates":[-81.471233,39.413408]}},{"properties":{"city":"MARIETTA","zip":"30064","geo_score":1.0,"id":"a6806xevpxka","geo_precision":"zip","state":"GA"},"type":"Feature","geometry":{"type":"Point","coordinates":[-84.629241,33.923652]}},{"properties":{"city":"MARION","zip":"2738","geo_score":0.943,"id":"a6806x9g5hg6","geo_precision":"zip","state":"MA"},"type":"Feature","geometry":{"type":"Point","coordinates":[-70.745313,41.712604]}},{"properties":{"city":"MARION","zip":"28752","geo_score":0.875,"id":"a6806xjjhkhd","geo_precision":"zip","state":"NC"},"type":"Feature","geometry":{"type":"Point","coordinates":[-82.04039,35.785401]}},{"properties":{"city":"MARQUETTE","zip":"49855","geo_score":0.878,"id":"a6806xck61ru","geo_precision":"zip","state":"MI"},"type":"Feature","geometry":{"type":"Point","coordinates":[-87.43736,46.556599]}},{"properties":{"city":"MARSHALL","zip":"56258","geo_score":0.896,"id":"a6806x9432ib","geo_precision":"zip","state":"MN"},"type":"Feature","geometry":{"type":"Point","coordinates":[-95.757243,44.526903]}},{"properties":{"city":"MARTINSVILLE","zip":"46151","geo_score":0.857,"id":"a6806x9vtt90","geo_precision":"zip","state":"IN"},"type":"Feature","geometry":{"type":"Point","coordinates":[-86.394716,39.437548]}},{"properties":{"city":"MARYSVILLE","zip":"98270","geo_score":0.871,"id":"a6806x8bja2n","geo_precision":"zip","state":"WA"},"type":"Feature","geometry":{"type":"Point","coordinates":[-122.323201,48.091485]}},{"properties":{"city":"MARYSVILLE","zip":"98271","geo_score":0.871,"id":"a6806xceoojd","geo_precision":"zip","state":"WA"},"type":"Feature","geometry":{"type":"Point","coordinates":[-122.29181,48.068429]}},{"properties":{"city":"MARYVILLE","zip":"37803","geo_score":1.0,"id":"a6806x7pevpj","geo_precision":"zip","state":"TN"},"type":"Feature","geometry":{"type":"Point","coordinates":[-83.995621,35.653917]}},{"properties":{"city":"MARYVILLE","zip":"37803","geo_score":1.0,"id":"a6806xjh3viz","geo_precision":"zip","state":"TN"},"type":"Feature","geometry":{"type":"Point","coordinates":[-83.995621,35.653917]}},{"properties":{"city":"MARYVILLE","zip":"64468","geo_score":0.873,"id":"a6806xe6cosv","geo_precision":"zip","state":"MO"},"type":"Feature","geometry":{"type":"Point","coordinates":[-94.967195,40.39888]}},{"properties":{"city":"MARYVILLE","zip":"37803","geo_score":1.0,"id":"a6806x4hn4sl","geo_precision":"zip","state":"TN"},"type":"Feature","geometry":{"type":"Point","coordinates":[-83.995621,35.653917]}},{"properties":{"city":"MASON","zip":"45040","geo_score":1.0,"id":"a6806xaivht9","geo_precision":"zip","state":"OH"},"type":"Feature","geometry":{"type":"Point","coordinates":[-84.180906,39.397999]}},{"properties":{"city":"MATAMORAS","zip":"18336","geo_score":1.0,"id":"a6806xfxbma4","geo_precision":"zip","state":"PA"},"type":"Feature","geometry":{"type":"Point","coordinates":[-74.736057,41.370358]}},{"properties":{"city":"MAULDIN","zip":"29662","geo_score":1.0,"id":"a6806xgv27xn","geo_precision":"zip","state":"SC"},"type":"Feature","geometry":{"type":"Point","coordinates":[-82.267062,34.750238]}},{"properties":{"city":"MAYO","zip":"32066","geo_score":0.905,"id":"a6806xany1gd","geo_precision":"zip","state":"FL"},"type":"Feature","geometry":{"type":"Point","coordinates":[-83.266529,30.205776]}},{"properties":{"city":"MAYO","zip":"32066","geo_score":0.905,"id":"a6806xhhejlz","geo_precision":"zip","state":"FL"},"type":"Feature","geometry":{"type":"Point","coordinates":[-83.266529,30.205776]}},{"properties":{"city":"MC LEAN","zip":"22101","geo_score":1.0,"id":"a6806x7m2k4z","geo_precision":"zip","state":"VA"},"type":"Feature","geometry":{"type":"Point","coordinates":[-77.18672,38.935202]}},{"properties":{"city":"MC MINNVILLE","zip":"37110","geo_score":0.857,"id":"a6806x6o6a1e","geo_precision":"zip","state":"TN"},"type":"Feature","geometry":{"type":"Point","coordinates":[-85.814428,35.731459]}},{"properties":{"city":"MCGREGOR","zip":"55760","geo_score":0.873,"id":"a6806xfmhd5l","geo_precision":"zip","state":"MN"},"type":"Feature","geometry":{"type":"Point","coordinates":[-93.242447,46.704669]}},{"properties":{"city":"MCHENRY","zip":"60050","geo_score":0.857,"id":"a6806x5b8ksz","geo_precision":"zip","state":"IL"},"type":"Feature","geometry":{"type":"Point","coordinates":[-88.226198,42.389465]}},{"properties":{"city":"MCKEESPORT","zip":"15132","geo_score":0.857,"id":"a6806x72j4qd","geo_precision":"zip","state":"PA"},"type":"Feature","geometry":{"type":"Point","coordinates":[-79.831158,40.315625]}},{"properties":{"city":"MECHANICSVILLE","zip":"23111","geo_score":0.875,"id":"a6806x6qcxop","geo_precision":"zip","state":"VA"},"type":"Feature","geometry":{"type":"Point","coordinates":[-77.386648,37.609312]}},{"properties":{"city":"MECHANICSVILLE","zip":"23116","geo_score":1.0,"id":"a6806xii2fum","geo_precision":"zip","state":"VA"},"type":"Feature","geometry":{"type":"Point","coordinates":[-77.329421,37.669086]}},{"properties":{"city":"MEDFORD","zip":"97504","geo_score":1.0,"id":"a6806xb1lhvg","geo_precision":"zip","state":"OR"},"type":"Feature","geometry":{"type":"Point","coordinates":[-122.793659,42.322392]}},{"properties":{"city":"MEDIA","zip":"19063","geo_score":0.89,"id":"a6806xfwz333","geo_precision":"zip","state":"PA"},"type":"Feature","geometry":{"type":"Point","coordinates":[-75.421029,39.945944]}},{"properties":{"city":"MELROSE","zip":"2176","geo_score":0.857,"id":"a6806xijyjgs","geo_precision":"zip","state":"MA"},"type":"Feature","geometry":{"type":"Point","coordinates":[-71.068941,42.454263]}},{"properties":{"city":"MELVILLE","zip":"11747","geo_score":1.0,"id":"a6806xbwddpv","geo_precision":"zip","state":"NY"},"type":"Feature","geometry":{"type":"Point","coordinates":[-73.405573,40.787248]}},{"properties":{"city":"MELVILLE","zip":"11747","geo_score":1.0,"id":"a6806xfqh1ob","geo_precision":"zip","state":"NY"},"type":"Feature","geometry":{"type":"Point","coordinates":[-73.405573,40.787248]}},{"properties":{"city":"MEMPHIS","zip":"38112","geo_score":1.0,"id":"a6806x9wq66v","geo_precision":"zip","state":"TN"},"type":"Feature","geometry":{"type":"Point","coordinates":[-89.981523,35.146285]}},{"properties":{"city":"MENA","zip":"71953","geo_score":0.905,"id":"a6806x9622z9","geo_precision":"zip","state":"AR"},"type":"Feature","geometry":{"type":"Point","coordinates":[-94.054371,34.587605]}},{"properties":{"city":"MENDON","zip":"1756","geo_score":1.0,"id":"a6806xk7mbws","geo_precision":"zip","state":"MA"},"type":"Feature","geometry":{"type":"Point","coordinates":[-71.546961,42.100352]}},{"properties":{"city":"MERIDEN","zip":"6450","geo_score":0.94,"id":"a6806xfnb878","geo_precision":"zip","state":"CT"},"type":"Feature","geometry":{"type":"Point","coordinates":[-72.833711,41.516209]}},{"properties":{"city":"MERRILL","zip":"48637","geo_score":0.878,"id":"a6806xbhrk23","geo_precision":"zip","state":"MI"},"type":"Feature","geometry":{"type":"Point","coordinates":[-84.369437,43.47364]}},{"properties":{"city":"MESA","zip":"85209","geo_score":1.0,"id":"a6806xbt9uqv","geo_precision":"zip","state":"AZ"},"type":"Feature","geometry":{"type":"Point","coordinates":[-111.82264,33.422269]}},{"properties":{"city":"MESA","zip":"81643","geo_score":0.921,"id":"a6806x97u7cu","geo_precision":"zip","state":"CO"},"type":"Feature","geometry":{"type":"Point","coordinates":[-108.092296,39.049981]}},{"properties":{"city":"MESA","zip":"85213","geo_score":1.0,"id":"a6806xkl3o7w","geo_precision":"zip","state":"AZ"},"type":"Feature","geometry":{"type":"Point","coordinates":[-111.830905,33.448407]}},{"properties":{"city":"MESQUITE","zip":"75149","geo_score":0.875,"id":"a6806xb1swy3","geo_precision":"zip","state":"TX"},"type":"Feature","geometry":{"type":"Point","coordinates":[-96.560546,32.79485]}},{"properties":{"city":"MIAMI","zip":"33143","geo_score":1.0,"id":"a6806x86rvm4","geo_precision":"zip","state":"FL"},"type":"Feature","geometry":{"type":"Point","coordinates":[-80.193659,25.774266]}},{"properties":{"city":"MIAMI","zip":"85539","geo_score":0.909,"id":"a6806xjsk4fb","geo_precision":"zip","state":"AZ"},"type":"Feature","geometry":{"type":"Point","coordinates":[-110.824278,33.411999]}},{"properties":{"city":"MIAMI","zip":"33143","geo_score":1.0,"id":"a6806xfryu7w","geo_precision":"zip","state":"FL"},"type":"Feature","geometry":{"type":"Point","coordinates":[-80.193659,25.774266]}},{"properties":{"city":"MIDDLEBURG","zip":"32068","geo_score":1.0,"id":"a6806x7cv4mm","geo_precision":"zip","state":"FL"},"type":"Feature","geometry":{"type":"Point","coordinates":[-81.847794,30.078597]}},{"properties":{"city":"MIDDLETOWN","zip":"6457","geo_score":0.857,"id":"a6806xi9dsaq","geo_precision":"zip","state":"CT"},"type":"Feature","geometry":{"type":"Point","coordinates":[-72.700651,41.584821]}},{"properties":{"city":"MIDLAND","zip":"79707","geo_score":1.0,"id":"a6806xe3ixmi","geo_precision":"zip","state":"TX"},"type":"Feature","geometry":{"type":"Point","coordinates":[-102.185691,32.008395]}},{"properties":{"city":"MIDLAND","zip":"28107","geo_score":0.857,"id":"a6806xkemtul","geo_precision":"zip","state":"NC"},"type":"Feature","geometry":{"type":"Point","coordinates":[-80.541734,35.237088]}},{"properties":{"city":"MIDLAND","zip":"79707","geo_score":1.0,"id":"a6806x6gt8r0","geo_precision":"zip","state":"TX"},"type":"Feature","geometry":{"type":"Point","coordinates":[-102.185691,32.008395]}},{"properties":{"city":"MILFORD","zip":"13807","geo_score":1.0,"id":"a6806x5zm3wc","geo_precision":"zip","state":"NY"},"type":"Feature","geometry":{"type":"Point","coordinates":[-74.975717,42.601799]}},{"properties":{"city":"MILFORD","zip":"3055","geo_score":0.94,"id":"a6806xbzphxq","geo_precision":"zip","state":"NH"},"type":"Feature","geometry":{"type":"Point","coordinates":[-71.66035,42.824531]}},{"properties":{"city":"MILL VALLEY","zip":"94941","geo_score":0.933,"id":"a6806x87wne6","geo_precision":"zip","state":"CA"},"type":"Feature","geometry":{"type":"Point","coordinates":[-122.545809,37.879649]}},{"properties":{"city":"MILTON","zip":"2186","geo_score":0.929,"id":"a6806x9cqya3","geo_precision":"zip","state":"MA"},"type":"Feature","geometry":{"type":"Point","coordinates":[-71.080051,42.254266]}},{"properties":{"city":"MILTON","zip":"40045","geo_score":0.857,"id":"a6806x79tfii","geo_precision":"zip","state":"KY"},"type":"Feature","geometry":{"type":"Point","coordinates":[-85.260789,38.703117]}},{"properties":{"city":"MILWAUKEE","zip":"53217","geo_score":0.869,"id":"a6806x4f9e55","geo_precision":"zip","state":"WI"},"type":"Feature","geometry":{"type":"Point","coordinates":[-87.900086,43.113345]}},{"properties":{"city":"MILWAUKEE","zip":"53209","geo_score":0.889,"id":"a6806x6rzi14","geo_precision":"zip","state":"WI"},"type":"Feature","geometry":{"type":"Point","coordinates":[-87.935642,43.135288]}},{"properties":{"city":"MINERSVILLE","zip":"84752","geo_score":1.0,"id":"a6806x63xvom","geo_precision":"zip","state":"UT"},"type":"Feature","geometry":{"type":"Point","coordinates":[-112.923106,38.214874]}},{"properties":{"city":"MINNEAPOLIS","zip":"55431","geo_score":1.0,"id":"a6806x4iocnc","geo_precision":"zip","state":"MN"},"type":"Feature","geometry":{"type":"Point","coordinates":[-93.311823,44.828764]}},{"properties":{"city":"MINOT","zip":"58701","geo_score":0.869,"id":"a6806x7r8ul6","geo_precision":"zip","state":"ND"},"type":"Feature","geometry":{"type":"Point","coordinates":[-101.295718,48.051953]}},{"properties":{"city":"MISHAWAKA","zip":"46545","geo_score":1.0,"id":"a6806xhglodf","geo_precision":"zip","state":"IN"},"type":"Feature","geometry":{"type":"Point","coordinates":[-86.304735,41.696407]}},{"properties":{"city":"MISSION VIEJO","zip":"92692","geo_score":1.0,"id":"a6806xbkf28n","geo_precision":"zip","state":"CA"},"type":"Feature","geometry":{"type":"Point","coordinates":[-117.659899,33.575026]}},{"properties":{"city":"MISSOULA","zip":"59808","geo_score":1.0,"id":"a6806x72vfbu","geo_precision":"zip","state":"MT"},"type":"Feature","geometry":{"type":"Point","coordinates":[-114.061856,46.977603]}},{"properties":{"city":"MONROE","zip":"45050","geo_score":0.883,"id":"a6806x4iezuy","geo_precision":"zip","state":"OH"},"type":"Feature","geometry":{"type":"Point","coordinates":[-84.331606,39.319503]}},{"properties":{"city":"MONROE","zip":"71201","geo_score":0.888,"id":"a6806x7ac49q","geo_precision":"zip","state":"LA"},"type":"Feature","geometry":{"type":"Point","coordinates":[-92.0643,32.557087]}},{"properties":{"city":"MONROE","zip":"48161","geo_score":0.89,"id":"a6806xkojhcf","geo_precision":"zip","state":"MI"},"type":"Feature","geometry":{"type":"Point","coordinates":[-83.313264,41.940045]}},{"properties":{"city":"MONROVIA","zip":"91016","geo_score":0.902,"id":"a6806xc1dqw5","geo_precision":"zip","state":"CA"},"type":"Feature","geometry":{"type":"Point","coordinates":[-118.009788,34.115008]}},{"properties":{"city":"MONTEREY","zip":"24465","geo_score":0.9,"id":"a6806xdz7po7","geo_precision":"zip","state":"VA"},"type":"Feature","geometry":{"type":"Point","coordinates":[-79.625327,38.369566]}},{"properties":{"city":"MONTEVIDEO","zip":"56265","geo_score":0.871,"id":"a6806xb33zi6","geo_precision":"zip","state":"MN"},"type":"Feature","geometry":{"type":"Point","coordinates":[-95.645301,44.889957]}},{"properties":{"city":"MONTGOMERY","zip":"56069","geo_score":1.0,"id":"a6806x6pr83d","geo_precision":"zip","state":"MN"},"type":"Feature","geometry":{"type":"Point","coordinates":[-93.580277,44.349609]}},{"properties":{"city":"MONUMENT VALLEY","zip":"84536","geo_score":1.0,"id":"a6806xklik1i","geo_precision":"zip","state":"UT"},"type":"Feature","geometry":{"type":"Point","coordinates":[-109.56809,37.280022]}},{"properties":{"city":"MORGAN CITY","zip":"70380","geo_score":0.886,"id":"a6806xfmtwor","geo_precision":"zip","state":"LA"},"type":"Feature","geometry":{"type":"Point","coordinates":[-91.171213,29.689931]}},{"properties":{"city":"MORGAN HILL","zip":"95037","geo_score":0.871,"id":"a6806x9zhkji","geo_precision":"zip","state":"CA"},"type":"Feature","geometry":{"type":"Point","coordinates":[-121.706337,37.183556]}},{"properties":{"city":"MOULTON","zip":"35650","geo_score":0.878,"id":"a6806xkejq4m","geo_precision":"zip","state":"AL"},"type":"Feature","geometry":{"type":"Point","coordinates":[-87.29363,34.434263]}},{"properties":{"city":"MOUNT AIRY","zip":"21771","geo_score":0.873,"id":"a6806x8vnz7d","geo_precision":"zip","state":"MD"},"type":"Feature","geometry":{"type":"Point","coordinates":[-77.17776,39.410103]}},{"properties":{"city":"MOUNT DORA","zip":"32757","geo_score":0.893,"id":"a6806x5idlnz","geo_precision":"zip","state":"FL"},"type":"Feature","geometry":{"type":"Point","coordinates":[-81.34566,27.317754]}},{"properties":{"city":"MOUNT VERNON","zip":"47620","geo_score":0.883,"id":"a6806xferjyo","geo_precision":"zip","state":"IN"},"type":"Feature","geometry":{"type":"Point","coordinates":[-87.715854,37.986987]}},{"properties":{"city":"MULLICA HILL","zip":"8062","geo_score":0.896,"id":"a6806x87d9n3","geo_precision":"zip","state":"NJ"},"type":"Feature","geometry":{"type":"Point","coordinates":[-75.240741,39.669558]}},{"properties":{"city":"MULLINS","zip":"29574","geo_score":0.878,"id":"a6806xhng2ms","geo_precision":"zip","state":"SC"},"type":"Feature","geometry":{"type":"Point","coordinates":[-79.317826,34.259882]}},{"properties":{"city":"MUNCIE","zip":"47303","geo_score":0.869,"id":"a6806x84gv0l","geo_precision":"zip","state":"IN"},"type":"Feature","geometry":{"type":"Point","coordinates":[-85.308025,40.19671]}},{"properties":{"city":"MYRTLE BEACH","zip":"29579","geo_score":1.0,"id":"a6806xknw4tq","geo_precision":"zip","state":"SC"},"type":"Feature","geometry":{"type":"Point","coordinates":[-78.978653,33.737697]}},{"properties":{"city":"NANCY","zip":"42544","geo_score":0.857,"id":"a6806xd29hoo","geo_precision":"zip","state":"KY"},"type":"Feature","geometry":{"type":"Point","coordinates":[-84.706054,37.048687]}},{"properties":{"city":"NAPLES","zip":"75568","geo_score":0.857,"id":"a6806xhm1695","geo_precision":"zip","state":"TX"},"type":"Feature","geometry":{"type":"Point","coordinates":[-94.697984,33.111513]}},{"properties":{"city":"NAPLES","zip":"34120","geo_score":1.0,"id":"a6806x9fe8ws","geo_precision":"zip","state":"FL"},"type":"Feature","geometry":{"type":"Point","coordinates":[-81.587104,26.330438]}},{"properties":{"city":"NASHVILLE","zip":"37204","geo_score":0.889,"id":"a6806x7jv4h4","geo_precision":"zip","state":"TN"},"type":"Feature","geometry":{"type":"Point","coordinates":[-86.766388,36.117003]}},{"properties":{"city":"NASHVILLE","zip":"37214","geo_score":0.881,"id":"a6806xeo3ibr","geo_precision":"zip","state":"TN"},"type":"Feature","geometry":{"type":"Point","coordinates":[-86.603885,36.087559]}},{"properties":{"city":"NASHVILLE","zip":"37209","geo_score":0.956,"id":"a6806x87o4x5","geo_precision":"zip","state":"TN"},"type":"Feature","geometry":{"type":"Point","coordinates":[-86.846389,36.158946]}},{"properties":{"city":"NASHVILLE","zip":"37214","geo_score":0.881,"id":"a6806xa5r0sz","geo_precision":"zip","state":"TN"},"type":"Feature","geometry":{"type":"Point","coordinates":[-86.603885,36.087559]}},{"properties":{"city":"NASHVILLE","zip":"37205","geo_score":0.889,"id":"a6806x4osrre","geo_precision":"zip","state":"TN"},"type":"Feature","geometry":{"type":"Point","coordinates":[-86.887223,36.117836]}},{"properties":{"city":"NASHVILLE","zip":"37203","geo_score":1.0,"id":"a6806x6d4yxs","geo_precision":"zip","state":"TN"},"type":"Feature","geometry":{"type":"Point","coordinates":[-86.791598,36.150406]}},{"properties":{"city":"NEW CANEY","zip":"77357","geo_score":0.886,"id":"a6806xfvgiep","geo_precision":"zip","state":"TX"},"type":"Feature","geometry":{"type":"Point","coordinates":[-95.188822,30.181049]}},{"properties":{"city":"NEW CASTLE","zip":"16101","geo_score":0.87,"id":"a6806xg4m6ya","geo_precision":"zip","state":"PA"},"type":"Feature","geometry":{"type":"Point","coordinates":[-80.382843,40.953395]}},{"properties":{"city":"NEW HARTFORD","zip":"6057","geo_score":0.87,"id":"a6806x5jsxho","geo_precision":"zip","state":"CT"},"type":"Feature","geometry":{"type":"Point","coordinates":[-72.998994,41.853152]}},{"properties":{"city":"NEW IBERIA","zip":"70563","geo_score":1.0,"id":"a6806x6ljnyt","geo_precision":"zip","state":"LA"},"type":"Feature","geometry":{"type":"Point","coordinates":[-91.749604,30.024515]}},{"properties":{"city":"NEW ORLEANS","zip":"70121","geo_score":0.857,"id":"a6806xj9i1fz","geo_precision":"zip","state":"LA"},"type":"Feature","geometry":{"type":"Point","coordinates":[-90.142852,29.962426]}},{"properties":{"city":"NEW PORT RICHEY","zip":"34655","geo_score":0.89,"id":"a6806x6muk5l","geo_precision":"zip","state":"FL"},"type":"Feature","geometry":{"type":"Point","coordinates":[-82.665933,28.212233]}},{"properties":{"city":"NEW YORK","zip":"10016","geo_score":1.0,"id":"a6806x7w79l9","geo_precision":"zip","state":"NY"},"type":"Feature","geometry":{"type":"Point","coordinates":[-73.978449,40.745527]}},{"properties":{"city":"NEWAYGO","zip":"49337","geo_score":0.879,"id":"a6806xerq1pw","geo_precision":"zip","state":"MI"},"type":"Feature","geometry":{"type":"Point","coordinates":[-85.634768,43.456413]}},{"properties":{"city":"NEWBURGH","zip":"47630","geo_score":0.871,"id":"a6806x9euive","geo_precision":"zip","state":"IN"},"type":"Feature","geometry":{"type":"Point","coordinates":[-87.297782,37.917546]}},{"properties":{"city":"NEWBURY","zip":"3255","geo_score":0.867,"id":"a6806xfwbnfk","geo_precision":"zip","state":"NH"},"type":"Feature","geometry":{"type":"Point","coordinates":[-72.042029,43.373686]}},{"properties":{"city":"NEWBURY","zip":"3255","geo_score":0.867,"id":"a6806xej7x2f","geo_precision":"zip","state":"NH"},"type":"Feature","geometry":{"type":"Point","coordinates":[-72.042029,43.373686]}},{"properties":{"city":"NEWPORT","zip":"72112","geo_score":0.878,"id":"a6806xahgzmy","geo_precision":"zip","state":"AR"},"type":"Feature","geometry":{"type":"Point","coordinates":[-91.16318,35.547025]}},{"properties":{"city":"NEWPORT NEWS","zip":"23601","geo_score":1.0,"id":"a6806xdgrc81","geo_precision":"zip","state":"VA"},"type":"Feature","geometry":{"type":"Point","coordinates":[-76.463471,37.058296]}},{"properties":{"city":"NICHOLASVILLE","zip":"40356","geo_score":0.879,"id":"a6806x7f0eft","geo_precision":"zip","state":"KY"},"type":"Feature","geometry":{"type":"Point","coordinates":[-84.587719,37.843968]}},{"properties":{"city":"NORMAN","zip":"73071","geo_score":1.0,"id":"a6806xk3kq4y","geo_precision":"zip","state":"OK"},"type":"Feature","geometry":{"type":"Point","coordinates":[-97.300313,35.254049]}},{"properties":{"city":"NORMAN","zip":"73070","geo_score":1.0,"id":"a6806x8wm0lb","geo_precision":"zip","state":"OK"},"type":"Feature","geometry":{"type":"Point","coordinates":[-97.397509,35.187611]}},{"properties":{"city":"NORTH DIGHTON","zip":"2764","geo_score":1.0,"id":"a6806xez17ac","geo_precision":"zip","state":"MA"},"type":"Feature","geometry":{"type":"Point","coordinates":[-71.155797,41.847791]}},{"properties":{"city":"NORTH LAS VEGAS","zip":"89032","geo_score":1.0,"id":"a6806xi68wmj","geo_precision":"zip","state":"NV"},"type":"Feature","geometry":{"type":"Point","coordinates":[-115.170919,36.217968]}},{"properties":{"city":"NORTH PORT","zip":"34287","geo_score":0.881,"id":"a6806xbeifyp","geo_precision":"zip","state":"FL"},"type":"Feature","geometry":{"type":"Point","coordinates":[-82.260093,27.059779]}},{"properties":{"city":"NORTHAMPTON","zip":"18067","geo_score":0.857,"id":"a6806xb5f3i0","geo_precision":"zip","state":"PA"},"type":"Feature","geometry":{"type":"Point","coordinates":[-75.453794,40.688708]}},{"properties":{"city":"NORWALK","zip":"50211","geo_score":0.875,"id":"a6806xabu8ad","geo_precision":"zip","state":"IA"},"type":"Feature","geometry":{"type":"Point","coordinates":[-93.674108,41.501657]}},{"properties":{"city":"NOTTINGHAM","zip":"3290","geo_score":1.0,"id":"a6806xciwe9j","geo_precision":"zip","state":"NH"},"type":"Feature","geometry":{"type":"Point","coordinates":[-71.125879,43.124825]}},{"properties":{"city":"O FALLON","zip":"63368","geo_score":0.857,"id":"a6806xkbloxx","geo_precision":"city","state":"MO"},"type":"Feature","geometry":{"type":"Point","coordinates":[-90.742745,38.823944]}},{"properties":{"city":"OAK CREEK","zip":"53154","geo_score":0.911,"id":"a6806xiwddm0","geo_precision":"zip","state":"WI"},"type":"Feature","geometry":{"type":"Point","coordinates":[-87.924527,42.858073]}},{"properties":{"city":"OAK HARBOR","zip":"43449","geo_score":0.873,"id":"a6806xg9cbfk","geo_precision":"zip","state":"OH"},"type":"Feature","geometry":{"type":"Point","coordinates":[-83.095754,41.609771]}},{"properties":{"city":"OAKES","zip":"58474","geo_score":0.881,"id":"a6806xjnfrq2","geo_precision":"zip","state":"ND"},"type":"Feature","geometry":{"type":"Point","coordinates":[-98.13899,46.241633]}},{"properties":{"city":"OCEAN SPRINGS","zip":"39564","geo_score":0.881,"id":"a6806xgwekhs","geo_precision":"zip","state":"MS"},"type":"Feature","geometry":{"type":"Point","coordinates":[-88.687524,30.540475]}},{"properties":{"city":"OCEANSIDE","zip":"92056","geo_score":1.0,"id":"a6806x5rgkn7","geo_precision":"zip","state":"CA"},"type":"Feature","geometry":{"type":"Point","coordinates":[-116.846046,33.016928]}},{"properties":{"city":"OCONOMOWOC","zip":"53066","geo_score":0.857,"id":"a6806xch427l","geo_precision":"zip","state":"WI"},"type":"Feature","geometry":{"type":"Point","coordinates":[-88.438153,43.02001]}},{"properties":{"city":"ODESSA","zip":"79762","geo_score":1.0,"id":"a6806xiwtvys","geo_precision":"zip","state":"TX"},"type":"Feature","geometry":{"type":"Point","coordinates":[-102.353839,31.893906]}},{"properties":{"city":"OELWEIN","zip":"50662","geo_score":1.0,"id":"a6806x5dugsc","geo_precision":"zip","state":"IA"},"type":"Feature","geometry":{"type":"Point","coordinates":[-91.853578,42.693463]}},{"properties":{"city":"OGDEN","zip":"50212","geo_score":1.0,"id":"a6806xdla5ee","geo_precision":"zip","state":"IA"},"type":"Feature","geometry":{"type":"Point","coordinates":[-94.052358,42.043714]}},{"properties":{"city":"OKLAHOMA CITY","zip":"73160","geo_score":0.869,"id":"a6806xfnnt8q","geo_precision":"zip","state":"OK"},"type":"Feature","geometry":{"type":"Point","coordinates":[-97.486703,35.339508]}},{"properties":{"city":"OKLAHOMA CITY","zip":"73160","geo_score":0.869,"id":"a6806xf7yu8r","geo_precision":"zip","state":"OK"},"type":"Feature","geometry":{"type":"Point","coordinates":[-97.486703,35.339508]}},{"properties":{"city":"OKLAHOMA CITY","zip":"73130","geo_score":1.0,"id":"a6806xcwk9o0","geo_precision":"zip","state":"OK"},"type":"Feature","geometry":{"type":"Point","coordinates":[-97.298733,35.459312]}},{"properties":{"city":"OLD BRIDGE","zip":"8857","geo_score":0.949,"id":"a6806xasa019","geo_precision":"zip","state":"NJ"},"type":"Feature","geometry":{"type":"Point","coordinates":[-74.354315,40.408163]}},{"properties":{"city":"OLD BRIDGE","zip":"8857","geo_score":0.949,"id":"a6806xdp9l3t","geo_precision":"zip","state":"NJ"},"type":"Feature","geometry":{"type":"Point","coordinates":[-74.354315,40.408163]}},{"properties":{"city":"OLD BRIDGE","zip":"8857","geo_score":0.949,"id":"a6806xi3caaf","geo_precision":"zip","state":"NJ"},"type":"Feature","geometry":{"type":"Point","coordinates":[-74.354315,40.408163]}},{"properties":{"city":"OLD HICKORY","zip":"37138","geo_score":0.886,"id":"a6806xk33140","geo_precision":"zip","state":"TN"},"type":"Feature","geometry":{"type":"Point","coordinates":[-86.635552,36.243109]}},{"properties":{"city":"OLMSTED FALLS","zip":"44138","geo_score":1.0,"id":"a6806xgcid2d","geo_precision":"zip","state":"OH"},"type":"Feature","geometry":{"type":"Point","coordinates":[-81.768304,41.4656]}},{"properties":{"city":"OLNEY","zip":"20832","geo_score":1.0,"id":"a6806xjt62tf","geo_precision":"zip","state":"MD"},"type":"Feature","geometry":{"type":"Point","coordinates":[-77.077651,39.150364]}},{"properties":{"city":"OLYMPIA","zip":"98501","geo_score":0.871,"id":"a6806xff91qo","geo_precision":"zip","state":"WA"},"type":"Feature","geometry":{"type":"Point","coordinates":[-122.774578,47.032596]}},{"properties":{"city":"OMAHA","zip":"68138","geo_score":1.0,"id":"a6806xixfqn6","geo_precision":"zip","state":"NE"},"type":"Feature","geometry":{"type":"Point","coordinates":[-96.133576,41.158509]}},{"properties":{"city":"OMAHA","zip":"68134","geo_score":0.857,"id":"a6806xajee9k","geo_precision":"zip","state":"NE"},"type":"Feature","geometry":{"type":"Point","coordinates":[-96.054739,41.321109]}},{"properties":{"city":"ORANGE","zip":"92867","geo_score":1.0,"id":"a6806x7sdga6","geo_precision":"zip","state":"CA"},"type":"Feature","geometry":{"type":"Point","coordinates":[-117.769442,33.640302]}},{"properties":{"city":"ORANGE PARK","zip":"32073","geo_score":0.9,"id":"a6806xa1pmvr","geo_precision":"zip","state":"FL"},"type":"Feature","geometry":{"type":"Point","coordinates":[-81.784265,30.138851]}},{"properties":{"city":"ORANGE PARK","zip":"32003","geo_score":0.8,"id":"a6806xize169","geo_precision":"city","state":"FL"},"type":"Feature","geometry":{"type":"Point","coordinates":[-85.024915,30.227698]}},{"properties":{"city":"ORANGE PARK","zip":"32003","geo_score":0.8,"id":"a6806x4k7k5k","geo_precision":"city","state":"FL"},"type":"Feature","geometry":{"type":"Point","coordinates":[-85.024915,30.227698]}},{"properties":{"city":"ORANGE PARK","zip":"32003","geo_score":0.8,"id":"a6806x5ja5o5","geo_precision":"city","state":"FL"},"type":"Feature","geometry":{"type":"Point","coordinates":[-85.024915,30.227698]}},{"properties":{"city":"ORANGE PARK","zip":"32073","geo_score":0.9,"id":"a6806xa42a8r","geo_precision":"zip","state":"FL"},"type":"Feature","geometry":{"type":"Point","coordinates":[-81.784265,30.138851]}},{"properties":{"city":"ORLAND PARK","zip":"60467","geo_score":1.0,"id":"a6806x85m3zz","geo_precision":"zip","state":"IL"},"type":"Feature","geometry":{"type":"Point","coordinates":[-87.68732,41.811929]}},{"properties":{"city":"ORLANDO","zip":"32824","geo_score":0.878,"id":"a6806xb9zvkd","geo_precision":"zip","state":"FL"},"type":"Feature","geometry":{"type":"Point","coordinates":[-81.36507,28.429728]}},{"properties":{"city":"ORLANDO","zip":"32809","geo_score":0.87,"id":"a6806xh96gk0","geo_precision":"zip","state":"FL"},"type":"Feature","geometry":{"type":"Point","coordinates":[-81.445905,28.455839]}},{"properties":{"city":"ORMOND BEACH","zip":"32174","geo_score":1.0,"id":"a6806x8cayuq","geo_precision":"zip","state":"FL"},"type":"Feature","geometry":{"type":"Point","coordinates":[-81.177846,29.30766]}},{"properties":{"city":"OWASSO","zip":"74055","geo_score":1.0,"id":"a6806xd7roso","geo_precision":"zip","state":"OK"},"type":"Feature","geometry":{"type":"Point","coordinates":[-95.909669,36.140225]}},{"properties":{"city":"OWASSO","zip":"74055","geo_score":1.0,"id":"a6806x55nllq","geo_precision":"zip","state":"OK"},"type":"Feature","geometry":{"type":"Point","coordinates":[-95.909669,36.140225]}},{"properties":{"city":"OWATONNA","zip":"55060","geo_score":0.869,"id":"a6806xkpcsw3","geo_precision":"zip","state":"MN"},"type":"Feature","geometry":{"type":"Point","coordinates":[-93.22632,43.989407]}},{"properties":{"city":"OWENSVILLE","zip":"47665","geo_score":0.871,"id":"a6806xh7z378","geo_precision":"zip","state":"IN"},"type":"Feature","geometry":{"type":"Point","coordinates":[-87.781695,38.341435]}},{"properties":{"city":"OWINGS","zip":"20736","geo_score":0.881,"id":"a6806xec9rrl","geo_precision":"zip","state":"MD"},"type":"Feature","geometry":{"type":"Point","coordinates":[-76.582737,38.702618]}},{"properties":{"city":"OXFORD","zip":"27565","geo_score":0.857,"id":"a6806xgn461t","geo_precision":"zip","state":"NC"},"type":"Feature","geometry":{"type":"Point","coordinates":[-78.629447,36.199868]}},{"properties":{"city":"OXFORD","zip":"6478","geo_score":1.0,"id":"a6806xh5tocf","geo_precision":"zip","state":"CT"},"type":"Feature","geometry":{"type":"Point","coordinates":[-73.138379,41.432583]}},{"properties":{"city":"PACIFIC PALISADES","zip":"90272","geo_score":0.893,"id":"a6806xav4o80","geo_precision":"zip","state":"CA"},"type":"Feature","geometry":{"type":"Point","coordinates":[-118.561194,34.042509]}},{"properties":{"city":"PALERMO","zip":"95968","geo_score":1.0,"id":"a6806x6qk6pg","geo_precision":"zip","state":"CA"},"type":"Feature","geometry":{"type":"Point","coordinates":[-121.55118,39.443039]}},{"properties":{"city":"PALM BAY","zip":"32909","geo_score":1.0,"id":"a6806xjg3aph","geo_precision":"zip","state":"FL"},"type":"Feature","geometry":{"type":"Point","coordinates":[-80.638504,27.933086]}},{"properties":{"city":"PALM SPRINGS","zip":"92264","geo_score":1.0,"id":"a6806x5obid0","geo_precision":"zip","state":"CA"},"type":"Feature","geometry":{"type":"Point","coordinates":[-116.511883,33.797145]}},{"properties":{"city":"PAMPA","zip":"79065","geo_score":0.878,"id":"a6806xif3por","geo_precision":"zip","state":"TX"},"type":"Feature","geometry":{"type":"Point","coordinates":[-100.632914,35.543657]}},{"properties":{"city":"PANAMA CITY","zip":"32404","geo_score":0.886,"id":"a6806xex8p3s","geo_precision":"zip","state":"FL"},"type":"Feature","geometry":{"type":"Point","coordinates":[-85.60326,30.131035]}},{"properties":{"city":"PARIS","zip":"40361","geo_score":0.875,"id":"a6806xinlq68","geo_precision":"zip","state":"KY"},"type":"Feature","geometry":{"type":"Point","coordinates":[-84.276044,38.27702]}},{"properties":{"city":"PARKER","zip":"80134","geo_score":0.889,"id":"a6806xfux9cz","geo_precision":"zip","state":"CO"},"type":"Feature","geometry":{"type":"Point","coordinates":[-104.734419,39.455267]}},{"properties":{"city":"PARKER","zip":"80134","geo_score":0.889,"id":"a6806xdvinbd","geo_precision":"zip","state":"CO"},"type":"Feature","geometry":{"type":"Point","coordinates":[-104.734419,39.455267]}},{"properties":{"city":"PARKERSBURG","zip":"26101","geo_score":0.869,"id":"a6806xjbp6ux","geo_precision":"zip","state":"WV"},"type":"Feature","geometry":{"type":"Point","coordinates":[-81.512067,39.290353]}},{"properties":{"city":"PEARL RIVER","zip":"10965","geo_score":0.87,"id":"a6806xawe8i7","geo_precision":"zip","state":"NY"},"type":"Feature","geometry":{"type":"Point","coordinates":[-73.992361,41.057041]}},{"properties":{"city":"PECK","zip":"67120","geo_score":0.893,"id":"a6806xhwsq8c","geo_precision":"zip","state":"KS"},"type":"Feature","geometry":{"type":"Point","coordinates":[-97.307545,37.520574]}},{"properties":{"city":"PELION","zip":"29123","geo_score":0.881,"id":"a6806xknt3rq","geo_precision":"zip","state":"SC"},"type":"Feature","geometry":{"type":"Point","coordinates":[-81.258713,33.710706]}},{"properties":{"city":"PENNGROVE","zip":"94951","geo_score":1.0,"id":"a6806x4kct3d","geo_precision":"zip","state":"CA"},"type":"Feature","geometry":{"type":"Point","coordinates":[-122.648346,38.315342]}},{"properties":{"city":"PEORIA","zip":"61604","geo_score":0.943,"id":"a6806xhr4goo","geo_precision":"zip","state":"IL"},"type":"Feature","geometry":{"type":"Point","coordinates":[-89.627877,40.692538]}},{"properties":{"city":"PERKASIE","zip":"18944","geo_score":0.893,"id":"a6806x8sdd1z","geo_precision":"zip","state":"PA"},"type":"Feature","geometry":{"type":"Point","coordinates":[-75.256287,40.427325]}},{"properties":{"city":"PERRYSBURG","zip":"43551","geo_score":0.857,"id":"a6806xhaddwy","geo_precision":"zip","state":"OH"},"type":"Feature","geometry":{"type":"Point","coordinates":[-83.566878,41.535052]}},{"properties":{"city":"PETERSBURG","zip":"47567","geo_score":0.87,"id":"a6806xfu5q9u","geo_precision":"zip","state":"IN"},"type":"Feature","geometry":{"type":"Point","coordinates":[-87.295569,38.450882]}},{"properties":{"city":"PEYTON","zip":"80831","geo_score":0.905,"id":"a6806xjhklbo","geo_precision":"zip","state":"CO"},"type":"Feature","geometry":{"type":"Point","coordinates":[-104.608583,38.933049]}},{"properties":{"city":"PHOENIX","zip":"13135","geo_score":0.888,"id":"a6806xeagfp0","geo_precision":"zip","state":"NY"},"type":"Feature","geometry":{"type":"Point","coordinates":[-76.358544,43.217846]}},{"properties":{"city":"PIGGOTT","zip":"72454","geo_score":0.893,"id":"a6806xa6eqyz","geo_precision":"zip","state":"AR"},"type":"Feature","geometry":{"type":"Point","coordinates":[-90.330659,36.375894]}},{"properties":{"city":"PIKEVILLE","zip":"37367","geo_score":0.871,"id":"a6806xf144be","geo_precision":"zip","state":"TN"},"type":"Feature","geometry":{"type":"Point","coordinates":[-85.116069,35.574235]}},{"properties":{"city":"PLANO","zip":"75075","geo_score":1.0,"id":"a6806xc7bvkq","geo_precision":"zip","state":"TX"},"type":"Feature","geometry":{"type":"Point","coordinates":[-96.71546,33.162417]}},{"properties":{"city":"PLANT CITY","zip":"33566","geo_score":0.857,"id":"a6806xgftcem","geo_precision":"zip","state":"FL"},"type":"Feature","geometry":{"type":"Point","coordinates":[-82.06814,28.025299]}},{"properties":{"city":"PLATTE CITY","zip":"64079","geo_score":0.871,"id":"a6806x6883fq","geo_precision":"zip","state":"MO"},"type":"Feature","geometry":{"type":"Point","coordinates":[-94.888019,39.319722]}},{"properties":{"city":"PLEASANT GROVE","zip":"84062","geo_score":0.879,"id":"a6806xbrgzol","geo_precision":"zip","state":"UT"},"type":"Feature","geometry":{"type":"Point","coordinates":[-111.758541,40.414117]}},{"properties":{"city":"PLEASANTON","zip":"94588","geo_score":1.0,"id":"a6806x8hdsxv","geo_precision":"zip","state":"CA"},"type":"Feature","geometry":{"type":"Point","coordinates":[-121.898741,37.688244]}},{"properties":{"city":"PLEASANTON","zip":"94588","geo_score":1.0,"id":"a6806xchq914","geo_precision":"zip","state":"CA"},"type":"Feature","geometry":{"type":"Point","coordinates":[-121.898741,37.688244]}},{"properties":{"city":"PLEASANTVILLE","zip":"10570","geo_score":1.0,"id":"a6806xkh8yr4","geo_precision":"zip","state":"NY"},"type":"Feature","geometry":{"type":"Point","coordinates":[-73.792214,41.131069]}},{"properties":{"city":"POCAHONTAS","zip":"50574","geo_score":1.0,"id":"a6806x6cacbb","geo_precision":"zip","state":"IA"},"type":"Feature","geometry":{"type":"Point","coordinates":[-94.650755,42.726507]}},{"properties":{"city":"POINT PLEASANT BEACH","zip":"8742","geo_score":0.881,"id":"a6806xhlwhmj","geo_precision":"zip","state":"NJ"},"type":"Feature","geometry":{"type":"Point","coordinates":[-74.060693,40.090671]}},{"properties":{"city":"PONCA CITY","zip":"74601","geo_score":0.857,"id":"a6806xb52nvu","geo_precision":"zip","state":"OK"},"type":"Feature","geometry":{"type":"Point","coordinates":[-97.076151,36.608373]}},{"properties":{"city":"PONDER","zip":"76259","geo_score":0.881,"id":"a6806xjusy3p","geo_precision":"zip","state":"TX"},"type":"Feature","geometry":{"type":"Point","coordinates":[-97.352521,33.224285]}},{"properties":{"city":"POPLARVILLE","zip":"39470","geo_score":0.962,"id":"a6806xbzl8sr","geo_precision":"zip","state":"MS"},"type":"Feature","geometry":{"type":"Point","coordinates":[-89.571455,30.834353]}},{"properties":{"city":"PORT WASHINGTON","zip":"53074","geo_score":0.878,"id":"a6806x98uixf","geo_precision":"zip","state":"WI"},"type":"Feature","geometry":{"type":"Point","coordinates":[-87.870922,43.414168]}},{"properties":{"city":"PORTLAND","zip":"97203","geo_score":0.888,"id":"a6806x9cmzle","geo_precision":"zip","state":"OR"},"type":"Feature","geometry":{"type":"Point","coordinates":[-122.728709,45.576228]}},{"properties":{"city":"PORTLAND","zip":"97225","geo_score":0.889,"id":"a6806x56fzgv","geo_precision":"zip","state":"OR"},"type":"Feature","geometry":{"type":"Point","coordinates":[-122.764543,45.498729]}},{"properties":{"city":"POWDER SPRINGS","zip":"30127","geo_score":1.0,"id":"a6806xhy6kq3","geo_precision":"zip","state":"GA"},"type":"Feature","geometry":{"type":"Point","coordinates":[-84.685885,33.91351]}},{"properties":{"city":"PRATTVILLE","zip":"36066","geo_score":1.0,"id":"a6806xfxngoe","geo_precision":"zip","state":"AL"},"type":"Feature","geometry":{"type":"Point","coordinates":[-86.440879,32.50919]}},{"properties":{"city":"PRINCETON","zip":"61356","geo_score":0.857,"id":"a6806xaup1l9","geo_precision":"zip","state":"IL"},"type":"Feature","geometry":{"type":"Point","coordinates":[-89.297032,41.365035]}},{"properties":{"city":"PUYALLUP","zip":"98373","geo_score":0.875,"id":"a6806xexy7uk","geo_precision":"zip","state":"WA"},"type":"Feature","geometry":{"type":"Point","coordinates":[-122.357065,47.161767]}},{"properties":{"city":"QUEEN CREEK","zip":"85242","geo_score":1.0,"id":"a6806xj5p5t7","geo_precision":"zip","state":"AZ"},"type":"Feature","geometry":{"type":"Point","coordinates":[-111.656128,33.284844]}},{"properties":{"city":"QUINCY","zip":"62301","geo_score":0.857,"id":"a6806x5vwv6j","geo_precision":"zip","state":"IL"},"type":"Feature","geometry":{"type":"Point","coordinates":[-91.368482,39.839768]}},{"properties":{"city":"QUITMAN","zip":"71268","geo_score":0.886,"id":"a6806x5ftq5h","geo_precision":"zip","state":"LA"},"type":"Feature","geometry":{"type":"Point","coordinates":[-92.804043,32.331266]}},{"properties":{"city":"RACELAND","zip":"70394","geo_score":0.857,"id":"a6806x7548ws","geo_precision":"zip","state":"LA"},"type":"Feature","geometry":{"type":"Point","coordinates":[-90.617032,29.738544]}},{"properties":{"city":"RAYNE","zip":"70578","geo_score":0.914,"id":"a6806xds0zqz","geo_precision":"zip","state":"LA"},"type":"Feature","geometry":{"type":"Point","coordinates":[-92.176237,30.159092]}},{"properties":{"city":"RAYNE","zip":"70578","geo_score":0.914,"id":"a6806xcs3a2a","geo_precision":"zip","state":"LA"},"type":"Feature","geometry":{"type":"Point","coordinates":[-92.176237,30.159092]}},{"properties":{"city":"REDDING","zip":"96002","geo_score":1.0,"id":"a6806x4xg0yn","geo_precision":"zip","state":"CA"},"type":"Feature","geometry":{"type":"Point","coordinates":[-122.3076,40.624448]}},{"properties":{"city":"REDMOND","zip":"84652","geo_score":1.0,"id":"a6806xc82xi8","geo_precision":"zip","state":"UT"},"type":"Feature","geometry":{"type":"Point","coordinates":[-111.975313,38.906498]}},{"properties":{"city":"RICHMOND","zip":"77406","geo_score":1.0,"id":"a6806xi4ceg7","geo_precision":"zip","state":"TX"},"type":"Feature","geometry":{"type":"Point","coordinates":[-95.919107,29.50401]}},{"properties":{"city":"RICHMOND","zip":"23238","geo_score":1.0,"id":"a6806x5hbmjh","geo_precision":"zip","state":"VA"},"type":"Feature","geometry":{"type":"Point","coordinates":[-77.460262,37.553758]}},{"properties":{"city":"RICHMOND","zip":"77406","geo_score":1.0,"id":"a6806xfpj8ic","geo_precision":"zip","state":"TX"},"type":"Feature","geometry":{"type":"Point","coordinates":[-95.919107,29.50401]}},{"properties":{"city":"RICHMOND","zip":"40475","geo_score":0.857,"id":"a6806x7g3g82","geo_precision":"zip","state":"KY"},"type":"Feature","geometry":{"type":"Point","coordinates":[-84.430491,37.84619]}},{"properties":{"city":"RICHMOND","zip":"23229","geo_score":1.0,"id":"a6806x4hnzvy","geo_precision":"zip","state":"VA"},"type":"Feature","geometry":{"type":"Point","coordinates":[-77.460262,37.553758]}},{"properties":{"city":"RICHMOND","zip":"23235","geo_score":1.0,"id":"a6806xe4oj8s","geo_precision":"zip","state":"VA"},"type":"Feature","geometry":{"type":"Point","coordinates":[-77.460262,37.553758]}},{"properties":{"city":"RICHMOND HILL","zip":"31324","geo_score":0.917,"id":"a6806x6pu832","geo_precision":"zip","state":"GA"},"type":"Feature","geometry":{"type":"Point","coordinates":[-81.269275,31.906322]}},{"properties":{"city":"RIPON","zip":"95366","geo_score":0.886,"id":"a6806xhklfam","geo_precision":"zip","state":"CA"},"type":"Feature","geometry":{"type":"Point","coordinates":[-121.095217,37.797983]}},{"properties":{"city":"RIPON","zip":"95366","geo_score":0.886,"id":"a6806xa0jnn4","geo_precision":"zip","state":"CA"},"type":"Feature","geometry":{"type":"Point","coordinates":[-121.095217,37.797983]}},{"properties":{"city":"RISING SUN","zip":"47040","geo_score":0.869,"id":"a6806xc5kctx","geo_precision":"zip","state":"IN"},"type":"Feature","geometry":{"type":"Point","coordinates":[-84.922727,38.853395]}},{"properties":{"city":"RIVERTON","zip":"84065","geo_score":0.883,"id":"a6806xim3nhe","geo_precision":"zip","state":"UT"},"type":"Feature","geometry":{"type":"Point","coordinates":[-111.929658,40.56217]}},{"properties":{"city":"RIVERTON","zip":"8077","geo_score":0.881,"id":"a6806xayfvz5","geo_precision":"zip","state":"NJ"},"type":"Feature","geometry":{"type":"Point","coordinates":[-74.998503,39.985112]}},{"properties":{"city":"RIVERTON","zip":"8077","geo_score":0.881,"id":"a6806xe75pp0","geo_precision":"zip","state":"NJ"},"type":"Feature","geometry":{"type":"Point","coordinates":[-74.998503,39.985112]}},{"properties":{"city":"ROBINSON","zip":"62454","geo_score":0.875,"id":"a6806x7pq9r4","geo_precision":"zip","state":"IL"},"type":"Feature","geometry":{"type":"Point","coordinates":[-87.68447,39.063375]}},{"properties":{"city":"ROCHESTER","zip":"3839","geo_score":0.873,"id":"a6806xhmzycm","geo_precision":"zip","state":"NH"},"type":"Feature","geometry":{"type":"Point","coordinates":[-70.978119,43.274526]}},{"properties":{"city":"ROCHESTER","zip":"14616","geo_score":0.889,"id":"a6806xgcoxow","geo_precision":"zip","state":"NY"},"type":"Feature","geometry":{"type":"Point","coordinates":[-77.69306,43.209784]}},{"properties":{"city":"ROCK SPRINGS","zip":"82901","geo_score":0.753,"id":"a6806xbawhsn","geo_precision":"zip","state":"WY"},"type":"Feature","geometry":{"type":"Point","coordinates":[-108.817058,40.918017]}},{"properties":{"city":"ROCKLEDGE","zip":"32955","geo_score":1.0,"id":"a6806x88htue","geo_precision":"zip","state":"FL"},"type":"Feature","geometry":{"type":"Point","coordinates":[-80.723065,28.28714]}},{"properties":{"city":"ROLLA","zip":"67954","geo_score":1.0,"id":"a6806x58tan7","geo_precision":"zip","state":"KS"},"type":"Feature","geometry":{"type":"Point","coordinates":[-101.60469,37.081137]}},{"properties":{"city":"ROSEVILLE","zip":"43777","geo_score":0.905,"id":"a6806x7rd9zq","geo_precision":"zip","state":"OH"},"type":"Feature","geometry":{"type":"Point","coordinates":[-82.089307,39.877012]}},{"properties":{"city":"ROSWELL","zip":"30075","geo_score":0.869,"id":"a6806xbftn6j","geo_precision":"zip","state":"GA"},"type":"Feature","geometry":{"type":"Point","coordinates":[-84.411316,34.080932]}},{"properties":{"city":"ROSWELL","zip":"30075","geo_score":0.869,"id":"a6806xd9f2nn","geo_precision":"zip","state":"GA"},"type":"Feature","geometry":{"type":"Point","coordinates":[-84.411316,34.080932]}},{"properties":{"city":"RUSTON","zip":"71270","geo_score":0.857,"id":"a6806xh03jwp","geo_precision":"zip","state":"LA"},"type":"Feature","geometry":{"type":"Point","coordinates":[-92.698484,32.457652]}},{"properties":{"city":"RYE","zip":"3870","geo_score":0.918,"id":"a6806xi6em38","geo_precision":"zip","state":"NH"},"type":"Feature","geometry":{"type":"Point","coordinates":[-70.797831,43.001201]}},{"properties":{"city":"SAGINAW","zip":"55779","geo_score":0.883,"id":"a6806x8378p9","geo_precision":"zip","state":"MN"},"type":"Feature","geometry":{"type":"Point","coordinates":[-92.396301,46.887441]}},{"properties":{"city":"SAINT CHARLES","zip":"63304","geo_score":0.887,"id":"a6806xern6wr","geo_precision":"zip","state":"MO"},"type":"Feature","geometry":{"type":"Point","coordinates":[-90.687348,38.705053]}},{"properties":{"city":"SAINT LOUIS","zip":"63111","geo_score":0.871,"id":"a6806x6528xc","geo_precision":"zip","state":"MO"},"type":"Feature","geometry":{"type":"Point","coordinates":[-90.265947,38.556164]}},{"properties":{"city":"SAINT LOUIS","zip":"63123","geo_score":0.857,"id":"a6806x8t0rcq","geo_precision":"zip","state":"MO"},"type":"Feature","geometry":{"type":"Point","coordinates":[-90.30956,38.553108]}},{"properties":{"city":"SAINT LOUIS","zip":"63105","geo_score":0.886,"id":"a6806xh9a8u2","geo_precision":"zip","state":"MO"},"type":"Feature","geometry":{"type":"Point","coordinates":[-90.323726,38.642552]}},{"properties":{"city":"SAINT LOUIS","zip":"63124","geo_score":0.886,"id":"a6806x6363tx","geo_precision":"zip","state":"MO"},"type":"Feature","geometry":{"type":"Point","coordinates":[-90.380673,38.649774]}},{"properties":{"city":"SAINT LOUIS","zip":"63122","geo_score":0.898,"id":"a6806xiyu9jv","geo_precision":"zip","state":"MO"},"type":"Feature","geometry":{"type":"Point","coordinates":[-90.411785,38.56672]}},{"properties":{"city":"SAINT PAUL","zip":"55113","geo_score":0.879,"id":"a6806xcdybwl","geo_precision":"zip","state":"MN"},"type":"Feature","geometry":{"type":"Point","coordinates":[-93.166333,44.991632]}},{"properties":{"city":"SAINT PAUL","zip":"55125","geo_score":0.857,"id":"a6806xhx1l4e","geo_precision":"zip","state":"MN"},"type":"Feature","geometry":{"type":"Point","coordinates":[-92.95938,44.923855]}},{"properties":{"city":"SALEM","zip":"97303","geo_score":0.889,"id":"a6806xdzcsyu","geo_precision":"zip","state":"OR"},"type":"Feature","geometry":{"type":"Point","coordinates":[-123.050099,45.092619]}},{"properties":{"city":"SALEM","zip":"97304","geo_score":0.937,"id":"a6806xkt9f51","geo_precision":"zip","state":"OR"},"type":"Feature","geometry":{"type":"Point","coordinates":[-123.06093,44.939009]}},{"properties":{"city":"SALEM","zip":"3079","geo_score":0.929,"id":"a6806xc2pwn3","geo_precision":"zip","state":"NH"},"type":"Feature","geometry":{"type":"Point","coordinates":[-71.226449,42.786756]}},{"properties":{"city":"SALMON","zip":"83467","geo_score":0.881,"id":"a6806x4m9j9z","geo_precision":"zip","state":"ID"},"type":"Feature","geometry":{"type":"Point","coordinates":[-113.734506,45.094646]}},{"properties":{"city":"SALT LAKE CITY","zip":"84171","geo_score":1.0,"id":"a6806x8f2mre","geo_precision":"zip","state":"UT"},"type":"Feature","geometry":{"type":"Point","coordinates":[-111.908297,40.668068]}},{"properties":{"city":"SAMMAMISH","zip":"98074","geo_score":0.873,"id":"a6806x71a8ms","geo_precision":"zip","state":"WA"},"type":"Feature","geometry":{"type":"Point","coordinates":[-122.023898,47.619112]}},{"properties":{"city":"SAN ANTONIO","zip":"78253","geo_score":1.0,"id":"a6806x7p8i2j","geo_precision":"zip","state":"TX"},"type":"Feature","geometry":{"type":"Point","coordinates":[-98.757439,29.471977]}},{"properties":{"city":"SAN ANTONIO","zip":"78207","geo_score":1.0,"id":"a6806xaj9r0o","geo_precision":"zip","state":"TX"},"type":"Feature","geometry":{"type":"Point","coordinates":[-98.439943,29.348816]}},{"properties":{"city":"SAN ANTONIO","zip":"78249","geo_score":1.0,"id":"a6806xjzw8pe","geo_precision":"zip","state":"TX"},"type":"Feature","geometry":{"type":"Point","coordinates":[-98.461582,29.437532]}},{"properties":{"city":"SAN ANTONIO","zip":"78247","geo_score":1.0,"id":"a6806xkvrbr2","geo_precision":"zip","state":"TX"},"type":"Feature","geometry":{"type":"Point","coordinates":[-98.461582,29.437532]}},{"properties":{"city":"SAN ANTONIO","zip":"78230","geo_score":0.886,"id":"a6806xkoccoe","geo_precision":"zip","state":"TX"},"type":"Feature","geometry":{"type":"Point","coordinates":[-98.551686,29.488009]}},{"properties":{"city":"SAN ANTONIO","zip":"78258","geo_score":1.0,"id":"a6806x56w7lu","geo_precision":"zip","state":"TX"},"type":"Feature","geometry":{"type":"Point","coordinates":[-98.461582,29.437532]}},{"properties":{"city":"SAN ANTONIO","zip":"78220","geo_score":1.0,"id":"a6806x5j43kq","geo_precision":"zip","state":"TX"},"type":"Feature","geometry":{"type":"Point","coordinates":[-98.391741,29.414183]}},{"properties":{"city":"SAN ANTONIO","zip":"78254","geo_score":1.0,"id":"a6806xjofoo9","geo_precision":"zip","state":"TX"},"type":"Feature","geometry":{"type":"Point","coordinates":[-98.461582,29.437532]}},{"properties":{"city":"SAN DIEGO","zip":"92131","geo_score":1.0,"id":"a6806xguv63s","geo_precision":"zip","state":"CA"},"type":"Feature","geometry":{"type":"Point","coordinates":[-117.088322,32.874916]}},{"properties":{"city":"SAN DIEGO","zip":"92131","geo_score":1.0,"id":"a6806x9vnrbd","geo_precision":"zip","state":"CA"},"type":"Feature","geometry":{"type":"Point","coordinates":[-117.088322,32.874916]}},{"properties":{"city":"SAN DIEGO","zip":"92139","geo_score":1.0,"id":"a6806xatbbf9","geo_precision":"zip","state":"CA"},"type":"Feature","geometry":{"type":"Point","coordinates":[-117.047627,32.68018]}},{"properties":{"city":"SAN RAFAEL","zip":"94903","geo_score":0.886,"id":"a6806x9d3fd6","geo_precision":"zip","state":"CA"},"type":"Feature","geometry":{"type":"Point","coordinates":[-122.5497,38.004089]}},{"properties":{"city":"SAN RAFAEL","zip":"94901","geo_score":1.0,"id":"a6806xhre4s2","geo_precision":"zip","state":"CA"},"type":"Feature","geometry":{"type":"Point","coordinates":[-122.504286,37.970948]}},{"properties":{"city":"SANDY","zip":"84092","geo_score":0.886,"id":"a6806x76t8oa","geo_precision":"zip","state":"UT"},"type":"Feature","geometry":{"type":"Point","coordinates":[-111.637979,40.588839]}},{"properties":{"city":"SANDY RIDGE","zip":"27046","geo_score":1.0,"id":"a6806xfztzda","geo_precision":"zip","state":"NC"},"type":"Feature","geometry":{"type":"Point","coordinates":[-80.105319,36.483901]}},{"properties":{"city":"SANTA CLARA","zip":"84765","geo_score":0.871,"id":"a6806xbukbom","geo_precision":"zip","state":"UT"},"type":"Feature","geometry":{"type":"Point","coordinates":[-113.757465,37.18109]}},{"properties":{"city":"SANTA CLARA","zip":"95051","geo_score":1.0,"id":"a6806x9zqpyy","geo_precision":"zip","state":"CA"},"type":"Feature","geometry":{"type":"Point","coordinates":[-121.705327,37.189396]}},{"properties":{"city":"SANTA FE","zip":"77517","geo_score":0.878,"id":"a6806xik96n1","geo_precision":"zip","state":"TX"},"type":"Feature","geometry":{"type":"Point","coordinates":[-95.120208,29.383291]}},{"properties":{"city":"SANTA FE","zip":"77510","geo_score":1.0,"id":"a6806xac5fia","geo_precision":"zip","state":"TX"},"type":"Feature","geometry":{"type":"Point","coordinates":[-95.073408,29.403211]}},{"properties":{"city":"SCHENECTADY","zip":"12303","geo_score":0.883,"id":"a6806xesn1mc","geo_precision":"zip","state":"NY"},"type":"Feature","geometry":{"type":"Point","coordinates":[-73.970958,42.787021]}},{"properties":{"city":"SCHERTZ","zip":"78154","geo_score":0.898,"id":"a6806x5bobuo","geo_precision":"zip","state":"TX"},"type":"Feature","geometry":{"type":"Point","coordinates":[-98.305846,29.584395]}},{"properties":{"city":"SCHUYLER","zip":"68661","geo_score":1.0,"id":"a6806x71fv4j","geo_precision":"zip","state":"NE"},"type":"Feature","geometry":{"type":"Point","coordinates":[-97.079635,41.559744]}},{"properties":{"city":"SCOTTSBORO","zip":"35768","geo_score":0.869,"id":"a6806x5xmyi6","geo_precision":"zip","state":"AL"},"type":"Feature","geometry":{"type":"Point","coordinates":[-86.021924,34.670918]}},{"properties":{"city":"SCOTTSVILLE","zip":"42164","geo_score":0.883,"id":"a6806xiv64aj","geo_precision":"zip","state":"KY"},"type":"Feature","geometry":{"type":"Point","coordinates":[-86.197209,36.8531]}},{"properties":{"city":"SCOTTSVILLE","zip":"42164","geo_score":0.883,"id":"a6806x6zppn2","geo_precision":"zip","state":"KY"},"type":"Feature","geometry":{"type":"Point","coordinates":[-86.197209,36.8531]}},{"properties":{"city":"SEAL BEACH","zip":"90740","geo_score":1.0,"id":"a6806xad7pbj","geo_precision":"zip","state":"CA"},"type":"Feature","geometry":{"type":"Point","coordinates":[-117.769442,33.640302]}},{"properties":{"city":"SEAMAN","zip":"45679","geo_score":0.87,"id":"a6806xgs3vq8","geo_precision":"zip","state":"OH"},"type":"Feature","geometry":{"type":"Point","coordinates":[-83.567418,38.922848]}},{"properties":{"city":"SEATTLE","zip":"98124","geo_score":1.0,"id":"a6806xcm3app","geo_precision":"zip","state":"WA"},"type":"Feature","geometry":{"type":"Point","coordinates":[-121.803388,47.432251]}},{"properties":{"city":"SEVIERVILLE","zip":"37862","geo_score":0.883,"id":"a6806xd9swa2","geo_precision":"zip","state":"TN"},"type":"Feature","geometry":{"type":"Point","coordinates":[-83.442106,35.762593]}},{"properties":{"city":"SEWANEE","zip":"37375","geo_score":0.857,"id":"a6806x6i694z","geo_precision":"zip","state":"TN"},"type":"Feature","geometry":{"type":"Point","coordinates":[-85.915812,35.185082]}},{"properties":{"city":"SHARPSBURG","zip":"30277","geo_score":1.0,"id":"a6806x9eoysn","geo_precision":"zip","state":"GA"},"type":"Feature","geometry":{"type":"Point","coordinates":[-84.659393,33.363069]}},{"properties":{"city":"SHARPSBURG","zip":"30277","geo_score":1.0,"id":"a6806xd8ok8p","geo_precision":"zip","state":"GA"},"type":"Feature","geometry":{"type":"Point","coordinates":[-84.659393,33.363069]}},{"properties":{"city":"SHAW A F B","zip":"29152","geo_score":0.909,"id":"a6806x80hicb","geo_precision":"zip","state":"SC"},"type":"Feature","geometry":{"type":"Point","coordinates":[-80.482584,33.984599]}},{"properties":{"city":"SHAWNEE","zip":"74804","geo_score":1.0,"id":"a6806x8ncvw6","geo_precision":"zip","state":"OK"},"type":"Feature","geometry":{"type":"Point","coordinates":[-96.933148,35.386758]}},{"properties":{"city":"SHEBOYGAN","zip":"53081","geo_score":0.905,"id":"a6806xcgiikd","geo_precision":"zip","state":"WI"},"type":"Feature","geometry":{"type":"Point","coordinates":[-87.759531,43.789995]}},{"properties":{"city":"SHELBY","zip":"44875","geo_score":0.871,"id":"a6806xf6cffd","geo_precision":"zip","state":"OH"},"type":"Feature","geometry":{"type":"Point","coordinates":[-82.610174,40.857834]}},{"properties":{"city":"SHELBYVILLE","zip":"75973","geo_score":0.857,"id":"a6806xaj2ba6","geo_precision":"zip","state":"TX"},"type":"Feature","geometry":{"type":"Point","coordinates":[-93.981025,31.622955]}},{"properties":{"city":"SHELTON","zip":"6484","geo_score":0.869,"id":"a6806x6ku87d","geo_precision":"zip","state":"CT"},"type":"Feature","geometry":{"type":"Point","coordinates":[-73.095386,41.261764]}},{"properties":{"city":"SHERWOOD","zip":"72120","geo_score":1.0,"id":"a6806xbaqcss","geo_precision":"zip","state":"AR"},"type":"Feature","geometry":{"type":"Point","coordinates":[-92.230285,34.880689]}},{"properties":{"city":"SHIRLEY","zip":"1464","geo_score":0.934,"id":"a6806xflya5l","geo_precision":"zip","state":"MA"},"type":"Feature","geometry":{"type":"Point","coordinates":[-71.650903,42.572313]}},{"properties":{"city":"SIGNAL MOUNTAIN","zip":"37377","geo_score":0.888,"id":"a6806xelf9ar","geo_precision":"zip","state":"TN"},"type":"Feature","geometry":{"type":"Point","coordinates":[-85.301348,35.164793]}},{"properties":{"city":"SIMI VALLEY","zip":"93065","geo_score":0.886,"id":"a6806xaproko","geo_precision":"zip","state":"CA"},"type":"Feature","geometry":{"type":"Point","coordinates":[-118.737592,34.26917]}},{"properties":{"city":"SIMPSONVILLE","zip":"29681","geo_score":0.881,"id":"a6806xkksyrn","geo_precision":"zip","state":"SC"},"type":"Feature","geometry":{"type":"Point","coordinates":[-82.229559,34.804842]}},{"properties":{"city":"SIOUX CITY","zip":"51106","geo_score":0.87,"id":"a6806xjjh0i9","geo_precision":"zip","state":"IA"},"type":"Feature","geometry":{"type":"Point","coordinates":[-96.359195,42.468883]}},{"properties":{"city":"SLIDELL","zip":"70460","geo_score":0.881,"id":"a6806x62hprz","geo_precision":"zip","state":"LA"},"type":"Feature","geometry":{"type":"Point","coordinates":[-89.89507,30.394083]}},{"properties":{"city":"SLIDELL","zip":"70460","geo_score":0.881,"id":"a6806xim9sbo","geo_precision":"zip","state":"LA"},"type":"Feature","geometry":{"type":"Point","coordinates":[-89.89507,30.394083]}},{"properties":{"city":"SLOATSBURG","zip":"10974","geo_score":0.87,"id":"a6806x7tsdkg","geo_precision":"zip","state":"NY"},"type":"Feature","geometry":{"type":"Point","coordinates":[-74.188757,41.145373]}},{"properties":{"city":"SLOCOMB","zip":"36375","geo_score":0.875,"id":"a6806x94l027","geo_precision":"zip","state":"AL"},"type":"Feature","geometry":{"type":"Point","coordinates":[-85.635489,31.163787]}},{"properties":{"city":"SMITHFIELD","zip":"23430","geo_score":0.857,"id":"a6806x6q9vu3","geo_precision":"zip","state":"VA"},"type":"Feature","geometry":{"type":"Point","coordinates":[-76.581897,36.880705]}},{"properties":{"city":"SNYDER","zip":"79549","geo_score":0.881,"id":"a6806xb1xvds","geo_precision":"zip","state":"TX"},"type":"Feature","geometry":{"type":"Point","coordinates":[-100.99762,32.728997]}},{"properties":{"city":"SOUND BEACH","zip":"11789","geo_score":1.0,"id":"a6806x93hrtp","geo_precision":"zip","state":"NY"},"type":"Feature","geometry":{"type":"Point","coordinates":[-72.637078,40.922326]}},{"properties":{"city":"SOUTH BELOIT","zip":"61080","geo_score":1.0,"id":"a6806xdfhprd","geo_precision":"zip","state":"IL"},"type":"Feature","geometry":{"type":"Point","coordinates":[-89.090975,42.38648]}},{"properties":{"city":"SOUTH PORTLAND","zip":"4106","geo_score":1.0,"id":"a6806xk087f8","geo_precision":"zip","state":"ME"},"type":"Feature","geometry":{"type":"Point","coordinates":[-70.289248,43.627364]}},{"properties":{"city":"SOUTHLAKE","zip":"76092","geo_score":0.873,"id":"a6806xicp3m4","geo_precision":"zip","state":"TX"},"type":"Feature","geometry":{"type":"Point","coordinates":[-97.127234,32.925959]}},{"properties":{"city":"SPARKS","zip":"89436","geo_score":1.0,"id":"a6806x6e0rc8","geo_precision":"zip","state":"NV"},"type":"Feature","geometry":{"type":"Point","coordinates":[-119.659053,39.651879]}},{"properties":{"city":"SPARKS","zip":"89436","geo_score":1.0,"id":"a6806xd6c85v","geo_precision":"zip","state":"NV"},"type":"Feature","geometry":{"type":"Point","coordinates":[-119.659053,39.651879]}},{"properties":{"city":"SPENCER","zip":"1562","geo_score":0.884,"id":"a6806xi3au7x","geo_precision":"zip","state":"MA"},"type":"Feature","geometry":{"type":"Point","coordinates":[-71.976741,42.272314]}},{"properties":{"city":"SPENCER","zip":"51301","geo_score":0.857,"id":"a6806xevm8bn","geo_precision":"zip","state":"IA"},"type":"Feature","geometry":{"type":"Point","coordinates":[-95.088049,43.215798]}},{"properties":{"city":"SPRING","zip":"77389","geo_score":1.0,"id":"a6806xitpjyp","geo_precision":"zip","state":"TX"},"type":"Feature","geometry":{"type":"Point","coordinates":[-95.434241,29.83399]}},{"properties":{"city":"SPRING GREEN","zip":"53588","geo_score":0.857,"id":"a6806xi1o48c","geo_precision":"zip","state":"WI"},"type":"Feature","geometry":{"type":"Point","coordinates":[-89.927346,43.269156]}},{"properties":{"city":"SPRING HILL","zip":"37174","geo_score":0.871,"id":"a6806xkuv0o2","geo_precision":"zip","state":"TN"},"type":"Feature","geometry":{"type":"Point","coordinates":[-86.898335,35.702291]}},{"properties":{"city":"SPRINGFIELD","zip":"68059","geo_score":1.0,"id":"a6806xgb69ff","geo_precision":"zip","state":"NE"},"type":"Feature","geometry":{"type":"Point","coordinates":[-96.184792,41.066988]}},{"properties":{"city":"SPRINGFIELD","zip":"37172","geo_score":0.909,"id":"a6806x5gcgc4","geo_precision":"zip","state":"TN"},"type":"Feature","geometry":{"type":"Point","coordinates":[-86.825831,36.585322]}},{"properties":{"city":"STAFFORD","zip":"22554","geo_score":0.857,"id":"a6806xgrr74t","geo_precision":"zip","state":"VA"},"type":"Feature","geometry":{"type":"Point","coordinates":[-77.325259,38.464845]}},{"properties":{"city":"STAMFORD","zip":"6902","geo_score":1.0,"id":"a6806xalay3e","geo_precision":"zip","state":"CT"},"type":"Feature","geometry":{"type":"Point","coordinates":[-73.544477,41.060196]}},{"properties":{"city":"STATESVILLE","zip":"28677","geo_score":0.962,"id":"a6806xjd4phm","geo_precision":"zip","state":"NC"},"type":"Feature","geometry":{"type":"Point","coordinates":[-80.930908,35.785413]}},{"properties":{"city":"STEVENS POINT","zip":"54481","geo_score":0.881,"id":"a6806xhlkpn6","geo_precision":"zip","state":"WI"},"type":"Feature","geometry":{"type":"Point","coordinates":[-89.558729,44.49358]}},{"properties":{"city":"STONEVILLE","zip":"27048","geo_score":0.886,"id":"a6806xcw07vz","geo_precision":"zip","state":"NC"},"type":"Feature","geometry":{"type":"Point","coordinates":[-79.914763,36.539027]}},{"properties":{"city":"SUGARCREEK","zip":"44681","geo_score":0.87,"id":"a6806xdn6wr3","geo_precision":"zip","state":"OH"},"type":"Feature","geometry":{"type":"Point","coordinates":[-81.653181,40.511175]}},{"properties":{"city":"SUMMERVILLE","zip":"29483","geo_score":0.879,"id":"a6806xj62pqe","geo_precision":"zip","state":"SC"},"type":"Feature","geometry":{"type":"Point","coordinates":[-80.156759,32.958506]}},{"properties":{"city":"SUMTERVILLE","zip":"33585","geo_score":1.0,"id":"a6806xfc6zjg","geo_precision":"zip","state":"FL"},"type":"Feature","geometry":{"type":"Point","coordinates":[-82.061556,28.735643]}},{"properties":{"city":"SUN PRAIRIE","zip":"53590","geo_score":0.881,"id":"a6806xcduy8l","geo_precision":"zip","state":"WI"},"type":"Feature","geometry":{"type":"Point","coordinates":[-89.212336,43.266658]}},{"properties":{"city":"SYOSSET","zip":"11791","geo_score":0.871,"id":"a6806xkjb6jr","geo_precision":"zip","state":"NY"},"type":"Feature","geometry":{"type":"Point","coordinates":[-73.547625,40.823988]}},{"properties":{"city":"SYRACUSE","zip":"84075","geo_score":1.0,"id":"a6806xhbq88q","geo_precision":"zip","state":"UT"},"type":"Feature","geometry":{"type":"Point","coordinates":[-112.079415,41.096293]}},{"properties":{"city":"TACOMA","zip":"98406","geo_score":1.0,"id":"a6806xkarpyh","geo_precision":"zip","state":"WA"},"type":"Feature","geometry":{"type":"Point","coordinates":[-122.509235,47.259216]}},{"properties":{"city":"TACOMA","zip":"98406","geo_score":1.0,"id":"a6806xi3cu4s","geo_precision":"zip","state":"WA"},"type":"Feature","geometry":{"type":"Point","coordinates":[-122.509235,47.259216]}},{"properties":{"city":"TAKOMA PARK","zip":"20912","geo_score":0.952,"id":"a6806x4fu894","geo_precision":"zip","state":"MD"},"type":"Feature","geometry":{"type":"Point","coordinates":[-77.015255,38.989277]}},{"properties":{"city":"TALLAHASSEE","zip":"32308","geo_score":0.896,"id":"a6806xbjqner","geo_precision":"zip","state":"FL"},"type":"Feature","geometry":{"type":"Point","coordinates":[-84.216286,30.427979]}},{"properties":{"city":"TAYLOR","zip":"76574","geo_score":0.911,"id":"a6806x7orfmi","geo_precision":"zip","state":"TX"},"type":"Feature","geometry":{"type":"Point","coordinates":[-97.388333,30.638808]}},{"properties":{"city":"TECUMSEH","zip":"74873","geo_score":0.857,"id":"a6806x6k9e5b","geo_precision":"zip","state":"OK"},"type":"Feature","geometry":{"type":"Point","coordinates":[-97.119748,35.260626]}},{"properties":{"city":"TEMPLE","zip":"30179","geo_score":0.857,"id":"a6806xc25cec","geo_precision":"zip","state":"GA"},"type":"Feature","geometry":{"type":"Point","coordinates":[-84.981055,33.843438]}},{"properties":{"city":"TERRE HAUTE","zip":"47803","geo_score":0.883,"id":"a6806x8592we","geo_precision":"zip","state":"IN"},"type":"Feature","geometry":{"type":"Point","coordinates":[-87.292796,39.476427]}},{"properties":{"city":"TERRE HAUTE","zip":"47802","geo_score":0.857,"id":"a6806xbnajkd","geo_precision":"zip","state":"IN"},"type":"Feature","geometry":{"type":"Point","coordinates":[-87.382242,39.362261]}},{"properties":{"city":"TEXARKANA","zip":"75503","geo_score":1.0,"id":"a6806xkkfe34","geo_precision":"zip","state":"TX"},"type":"Feature","geometry":{"type":"Point","coordinates":[-94.116906,33.464376]}},{"properties":{"city":"THIBODAUX","zip":"70301","geo_score":0.889,"id":"a6806xj1irgn","geo_precision":"zip","state":"LA"},"type":"Feature","geometry":{"type":"Point","coordinates":[-90.72259,29.763543]}},{"properties":{"city":"THIBODAUX","zip":"70301","geo_score":0.889,"id":"a6806xi04cj0","geo_precision":"zip","state":"LA"},"type":"Feature","geometry":{"type":"Point","coordinates":[-90.72259,29.763543]}},{"properties":{"city":"THORNTON","zip":"19373","geo_score":1.0,"id":"a6806x8wc4o0","geo_precision":"zip","state":"PA"},"type":"Feature","geometry":{"type":"Point","coordinates":[-75.535383,39.905987]}},{"properties":{"city":"THREE FORKS","zip":"59752","geo_score":0.886,"id":"a6806xbkfp8p","geo_precision":"zip","state":"MT"},"type":"Feature","geometry":{"type":"Point","coordinates":[-111.476634,45.947428]}},{"properties":{"city":"TIGNALL","zip":"30668","geo_score":0.878,"id":"a6806xkl22j1","geo_precision":"zip","state":"GA"},"type":"Feature","geometry":{"type":"Point","coordinates":[-82.763195,33.934009]}},{"properties":{"city":"TINLEY PARK","zip":"60487","geo_score":0.857,"id":"a6806xi8hssa","geo_precision":"city","state":"IL"},"type":"Feature","geometry":{"type":"Point","coordinates":[-88.026517,42.143475]}},{"properties":{"city":"TITUSVILLE","zip":"16354","geo_score":0.917,"id":"a6806xcm9d9a","geo_precision":"zip","state":"PA"},"type":"Feature","geometry":{"type":"Point","coordinates":[-79.802555,41.562558]}},{"properties":{"city":"TOLEDO","zip":"97391","geo_score":0.857,"id":"a6806x7tas8e","geo_precision":"zip","state":"OR"},"type":"Feature","geometry":{"type":"Point","coordinates":[-123.879558,44.619563]}},{"properties":{"city":"TOLEDO","zip":"52342","geo_score":1.0,"id":"a6806x4o0yqm","geo_precision":"zip","state":"IA"},"type":"Feature","geometry":{"type":"Point","coordinates":[-92.551725,42.068965]}},{"properties":{"city":"TOLLAND","zip":"6084","geo_score":1.0,"id":"a6806xcrnmmo","geo_precision":"zip","state":"CT"},"type":"Feature","geometry":{"type":"Point","coordinates":[-72.361039,41.882553]}},{"properties":{"city":"TOMS RIVER","zip":"8755","geo_score":1.0,"id":"a6806xb2en3b","geo_precision":"zip","state":"NJ"},"type":"Feature","geometry":{"type":"Point","coordinates":[-74.256821,40.000696]}},{"properties":{"city":"TONKAWA","zip":"74653","geo_score":1.0,"id":"a6806xi6apqk","geo_precision":"zip","state":"OK"},"type":"Feature","geometry":{"type":"Point","coordinates":[-97.166131,36.678755]}},{"properties":{"city":"TOPEKA","zip":"66606","geo_score":1.0,"id":"a6806xaxl8og","geo_precision":"zip","state":"KS"},"type":"Feature","geometry":{"type":"Point","coordinates":[-95.72161,39.059349]}},{"properties":{"city":"TRAER","zip":"50675","geo_score":1.0,"id":"a6806xbi6q9b","geo_precision":"zip","state":"IA"},"type":"Feature","geometry":{"type":"Point","coordinates":[-92.527236,42.173618]}},{"properties":{"city":"TROY","zip":"12180","geo_score":0.878,"id":"a6806x60cvzt","geo_precision":"zip","state":"NY"},"type":"Feature","geometry":{"type":"Point","coordinates":[-73.652618,42.742023]}},{"properties":{"city":"TUALATIN","zip":"97062","geo_score":0.857,"id":"a6806xi6lqfk","geo_precision":"zip","state":"OR"},"type":"Feature","geometry":{"type":"Point","coordinates":[-122.753984,45.359286]}},{"properties":{"city":"TUCSON","zip":"85743","geo_score":1.0,"id":"a6806x74ml7y","geo_precision":"zip","state":"AZ"},"type":"Feature","geometry":{"type":"Point","coordinates":[-111.065869,32.333438]}},{"properties":{"city":"TUCSON","zip":"85743","geo_score":1.0,"id":"a6806xjpwb0x","geo_precision":"zip","state":"AZ"},"type":"Feature","geometry":{"type":"Point","coordinates":[-111.065869,32.333438]}},{"properties":{"city":"TUCSON","zip":"85713","geo_score":0.935,"id":"a6806xcxh34v","geo_precision":"zip","state":"AZ"},"type":"Feature","geometry":{"type":"Point","coordinates":[-110.968425,32.199521]}},{"properties":{"city":"TULSA","zip":"74129","geo_score":1.0,"id":"a6806xhvsisp","geo_precision":"zip","state":"OK"},"type":"Feature","geometry":{"type":"Point","coordinates":[-95.868767,36.125996]}},{"properties":{"city":"TULSA","zip":"74133","geo_score":1.0,"id":"a6806xdmsfjc","geo_precision":"zip","state":"OK"},"type":"Feature","geometry":{"type":"Point","coordinates":[-95.873067,36.062203]}},{"properties":{"city":"TULSA","zip":"74108","geo_score":1.0,"id":"a6806xk2d8f5","geo_precision":"zip","state":"OK"},"type":"Feature","geometry":{"type":"Point","coordinates":[-95.797314,36.147696]}},{"properties":{"city":"TWAIN HARTE","zip":"95383","geo_score":1.0,"id":"a6806xcvi12f","geo_precision":"zip","state":"CA"},"type":"Feature","geometry":{"type":"Point","coordinates":[-120.176042,38.085837]}},{"properties":{"city":"TWIN LAKES","zip":"53181","geo_score":1.0,"id":"a6806xgdjgj2","geo_precision":"zip","state":"WI"},"type":"Feature","geometry":{"type":"Point","coordinates":[-88.235389,42.523887]}},{"properties":{"city":"TWINSBURG","zip":"44087","geo_score":1.0,"id":"a6806ximi60u","geo_precision":"zip","state":"OH"},"type":"Feature","geometry":{"type":"Point","coordinates":[-81.440435,41.313304]}},{"properties":{"city":"TYLER","zip":"75707","geo_score":1.0,"id":"a6806xjh6psr","geo_precision":"zip","state":"TX"},"type":"Feature","geometry":{"type":"Point","coordinates":[-95.1511,32.286869]}},{"properties":{"city":"TYLER","zip":"75703","geo_score":0.871,"id":"a6806xddrymv","geo_precision":"zip","state":"TX"},"type":"Feature","geometry":{"type":"Point","coordinates":[-95.282173,32.441813]}},{"properties":{"city":"TYLER","zip":"75707","geo_score":1.0,"id":"a6806x5oak1u","geo_precision":"zip","state":"TX"},"type":"Feature","geometry":{"type":"Point","coordinates":[-95.1511,32.286869]}},{"properties":{"city":"ULYSSES","zip":"41264","geo_score":1.0,"id":"a6806xblangm","geo_precision":"zip","state":"KY"},"type":"Feature","geometry":{"type":"Point","coordinates":[-82.744663,38.074113]}},{"properties":{"city":"UNCASVILLE","zip":"6382","geo_score":0.857,"id":"a6806xigto7j","geo_precision":"zip","state":"CT"},"type":"Feature","geometry":{"type":"Point","coordinates":[-72.0998,41.476765]}},{"properties":{"city":"UPPER SANDUSKY","zip":"43351","geo_score":0.857,"id":"a6806xdtw7v2","geo_precision":"zip","state":"OH"},"type":"Feature","geometry":{"type":"Point","coordinates":[-83.270199,40.949223]}},{"properties":{"city":"UTICA","zip":"48315","geo_score":0.857,"id":"a6806x8ca4b1","geo_precision":"zip","state":"MI"},"type":"Feature","geometry":{"type":"Point","coordinates":[-83.032984,42.670866]}},{"properties":{"city":"VACAVILLE","zip":"95687","geo_score":1.0,"id":"a6806xj1qe40","geo_precision":"zip","state":"CA"},"type":"Feature","geometry":{"type":"Point","coordinates":[-121.912773,38.35056]}},{"properties":{"city":"VALLEJO","zip":"94591","geo_score":1.0,"id":"a6806xdr7vpp","geo_precision":"zip","state":"CA"},"type":"Feature","geometry":{"type":"Point","coordinates":[-122.206292,38.114249]}},{"properties":{"city":"VALLEY SPRINGS","zip":"95252","geo_score":0.879,"id":"a6806x773mvy","geo_precision":"zip","state":"CA"},"type":"Feature","geometry":{"type":"Point","coordinates":[-120.763269,38.259361]}},{"properties":{"city":"VANCOUVER","zip":"98685","geo_score":0.857,"id":"a6806x5jbq4v","geo_precision":"zip","state":"WA"},"type":"Feature","geometry":{"type":"Point","coordinates":[-122.707321,45.70956]}},{"properties":{"city":"VENTURA","zip":"93003","geo_score":1.0,"id":"a6806xc2wp8w","geo_precision":"zip","state":"CA"},"type":"Feature","geometry":{"type":"Point","coordinates":[-119.221299,34.230353]}},{"properties":{"city":"VERADALE","zip":"99037","geo_score":1.0,"id":"a6806xagxz6d","geo_precision":"zip","state":"WA"},"type":"Feature","geometry":{"type":"Point","coordinates":[-117.199587,47.636834]}},{"properties":{"city":"VILAS","zip":"28692","geo_score":0.857,"id":"a6806xa4wq3o","geo_precision":"zip","state":"NC"},"type":"Feature","geometry":{"type":"Point","coordinates":[-81.7765,36.269849]}},{"properties":{"city":"VIRGINIA BEACH","zip":"23456","geo_score":0.857,"id":"a6806xidhhs9","geo_precision":"zip","state":"VA"},"type":"Feature","geometry":{"type":"Point","coordinates":[-76.014653,36.764594]}},{"properties":{"city":"VIRGINIA BEACH","zip":"23452","geo_score":0.868,"id":"a6806x6wijau","geo_precision":"zip","state":"VA"},"type":"Feature","geometry":{"type":"Point","coordinates":[-76.100489,36.829593]}},{"properties":{"city":"VISTA","zip":"92081","geo_score":0.857,"id":"a6806x6vdlk0","geo_precision":"city","state":"CA"},"type":"Feature","geometry":{"type":"Point","coordinates":[-116.846046,33.016928]}},{"properties":{"city":"WACO","zip":"76708","geo_score":0.873,"id":"a6806x6d6rmn","geo_precision":"zip","state":"TX"},"type":"Feature","geometry":{"type":"Point","coordinates":[-97.241674,31.667108]}},{"properties":{"city":"WAILUKU","zip":"96793","geo_score":0.939,"id":"a6806x58mzff","geo_precision":"zip","state":"HI"},"type":"Feature","geometry":{"type":"Point","coordinates":[-156.506944,20.858056]}},{"properties":{"city":"WALKERSVILLE","zip":"21793","geo_score":0.88,"id":"a6806x8oxx6z","geo_precision":"zip","state":"MD"},"type":"Feature","geometry":{"type":"Point","coordinates":[-77.35804,39.472879]}},{"properties":{"city":"WALLED LAKE","zip":"48390","geo_score":0.934,"id":"a6806xfr7oeg","geo_precision":"zip","state":"MI"},"type":"Feature","geometry":{"type":"Point","coordinates":[-83.473826,42.5567]}},{"properties":{"city":"WALNUT CREEK","zip":"94598","geo_score":1.0,"id":"a6806x6vmxdl","geo_precision":"zip","state":"CA"},"type":"Feature","geometry":{"type":"Point","coordinates":[-122.037045,37.906873]}},{"properties":{"city":"WALNUT CREEK","zip":"94596","geo_score":0.923,"id":"a6806x8ut45s","geo_precision":"zip","state":"CA"},"type":"Feature","geometry":{"type":"Point","coordinates":[-122.051074,37.876592]}},{"properties":{"city":"WAPAKONETA","zip":"45895","geo_score":0.886,"id":"a6806x7lyjvj","geo_precision":"zip","state":"OH"},"type":"Feature","geometry":{"type":"Point","coordinates":[-83.994109,40.491438]}},{"properties":{"city":"WARMINSTER","zip":"18974","geo_score":0.886,"id":"a6806x5jhcbj","geo_precision":"zip","state":"PA"},"type":"Feature","geometry":{"type":"Point","coordinates":[-75.065726,40.230386]}},{"properties":{"city":"WARRENTON","zip":"97146","geo_score":0.905,"id":"a6806xa7jg9v","geo_precision":"zip","state":"OR"},"type":"Feature","geometry":{"type":"Point","coordinates":[-123.913752,46.076496]}},{"properties":{"city":"WASHINGTON","zip":"20003","geo_score":1.0,"id":"a6806x4qs86g","geo_precision":"zip","state":"DC"},"type":"Feature","geometry":{"type":"Point","coordinates":[-76.988897,38.860315]}},{"properties":{"city":"WASHINGTON","zip":"20008","geo_score":0.868,"id":"a6806x9gqh1c","geo_precision":"zip","state":"DC"},"type":"Feature","geometry":{"type":"Point","coordinates":[-77.065533,38.936222]}},{"properties":{"city":"WASHINGTON","zip":"7882","geo_score":0.871,"id":"a6806xjqxnei","geo_precision":"zip","state":"NJ"},"type":"Feature","geometry":{"type":"Point","coordinates":[-74.953781,40.763155]}},{"properties":{"city":"WATERBURY","zip":"6708","geo_score":1.0,"id":"a6806xdnyx6v","geo_precision":"zip","state":"CT"},"type":"Feature","geometry":{"type":"Point","coordinates":[-73.064152,41.551496]}},{"properties":{"city":"WATERFORD","zip":"53185","geo_score":0.873,"id":"a6806xjsz9kb","geo_precision":"zip","state":"WI"},"type":"Feature","geometry":{"type":"Point","coordinates":[-88.220923,42.792794]}},{"properties":{"city":"WATERTOWN","zip":"37184","geo_score":0.896,"id":"a6806xi3sabn","geo_precision":"zip","state":"TN"},"type":"Feature","geometry":{"type":"Point","coordinates":[-86.12499,36.019505]}},{"properties":{"city":"WATERTOWN","zip":"6795","geo_score":1.0,"id":"a6806x6zeni5","geo_precision":"zip","state":"CT"},"type":"Feature","geometry":{"type":"Point","coordinates":[-73.162003,41.759427]}},{"properties":{"city":"WATERTOWN","zip":"57201","geo_score":0.873,"id":"a6806xavyzc9","geo_precision":"zip","state":"SD"},"type":"Feature","geometry":{"type":"Point","coordinates":[-97.105907,44.979687]}},{"properties":{"city":"WATSONVILLE","zip":"95076","geo_score":0.87,"id":"a6806xfo599l","geo_precision":"zip","state":"CA"},"type":"Feature","geometry":{"type":"Point","coordinates":[-121.748561,36.90412]}},{"properties":{"city":"WAUKESHA","zip":"53186","geo_score":0.896,"id":"a6806xbhwm4c","geo_precision":"zip","state":"WI"},"type":"Feature","geometry":{"type":"Point","coordinates":[-88.320372,42.949457]}},{"properties":{"city":"WELLSTON","zip":"74881","geo_score":0.857,"id":"a6806xennb4s","geo_precision":"zip","state":"OK"},"type":"Feature","geometry":{"type":"Point","coordinates":[-96.998916,35.593953]}},{"properties":{"city":"WENDELL","zip":"27591","geo_score":1.0,"id":"a6806xkg6ro3","geo_precision":"zip","state":"NC"},"type":"Feature","geometry":{"type":"Point","coordinates":[-78.395966,35.811324]}},{"properties":{"city":"WEST BABYLON","zip":"11704","geo_score":1.0,"id":"a6806xafjbyr","geo_precision":"zip","state":"NY"},"type":"Feature","geometry":{"type":"Point","coordinates":[-73.356164,40.709098]}},{"properties":{"city":"WEST LIBERTY","zip":"43357","geo_score":0.857,"id":"a6806xbj3s1d","geo_precision":"zip","state":"OH"},"type":"Feature","geometry":{"type":"Point","coordinates":[-83.660208,40.299778]}},{"properties":{"city":"WEST ROXBURY","zip":"2132","geo_score":1.0,"id":"a6806xbz8xsc","geo_precision":"zip","state":"MA"},"type":"Feature","geometry":{"type":"Point","coordinates":[-71.155833,42.277897]}},{"properties":{"city":"WEST SACRAMENTO","zip":"95691","geo_score":1.0,"id":"a6806xjlnv67","geo_precision":"zip","state":"CA"},"type":"Feature","geometry":{"type":"Point","coordinates":[-121.610919,38.608615]}},{"properties":{"city":"WEST SACRAMENTO","zip":"95691","geo_score":1.0,"id":"a6806xe1cc9z","geo_precision":"zip","state":"CA"},"type":"Feature","geometry":{"type":"Point","coordinates":[-121.610919,38.608615]}},{"properties":{"city":"WEST WINDSOR","zip":"8550","geo_score":0.857,"id":"a6806xb9k3xl","geo_precision":"zip","state":"NJ"},"type":"Feature","geometry":{"type":"Point","coordinates":[-74.609323,40.316775]}},{"properties":{"city":"WESTBOROUGH","zip":"1581","geo_score":1.0,"id":"a6806xfjdnj9","geo_precision":"zip","state":"MA"},"type":"Feature","geometry":{"type":"Point","coordinates":[-71.845865,42.255222]}},{"properties":{"city":"WESTLAKE","zip":"44145","geo_score":1.0,"id":"a6806xdzms5h","geo_precision":"zip","state":"OH"},"type":"Feature","geometry":{"type":"Point","coordinates":[-81.921811,41.445145]}},{"properties":{"city":"WESTMINSTER","zip":"80030","geo_score":1.0,"id":"a6806xfqsxsz","geo_precision":"zip","state":"CO"},"type":"Feature","geometry":{"type":"Point","coordinates":[-105.034487,39.872535]}},{"properties":{"city":"WESTON","zip":"83286","geo_score":1.0,"id":"a6806x8i2dqn","geo_precision":"zip","state":"ID"},"type":"Feature","geometry":{"type":"Point","coordinates":[-112.013197,42.060353]}},{"properties":{"city":"WESTVILLE","zip":"8093","geo_score":0.949,"id":"a6806xc24p0n","geo_precision":"zip","state":"NJ"},"type":"Feature","geometry":{"type":"Point","coordinates":[-75.117675,39.856502]}},{"properties":{"city":"WHITE HALL","zip":"21161","geo_score":0.905,"id":"a6806xdtk5eu","geo_precision":"zip","state":"MD"},"type":"Feature","geometry":{"type":"Point","coordinates":[-76.657749,39.622049]}},{"properties":{"city":"WHITE LAKE","zip":"48386","geo_score":0.937,"id":"a6806xc7lul5","geo_precision":"zip","state":"MI"},"type":"Feature","geometry":{"type":"Point","coordinates":[-83.446883,42.614754]}},{"properties":{"city":"WHITEWATER","zip":"67154","geo_score":0.871,"id":"a6806x8uaag4","geo_precision":"zip","state":"KS"},"type":"Feature","geometry":{"type":"Point","coordinates":[-97.095312,37.951127]}},{"properties":{"city":"WHITMORE LAKE","zip":"48189","geo_score":1.0,"id":"a6806x4s9ows","geo_precision":"zip","state":"MI"},"type":"Feature","geometry":{"type":"Point","coordinates":[-83.783736,42.386914]}},{"properties":{"city":"WICHITA","zip":"67212","geo_score":1.0,"id":"a6806xh4x6j3","geo_precision":"zip","state":"KS"},"type":"Feature","geometry":{"type":"Point","coordinates":[-97.435443,37.701795]}},{"properties":{"city":"WICHITA","zip":"67219","geo_score":0.893,"id":"a6806xds93mp","geo_precision":"zip","state":"KS"},"type":"Feature","geometry":{"type":"Point","coordinates":[-97.318376,37.800012]}},{"properties":{"city":"WICHITA FALLS","zip":"76309","geo_score":1.0,"id":"a6806x8861as","geo_precision":"zip","state":"TX"},"type":"Feature","geometry":{"type":"Point","coordinates":[-98.499781,33.892709]}},{"properties":{"city":"WILLARD","zip":"28478","geo_score":0.873,"id":"a6806ximfvha","geo_precision":"zip","state":"NC"},"type":"Feature","geometry":{"type":"Point","coordinates":[-78.049711,34.659613]}},{"properties":{"city":"WILLIAMS","zip":"95987","geo_score":0.912,"id":"a6806xfyschx","geo_precision":"zip","state":"CA"},"type":"Feature","geometry":{"type":"Point","coordinates":[-122.4197,39.039339]}},{"properties":{"city":"WILLIS","zip":"77318","geo_score":1.0,"id":"a6806xk1wgbx","geo_precision":"zip","state":"TX"},"type":"Feature","geometry":{"type":"Point","coordinates":[-95.490719,30.43794]}},{"properties":{"city":"WILMINGTON","zip":"19803","geo_score":0.886,"id":"a6806x8byzgu","geo_precision":"zip","state":"DE"},"type":"Feature","geometry":{"type":"Point","coordinates":[-75.55798,39.794001]}},{"properties":{"city":"WILMINGTON","zip":"45177","geo_score":0.914,"id":"a6806xa4cf8h","geo_precision":"zip","state":"OH"},"type":"Feature","geometry":{"type":"Point","coordinates":[-83.920207,39.441728]}},{"properties":{"city":"WILMINGTON","zip":"28403","geo_score":0.883,"id":"a6806xeaurjc","geo_precision":"zip","state":"NC"},"type":"Feature","geometry":{"type":"Point","coordinates":[-77.921098,34.288503]}},{"properties":{"city":"WILTON","zip":"6897","geo_score":0.886,"id":"a6806xe2xghw","geo_precision":"zip","state":"CT"},"type":"Feature","geometry":{"type":"Point","coordinates":[-73.425399,41.216485]}},{"properties":{"city":"WINNIE","zip":"77665","geo_score":1.0,"id":"a6806x8wk7r9","geo_precision":"zip","state":"TX"},"type":"Feature","geometry":{"type":"Point","coordinates":[-94.475364,29.823383]}},{"properties":{"city":"WINSTON SALEM","zip":"27103","geo_score":0.869,"id":"a6806xkwluoh","geo_precision":"zip","state":"NC"},"type":"Feature","geometry":{"type":"Point","coordinates":[-80.343664,36.027081]}},{"properties":{"city":"WINTER HAVEN","zip":"33883","geo_score":1.0,"id":"a6806xec4mgh","geo_precision":"zip","state":"FL"},"type":"Feature","geometry":{"type":"Point","coordinates":[-81.61864,28.002553]}},{"properties":{"city":"WINTER SPRINGS","zip":"32708","geo_score":1.0,"id":"a6806xk70rj8","geo_precision":"zip","state":"FL"},"type":"Feature","geometry":{"type":"Point","coordinates":[-81.222547,28.690114]}},{"properties":{"city":"WISNER","zip":"71378","geo_score":0.871,"id":"a6806xd6g3nh","geo_precision":"zip","state":"LA"},"type":"Feature","geometry":{"type":"Point","coordinates":[-91.703459,31.927938]}},{"properties":{"city":"WISTER","zip":"74966","geo_score":0.857,"id":"a6806xe1ghfo","geo_precision":"zip","state":"OK"},"type":"Feature","geometry":{"type":"Point","coordinates":[-95.061906,34.832878]}},{"properties":{"city":"WOODBRIDGE","zip":"22192","geo_score":0.929,"id":"a6806xc0v8qn","geo_precision":"zip","state":"VA"},"type":"Feature","geometry":{"type":"Point","coordinates":[-77.297762,38.687894]}},{"properties":{"city":"WOODLAND PARK","zip":"80863","geo_score":0.869,"id":"a6806xi28nmu","geo_precision":"zip","state":"CO"},"type":"Feature","geometry":{"type":"Point","coordinates":[-105.027205,38.955824]}},{"properties":{"city":"WOODRIDGE","zip":"60517","geo_score":1.0,"id":"a6806x4fr3mf","geo_precision":"zip","state":"IL"},"type":"Feature","geometry":{"type":"Point","coordinates":[-88.041731,41.736788]}},{"properties":{"city":"WOODSTOCK","zip":"6281","geo_score":0.956,"id":"a6806x713l59","geo_precision":"zip","state":"CT"},"type":"Feature","geometry":{"type":"Point","coordinates":[-72.045353,41.954542]}},{"properties":{"city":"WYLIE","zip":"75098","geo_score":0.857,"id":"a6806x7urjqj","geo_precision":"zip","state":"TX"},"type":"Feature","geometry":{"type":"Point","coordinates":[-96.550268,33.041231]}},{"properties":{"city":"YONKERS","zip":"10704","geo_score":1.0,"id":"a6806xj822kt","geo_precision":"zip","state":"NY"},"type":"Feature","geometry":{"type":"Point","coordinates":[-73.861941,40.922938]}},{"properties":{"city":"YORK","zip":"3909","geo_score":0.909,"id":"a6806xjgixea","geo_precision":"zip","state":"ME"},"type":"Feature","geometry":{"type":"Point","coordinates":[-70.641997,43.148699]}},{"properties":{"city":"YORK","zip":"17407","geo_score":0.878,"id":"a6806x6yakvs","geo_precision":"zip","state":"PA"},"type":"Feature","geometry":{"type":"Point","coordinates":[-76.710525,39.883156]}},{"properties":{"city":"YORKTOWN","zip":"23693","geo_score":0.875,"id":"a6806xdg0u0n","geo_precision":"zip","state":"VA"},"type":"Feature","geometry":{"type":"Point","coordinates":[-76.457449,37.123201]}},{"properties":{"city":"YUBA CITY","zip":"95993","geo_score":1.0,"id":"a6806xa11tcj","geo_precision":"zip","state":"CA"},"type":"Feature","geometry":{"type":"Point","coordinates":[-121.737911,39.130338]}},{"properties":{"city":"YULEE","zip":"32097","geo_score":0.857,"id":"a6806xgyfj2q","geo_precision":"zip","state":"FL"},"type":"Feature","geometry":{"type":"Point","coordinates":[-81.655933,30.617181]}},{"properties":{"city":"ZACHARY","zip":"70791","geo_score":0.878,"id":"a6806x5o7s6b","geo_precision":"zip","state":"LA"},"type":"Feature","geometry":{"type":"Point","coordinates":[-91.04816,30.568521]}},{"properties":{"city":"ZANESVILLE","zip":"43701","geo_score":0.857,"id":"a6806xae7rom","geo_precision":"zip","state":"OH"},"type":"Feature","geometry":{"type":"Point","coordinates":[-81.986804,39.841457]}}],"is_temporal":false,"author":{"url":"","metadata":"","contact_name":"","contact_address":"","source":"","contact_phone":""},"source":"","pagination":{"sort":null,"start":0,"total":959,"limit":1000000},"state":"complete","tags":"","published":"2014-08-10T19:42:48-04:00","id":58419}