{"type":"FeatureCollection","data_type":"Dataset","url_type":null,"permissions":[{"permissions":{"download":true,"view":true},"group_id":"everyone"}],"classification":null,"title":"Highest Median Income 2009, By U.S. City, Top 25","count":25,"stream_id":58615,"contributor":{"url":"http://geocommons.com/users/14486","name":"laural"},"data_attributes":null,"calculation_params":null,"icon_link":null,"link":"http://geocommons.com/overlays/58615.json","extent":[-122.143,26.1004,-70.4386,45.0105],"geometry_types":["point"],"unique_name":null,"name":"Highest Median Income 2009, By U.S. City, Top 25","feature_count":25,"description":"Top 25 cities with the highest 2009 median income.\n\nAccording to CNNMoney -&gt; Source: Census data, Onboard Informatics projection/aggregation.\nOnly two places per state could qualify. ","next_feature":null,"is_raster":false,"short_classification":"Y","stats":{"geo_score":{"max":0.857,"mean":0.8302,"variance":0.0022525,"stdev":0.0474605099003371,"min":0.727,"median":0.857},"rank":{"max":25,"mean":13.0,"variance":54.1666666666667,"stdev":7.35980072193987,"min":1,"median":13},"2009 median family income":{"max":172541,"mean":128935.68,"variance":244537848.06,"stdev":15637.705971785,"min":113517,"median":124035}},"features":[{"properties":{"city":"Bethesda","geo_score":0.857,"rank":1,"2009 median family income":172541,"id":"a637nqd8fzb9","geo_precision":"city","state":"MD"},"type":"Feature","geometry":{"type":"Point","coordinates":[-77.100256,38.980666]}},{"properties":{"city":"Naperville","geo_score":0.857,"rank":10,"2009 median family income":125702,"id":"a637nq79objw","geo_precision":"city","state":"IL"},"type":"Feature","geometry":{"type":"Point","coordinates":[-88.152381,41.759029]}},{"properties":{"city":"The Woodlands","geo_score":0.857,"rank":11,"2009 median family income":124939,"id":"a637nqjv9t1h","geo_precision":"city","state":"TX"},"type":"Feature","geometry":{"type":"Point","coordinates":[-95.489385,30.157994]}},{"properties":{"city":"North Hempstead","geo_score":0.75,"rank":12,"2009 median family income":124069,"id":"a637nqfcei1p","geo_precision":"city","state":"NY"},"type":"Feature","geometry":{"type":"Point","coordinates":[-73.645129,40.696491]}},{"properties":{"city":"Brookline","geo_score":0.857,"rank":13,"2009 median family income":124035,"id":"a637nqej2obx","geo_precision":"city","state":"MA"},"type":"Feature","geometry":{"type":"Point","coordinates":[-71.088745,42.308198]}},{"properties":{"city":"Flower Mound","geo_score":0.727,"rank":14,"2009 median family income":123504,"id":"a637nq5zm1lc","geo_precision":"city","state":"TX"},"type":"Feature","geometry":{"type":"Point","coordinates":[-95.986901,29.150808]}},{"properties":{"city":"Highlands Ranch","geo_score":0.857,"rank":15,"2009 median family income":122448,"id":"a637nqb52m0h","geo_precision":"city","state":"CO"},"type":"Feature","geometry":{"type":"Point","coordinates":[-104.969426,39.553877]}},{"properties":{"city":"Reston","geo_score":0.857,"rank":16,"2009 median family income":122212,"id":"a637nqlsyzqz","geo_precision":"city","state":"VA"},"type":"Feature","geometry":{"type":"Point","coordinates":[-77.3418,38.96146]}},{"properties":{"city":"Carmel","geo_score":0.857,"rank":17,"2009 median family income":120988,"id":"a637nqdffqbl","geo_precision":"city","state":"IN"},"type":"Feature","geometry":{"type":"Point","coordinates":[-86.117215,40.071102]}},{"properties":{"city":"Wayne","geo_score":0.857,"rank":18,"2009 median family income":120295,"id":"a637nq7rg6he","geo_precision":"city","state":"NJ"},"type":"Feature","geometry":{"type":"Point","coordinates":[-74.241168,40.948689]}},{"properties":{"city":"Weston","geo_score":0.857,"rank":19,"2009 median family income":119689,"id":"a637nqfctxeq","geo_precision":"city","state":"FL"},"type":"Feature","geometry":{"type":"Point","coordinates":[-80.399775,26.100365]}},{"properties":{"city":"Greenwich","geo_score":0.857,"rank":2,"2009 median family income":164807,"id":"a637nq8icetb","geo_precision":"city","state":"CT"},"type":"Feature","geometry":{"type":"Point","coordinates":[-73.62617,41.042746]}},{"properties":{"city":"Eden Prairie","geo_score":0.766,"rank":20,"2009 median family income":119012,"id":"a637nq6qhiy3","geo_precision":"city","state":"MN"},"type":"Feature","geometry":{"type":"Point","coordinates":[-92.884919,44.08802]}},{"properties":{"city":"Ellicott City","geo_score":0.857,"rank":21,"2009 median family income":116820,"id":"a637nq9z1can","geo_precision":"city","state":"MD"},"type":"Feature","geometry":{"type":"Point","coordinates":[-76.941902,39.236405]}},{"properties":{"city":"Plymouth","geo_score":0.857,"rank":22,"2009 median family income":116273,"id":"a637nqkthino","geo_precision":"city","state":"MN"},"type":"Feature","geometry":{"type":"Point","coordinates":[-93.455509,45.010519]}},{"properties":{"city":"Sandy Springs","geo_score":0.738,"rank":23,"2009 median family income":115171,"id":"a637nq96jbgr","geo_precision":"city","state":"GA"},"type":"Feature","geometry":{"type":"Point","coordinates":[-82.120675,33.56569]}},{"properties":{"city":"Roswell","geo_score":0.857,"rank":24,"2009 median family income":113750,"id":"a637nqimlf0m","geo_precision":"city","state":"GA"},"type":"Feature","geometry":{"type":"Point","coordinates":[-84.370475,34.055198]}},{"properties":{"city":"Wheaton","geo_score":0.857,"rank":25,"2009 median family income":113517,"id":"a637nqioya0u","geo_precision":"city","state":"IL"},"type":"Feature","geometry":{"type":"Point","coordinates":[-88.088716,41.839679]}},{"properties":{"city":"Palo Alto","geo_score":0.857,"rank":3,"2009 median family income":153615,"id":"a637nq96z1xn","geo_precision":"city","state":"CA"},"type":"Feature","geometry":{"type":"Point","coordinates":[-122.14302,37.441883]}},{"properties":{"city":"Newport Beach","geo_score":0.857,"rank":4,"2009 median family income":144917,"id":"a637nqahqecu","geo_precision":"city","state":"CA"},"type":"Feature","geometry":{"type":"Point","coordinates":[-117.928947,33.61891]}},{"properties":{"city":"Lower Merion","geo_score":0.766,"rank":5,"2009 median family income":144686,"id":"a637nqbhaz85","geo_precision":"city","state":"PA"},"type":"Feature","geometry":{"type":"Point","coordinates":[-78.619193,40.861728]}},{"properties":{"city":"Newton","geo_score":0.837,"rank":6,"2009 median family income":138070,"id":"a637nqbmui9z","geo_precision":"city","state":"MA"},"type":"Feature","geometry":{"type":"Point","coordinates":[-70.438637,41.671776]}},{"properties":{"city":"Fairfield","geo_score":0.857,"rank":7,"2009 median family income":127920,"id":"a637nqbxfb3a","geo_precision":"city","state":"CT"},"type":"Feature","geometry":{"type":"Point","coordinates":[-73.282408,41.175173]}},{"properties":{"city":"Greenburgh","geo_score":0.745,"rank":8,"2009 median family income":127376,"id":"a637nq9cdnhp","geo_precision":"city","state":"NY"},"type":"Feature","geometry":{"type":"Point","coordinates":[-74.219578,43.155628]}},{"properties":{"city":"Burke","geo_score":0.857,"rank":9,"2009 median family income":127036,"id":"a637nq9yi2bx","geo_precision":"city","state":"VA"},"type":"Feature","geometry":{"type":"Point","coordinates":[-77.288755,38.831813]}}],"is_temporal":false,"author":{"url":"http://money.cnn.com/magazines/moneymag/bplive/2010/top25s/financial/","metadata":"","contact_name":"","contact_address":"","source":"CNNMoney.com","contact_phone":""},"source":"http://money.cnn.com/magazines/moneymag/bplive/2010/top25s/financial/","pagination":{"sort":null,"start":0,"total":25,"limit":1000000},"state":"complete","tags":"money,us","published":"2014-08-10T20:00:09-04:00","id":58615}