{"type":"FeatureCollection","data_type":"Dataset","url_type":null,"permissions":[{"permissions":{"download":true,"edit":true,"view":true},"group_id":13923},{"permissions":{"download":true,"view":true},"group_id":"everyone"}],"classification":null,"title":"Patch.com  Active Communities","count":81,"stream_id":58989,"contributor":{"url":"http://geocommons.com/users/695","name":"Bill"},"data_attributes":null,"calculation_params":null,"icon_link":null,"link":"http://geocommons.com/overlays/58989.json","extent":[-122.531,33.0316,-70.837,43.4615],"geometry_types":["point"],"unique_name":null,"name":"Patch.com  Active Communities","feature_count":81,"description":"Hi there. We're Patch. No matter what's going on in your community, we've got it covered. Visit Patch to keep up with news, businesses, and events, check out photos and videos from around town, see what neighbors are up to, and get in on the conversation. If you think your community could use Patch, let us know.","next_feature":null,"is_raster":false,"short_classification":"Y","stats":{"geo_score":{"max":0.857,"mean":0.787172839506173,"variance":0.0341879197530864,"stdev":0.184899755957347,"min":0.0,"median":0.857},"coming soon":{"max":0,"mean":0.0,"variance":0.0,"stdev":0.0,"min":0,"median":0}},"features":[{"properties":{"city":"Canaan","geo_score":0.857,"description":"http://Canaan.patch.com","coming soon":0,"id":"a65bhlita1m1","geo_precision":"city","state":"Connecticut"},"type":"Feature","geometry":{"type":"Point","coordinates":[-73.295891,42.001585]}},{"properties":{"city":"City","geo_score":0.714,"description":"http://City.patch.com","coming soon":0,"id":"a65bhli98pu4","geo_precision":"city","state":"New York"},"type":"Feature","geometry":{"type":"Point","coordinates":[-79.412233,42.155693]}},{"properties":{"city":"Agoura Hills","geo_score":0.792,"description":"http://AgouraHills.patch.com","coming soon":0,"id":"a65bhlvcm4d7","geo_precision":"city","state":"California"},"type":"Feature","geometry":{"type":"Point","coordinates":[-118.737867,34.143061]}},{"properties":{"city":"Albany","geo_score":0.857,"description":"http://Albany.patch.com","coming soon":0,"id":"a65bhlja1gfc","geo_precision":"city","state":"California"},"type":"Feature","geometry":{"type":"Point","coordinates":[-122.29828,37.889525]}},{"properties":{"city":"Arlington","geo_score":0.857,"description":"http://Arlington.patch.com","coming soon":0,"id":"a65bhlmznl0o","geo_precision":"city","state":"Massachusetts"},"type":"Feature","geometry":{"type":"Point","coordinates":[-71.167083,42.417695]}},{"properties":{"city":"Basking Ridge","geo_score":0.857,"description":"http://BaskingRidge.patch.com","coming soon":0,"id":"a65bhlpttsb0","geo_precision":"city","state":"New Jersey"},"type":"Feature","geometry":{"type":"Point","coordinates":[-74.573001,40.682651]}},{"properties":{"city":"Bedford-Katonah","geo_score":0.782,"description":"http://BedfordKatonah.patch.com","coming soon":0,"id":"a65bhluz477p","geo_precision":"city","state":"New York"},"type":"Feature","geometry":{"type":"Point","coordinates":[-73.941249,40.683436]}},{"properties":{"city":"Bellmore","geo_score":0.857,"description":"http://Bellmore.patch.com","coming soon":0,"id":"a65bhljkqb0l","geo_precision":"city","state":"New York"},"type":"Feature","geometry":{"type":"Point","coordinates":[-73.53652,40.6729]}},{"properties":{"city":"Belmont","geo_score":0.857,"description":"http://Belmont.patch.com","coming soon":0,"id":"a65bhlqzar3c","geo_precision":"city","state":"Massachusetts"},"type":"Feature","geometry":{"type":"Point","coordinates":[-71.459405,42.446396]}},{"properties":{"city":"Beverly Hills","geo_score":0.857,"description":"http://BeverlyHills.patch.com","coming soon":0,"id":"a65bhlierjhz","geo_precision":"city","state":"California"},"type":"Feature","geometry":{"type":"Point","coordinates":[-118.298662,33.786594]}},{"properties":{"city":"Bronxville-Eastchester","geo_score":0.782,"description":"http://BronxvilleEastchester.patch.com","coming soon":0,"id":"a65bhlrpu18i","geo_precision":"city","state":"New York"},"type":"Feature","geometry":{"type":"Point","coordinates":[-73.829978,40.938448]}},{"properties":{"city":"Brookfield","geo_score":0.804,"description":"http://Brookfield.patch.com","coming soon":0,"id":"a65bhltfgori","geo_precision":"city","state":"Connecticut"},"type":"Feature","geometry":{"type":"Point","coordinates":[-73.38762,41.466206]}},{"properties":{"city":"Brookline","geo_score":0.857,"description":"http://Brookline.patch.com","coming soon":0,"id":"a65bhlpw9at9","geo_precision":"city","state":"Massachusetts"},"type":"Feature","geometry":{"type":"Point","coordinates":[-71.088745,42.308198]}},{"properties":{"city":"Calabasas","geo_score":0.857,"description":"http://Calabasas.patch.com","coming soon":0,"id":"a65bhlq94lwi","geo_precision":"city","state":"California"},"type":"Feature","geometry":{"type":"Point","coordinates":[-118.298662,33.786594]}},{"properties":{"city":"Caldwells","geo_score":0.841,"description":"http://Caldwells.patch.com","coming soon":0,"id":"a65bhls2ise4","geo_precision":"city","state":"New Jersey"},"type":"Feature","geometry":{"type":"Point","coordinates":[-74.278892,40.854548]}},{"properties":{"city":"Chappaqua-Mount Kisco","geo_score":0.729,"description":"http://ChappaquaMountKisco.patch.com","coming soon":0,"id":"a65bhlm64nhm","geo_precision":"city","state":"New York"},"type":"Feature","geometry":{"type":"Point","coordinates":[-75.923527,43.461459]}},{"properties":{"city":"Chatham","geo_score":0.857,"description":"http://Chatham.patch.com","coming soon":0,"id":"a65bhllsaiz6","geo_precision":"city","state":"New Jersey"},"type":"Feature","geometry":{"type":"Point","coordinates":[-74.496806,40.759477]}},{"properties":{"city":"Commack","geo_score":0.857,"description":"http://Commack.patch.com","coming soon":0,"id":"a65bhltwwhi8","geo_precision":"city","state":"New York"},"type":"Feature","geometry":{"type":"Point","coordinates":[-73.280935,40.842247]}},{"properties":{"city":"Concord","geo_score":0.857,"description":"http://Concord.patch.com","coming soon":0,"id":"a65bhliy8det","geo_precision":"city","state":"Massachusetts"},"type":"Feature","geometry":{"type":"Point","coordinates":[-71.459405,42.446396]}},{"properties":{"city":"Cranford","geo_score":0.786,"description":"http://Cranford.patch.com","coming soon":0,"id":"a65bhljr98h7","geo_precision":"city","state":"New Jersey"},"type":"Feature","geometry":{"type":"Point","coordinates":[-74.291259,40.662047]}},{"properties":{"city":"Culver City","geo_score":0.857,"description":"http://CulverCity.patch.com","coming soon":0,"id":"a65bhlwb0l1w","geo_precision":"city","state":"California"},"type":"Feature","geometry":{"type":"Point","coordinates":[-118.298662,33.786594]}},{"properties":{"city":"Danville","geo_score":0.81,"description":"http://Danville.patch.com","coming soon":0,"id":"a65bhlssc2n2","geo_precision":"city","state":"California"},"type":"Feature","geometry":{"type":"Point","coordinates":[-119.09066,36.248561]}},{"properties":{"city":"Darien","geo_score":0.857,"description":"http://Darien.patch.com","coming soon":0,"id":"a65bhluhrhms","geo_precision":"city","state":"Connecticut"},"type":"Feature","geometry":{"type":"Point","coordinates":[-73.480765,41.075846]}},{"properties":{"city":"Fairfield","geo_score":0.857,"description":"http://Fairfield.patch.com","coming soon":0,"id":"a65bhlpq27ri","geo_precision":"city","state":"Connecticut"},"type":"Feature","geometry":{"type":"Point","coordinates":[-73.282408,41.175173]}},{"properties":{"city":"Garden City","geo_score":0.857,"description":"http://GardenCity.patch.com","coming soon":0,"id":"a65bhltmolv1","geo_precision":"city","state":"New York"},"type":"Feature","geometry":{"type":"Point","coordinates":[-73.634296,40.726768]}},{"properties":{"city":"Glen Cove","geo_score":0.786,"description":"http://GlenCove.patch.com","coming soon":0,"id":"a65bhlij39q8","geo_precision":"city","state":"New York"},"type":"Feature","geometry":{"type":"Point","coordinates":[-74.344578,42.894241]}},{"properties":{"city":"Harrison","geo_score":0.857,"description":"http://Harrison.patch.com","coming soon":0,"id":"a65bhlos1yfx","geo_precision":"city","state":"New York"},"type":"Feature","geometry":{"type":"Point","coordinates":[-73.723036,40.979118]}},{"properties":{"city":"Hastings-Dobbs Ferry","geo_score":0.794,"description":"http://HastingsDobbsFerry.patch.com","coming soon":0,"id":"a65bhlselxgz","geo_precision":"city","state":"New York"},"type":"Feature","geometry":{"type":"Point","coordinates":[-76.15437,43.317013]}},{"properties":{"city":"Hermosa Beach","geo_score":0.857,"description":"http://HermosaBeach.patch.com","coming soon":0,"id":"a65bhlrkj8ir","geo_precision":"city","state":"California"},"type":"Feature","geometry":{"type":"Point","coordinates":[-118.298662,33.786594]}},{"properties":{"city":"Hoboken","geo_score":0.857,"description":"http://Hoboken.patch.com","coming soon":0,"id":"a65bhlp473ve","geo_precision":"city","state":"New Jersey"},"type":"Feature","geometry":{"type":"Point","coordinates":[-74.027972,40.745197]}},{"properties":{"city":"Huntington","geo_score":0.81,"description":"http://Huntington.patch.com","coming soon":0,"id":"a65bhliprl7l","geo_precision":"city","state":"New York"},"type":"Feature","geometry":{"type":"Point","coordinates":[-73.383452,40.897876]}},{"properties":{"city":"Lamorinda","geo_score":0.0,"description":"http://Lamorinda.patch.com","coming soon":0,"id":"a65bhlh9ivgc","geo_precision":"unmatched","state":"California"},"type":"Feature","geometry":null},{"properties":{"city":"Larchmont-Mamaroneck","geo_score":0.782,"description":"http://LarchmontMamaroneck.patch.com","coming soon":0,"id":"a65bhlir0usw","geo_precision":"city","state":"New York"},"type":"Feature","geometry":{"type":"Point","coordinates":[-73.755284,41.090197]}},{"properties":{"city":"Lexington","geo_score":0.857,"description":"http://Lexington.patch.com","coming soon":0,"id":"a65bhlsu0632","geo_precision":"city","state":"Massachusetts"},"type":"Feature","geometry":{"type":"Point","coordinates":[-71.459405,42.446396]}},{"properties":{"city":"Livingston","geo_score":0.857,"description":"http://Livingston.patch.com","coming soon":0,"id":"a65bhliv1ak8","geo_precision":"city","state":"New Jersey"},"type":"Feature","geometry":{"type":"Point","coordinates":[-74.325993,40.787006]}},{"properties":{"city":"Madison","geo_score":0.857,"description":"http://Madison.patch.com","coming soon":0,"id":"a65bhloo7nle","geo_precision":"city","state":"New Jersey"},"type":"Feature","geometry":{"type":"Point","coordinates":[-74.423019,40.7582]}},{"properties":{"city":"Manhattan Beach","geo_score":0.857,"description":"http://ManhattanBeach.patch.com","coming soon":0,"id":"a65bhlx0a4ja","geo_precision":"city","state":"California"},"type":"Feature","geometry":{"type":"Point","coordinates":[-118.298662,33.786594]}},{"properties":{"city":"Maplewood","geo_score":0.857,"description":"http://Maplewood.patch.com","coming soon":0,"id":"a65bhlmpsf3k","geo_precision":"city","state":"New Jersey"},"type":"Feature","geometry":{"type":"Point","coordinates":[-74.266541,40.7291]}},{"properties":{"city":"Marblehead","geo_score":0.816,"description":"http://Marblehead.patch.com","coming soon":0,"id":"a65bhll22xmd","geo_precision":"city","state":"Massachusetts"},"type":"Feature","geometry":{"type":"Point","coordinates":[-70.836991,42.500096]}},{"properties":{"city":"Massapequa","geo_score":0.857,"description":"http://Massapequa.patch.com","coming soon":0,"id":"a65bhlis1coc","geo_precision":"city","state":"New York"},"type":"Feature","geometry":{"type":"Point","coordinates":[-73.601772,40.754757]}},{"properties":{"city":"Melrose","geo_score":0.857,"description":"http://Melrose.patch.com","coming soon":0,"id":"a65bhlhs4p83","geo_precision":"city","state":"Massachusetts"},"type":"Feature","geometry":{"type":"Point","coordinates":[-71.053095,42.458995]}},{"properties":{"city":"Merrick","geo_score":0.857,"description":"http://Merrick.patch.com","coming soon":0,"id":"a65bhlrwe20w","geo_precision":"city","state":"New York"},"type":"Feature","geometry":{"type":"Point","coordinates":[-73.553628,40.668501]}},{"properties":{"city":"Mill Valley","geo_score":0.757,"description":"http://MillValley.patch.com","coming soon":0,"id":"a65bhlugt2pe","geo_precision":"city","state":"California"},"type":"Feature","geometry":{"type":"Point","coordinates":[-121.677764,40.517936]}},{"properties":{"city":"Millburn-Short Hills","geo_score":0.73,"description":"http://MillburnShortHills.patch.com","coming soon":0,"id":"a65bhlhrh91t","geo_precision":"city","state":"New Jersey"},"type":"Feature","geometry":{"type":"Point","coordinates":[-74.748498,41.097041]}},{"properties":{"city":"Milton","geo_score":0.786,"description":"http://Milton.patch.com","coming soon":0,"id":"a65bhlvyx0x8","geo_precision":"city","state":"Massachusetts"},"type":"Feature","geometry":{"type":"Point","coordinates":[-71.085396,42.436545]}},{"properties":{"city":"Monroe","geo_score":0.857,"description":"http://Monroe.patch.com","coming soon":0,"id":"a65bhlpf34dm","geo_precision":"city","state":"Connecticut"},"type":"Feature","geometry":{"type":"Point","coordinates":[-73.236918,41.341845]}},{"properties":{"city":"Montclair","geo_score":0.795,"description":"http://Montclair.patch.com","coming soon":0,"id":"a65bhlrwra0w","geo_precision":"city","state":"New Jersey"},"type":"Feature","geometry":{"type":"Point","coordinates":[-74.202368,40.8576]}},{"properties":{"city":"Montville","geo_score":0.857,"description":"http://Montville.patch.com","coming soon":0,"id":"a65bhlsjiu8e","geo_precision":"city","state":"New Jersey"},"type":"Feature","geometry":{"type":"Point","coordinates":[-74.363231,40.906311]}},{"properties":{"city":"Needham","geo_score":0.857,"description":"http://Needham.patch.com","coming soon":0,"id":"a65bhlj583mz","geo_precision":"city","state":"Massachusetts"},"type":"Feature","geometry":{"type":"Point","coordinates":[-71.08923,42.180048]}},{"properties":{"city":"Patchogue","geo_score":0.857,"description":"http://Patchogue.patch.com","coming soon":0,"id":"a65bhljvnjia","geo_precision":"city","state":"New York"},"type":"Feature","geometry":{"type":"Point","coordinates":[-72.637078,40.922326]}},{"properties":{"city":"Pleasanton","geo_score":0.796,"description":"http://Pleasanton.patch.com","coming soon":0,"id":"a65bhlx9gwx9","geo_precision":"city","state":"California"},"type":"Feature","geometry":{"type":"Point","coordinates":[-120.662985,38.68296]}},{"properties":{"city":"Port Chester","geo_score":0.857,"description":"http://PortChester.patch.com","coming soon":0,"id":"a65bhll25kml","geo_precision":"city","state":"New York"},"type":"Feature","geometry":{"type":"Point","coordinates":[-73.679799,41.022193]}},{"properties":{"city":"Port Washington","geo_score":0.82,"description":"http://PortWashington.patch.com","coming soon":0,"id":"a65bhli8pq4x","geo_precision":"city","state":"New York"},"type":"Feature","geometry":{"type":"Point","coordinates":[-73.701797,40.844822]}},{"properties":{"city":"Redondo Beach","geo_score":0.857,"description":"http://RedondoBeach.patch.com","coming soon":0,"id":"a65bhlws61iy","geo_precision":"city","state":"California"},"type":"Feature","geometry":{"type":"Point","coordinates":[-118.298662,33.786594]}},{"properties":{"city":"Ridgefield","geo_score":0.857,"description":"http://Ridgefield.patch.com","coming soon":0,"id":"a65bhlx4f2oh","geo_precision":"city","state":"Connecticut"},"type":"Feature","geometry":{"type":"Point","coordinates":[-73.494637,41.308201]}},{"properties":{"city":"Ridgewood","geo_score":0.857,"description":"http://Ridgewood.patch.com","coming soon":0,"id":"a65bhlnkzjgh","geo_precision":"city","state":"New Jersey"},"type":"Feature","geometry":{"type":"Point","coordinates":[-74.11207,40.982247]}},{"properties":{"city":"Rye","geo_score":0.857,"description":"http://Rye.patch.com","coming soon":0,"id":"a65bhlwwhshn","geo_precision":"city","state":"New York"},"type":"Feature","geometry":{"type":"Point","coordinates":[-73.744725,40.955237]}},{"properties":{"city":"Sachem","geo_score":0.0,"description":"http://Sachem.patch.com","coming soon":0,"id":"a65bhlucx9hr","geo_precision":"unmatched","state":"New York"},"type":"Feature","geometry":null},{"properties":{"city":"San Rafael","geo_score":0.857,"description":"http://SanRafael.patch.com","coming soon":0,"id":"a65bhluk6db2","geo_precision":"city","state":"California"},"type":"Feature","geometry":{"type":"Point","coordinates":[-122.531087,37.973535]}},{"properties":{"city":"San Ramon","geo_score":0.786,"description":"http://SanRamon.patch.com","coming soon":0,"id":"a65bhlwx1kje","geo_precision":"city","state":"California"},"type":"Feature","geometry":{"type":"Point","coordinates":[-116.976549,33.031572]}},{"properties":{"city":"Sayville","geo_score":0.857,"description":"http://Sayville.patch.com","coming soon":0,"id":"a65bhlsfqg38","geo_precision":"city","state":"New York"},"type":"Feature","geometry":{"type":"Point","coordinates":[-73.085858,40.745866]}},{"properties":{"city":"Scarsdale","geo_score":0.813,"description":"http://Scarsdale.patch.com","coming soon":0,"id":"a65bhlltnv38","geo_precision":"city","state":"New York"},"type":"Feature","geometry":{"type":"Point","coordinates":[-73.793188,40.983431]}},{"properties":{"city":"Scotch Plains-Fanwood","geo_score":0.805,"description":"http://ScotchPlainsFanwood.patch.com","coming soon":0,"id":"a65bhlrezw2i","geo_precision":"city","state":"New Jersey"},"type":"Feature","geometry":{"type":"Point","coordinates":[-74.368244,40.637852]}},{"properties":{"city":"South Orange","geo_score":0.792,"description":"http://SouthOrange.patch.com","coming soon":0,"id":"a65bhltdajio","geo_precision":"city","state":"New Jersey"},"type":"Feature","geometry":{"type":"Point","coordinates":[-74.23674,40.7704]}},{"properties":{"city":"Southbury","geo_score":0.857,"description":"http://Southbury.patch.com","coming soon":0,"id":"a65bhljcgvui","geo_precision":"city","state":"Connecticut"},"type":"Feature","geometry":{"type":"Point","coordinates":[-73.240839,41.470921]}},{"properties":{"city":"Springfield","geo_score":0.773,"description":"http://Springfield.patch.com","coming soon":0,"id":"a65bhlwlocel","geo_precision":"city","state":"New Jersey"},"type":"Feature","geometry":{"type":"Point","coordinates":[-74.03097,40.150392]}},{"properties":{"city":"Summit","geo_score":0.857,"description":"http://Summit.patch.com","coming soon":0,"id":"a65bhlrlee4y","geo_precision":"city","state":"New Jersey"},"type":"Feature","geometry":{"type":"Point","coordinates":[-74.361594,40.71275]}},{"properties":{"city":"Syosset","geo_score":0.857,"description":"http://Syosset.patch.com","coming soon":0,"id":"a65bhlooupo2","geo_precision":"city","state":"New York"},"type":"Feature","geometry":{"type":"Point","coordinates":[-73.601772,40.754757]}},{"properties":{"city":"Tarrytown-Sleepy Hollow","geo_score":0.735,"description":"http://TarrytownSleepyHollow.patch.com","coming soon":0,"id":"a65bhlspzmyc","geo_precision":"city","state":"New York"},"type":"Feature","geometry":{"type":"Point","coordinates":[-77.063876,42.796578]}},{"properties":{"city":"Three Village","geo_score":0.0,"description":"http://ThreeVillage.patch.com","coming soon":0,"id":"a65bhlhsfiw9","geo_precision":"unmatched","state":"New York"},"type":"Feature","geometry":null},{"properties":{"city":"Walnut Creek","geo_score":0.727,"description":"http://WalnutCreek.patch.com","coming soon":0,"id":"a65bhlw7bmpc","geo_precision":"city","state":"California"},"type":"Feature","geometry":{"type":"Point","coordinates":[-122.481647,38.517964]}},{"properties":{"city":"Wellesley","geo_score":0.857,"description":"http://Wellesley.patch.com","coming soon":0,"id":"a65bhlkeswjj","geo_precision":"city","state":"Massachusetts"},"type":"Feature","geometry":{"type":"Point","coordinates":[-71.27875,42.300596]}},{"properties":{"city":"West Islip","geo_score":0.771,"description":"http://WestIslip.patch.com","coming soon":0,"id":"a65bhlstkpa3","geo_precision":"city","state":"New York"},"type":"Feature","geometry":{"type":"Point","coordinates":[-76.362991,42.393962]}},{"properties":{"city":"West Orange","geo_score":0.792,"description":"http://WestOrange.patch.com","coming soon":0,"id":"a65bhltjgc61","geo_precision":"city","state":"New Jersey"},"type":"Feature","geometry":{"type":"Point","coordinates":[-74.818496,40.263997]}},{"properties":{"city":"Westfield","geo_score":0.776,"description":"http://Westfield.patch.com","coming soon":0,"id":"a65bhlt3y90p","geo_precision":"city","state":"New Jersey"},"type":"Feature","geometry":{"type":"Point","coordinates":[-75.117675,39.856502]}},{"properties":{"city":"Westport","geo_score":0.857,"description":"http://Westport.patch.com","coming soon":0,"id":"a65bhljh3svn","geo_precision":"city","state":"Connecticut"},"type":"Feature","geometry":{"type":"Point","coordinates":[-73.343261,41.144496]}},{"properties":{"city":"Westwood","geo_score":0.857,"description":"http://Westwood.patch.com","coming soon":0,"id":"a65bhlo1xv4f","geo_precision":"city","state":"Massachusetts"},"type":"Feature","geometry":{"type":"Point","coordinates":[-71.199238,42.220548]}},{"properties":{"city":"Wilton","geo_score":0.857,"description":"http://Wilton.patch.com","coming soon":0,"id":"a65bhllwunot","geo_precision":"city","state":"Connecticut"},"type":"Feature","geometry":{"type":"Point","coordinates":[-73.439165,41.209695]}},{"properties":{"city":"Wyckoff","geo_score":0.857,"description":"http://Wyckoff.patch.com","coming soon":0,"id":"a65bhljur6ub","geo_precision":"city","state":"New Jersey"},"type":"Feature","geometry":{"type":"Point","coordinates":[-74.165733,40.998387]}},{"properties":{"city":"Yorktown","geo_score":0.857,"description":"http://Yorktown.patch.com","coming soon":0,"id":"a65bhluksoo8","geo_precision":"city","state":"New York"},"type":"Feature","geometry":{"type":"Point","coordinates":[-73.80819,41.29565]}},{"properties":{"city":"town","geo_score":0.0,"description":"http://town.patch.com","coming soon":0,"id":"a65bhlidfkd6","geo_precision":"unmatched","state":"Connecticut"},"type":"Feature","geometry":null}],"is_temporal":false,"author":{"url":"","metadata":"","contact_name":"","contact_address":"","source":"","contact_phone":""},"source":"","pagination":{"sort":null,"start":0,"total":81,"limit":1000000},"state":"complete","tags":"aol,patch","published":"2010-07-16T18:35:02Z","id":58989}