{"type":"FeatureCollection","data_type":"Dataset","url_type":null,"permissions":[{"permissions":{"download":true,"view":true},"group_id":"everyone"}],"classification":null,"title":"Australia Elections - Greens","count":36,"stream_id":59125,"contributor":{"url":"http://geocommons.com/users/12003","name":"LauraHale"},"data_attributes":null,"calculation_params":null,"icon_link":null,"link":"http://geocommons.com/overlays/59125.json","extent":[-122.676,-42.8827,174.766,51.5002],"geometry_types":["point"],"unique_name":null,"name":"Australia Elections - Greens","feature_count":36,"description":"","next_feature":null,"is_raster":false,"short_classification":"Y","stats":{"latitude":{"max":51.5001524,"mean":-15.1558561472222,"variance":1051.01498402673,"stdev":32.4193612526023,"min":-42.882743,"median":-32.926357},"longitude":{"max":174.765735,"mean":94.3068682027778,"variance":9761.94715325289,"stdev":98.8025665317095,"min":-122.6762071,"median":147.330234},"greens":{"max":69,"mean":6.91666666666667,"variance":157.45,"stdev":12.5479081922048,"min":1,"median":2}},"features":[{"properties":{"city":"Adelaide","latitude":-34.92577,"country":"Australia","longitude":138.599732,"id":"a69hhwsuhwio","greens":30,"state":"South Australia"},"type":"Feature","geometry":{"type":"Point","coordinates":[138.599732,-34.92577]}},{"properties":{"city":"Alice Springs","latitude":-23.700358,"country":"Australia","longitude":133.880889,"id":"a69hhwufx2xc","greens":1,"state":"Northern Territory"},"type":"Feature","geometry":{"type":"Point","coordinates":[133.880889,-23.700358]}},{"properties":{"city":"Auckland","latitude":-36.847385,"country":"New Zealand","longitude":174.765735,"id":"a69hhwylsm4d","greens":7,"state":"Auckland"},"type":"Feature","geometry":{"type":"Point","coordinates":[174.765735,-36.847385]}},{"properties":{"city":"Bangalore","latitude":12.971606,"country":"India","longitude":77.594376,"id":"a69hhwuxdmmc","greens":2,"state":"Karnataka"},"type":"Feature","geometry":{"type":"Point","coordinates":[77.594376,12.971606]}},{"properties":{"city":"Benton","latitude":46.3166362,"country":"United States","longitude":-119.5021582,"id":"a69hhx5ececb","greens":1,"state":"Washington"},"type":"Feature","geometry":{"type":"Point","coordinates":[-119.5021582,46.3166362]}},{"properties":{"city":"Blue Mountains","latitude":-33.5931907,"country":"Australia","longitude":150.535641,"id":"a69hhwz6ku9q","greens":1,"state":"New South Wales"},"type":"Feature","geometry":{"type":"Point","coordinates":[150.535641,-33.5931907]}},{"properties":{"city":"Brisbane","latitude":-27.46758,"country":"Australia","longitude":153.027892,"id":"a69hhww0k3hy","greens":4,"state":"Queensland"},"type":"Feature","geometry":{"type":"Point","coordinates":[153.027892,-27.46758]}},{"properties":{"city":"Canberra","latitude":-35.28204,"country":"Australia","longitude":149.12858,"id":"a69hhwt5fyiq","greens":5,"state":"Australian Capital Territory"},"type":"Feature","geometry":{"type":"Point","coordinates":[149.12858,-35.28204]}},{"properties":{"city":"Central Coast","latitude":-33.4236246,"country":"Australia","longitude":151.3968598,"id":"a69hhx48gh8s","greens":1,"state":"New South Wales"},"type":"Feature","geometry":{"type":"Point","coordinates":[151.3968598,-33.4236246]}},{"properties":{"city":"Chicago","latitude":41.850033,"country":"United States","longitude":-87.6500523,"id":"a69hhwr7s193","greens":4,"state":"Illinois"},"type":"Feature","geometry":{"type":"Point","coordinates":[-87.6500523,41.850033]}},{"properties":{"city":"Cowper","latitude":-29.578505,"country":"Australia","longitude":153.062697,"id":"a69hhwwyu4cc","greens":1,"state":"New South Wales"},"type":"Feature","geometry":{"type":"Point","coordinates":[153.062697,-29.578505]}},{"properties":{"city":"Duffy","latitude":-35.337331,"country":"Australia","longitude":149.031759,"id":"a69hhx59xqc1","greens":1,"state":"Australian Capital Territory"},"type":"Feature","geometry":{"type":"Point","coordinates":[149.031759,-35.337331]}},{"properties":{"city":"Enmore","latitude":-33.899362,"country":"Australia","longitude":151.171098,"id":"a69hhwt8fv9q","greens":1,"state":"New South Wales"},"type":"Feature","geometry":{"type":"Point","coordinates":[151.171098,-33.899362]}},{"properties":{"city":"Fremantle","latitude":-32.053128,"country":"Australia","longitude":115.745869,"id":"a69hhwuya955","greens":22,"state":"Western Australia"},"type":"Feature","geometry":{"type":"Point","coordinates":[115.745869,-32.053128]}},{"properties":{"city":"Gold Coast","latitude":-27.9852778,"country":"Australia","longitude":153.3919444,"id":"a69hhx52o5vk","greens":5,"state":"Queensland"},"type":"Feature","geometry":{"type":"Point","coordinates":[153.3919444,-27.9852778]}},{"properties":{"city":"Hastings","latitude":-38.30771,"country":"Australia","longitude":145.190507,"id":"a69hhwqp2cbn","greens":7,"state":"Victoria"},"type":"Feature","geometry":{"type":"Point","coordinates":[145.190507,-38.30771]}},{"properties":{"city":"Hobart","latitude":-42.882743,"country":"Australia","longitude":147.330234,"id":"a69hhwyjr7ln","greens":8,"state":"Tasmania"},"type":"Feature","geometry":{"type":"Point","coordinates":[147.330234,-42.882743]}},{"properties":{"city":"Kellyville Ridge","latitude":-33.700104,"country":"Australia","longitude":150.92865,"id":"a69hhx40cahc","greens":1,"state":"New South Wales"},"type":"Feature","geometry":{"type":"Point","coordinates":[150.92865,-33.700104]}},{"properties":{"city":"Ku-ring-gai","latitude":-33.6509706,"country":"Australia","longitude":151.1985879,"id":"a69hhwxangwe","greens":11,"state":"New South Wales"},"type":"Feature","geometry":{"type":"Point","coordinates":[151.1985879,-33.6509706]}},{"properties":{"city":"Kuranda","latitude":-16.821476,"country":"Australia","longitude":145.634177,"id":"a69hhwwcaemb","greens":1,"state":"Queensland"},"type":"Feature","geometry":{"type":"Point","coordinates":[145.634177,-16.821476]}},{"properties":{"city":"London","latitude":51.5001524,"country":"United Kingdom","longitude":-0.1262362,"id":"a69hhwzqv5ki","greens":1,"state":"England"},"type":"Feature","geometry":{"type":"Point","coordinates":[-0.1262362,51.5001524]}},{"properties":{"city":"Los Angeles","latitude":34.0522342,"country":"United States","longitude":-118.2436849,"id":"a69hhx5ubs7b","greens":4,"state":"California"},"type":"Feature","geometry":{"type":"Point","coordinates":[-118.2436849,34.0522342]}},{"properties":{"city":"Melbourne","latitude":-37.814251,"country":"Australia","longitude":144.963169,"id":"a69hhx5t7a08","greens":19,"state":"Victoria"},"type":"Feature","geometry":{"type":"Point","coordinates":[144.963169,-37.814251]}},{"properties":{"city":"Midland","latitude":31.9973456,"country":"United States","longitude":-102.0779146,"id":"a69hhx4jrfkf","greens":1,"state":"Texas"},"type":"Feature","geometry":{"type":"Point","coordinates":[-102.0779146,31.9973456]}},{"properties":{"city":"Mount Barker","latitude":-35.064058,"country":"Australia","longitude":138.858189,"id":"a69hhx0e79y3","greens":2,"state":"South Australia"},"type":"Feature","geometry":{"type":"Point","coordinates":[138.858189,-35.064058]}},{"properties":{"city":"Newcastle","latitude":-32.926357,"country":"Australia","longitude":151.78122,"id":"a69hhwysvkx3","greens":13,"state":"New South Wales"},"type":"Feature","geometry":{"type":"Point","coordinates":[151.78122,-32.926357]}},{"properties":{"city":"Nowra","latitude":-34.872698,"country":"Australia","longitude":150.60342,"id":"a69hhwslphxd","greens":1,"state":"New South Wales"},"type":"Feature","geometry":{"type":"Point","coordinates":[150.60342,-34.872698]}},{"properties":{"city":"Paris","latitude":33.6609389,"country":"United States","longitude":-95.555513,"id":"a69hhwrnq1cy","greens":2,"state":"Texas"},"type":"Feature","geometry":{"type":"Point","coordinates":[-95.555513,33.6609389]}},{"properties":{"city":"Paterson","latitude":-32.599153,"country":"Australia","longitude":151.618293,"id":"a69hhx0fun7o","greens":2,"state":"New South Wales"},"type":"Feature","geometry":{"type":"Point","coordinates":[151.618293,-32.599153]}},{"properties":{"city":"Perth","latitude":-31.9554,"country":"Australia","longitude":115.85859,"id":"a69hhwun2sab","greens":9,"state":"Western Australia"},"type":"Feature","geometry":{"type":"Point","coordinates":[115.85859,-31.9554]}},{"properties":{"city":"Plumpton","latitude":-33.751432,"country":"Australia","longitude":150.841204,"id":"a69hhwtra486","greens":1,"state":"New South Wales"},"type":"Feature","geometry":{"type":"Point","coordinates":[150.841204,-33.751432]}},{"properties":{"city":"Portland","latitude":45.5234515,"country":"United States","longitude":-122.6762071,"id":"a69hhx2znbm0","greens":8,"state":"Oregon"},"type":"Feature","geometry":{"type":"Point","coordinates":[-122.6762071,45.5234515]}},{"properties":{"city":"Ringwood","latitude":-37.81402,"country":"Australia","longitude":145.227362,"id":"a69hhwwlfgcg","greens":1,"state":"Victoria"},"type":"Feature","geometry":{"type":"Point","coordinates":[145.227362,-37.81402]}},{"properties":{"city":"Sydney","latitude":-33.867139,"country":"Australia","longitude":151.207114,"id":"a69hhwxlxg2l","greens":69,"state":"New South Wales"},"type":"Feature","geometry":{"type":"Point","coordinates":[151.207114,-33.867139]}},{"properties":{"city":"Windsor","latitude":51.4799946,"country":"United Kingdom","longitude":-0.6059955,"id":"a69hhwujxk1j","greens":1,"state":"England"},"type":"Feature","geometry":{"type":"Point","coordinates":[-0.6059955,51.4799946]}},{"properties":{"city":"Yass","latitude":-34.84215,"country":"Australia","longitude":148.911228,"id":"a69hhwys5oj1","greens":1,"state":"New South Wales"},"type":"Feature","geometry":{"type":"Point","coordinates":[148.911228,-34.84215]}}],"is_temporal":false,"author":{"url":"","metadata":"","contact_name":"","contact_address":"","source":"","contact_phone":""},"source":"","pagination":{"sort":null,"start":0,"total":36,"limit":1000000},"state":"complete","tags":"","published":"2014-08-10T20:41:31-04:00","id":59125}