{"type":"FeatureCollection","data_type":"Dataset","url_type":null,"permissions":[{"permissions":{"download":true,"view":true},"group_id":"everyone"}],"classification":null,"title":"San Jacinto Unified School District Site Map","count":15,"stream_id":59211,"contributor":{"url":"http://geocommons.com/users/14843","name":"mmangabat-ojeda"},"data_attributes":null,"calculation_params":null,"icon_link":null,"link":"http://geocommons.com/overlays/59211.json","extent":[-117.397,33.7692,-116.934,34.028],"geometry_types":["point"],"unique_name":null,"name":"San Jacinto Unified School District Site Map","feature_count":15,"description":"","next_feature":null,"is_raster":false,"short_classification":"Y","stats":{"geo_score":{"max":0.927,"mean":0.669133333333333,"variance":0.0231981238095238,"stdev":0.152309303095785,"min":0.491,"median":0.614}},"features":[{"properties":{"city":"San Jacinto","zip":"92583","geo_score":0.611,"facility name":"Clayton A. Record Jr. Elementary","id":"a68w86snsb9x","geo_precision":"street","phone number":"(951) 487-6644","address":"1600 Malaga Drive","state":"CA"},"type":"Feature","geometry":{"type":"Point","coordinates":[-117.396567,34.028045]}},{"properties":{"city":"San Jacinto","zip":"92583","geo_score":0.732,"facility name":"De Anza Elementary","id":"a68w86n2yfec","geo_precision":"street","phone number":"(951) 654-4777","address":"1089 De Anza Drive","state":"CA"},"type":"Feature","geometry":{"type":"Point","coordinates":[-116.971876,33.789525]}},{"properties":{"city":"San Jacinto","zip":"92583","geo_score":0.495,"facility name":"District Office","id":"a68w86qjksc6","geo_precision":"street","phone number":"(951) 929-7700","address":"2045 S. San Jacinto Avenue","state":"CA"},"type":"Feature","geometry":{"type":"Point","coordinates":[-116.958895,33.787801]}},{"properties":{"city":"San Jacinto","zip":"92583","geo_score":0.862,"facility name":"Edward Hyatt Elementary","id":"a68w86hhsk8b","geo_precision":"range","phone number":"(951) 654-9391","address":"400 East Shaver","state":"CA"},"type":"Feature","geometry":{"type":"Point","coordinates":[-116.951955,33.777824]}},{"properties":{"city":"San Jacinto","zip":"92583","geo_score":0.805,"facility name":"Facilities and Operations","id":"a68w86hq2mai","geo_precision":"range","phone number":"(951) 654-7769","address":"905 Industrial Way","state":"CA"},"type":"Feature","geometry":{"type":"Point","coordinates":[-116.975548,33.784426]}},{"properties":{"city":"San Jacinto","zip":"92583","geo_score":0.837,"facility name":"Head Start Pre School","id":"a68w86hhv3pa","geo_precision":"range","phone number":"(951) 654-1531","address":"257 Grand Army","state":"CA"},"type":"Feature","geometry":{"type":"Point","coordinates":[-116.964392,33.787789]}},{"properties":{"city":"San Jacinto","zip":"92583","geo_score":0.734,"facility name":"Jose Antonio Estudillo Elementary","id":"a68w86niqe4u","geo_precision":"street","phone number":"(951) 654-1003","address":"900 Las Rosas Drive","state":"CA"},"type":"Feature","geometry":{"type":"Point","coordinates":[-116.940279,33.777422]}},{"properties":{"city":"San Jacinto","zip":"92583","geo_score":0.574,"facility name":"Megan Cope Elementary","id":"a68w86qlpcdo","geo_precision":"street","phone number":"(951) 654-6069","address":"2550 Via La Sierra Lane","state":"CA"},"type":"Feature","geometry":{"type":"Point","coordinates":[-116.974226,33.806222]}},{"properties":{"city":"San Jacinto","zip":"92583","geo_score":0.507,"facility name":"Monte Vista Middle School","id":"a68w86nu293y","geo_precision":"street","phone number":"(951) 654-9361","address":"181 N. Ramona Boulevard","state":"CA"},"type":"Feature","geometry":{"type":"Point","coordinates":[-116.934423,33.779769]}},{"properties":{"city":"San Jacinto","zip":"92582","geo_score":0.614,"facility name":"Mountain View High School","id":"a68w86rpinxh","geo_precision":"street","phone number":"(951) 487-7710","address":"1000 N. Ramona Boulevard","state":"CA"},"type":"Feature","geometry":{"type":"Point","coordinates":[-117.006363,33.82362]}},{"properties":{"city":"San Jacinto","zip":"92583","geo_score":0.536,"facility name":"North Mountain Middle School","id":"a68w86pchzr4","geo_precision":"street","phone number":"(951) 487-7797","address":"1202 E. Seventh","state":"CA"},"type":"Feature","geometry":{"type":"Point","coordinates":[-116.958835,33.780312]}},{"properties":{"city":"San Jacinto","zip":"92583","geo_score":0.805,"facility name":"Nutrition Services","id":"a68w86f47oda","geo_precision":"range","phone number":"(951) 654-9371","address":"221 Bissell Place","state":"CA"},"type":"Feature","geometry":{"type":"Point","coordinates":[-116.975035,33.786072]}},{"properties":{"city":"San Jacinto","zip":"92583","geo_score":0.491,"facility name":"Park Hill Elementary","id":"a68w86lxuz78","geo_precision":"street","phone number":"(951) 654-6651","address":"1157 E. Commonwealth","state":"CA"},"type":"Feature","geometry":{"type":"Point","coordinates":[-116.958773,33.769245]}},{"properties":{"city":"San Jacinto","zip":"92583","geo_score":0.507,"facility name":"San Jacinto Elementary","id":"a68w86o9vazf","geo_precision":"street","phone number":"(951) 654-7349","address":"136 N. Ramona Boulevard","state":"CA"},"type":"Feature","geometry":{"type":"Point","coordinates":[-116.934423,33.779769]}},{"properties":{"city":"San Jacinto","zip":"92583","geo_score":0.927,"facility name":"San Jacinto High School","id":"a68w86lzojf3","geo_precision":"range","phone number":"(951) 654-7374","address":"500 Idyllwild Drive","state":"CA"},"type":"Feature","geometry":{"type":"Point","coordinates":[-116.966345,33.795191]}}],"is_temporal":false,"author":{"url":"http://www.sanjacinto.k12.ca.us/","metadata":"","contact_name":"","contact_address":"","source":"","contact_phone":""},"source":"http://www.sanjacinto.k12.ca.us/","pagination":{"sort":null,"start":0,"total":15,"limit":1000000},"state":"complete","tags":"","published":"2010-08-01T16:00:00Z","id":59211}