{"type":"FeatureCollection","data_type":"Dataset","url_type":null,"permissions":[{"permissions":{"download":true,"view":true},"group_id":"everyone"}],"classification":null,"title":"OmegaWear Survey Results - v3.0 - 20July10","count":266,"stream_id":59340,"contributor":{"url":"http://geocommons.com/users/14869","name":"davidmoeller"},"data_attributes":null,"calculation_params":null,"icon_link":null,"link":"http://geocommons.com/overlays/59340.json","extent":[-158.046,21.3369,-70.9196,64.8601],"geometry_types":["point"],"unique_name":null,"name":"OmegaWear Survey Results - v3.0 - 20July10","feature_count":266,"description":"","next_feature":null,"is_raster":false,"short_classification":"Y","stats":{"geo_score":{"max":1.0,"mean":0.893932330827068,"variance":0.0164072557809618,"stdev":0.128090810681179,"min":0.643,"median":0.911}},"features":[{"properties":{"city":"#N/A","zip":"#N/A","response":"No","zip:":null,"geo_score":0.643,"name:":null,"id":"a67hbf1pb495","geo_precision":"city","lat":"#N/A","phone number:":null,"long":"#N/A","state":"#N/A","email address:":null},"type":"Feature","geometry":{"type":"Point","coordinates":[-85.558572,34.132319]}},{"properties":{"city":"#N/A","zip":"#N/A","response":null,"zip:":null,"geo_score":0.643,"name:":null,"id":"a67hbf832yff","geo_precision":"city","lat":"#N/A","phone number:":null,"long":"#N/A","state":"#N/A","email address:":"justincarts@gmail.com"},"type":"Feature","geometry":{"type":"Point","coordinates":[-85.558572,34.132319]}},{"properties":{"city":"#N/A","zip":"#N/A","response":"No","zip:":null,"geo_score":0.643,"name:":null,"id":"a67hbevwlwoc","geo_precision":"city","lat":"#N/A","phone number:":null,"long":"#N/A","state":"#N/A","email address:":"raymil29@msn.com"},"type":"Feature","geometry":{"type":"Point","coordinates":[-85.558572,34.132319]}},{"properties":{"city":"#N/A","zip":"#N/A","response":"No","zip:":null,"geo_score":0.643,"name:":null,"id":"a67hbf41exk6","geo_precision":"city","lat":"#N/A","phone number:":null,"long":"#N/A","state":"#N/A","email address:":null},"type":"Feature","geometry":{"type":"Point","coordinates":[-85.558572,34.132319]}},{"properties":{"city":"#N/A","zip":"#N/A","response":"Yes","zip:":null,"geo_score":0.643,"name:":null,"id":"a67hbf1uvq69","geo_precision":"city","lat":"#N/A","phone number:":null,"long":"#N/A","state":"#N/A","email address:":"mkyoung@surewest.net"},"type":"Feature","geometry":{"type":"Point","coordinates":[-85.558572,34.132319]}},{"properties":{"city":"#N/A","zip":"#N/A","response":"No","zip:":null,"geo_score":0.643,"name:":null,"id":"a67hbezqfoqb","geo_precision":"city","lat":"#N/A","phone number:":null,"long":"#N/A","state":"#N/A","email address:":"biliana@rocketmail.com"},"type":"Feature","geometry":{"type":"Point","coordinates":[-85.558572,34.132319]}},{"properties":{"city":"#N/A","zip":"#N/A","response":"No","zip:":null,"geo_score":0.643,"name:":null,"id":"a67hbf8lephf","geo_precision":"city","lat":"#N/A","phone number:":null,"long":"#N/A","state":"#N/A","email address:":null},"type":"Feature","geometry":{"type":"Point","coordinates":[-85.558572,34.132319]}},{"properties":{"city":"#N/A","zip":"#N/A","response":"No","zip:":null,"geo_score":0.643,"name:":null,"id":"a67hbezon543","geo_precision":"city","lat":"#N/A","phone number:":null,"long":"#N/A","state":"#N/A","email address:":null},"type":"Feature","geometry":{"type":"Point","coordinates":[-85.558572,34.132319]}},{"properties":{"city":"#N/A","zip":"#N/A","response":"No","zip:":null,"geo_score":0.643,"name:":null,"id":"a67hbey5jivc","geo_precision":"city","lat":"#N/A","phone number:":null,"long":"#N/A","state":"#N/A","email address:":null},"type":"Feature","geometry":{"type":"Point","coordinates":[-85.558572,34.132319]}},{"properties":{"city":"#N/A","zip":"#N/A","response":"No","zip:":null,"geo_score":0.643,"name:":null,"id":"a67hbevoztdl","geo_precision":"city","lat":"#N/A","phone number:":null,"long":"#N/A","state":"#N/A","email address:":null},"type":"Feature","geometry":{"type":"Point","coordinates":[-85.558572,34.132319]}},{"properties":{"city":"#N/A","zip":"#N/A","response":"No","zip:":null,"geo_score":0.643,"name:":null,"id":"a67hbf18orut","geo_precision":"city","lat":"#N/A","phone number:":null,"long":"#N/A","state":"#N/A","email address:":null},"type":"Feature","geometry":{"type":"Point","coordinates":[-85.558572,34.132319]}},{"properties":{"city":"#N/A","zip":"#N/A","response":"No","zip:":null,"geo_score":0.643,"name:":null,"id":"a67hbevk0xp8","geo_precision":"city","lat":"#N/A","phone number:":null,"long":"#N/A","state":"#N/A","email address:":null},"type":"Feature","geometry":{"type":"Point","coordinates":[-85.558572,34.132319]}},{"properties":{"city":"#N/A","zip":"#N/A","response":null,"zip:":null,"geo_score":0.643,"name:":null,"id":"a67hbexcyfsf","geo_precision":"city","lat":"#N/A","phone number:":null,"long":"#N/A","state":"#N/A","email address:":null},"type":"Feature","geometry":{"type":"Point","coordinates":[-85.558572,34.132319]}},{"properties":{"city":"#N/A","zip":"#N/A","response":"No","zip:":null,"geo_score":0.643,"name:":null,"id":"a67hbexortzh","geo_precision":"city","lat":"#N/A","phone number:":null,"long":"#N/A","state":"#N/A","email address:":null},"type":"Feature","geometry":{"type":"Point","coordinates":[-85.558572,34.132319]}},{"properties":{"city":"#N/A","zip":"#N/A","response":null,"zip:":null,"geo_score":0.643,"name:":null,"id":"a67hbf3yajip","geo_precision":"city","lat":"#N/A","phone number:":null,"long":"#N/A","state":"#N/A","email address:":null},"type":"Feature","geometry":{"type":"Point","coordinates":[-85.558572,34.132319]}},{"properties":{"city":"#N/A","zip":"#N/A","response":"Yes","zip:":null,"geo_score":0.643,"name:":null,"id":"a67hbf0h13a1","geo_precision":"city","lat":"#N/A","phone number:":null,"long":"#N/A","state":"#N/A","email address:":"briancrain@hotmail.com"},"type":"Feature","geometry":{"type":"Point","coordinates":[-85.558572,34.132319]}},{"properties":{"city":"#N/A","zip":"#N/A","response":"No","zip:":null,"geo_score":0.643,"name:":null,"id":"a67hbewqjmw6","geo_precision":"city","lat":"#N/A","phone number:":null,"long":"#N/A","state":"#N/A","email address:":null},"type":"Feature","geometry":{"type":"Point","coordinates":[-85.558572,34.132319]}},{"properties":{"city":"#N/A","zip":"#N/A","response":"No","zip:":null,"geo_score":0.643,"name:":null,"id":"a67hbf7663wf","geo_precision":"city","lat":"#N/A","phone number:":null,"long":"#N/A","state":"#N/A","email address:":null},"type":"Feature","geometry":{"type":"Point","coordinates":[-85.558572,34.132319]}},{"properties":{"city":"#N/A","zip":"#N/A","response":"No","zip:":null,"geo_score":0.643,"name:":null,"id":"a67hbevkdmw1","geo_precision":"city","lat":"#N/A","phone number:":null,"long":"#N/A","state":"#N/A","email address:":null},"type":"Feature","geometry":{"type":"Point","coordinates":[-85.558572,34.132319]}},{"properties":{"city":"#N/A","zip":"#N/A","response":"No","zip:":"979","geo_score":0.643,"name:":null,"id":"a67hbeyn4qud","geo_precision":"city","lat":"#N/A","phone number:":null,"long":"#N/A","state":"#N/A","email address:":"eorlmd@yahoo.com"},"type":"Feature","geometry":{"type":"Point","coordinates":[-85.558572,34.132319]}},{"properties":{"city":"#N/A","zip":"#N/A","response":"No","zip:":null,"geo_score":0.643,"name:":null,"id":"a67hbf55bsp4","geo_precision":"city","lat":"#N/A","phone number:":null,"long":"#N/A","state":"#N/A","email address:":"govweb411@yahoo.com"},"type":"Feature","geometry":{"type":"Point","coordinates":[-85.558572,34.132319]}},{"properties":{"city":"#N/A","zip":"#N/A","response":"No","zip:":null,"geo_score":0.643,"name:":null,"id":"a67hbf0gh1p5","geo_precision":"city","lat":"#N/A","phone number:":null,"long":"#N/A","state":"#N/A","email address:":null},"type":"Feature","geometry":{"type":"Point","coordinates":[-85.558572,34.132319]}},{"properties":{"city":"#N/A","zip":"#N/A","response":"No","zip:":null,"geo_score":0.643,"name:":null,"id":"a67hbf1dm6yb","geo_precision":"city","lat":"#N/A","phone number:":null,"long":"#N/A","state":"#N/A","email address:":null},"type":"Feature","geometry":{"type":"Point","coordinates":[-85.558572,34.132319]}},{"properties":{"city":"#N/A","zip":"#N/A","response":"No","zip:":null,"geo_score":0.643,"name:":null,"id":"a67hbexuun4a","geo_precision":"city","lat":"#N/A","phone number:":null,"long":"#N/A","state":"#N/A","email address:":null},"type":"Feature","geometry":{"type":"Point","coordinates":[-85.558572,34.132319]}},{"properties":{"city":"#N/A","zip":"#N/A","response":"No","zip:":null,"geo_score":0.643,"name:":null,"id":"a67hbexoqm7q","geo_precision":"city","lat":"#N/A","phone number:":null,"long":"#N/A","state":"#N/A","email address:":"rtunnell@jwrinc.com"},"type":"Feature","geometry":{"type":"Point","coordinates":[-85.558572,34.132319]}},{"properties":{"city":"#N/A","zip":"#N/A","response":"No","zip:":null,"geo_score":0.643,"name:":null,"id":"a67hbew73ngf","geo_precision":"city","lat":"#N/A","phone number:":null,"long":"#N/A","state":"#N/A","email address:":null},"type":"Feature","geometry":{"type":"Point","coordinates":[-85.558572,34.132319]}},{"properties":{"city":"#N/A","zip":"#N/A","response":"No","zip:":null,"geo_score":0.643,"name:":null,"id":"a67hbfbqktud","geo_precision":"city","lat":"#N/A","phone number:":null,"long":"#N/A","state":"#N/A","email address:":null},"type":"Feature","geometry":{"type":"Point","coordinates":[-85.558572,34.132319]}},{"properties":{"city":"#N/A","zip":"#N/A","response":"Yes","zip:":null,"geo_score":0.643,"name:":null,"id":"a67hbf4bpytk","geo_precision":"city","lat":"#N/A","phone number:":null,"long":"#N/A","state":"#N/A","email address:":null},"type":"Feature","geometry":{"type":"Point","coordinates":[-85.558572,34.132319]}},{"properties":{"city":"#N/A","zip":"#N/A","response":"No","zip:":null,"geo_score":0.643,"name:":null,"id":"a67hbf4z9p70","geo_precision":"city","lat":"#N/A","phone number:":null,"long":"#N/A","state":"#N/A","email address:":null},"type":"Feature","geometry":{"type":"Point","coordinates":[-85.558572,34.132319]}},{"properties":{"city":"#N/A","zip":"#N/A","response":"No","zip:":null,"geo_score":0.643,"name:":null,"id":"a67hbfawqobn","geo_precision":"city","lat":"#N/A","phone number:":null,"long":"#N/A","state":"#N/A","email address:":null},"type":"Feature","geometry":{"type":"Point","coordinates":[-85.558572,34.132319]}},{"properties":{"city":"#N/A","zip":"#N/A","response":null,"zip:":null,"geo_score":0.643,"name:":null,"id":"a67hbevjz8xd","geo_precision":"city","lat":"#N/A","phone number:":null,"long":"#N/A","state":"#N/A","email address:":null},"type":"Feature","geometry":{"type":"Point","coordinates":[-85.558572,34.132319]}},{"properties":{"city":"#N/A","zip":"#N/A","response":null,"zip:":null,"geo_score":0.643,"name:":null,"id":"a67hbf416njx","geo_precision":"city","lat":"#N/A","phone number:":null,"long":"#N/A","state":"#N/A","email address:":null},"type":"Feature","geometry":{"type":"Point","coordinates":[-85.558572,34.132319]}},{"properties":{"city":"#N/A","zip":"#N/A","response":"Yes","zip:":null,"geo_score":0.643,"name:":null,"id":"a67hbf4rmww1","geo_precision":"city","lat":"#N/A","phone number:":null,"long":"#N/A","state":"#N/A","email address:":null},"type":"Feature","geometry":{"type":"Point","coordinates":[-85.558572,34.132319]}},{"properties":{"city":"Pittsburgh","zip":"15205","response":"No","zip:":"15205","geo_score":0.914,"name:":"Aaronica Steffan","id":"a67hbfbt5ggm","geo_precision":"zip","lat":"40.436618","phone number:":null,"long":"-80.07289","state":"PA","email address:":"mikwana@hotmail.com"},"type":"Feature","geometry":{"type":"Point","coordinates":[-80.082278,40.434513]}},{"properties":{"city":"Fairfax","zip":"22033","response":"Yes","zip:":"22033","geo_score":1.0,"name:":"Abhishek Jain","id":"a67hbfb3ilhx","geo_precision":"zip","lat":"38.874879","phone number:":null,"long":"-77.38642","state":"VA","email address:":"aj.airforce1@gmail.com"},"type":"Feature","geometry":{"type":"Point","coordinates":[-77.378858,38.879466]}},{"properties":{"city":"Westborough","zip":"1581","response":"No","zip:":"1581","geo_score":1.0,"name:":"Adam","id":"a67hbf6md30y","geo_precision":"zip","lat":"42.269845","phone number:":null,"long":"-71.61408","state":"MA","email address:":"adamjcurtis@gmail.com"},"type":"Feature","geometry":{"type":"Point","coordinates":[-71.845865,42.255222]}},{"properties":{"city":"Harleysville","zip":"19438","response":"Yes","zip:":"19438","geo_score":0.893,"name:":"Adam","id":"a67hbf3hzmr4","geo_precision":"zip","lat":"40.270424","phone number:":null,"long":"-75.38569","state":"PA","email address:":"adam.gruchevsky@gmail.com"},"type":"Feature","geometry":{"type":"Point","coordinates":[-75.408788,40.297325]}},{"properties":{"city":"#N/A","zip":"#N/A","response":"Yes","zip:":"France","geo_score":0.643,"name:":"Ahmed","id":"a67hbf3wslpl","geo_precision":"city","lat":"#N/A","phone number:":null,"long":"#N/A","state":"#N/A","email address:":"ahmedibrahim085@gmail.com"},"type":"Feature","geometry":{"type":"Point","coordinates":[-85.558572,34.132319]}},{"properties":{"city":"#N/A","zip":"#N/A","response":"No","zip:":"85396","geo_score":0.643,"name:":"Al Gastellu","id":"a67hbf1vdwmo","geo_precision":"city","lat":"#N/A","phone number:":null,"long":"#N/A","state":"#N/A","email address:":"gastellu@aol.com"},"type":"Feature","geometry":{"type":"Point","coordinates":[-85.558572,34.132319]}},{"properties":{"city":"Norwalk","zip":"90650","response":"Yes","zip:":"90650","geo_score":0.871,"name:":"Albert","id":"a67hbexdwigl","geo_precision":"zip","lat":"33.906914","phone number:":null,"long":"-118.08339","state":"CA","email address:":"MONOMANIAC55@HOTMAIL.COM"},"type":"Feature","geometry":{"type":"Point","coordinates":[-118.096178,33.919737]}},{"properties":{"city":"Humble","zip":"77339","response":"Yes","zip:":"77339","geo_score":1.0,"name:":"Alden","id":"a67hbf8xnnu7","geo_precision":"zip","lat":"30.053368","phone number:":null,"long":"-95.21807","state":"TX","email address:":"arythemz@yahoo.com"},"type":"Feature","geometry":{"type":"Point","coordinates":[-95.434241,29.83399]}},{"properties":{"city":"Sugarloaf","zip":"18249","response":"Yes","zip:":"18249","geo_score":0.857,"name:":"Alex Falatovich","id":"a67hbf4u7s8f","geo_precision":"zip","lat":"40.99118","phone number:":null,"long":"-76.09565","state":"PA","email address:":"agenttrissk@gmail.com"},"type":"Feature","geometry":{"type":"Point","coordinates":[-76.151877,40.983696]}},{"properties":{"city":"Waipahu","zip":"96797","response":"Yes","zip:":"96797","geo_score":0.857,"name:":"Alexander Darkaire","id":"a67hbf2bezca","geo_precision":"zip","lat":"21.403487","phone number:":null,"long":"-158.01389","state":"HI","email address:":"alexdark4life@live.com"},"type":"Feature","geometry":{"type":"Point","coordinates":[-157.999444,21.408889]}},{"properties":{"city":"Radcliff","zip":"40160","response":"Yes","zip:":"40160","geo_score":0.882,"name:":"Alvin","id":"a67hbf6kyxr0","geo_precision":"zip","lat":"37.828459","phone number:":null,"long":"-85.93888","state":"KY","email address:":"alvin.c.lin@us.army.mil"},"type":"Feature","geometry":{"type":"Point","coordinates":[-85.934685,37.832012]}},{"properties":{"city":"Houston","zip":"77006","response":"Yes","zip:":"77006","geo_score":1.0,"name:":"Amati Pettes","id":"a67hbey9eur2","geo_precision":"zip","lat":"29.741878","phone number:":null,"long":"-95.38944","state":"TX","email address:":"amatipettes@gmail.com"},"type":"Feature","geometry":{"type":"Point","coordinates":[-95.434241,29.83399]}},{"properties":{"city":"Manchester Center","zip":"5255","response":"Yes","zip:":"5255","geo_score":0.875,"name:":"Anders Campbell","id":"a67hbf94xir1","geo_precision":"zip","lat":"43.172699","phone number:":null,"long":"-73.05261","state":"VT","email address:":"andersc@me.com"},"type":"Feature","geometry":{"type":"Point","coordinates":[-73.021215,43.189798]}},{"properties":{"city":"South Monroe","zip":"48168","response":"No","zip:":"48168","geo_score":0.857,"name:":"Andrea van Ee","id":"a67hbewcmi23","geo_precision":"city","lat":"41.885451","phone number:":null,"long":"-83.418524","state":"MI","email address:":"vaneeand@msu.edu"},"type":"Feature","geometry":{"type":"Point","coordinates":[-83.417711,41.895879]}},{"properties":{"city":"Salisbury","zip":"21804","response":"Yes","zip:":"21804","geo_score":1.0,"name:":"Andy Deck","id":"a67hbewwj7i6","geo_precision":"zip","lat":"38.359332","phone number:":null,"long":"-75.56931","state":"MD","email address:":"adeck197@yahoo.com"},"type":"Feature","geometry":{"type":"Point","coordinates":[-75.533782,38.350793]}},{"properties":{"city":"Decatur","zip":"30030","response":"No","zip:":"30030","geo_score":1.0,"name:":"Ann Mahasaen","id":"a67hbewyq7rw","geo_precision":"zip","lat":"33.771705","phone number:":null,"long":"-84.29407","state":"GA","email address:":"mahasaen@mindspring.com"},"type":"Feature","geometry":{"type":"Point","coordinates":[-84.291723,33.772554]}},{"properties":{"city":"Florissant","zip":"63034","response":"Yes","zip:":"63034","geo_score":0.869,"name:":"Antroinette","id":"a67hbf3fqkv6","geo_precision":"zip","lat":"38.832863","phone number:":null,"long":"-90.29051","state":"MO","email address:":"apcn820@sbcglobal.net"},"type":"Feature","geometry":{"type":"Point","coordinates":[-90.338448,38.861438]}},{"properties":{"city":"Chico","zip":"76431","response":"No","zip:":"76431","geo_score":1.0,"name:":"Austin Tate","id":"a67hbf0e2p95","geo_precision":"zip","lat":"33.293652","phone number:":null,"long":"-97.8597","state":"TX","email address:":"hoppalong21@yahoo.com"},"type":"Feature","geometry":{"type":"Point","coordinates":[-97.814354,33.301868]}},{"properties":{"city":"Houston","zip":"77034","response":"Yes","zip:":"77034","geo_score":0.878,"name:":"Baron Alfred","id":"a67hbewg95yn","geo_precision":"zip","lat":"29.63643","phone number:":null,"long":"-95.21789","state":"TX","email address:":"thechozynone@gmail.com"},"type":"Feature","geometry":{"type":"Point","coordinates":[-95.197156,29.623286]}},{"properties":{"city":"Bowling Green","zip":"42104","response":"Yes","zip:":"42104","geo_score":0.857,"name:":"Bart White","id":"a67hbf8o14e5","geo_precision":"zip","lat":"36.930527","phone number:":null,"long":"-86.44751","state":"KY","email address:":"bart.white@wku.edu"},"type":"Feature","geometry":{"type":"Point","coordinates":[-86.436936,36.916708]}},{"properties":{"city":"Raleigh","zip":"27615","response":"Yes","zip:":"27615","geo_score":1.0,"name:":"Beatriz Riehle","id":"a67hbf6npp5f","geo_precision":"zip","lat":"35.891726","phone number:":null,"long":"-78.63203","state":"NC","email address:":"meradeoleiros@gmail.com"},"type":"Feature","geometry":{"type":"Point","coordinates":[-78.627455,35.918893]}},{"properties":{"city":"Milwaukee","zip":"53202","response":"No","zip:":"53202","geo_score":1.0,"name:":"Ben","id":"a67hbezzxwv1","geo_precision":"zip","lat":"43.046213","phone number:":null,"long":"-87.9005","state":"WI","email address:":"zirbelb@msoe.edu"},"type":"Feature","geometry":{"type":"Point","coordinates":[-87.894734,43.043213]}},{"properties":{"city":"Philadelphia","zip":"19125","response":"Yes","zip:":"19125","geo_score":0.857,"name:":"Bernadette Dye","id":"a67hbew51kl8","geo_precision":"zip","lat":"39.978162","phone number:":null,"long":"-75.12565","state":"PA","email address:":"bernadette5@mac.com"},"type":"Feature","geometry":{"type":"Point","coordinates":[-75.131843,39.985946]}},{"properties":{"city":"Torrance","zip":"90503","response":"No","zip:":"90503","geo_score":0.875,"name:":"Bernard Yu","id":"a67hbfasa8s5","geo_precision":"zip","lat":"33.840264","phone number:":null,"long":"-118.35587","state":"CA","email address:":"bsyu_2000@yahoo.com"},"type":"Feature","geometry":{"type":"Point","coordinates":[-118.210348,33.846406]}},{"properties":{"city":"Black River Falls","zip":"54615","response":"Yes","zip:":"54615","geo_score":0.857,"name:":"Bob","id":"a67hbf9e0ch6","geo_precision":"zip","lat":"44.277231","phone number:":null,"long":"-90.80066","state":"WI","email address:":"dustybar@centurytel.net"},"type":"Feature","geometry":{"type":"Point","coordinates":[-90.754863,44.346073]}},{"properties":{"city":"Waldorf","zip":"20603","response":"No","zip:":"20603","geo_score":1.0,"name:":"Bradley Bears","id":"a67hbf1i20ou","geo_precision":"zip","lat":"38.631542","phone number:":null,"long":"-76.95723","state":"MD","email address:":"sephiroth312@yahoo.com"},"type":"Feature","geometry":{"type":"Point","coordinates":[-77.062012,38.52115]}},{"properties":{"city":"Sumrall","zip":"39482","response":"Yes","zip:":"39482","geo_score":0.857,"name:":"Bradley Luker","id":"a67hbevxxdo3","geo_precision":"zip","lat":"31.376358","phone number:":null,"long":"-89.58558","state":"MS","email address:":"bmluke58@gmail.com"},"type":"Feature","geometry":{"type":"Point","coordinates":[-89.590071,31.296842]}},{"properties":{"city":"Stanford","zip":"94305","response":"Yes","zip:":"94305","geo_score":1.0,"name:":"Brandon Seagle","id":"a67hbf9qvyv8","geo_precision":"zip","lat":"37.427039","phone number:":null,"long":"-122.16496","state":"CA","email address:":"blseagle@gmail.com"},"type":"Feature","geometry":{"type":"Point","coordinates":[-121.705327,37.189396]}},{"properties":{"city":"Syracuse","zip":"13207","response":"Yes","zip:":"13207","geo_score":1.0,"name:":"Brian Hodgens","id":"a67hbf7vn6pe","geo_precision":"zip","lat":"43.020116","phone number:":null,"long":"-76.16406","state":"NY","email address:":"BrianHodgens@yahoo.com"},"type":"Feature","geometry":{"type":"Point","coordinates":[-76.170596,43.012216]}},{"properties":{"city":"Atco","zip":"8004","response":"No","zip:":"8004","geo_score":0.929,"name:":"Brian Sia","id":"a67hbf3gedef","geo_precision":"zip","lat":"39.769357","phone number:":null,"long":"-74.87264","state":"NJ","email address:":"brian.sia@verizon.net"},"type":"Feature","geometry":{"type":"Point","coordinates":[-74.890997,39.745949]}},{"properties":{"city":"Phoenix","zip":"85029","response":"No","zip:":"85029","geo_score":0.857,"name:":"Bryan","id":"a67hbewy6v5v","geo_precision":"zip","lat":"33.598841","phone number:":null,"long":"-112.12023","state":"AZ","email address:":"black360ninja@yahoo.com"},"type":"Feature","geometry":{"type":"Point","coordinates":[-112.134876,33.683928]}},{"properties":{"city":"Birmingham","zip":"35243","response":"No","zip:":"35243","geo_score":0.857,"name:":"Cassels Krebs","id":"a67hbf4zermx","geo_precision":"zip","lat":"33.437667","phone number:":null,"long":"-86.74586","state":"AL","email address:":"ckrebs22@gmail.com"},"type":"Feature","geometry":{"type":"Point","coordinates":[-86.773044,33.417053]}},{"properties":{"city":"Santa Ana","zip":"92703","response":"Yes","zip:":"92703","geo_score":1.0,"name:":"Chano Moreno","id":"a67hbf7sg9hx","geo_precision":"zip","lat":"33.747067","phone number:":null,"long":"-117.90433","state":"CA","email address:":"moreno92703@yahoo.com"},"type":"Feature","geometry":{"type":"Point","coordinates":[-117.769442,33.640302]}},{"properties":{"city":"Palmer","zip":"75152","response":"Yes","zip:":"75152","geo_score":1.0,"name:":"Charlie Hernandez","id":"a67hbf0ozmp1","geo_precision":"zip","lat":"32.425222","phone number:":null,"long":"-96.68103","state":"TX","email address:":"ruff_rider_100@hotmail.com"},"type":"Feature","geometry":{"type":"Point","coordinates":[-96.675575,32.460524]}},{"properties":{"city":"San Diego","zip":"92136","response":"Yes","zip:":"92136","geo_score":1.0,"name:":"Chris","id":"a67hbezryea9","geo_precision":"zip","lat":"32.68342","phone number:":null,"long":"-117.121913","state":"CA","email address:":"nfs257@gmail.com"},"type":"Feature","geometry":{"type":"Point","coordinates":[-117.121913,32.68342]}},{"properties":{"city":"Nashville","zip":"37201","response":"No","zip:":"37201","geo_score":0.933,"name:":"Chris Gurchiek","id":"a67hbfapvr07","geo_precision":"zip","lat":"36.164556","phone number:":null,"long":"-86.77738","state":"TN","email address:":"cgurchiek@live.com"},"type":"Feature","geometry":{"type":"Point","coordinates":[-86.784474,36.171152]}},{"properties":{"city":"Chicago","zip":"60613","response":"Yes","zip:":"60613","geo_score":1.0,"name:":"Chris Means","id":"a67hbfa0vk5p","geo_precision":"zip","lat":"41.953256","phone number:":null,"long":"-87.6629","state":"IL","email address:":"cmeans@intfar.com"},"type":"Feature","geometry":{"type":"Point","coordinates":[-87.68732,41.811929]}},{"properties":{"city":"Cary","zip":"27519","response":"Yes","zip:":"27519","geo_score":1.0,"name:":"Chris Miracle","id":"a67hbf0d4pbq","geo_precision":"zip","lat":"35.76812","phone number:":null,"long":"-78.829548","state":"NC","email address:":"miracles_on_ice@yahoo.com"},"type":"Feature","geometry":{"type":"Point","coordinates":[-78.829548,35.76812]}},{"properties":{"city":"San Antonio","zip":"78201","response":"Yes","zip:":"78201","geo_score":1.0,"name:":"Claude O. Ellis","id":"a67hbfaung82","geo_precision":"zip","lat":"29.466781","phone number:":null,"long":"-98.52519","state":"TX","email address:":"coellis@sbcglobal.net"},"type":"Feature","geometry":{"type":"Point","coordinates":[-98.537495,29.399933]}},{"properties":{"city":"Maryland Heights","zip":"63043","response":"Yes","zip:":"63043","geo_score":1.0,"name:":"Crystal Burke","id":"a67hbf22to2s","geo_precision":"zip","lat":"38.725331","phone number:":null,"long":"-90.44451","state":"MO","email address:":"sable453@yahoo.com"},"type":"Feature","geometry":{"type":"Point","coordinates":[-90.447418,38.723951]}},{"properties":{"city":"La Verne","zip":"91750","response":"Yes","zip:":"91750","geo_score":1.0,"name:":"Cyndi Ramirez","id":"a67hbf5asr89","geo_precision":"zip","lat":"34.117047","phone number:":null,"long":"-117.77097","state":"CA","email address:":"rram624755@msn.com"},"type":"Feature","geometry":{"type":"Point","coordinates":[-118.298662,33.786594]}},{"properties":{"city":"Garner","zip":"27529","response":"Yes","zip:":"27529","geo_score":0.879,"name:":"Cynthia Gordon","id":"a67hbf6b06dr","geo_precision":"zip","lat":"35.679194","phone number:":null,"long":"-78.60246","state":"NC","email address:":"cyndi.m.gordon@gmail.com"},"type":"Feature","geometry":{"type":"Point","coordinates":[-78.60056,35.692932]}},{"properties":{"city":"Las Vegas","zip":"89129","response":"Yes","zip:":"89129","geo_score":1.0,"name:":"Dale Gerstel","id":"a67hbf35umi5","geo_precision":"zip","lat":"36.231139","phone number:":null,"long":"-115.28461","state":"NV","email address:":"dalegerstel@gmail.com"},"type":"Feature","geometry":{"type":"Point","coordinates":[-115.178996,35.794298]}},{"properties":{"city":"Independence","zip":"64052","response":"No","zip:":"64052","geo_score":0.881,"name:":"Dan Purdom","id":"a67hbeyo17is","geo_precision":"zip","lat":"39.076405","phone number:":null,"long":"-94.44943","state":"MO","email address:":"danielpurdom@gmail.com"},"type":"Feature","geometry":{"type":"Point","coordinates":[-94.456063,39.086949]}},{"properties":{"city":"Wichita","zip":"67212","response":"No","zip:":"67212","geo_score":1.0,"name:":"Dan Rivers","id":"a67hbf2piun1","geo_precision":"zip","lat":"37.700632","phone number:":null,"long":"-97.4343","state":"KS","email address:":"drivers@kwch.com"},"type":"Feature","geometry":{"type":"Point","coordinates":[-97.435443,37.701795]}},{"properties":{"city":"Jim Thorpe","zip":"18229","response":"No","zip:":"18229","geo_score":0.881,"name:":"Dane Roth","id":"a67hbf1dfxno","geo_precision":"zip","lat":"40.913283","phone number:":null,"long":"-75.6982","state":"PA","email address:":"withoutcares@gmail.com"},"type":"Feature","geometry":{"type":"Point","coordinates":[-75.771303,40.85759]}},{"properties":{"city":"Bowie","zip":"20720","response":"Yes","zip:":"20720","geo_score":1.0,"name:":"Dani Ross","id":"a67hbf6h9n5v","geo_precision":"zip","lat":"38.986699","phone number:":null,"long":"-76.78612","state":"MD","email address:":"chezlaross@aol.com"},"type":"Feature","geometry":{"type":"Point","coordinates":[-76.79098,38.98851]}},{"properties":{"city":"Atlanta","zip":"30318","response":"Yes","zip:":"30318","geo_score":0.878,"name:":"Daniel Fladung","id":"a67hbf4ioel2","geo_precision":"zip","lat":"33.786805","phone number:":null,"long":"-84.437","state":"GA","email address:":"dan.fladung@gatech.edu"},"type":"Feature","geometry":{"type":"Point","coordinates":[-84.453263,33.814272]}},{"properties":{"city":"Fullerton","zip":"92831","response":"No","zip:":"92831","geo_score":1.0,"name:":"Daniel Johnson","id":"a67hbey15jz3","geo_precision":"zip","lat":"33.878981","phone number:":null,"long":"-117.89325","state":"CA","email address:":"lvpipe@yahoo.com"},"type":"Feature","geometry":{"type":"Point","coordinates":[-117.769442,33.640302]}},{"properties":{"city":"El Dorado","zip":"67042","response":"Yes","zip:":"67042","geo_score":0.952,"name:":"Daniel Moore","id":"a67hbf90bu26","geo_precision":"zip","lat":"37.830417","phone number:":null,"long":"-96.84294","state":"KS","email address:":"forgotten_gods@yahoo.com"},"type":"Feature","geometry":{"type":"Point","coordinates":[-96.835585,37.820851]}},{"properties":{"city":"Denville","zip":"7834","response":"Yes","zip:":"7834","geo_score":1.0,"name:":"Darryl Price","id":"a67hbf3wws0n","geo_precision":"zip","lat":"40.886149","phone number:":null,"long":"-74.48704","state":"NJ","email address:":"darryl0223@gmail.com"},"type":"Feature","geometry":{"type":"Point","coordinates":[-74.489349,40.881248]}},{"properties":{"city":"San Pedro","zip":"90731","response":"Yes","zip:":"90731","geo_score":1.0,"name:":"David Aldaz","id":"a67hbf1b16mh","geo_precision":"zip","lat":"33.732368","phone number:":null,"long":"-118.28905","state":"CA","email address:":"vampdv8@hotmail.com"},"type":"Feature","geometry":{"type":"Point","coordinates":[-118.253053,33.753088]}},{"properties":{"city":"Columbus","zip":"43215","response":null,"zip:":"43215","geo_score":1.0,"name:":"David B Meleca","id":"a67hbf6yjpct","geo_precision":"zip","lat":"39.965131","phone number:":null,"long":"-83.00431","state":"OH","email address:":"dmeleca@meleca.com"},"type":"Feature","geometry":{"type":"Point","coordinates":[-82.877131,39.891745]}},{"properties":{"city":"Moreno Valley","zip":"92557","response":"Yes","zip:":"92557","geo_score":1.0,"name:":"David Clark","id":"a67hbf3s2i69","geo_precision":"zip","lat":"33.957957","phone number:":null,"long":"-117.24833","state":"CA","email address:":"pnl6062@yahoo.com"},"type":"Feature","geometry":{"type":"Point","coordinates":[-116.055617,33.752886]}},{"properties":{"city":"Los Angeles","zip":"90036","response":"No","zip:":"90036","geo_score":1.0,"name:":"David Coretti","id":"a67hbf1hqzp0","geo_precision":"zip","lat":"34.07036","phone number:":null,"long":"-118.34926","state":"CA","email address:":"Dpcoretti@gmail.com"},"type":"Feature","geometry":{"type":"Point","coordinates":[-118.298662,33.786594]}},{"properties":{"city":"Country Club Hills","zip":"60478","response":"Yes","zip:":"60478","geo_score":1.0,"name:":"Dawn Epting","id":"a67hbfbr4557","geo_precision":"zip","lat":"41.561134","phone number:":null,"long":"-87.72398","state":"IL","email address:":"journey2prosperity@gmail.com"},"type":"Feature","geometry":{"type":"Point","coordinates":[-87.68732,41.811929]}},{"properties":{"city":"Saint Paul","zip":"55106","response":"Yes","zip:":"55106","geo_score":1.0,"name:":"Dawn Manor","id":"a67hbf5scn96","geo_precision":"zip","lat":"44.967565","phone number:":null,"long":"-93.05001","state":"MN","email address:":"ten52@hotmail.com"},"type":"Feature","geometry":{"type":"Point","coordinates":[-93.041616,44.957065]}},{"properties":{"city":"Georgetown","zip":"78626","response":"Yes","zip:":"78626","geo_score":0.871,"name:":"Debbie McKenzie","id":"a67hbf54a1pq","geo_precision":"zip","lat":"30.643058","phone number:":null,"long":"-97.64713","state":"TX","email address:":"dmac1952@yahoo.com"},"type":"Feature","geometry":{"type":"Point","coordinates":[-97.540838,30.637973]}},{"properties":{"city":"Los Angeles","zip":"90064","response":"No","zip:":"90064","geo_score":1.0,"name:":"Deborah Eisen","id":"a67hbf2q7q4s","geo_precision":"zip","lat":"34.03457","phone number:":null,"long":"-118.42843","state":"CA","email address:":"dhe@dheisen.com"},"type":"Feature","geometry":{"type":"Point","coordinates":[-118.298662,33.786594]}},{"properties":{"city":"Arlington","zip":"22203","response":"Yes","zip:":"22203","geo_score":1.0,"name:":"Demetrius Moore","id":"a67hbfacj27f","geo_precision":"zip","lat":"38.874979","phone number:":null,"long":"-77.11455","state":"VA","email address:":"dj_moore2002@hotmail.com"},"type":"Feature","geometry":{"type":"Point","coordinates":[-77.119515,38.874775]}},{"properties":{"city":"New York","zip":"10010","response":"Yes","zip:":"10010","geo_score":1.0,"name:":"Derek Attico","id":"a67hbf8ve2tv","geo_precision":"zip","lat":"40.739022","phone number:":null,"long":"-73.98205","state":"NY","email address:":"dattico@gmail.com"},"type":"Feature","geometry":{"type":"Point","coordinates":[-73.983542,40.739024]}},{"properties":{"city":"Miami","zip":"33172","response":"Yes","zip:":"33172","geo_score":1.0,"name:":"Diana Wilson","id":"a67hbf11rfdw","geo_precision":"zip","lat":"25.786634","phone number:":null,"long":"-80.36151","state":"FL","email address:":"dwilsontx@gmail.com"},"type":"Feature","geometry":{"type":"Point","coordinates":[-80.359727,25.786922]}},{"properties":{"city":"#N/A","zip":"#N/A","response":"Yes","zip:":"M4Y 2X4","geo_score":0.643,"name:":"Dirk","id":"a67hbf3c8pll","geo_precision":"city","lat":"#N/A","phone number:":null,"long":"#N/A","state":"#N/A","email address:":"drepas@hotmail.com"},"type":"Feature","geometry":{"type":"Point","coordinates":[-85.558572,34.132319]}},{"properties":{"city":"Canton","zip":"30115","response":"Yes","zip:":"30115","geo_score":1.0,"name:":"Donna Ford","id":"a67hbf5id4vn","geo_precision":"zip","lat":"34.194029","phone number:":null,"long":"-84.43884","state":"GA","email address:":"donna.ford@gmail.com"},"type":"Feature","geometry":{"type":"Point","coordinates":[-84.419935,34.199345]}},{"properties":{"city":"Anaheim","zip":"92807","response":"Yes","zip:":"92807","geo_score":0.94,"name:":"Donna Standefer-Morales","id":"a67hbf7ektx4","geo_precision":"zip","lat":"33.850515","phone number:":null,"long":"-117.79113","state":"CA","email address:":"teamhondaacura@sbcglobal.net"},"type":"Feature","geometry":{"type":"Point","coordinates":[-117.777277,33.84446]}},{"properties":{"city":"The Colony","zip":"75056","response":"Yes","zip:":"75056","geo_score":1.0,"name:":"Doug Walter","id":"a67hbf09jtf4","geo_precision":"zip","lat":"33.081421","phone number:":null,"long":"-96.88957","state":"TX","email address:":"doug_walter@att.net"},"type":"Feature","geometry":{"type":"Point","coordinates":[-96.901605,33.077136]}},{"properties":{"city":"Louisville","zip":"40291","response":null,"zip:":"40291","geo_score":0.871,"name:":"Douglas Biggs","id":"a67hbf7e94bl","geo_precision":"zip","lat":"38.147232","phone number:":null,"long":"-85.59169","state":"KY","email address:":"biggslou@bellsouth.net"},"type":"Feature","geometry":{"type":"Point","coordinates":[-85.57079,38.116455]}},{"properties":{"city":"Dawsonville","zip":"30534","response":"Yes","zip:":"30534","geo_score":0.883,"name:":"Dylan Stradley","id":"a67hbf9taugf","geo_precision":"zip","lat":"34.416521","phone number:":null,"long":"-84.10849","state":"GA","email address:":"astra95110@aol.com"},"type":"Feature","geometry":{"type":"Point","coordinates":[-84.019354,34.414262]}},{"properties":{"city":"Austin","zip":"78705","response":"Yes","zip:":"78705","geo_score":1.0,"name:":"Eder","id":"a67hbf5ohf7x","geo_precision":"zip","lat":"30.292424","phone number:":null,"long":"-97.73856","state":"TX","email address:":"edersvelez@gmail.com"},"type":"Feature","geometry":{"type":"Point","coordinates":[-97.736932,30.293057]}},{"properties":{"city":"San Diego","zip":"92128","response":"Yes","zip:":"92128","geo_score":0.898,"name:":"Edward Zhu","id":"a67hbf4pkct7","geo_precision":"zip","lat":"32.998855","phone number:":null,"long":"-117.07054","state":"CA","email address:":"kelvinkraze@gmail.com"},"type":"Feature","geometry":{"type":"Point","coordinates":[-117.060866,33.018655]}},{"properties":{"city":"Gainesville","zip":"32608","response":"Yes","zip:":"32608","geo_score":1.0,"name:":"Elworthy Williams","id":"a67hbf0gsg5b","geo_precision":"zip","lat":"29.611545","phone number:":null,"long":"-82.3941","state":"FL","email address:":"elworthy.jamar@gmail.com"},"type":"Feature","geometry":{"type":"Point","coordinates":[-82.407395,29.575246]}},{"properties":{"city":"Honolulu","zip":"96822","response":"Yes","zip:":"96822","geo_score":1.0,"name:":"Eric Bott","id":"a67hbfa6k6uo","geo_precision":"zip","lat":"21.31275","phone number:":null,"long":"-157.82195","state":"HI","email address:":"botte001@hawaii.rr.com"},"type":"Feature","geometry":{"type":"Point","coordinates":[-157.94085,21.67115]}},{"properties":{"city":"#N/A","zip":"#N/A","response":"Yes","zip:":null,"geo_score":0.643,"name:":"Fabien de Serres","id":"a67hbexaakf7","geo_precision":"city","lat":"#N/A","phone number:":null,"long":"#N/A","state":"#N/A","email address:":"fdeserres@gmail.com"},"type":"Feature","geometry":{"type":"Point","coordinates":[-85.558572,34.132319]}},{"properties":{"city":"Wichita","zip":"67203","response":"Yes","zip:":"67203","geo_score":1.0,"name:":"Garrick Enright","id":"a67hbezr89f4","geo_precision":"zip","lat":"37.703932","phone number:":null,"long":"-97.36237","state":"KS","email address:":"garrickenright@gmail.com"},"type":"Feature","geometry":{"type":"Point","coordinates":[-97.395351,37.706514]}},{"properties":{"city":"Inyokern","zip":"93527","response":"Yes","zip:":"93527","geo_score":0.869,"name:":"Gary Babcock","id":"a67hbf7ftp9k","geo_precision":"zip","lat":"35.734418","phone number:":null,"long":"-117.89313","state":"CA","email address:":"gbppal@me.com"},"type":"Feature","geometry":{"type":"Point","coordinates":[-117.873127,35.809673]}},{"properties":{"city":"Waldorf","zip":"20603","response":"Yes","zip:":"20603","geo_score":1.0,"name:":"Harriette Julian","id":"a67hbf5pgahk","geo_precision":"zip","lat":"38.631542","phone number:":null,"long":"-76.95723","state":"MD","email address:":"hjulian@comcast.net"},"type":"Feature","geometry":{"type":"Point","coordinates":[-77.062012,38.52115]}},{"properties":{"city":"Washington","zip":"20002","response":"Yes","zip:":"20002","geo_score":1.0,"name:":"Hector Reynoso","id":"a67hbf52x1jp","geo_precision":"zip","lat":"38.901811","phone number:":null,"long":"-76.99097","state":"DC","email address:":"Hector.Reynoso3@gmail.com"},"type":"Feature","geometry":{"type":"Point","coordinates":[-76.982147,38.908218]}},{"properties":{"city":"Washington","zip":"20002","response":"Yes","zip:":"20002","geo_score":1.0,"name:":"Hector.Reynoso3@gmail.com","id":"a67hbexs8osh","geo_precision":"zip","lat":"38.901811","phone number:":null,"long":"-76.99097","state":"DC","email address:":"Hector.Reynoso3@gmail.com"},"type":"Feature","geometry":{"type":"Point","coordinates":[-76.982147,38.908218]}},{"properties":{"city":"Burlington","zip":"8016","response":"Yes","zip:":"8016","geo_score":0.87,"name:":"Israel A. Navarro","id":"a67hbf2qsu4n","geo_precision":"zip","lat":"40.06834","phone number:":null,"long":"-74.84463","state":"NJ","email address:":"dagreatizm69@hotmail.com"},"type":"Feature","geometry":{"type":"Point","coordinates":[-74.867387,40.058722]}},{"properties":{"city":"Ewa Beach","zip":"96706","response":"Yes","zip:":"96706","geo_score":0.879,"name:":"JAMES STURDIVANT","id":"a67hbfb3zv27","geo_precision":"zip","lat":"21.338055","phone number:":null,"long":"-158.02499","state":"HI","email address:":"james.sturdivant@us.army.mil"},"type":"Feature","geometry":{"type":"Point","coordinates":[-158.045833,21.336944]}},{"properties":{"city":"Wantagh","zip":"11793","response":"Yes","zip:":"11793","geo_score":0.94,"name:":"JASON R. WHITE","id":"a67hbf5ce49k","geo_precision":"zip","lat":"40.676649","phone number:":null,"long":"-73.51122","state":"NY","email address:":"UNKJAYCE@YAHOO.COM"},"type":"Feature","geometry":{"type":"Point","coordinates":[-73.507626,40.693434]}},{"properties":{"city":"Fort Stewart","zip":"31315","response":"Yes","zip:":"31315","geo_score":1.0,"name:":"JUAN A MARTINEZ DIAZ","id":"a67hbexnu4sz","geo_precision":"zip","lat":"31.886944","phone number:":null,"long":"-81.60109","state":"GA","email address:":"juan.a.martinezdiaz1@us.army.mil"},"type":"Feature","geometry":{"type":"Point","coordinates":[-81.654696,31.844332]}},{"properties":{"city":"Arlington","zip":"22201","response":"No","zip:":"22201","geo_score":1.0,"name:":"James DeJarnette","id":"a67hbeynfziz","geo_precision":"zip","lat":"38.885337","phone number:":null,"long":"-77.09512","state":"VA","email address:":"dejarnjc@gmail.com"},"type":"Feature","geometry":{"type":"Point","coordinates":[-77.099113,38.885484]}},{"properties":{"city":"Slate Hill","zip":"10973","response":"No","zip:":"10973","geo_score":0.873,"name:":"Jamie Critelli","id":"a67hbf4a4qdd","geo_precision":"zip","lat":"41.391172","phone number:":null,"long":"-74.47758","state":"NY","email address:":"jamie_critelli@gmx.ch"},"type":"Feature","geometry":{"type":"Point","coordinates":[-74.453491,41.386483]}},{"properties":{"city":"Fayetteville","zip":"30214","response":"Yes","zip:":"30214","geo_score":0.893,"name:":"Jan Davenport and Matthew","id":"a67hbf482njf","geo_precision":"zip","lat":"33.47875","phone number:":null,"long":"-84.47668","state":"GA","email address:":"jancdav@gmail.com"},"type":"Feature","geometry":{"type":"Point","coordinates":[-84.512427,33.327341]}},{"properties":{"city":"Franklinville","zip":"27248","response":"Yes","zip:":"27248","geo_score":0.868,"name:":"Jared Welborn","id":"a67hbf6tj5qv","geo_precision":"zip","lat":"35.761433","phone number:":null,"long":"-79.69835","state":"NC","email address:":"jwelborn92@yahoo.com"},"type":"Feature","geometry":{"type":"Point","coordinates":[-79.748085,35.799859]}},{"properties":{"city":"Babson Park","zip":"2457","response":"Yes","zip:":"2457","geo_score":1.0,"name:":"Jason Glover","id":"a67hbf7pp25a","geo_precision":"zip","lat":"42.180048","phone number:":null,"long":"-71.08923","state":"MA","email address:":"jglover3@babson.edu"},"type":"Feature","geometry":{"type":"Point","coordinates":[-71.08923,42.180048]}},{"properties":{"city":"Duluth","zip":"30097","response":"Yes","zip:":"30097","geo_score":1.0,"name:":"Jeanmarie Benson","id":"a67hbf6lsr0s","geo_precision":"zip","lat":"34.020621","phone number:":null,"long":"-84.14294","state":"GA","email address:":"bebopastroller@yahoo.com"},"type":"Feature","geometry":{"type":"Point","coordinates":[-84.144674,34.006019]}},{"properties":{"city":"Salt Lake City","zip":"84107","response":"Yes","zip:":"84107","geo_score":0.905,"name:":"Jed Brown","id":"a67hbeyvh9mm","geo_precision":"zip","lat":"40.659997","phone number:":null,"long":"-111.88394","state":"UT","email address:":"jed@ejed.com"},"type":"Feature","geometry":{"type":"Point","coordinates":[-111.890414,40.656796]}},{"properties":{"city":"Fort Worth","zip":"76116","response":"Yes","zip:":"76116","geo_score":0.857,"name:":"Jennifer Daniel","id":"a67hbf2b7s3s","geo_precision":"zip","lat":"32.72228","phone number:":null,"long":"-97.44409","state":"TX","email address:":"jennifersmith3@vzw.blackberry.net"},"type":"Feature","geometry":{"type":"Point","coordinates":[-97.539745,32.615968]}},{"properties":{"city":"Laceys Spring","zip":"35754","response":"Yes","zip:":"35754","geo_score":0.869,"name:":"Jennifer Horne","id":"a67hbf9oj6i4","geo_precision":"zip","lat":"34.520438","phone number:":null,"long":"-86.61977","state":"AL","email address:":"hootchie32@yahoo.com"},"type":"Feature","geometry":{"type":"Point","coordinates":[-86.569714,34.472037]}},{"properties":{"city":"Los Altos","zip":"94022","response":"Yes","zip:":"94022","geo_score":0.911,"name:":"Jennifer Lee","id":"a67hbfbagj1h","geo_precision":"zip","lat":"37.37714","phone number:":null,"long":"-122.12412","state":"CA","email address:":"jlee001@gmail.com"},"type":"Feature","geometry":{"type":"Point","coordinates":[-122.100518,37.35133]}},{"properties":{"city":"New Orleans","zip":"70125","response":"Yes","zip:":"70125","geo_score":1.0,"name:":"Jennifer Warden","id":"a67hbf9ay13n","geo_precision":"zip","lat":"29.951705","phone number:":null,"long":"-90.10411","state":"LA","email address:":"jrwarden@aol.com"},"type":"Feature","geometry":{"type":"Point","coordinates":[-90.102965,29.952659]}},{"properties":{"city":"Anthem","zip":"85086","response":"Yes","zip:":"85086","geo_score":1.0,"name:":"Jeremy Heesch","id":"a67hbf731iid","geo_precision":"zip","lat":"33.831866","phone number:":null,"long":"-112.06339","state":"AZ","email address:":"jheesch@gmail.com"},"type":"Feature","geometry":{"type":"Point","coordinates":[-112.18717,33.276539]}},{"properties":{"city":"Fort Benning","zip":"31905","response":"Yes","zip:":"31905","geo_score":0.87,"name:":"Jermaine Hampton","id":"a67hbf490lhu","geo_precision":"zip","lat":"32.37349","phone number:":null,"long":"-84.90612","state":"GA","email address:":"jermainehampton30@yahoo.com"},"type":"Feature","geometry":{"type":"Point","coordinates":[-84.844373,32.394312]}},{"properties":{"city":"Barrington","zip":"60010","response":"No","zip:":"60010","geo_score":0.857,"name:":"Jessica Durden","id":"a67hbf63d5le","geo_precision":"zip","lat":"42.160791","phone number:":null,"long":"-88.15231","state":"IL","email address:":"swimmstar92@gmail.com"},"type":"Feature","geometry":{"type":"Point","coordinates":[-88.152025,42.231968]}},{"properties":{"city":"Westmoreland","zip":"13490","response":"Yes","zip:":"13490","geo_score":0.893,"name:":"Jim Hale","id":"a67hbevtbmem","geo_precision":"zip","lat":"43.106801","phone number:":null,"long":"-75.41944","state":"NY","email address:":"wins4jim@yahoo.com"},"type":"Feature","geometry":{"type":"Point","coordinates":[-75.453785,43.099514]}},{"properties":{"city":"Covington","zip":"70435","response":"Yes","zip:":"70435","geo_score":1.0,"name:":"Jim Tarleton","id":"a67hbewlmqkk","geo_precision":"zip","lat":"30.53978","phone number:":null,"long":"-90.07953","state":"LA","email address:":"jimmy@allstate.com"},"type":"Feature","geometry":{"type":"Point","coordinates":[-90.109823,30.566088]}},{"properties":{"city":"Kansas City","zip":"64145","response":"Yes","zip:":"64145","geo_score":1.0,"name:":"Joe Carlisle","id":"a67hbf06lyhl","geo_precision":"zip","lat":"38.896407","phone number:":null,"long":"-94.59666","state":"MO","email address:":"jcarlisle@kc.rr.com"},"type":"Feature","geometry":{"type":"Point","coordinates":[-94.595958,38.88057]}},{"properties":{"city":"Miami","zip":"33156","response":"Yes","zip:":"33156","geo_score":1.0,"name:":"Joe Nadeau","id":"a67hbfaau6j5","geo_precision":"zip","lat":"25.66558","phone number:":null,"long":"-80.30688","state":"FL","email address:":"joe@jenadeau.com"},"type":"Feature","geometry":{"type":"Point","coordinates":[-80.193659,25.774266]}},{"properties":{"city":"Edwardsville","zip":"62025","response":"Yes","zip:":"62025","geo_score":0.893,"name:":"John Becher","id":"a67hbewv4kkz","geo_precision":"zip","lat":"38.819297","phone number:":null,"long":"-89.9551","state":"IL","email address:":"john_becher@hotmail.com"},"type":"Feature","geometry":{"type":"Point","coordinates":[-90.038716,38.834492]}},{"properties":{"city":"Jenkintown","zip":"19046","response":"Yes","zip:":"19046","geo_score":0.871,"name:":"John H","id":"a67hbeycqz7n","geo_precision":"zip","lat":"40.09811","phone number:":null,"long":"-75.10949","state":"PA","email address:":"jhaughney@spininc.org"},"type":"Feature","geometry":{"type":"Point","coordinates":[-75.089618,40.081222]}},{"properties":{"city":"Lake Saint Louis","zip":"63367","response":"Yes","zip:":"63367","geo_score":0.878,"name:":"John McClain","id":"a67hbevhlnjp","geo_precision":"zip","lat":"38.796601","phone number:":null,"long":"-90.78525","state":"MO","email address:":"johnmcclain@earthwiseicf.com"},"type":"Feature","geometry":{"type":"Point","coordinates":[-91.232932,38.678659]}},{"properties":{"city":"Lincoln","zip":"68523","response":"Yes","zip:":"68523","geo_score":0.857,"name:":"John Nellessen","id":"a67hbf3izmja","geo_precision":"zip","lat":"40.740529","phone number:":null,"long":"-96.76178","state":"NE","email address:":"jnellessen1@windstream.net"},"type":"Feature","geometry":{"type":"Point","coordinates":[-96.73613,40.711946]}},{"properties":{"city":"Ottsville","zip":"18942","response":"Yes","zip:":"18942","geo_score":1.0,"name:":"Jon Hickman","id":"a67hbf5eznbb","geo_precision":"zip","lat":"40.466205","phone number:":null,"long":"-75.16183","state":"PA","email address:":"hickmets@yahoo.com"},"type":"Feature","geometry":{"type":"Point","coordinates":[-75.167341,40.463447]}},{"properties":{"city":"#N/A","zip":"#N/A","response":"No","zip:":"15900","geo_score":0.643,"name:":"Jorge Ovando","id":"a67hbf170top","geo_precision":"city","lat":"#N/A","phone number:":null,"long":"#N/A","state":"#N/A","email address:":"gorjen19@live.com.mx"},"type":"Feature","geometry":{"type":"Point","coordinates":[-85.558572,34.132319]}},{"properties":{"city":"Boca Raton","zip":"33487","response":"Yes","zip:":"33487","geo_score":0.868,"name:":"Joshua Stern","id":"a67hbf6fg5vs","geo_precision":"zip","lat":"26.409953","phone number:":null,"long":"-80.08841","state":"FL","email address:":"JCoreyball2@aol.com"},"type":"Feature","geometry":{"type":"Point","coordinates":[-80.065598,26.39952]}},{"properties":{"city":"Salt Lake City","zip":"84119","response":"Yes","zip:":"84119","geo_score":0.857,"name:":"Jr Stackhouse","id":"a67hbew77unn","geo_precision":"zip","lat":"40.696596","phone number:":null,"long":"-111.95239","state":"UT","email address:":"jrstack@hotmail.com"},"type":"Feature","geometry":{"type":"Point","coordinates":[-111.939104,40.71328]}},{"properties":{"city":"San Marcos","zip":"78666","response":"Yes","zip:":"78666","geo_score":0.873,"name:":"Julie Llanas","id":"a67hbfafxh4l","geo_precision":"zip","lat":"29.876944","phone number:":null,"long":"-97.94668","state":"TX","email address:":"julie_munchkin@yahoo.com"},"type":"Feature","geometry":{"type":"Point","coordinates":[-97.94806,29.753002]}},{"properties":{"city":"Rome","zip":"30161","response":"Yes","zip:":"30161","geo_score":0.871,"name:":"Justin Gibson","id":"a67hbf86o8ke","geo_precision":"zip","lat":"34.253343","phone number:":null,"long":"-85.15312","state":"GA","email address:":"justingibson@vzw.blackberry.net"},"type":"Feature","geometry":{"type":"Point","coordinates":[-85.323288,34.131486]}},{"properties":{"city":"Scottsdale","zip":"85255","response":"Yes","zip:":"85255","geo_score":0.88,"name:":"Justin Lane","id":"a67hbf3qh76d","geo_precision":"zip","lat":"33.697268","phone number:":null,"long":"-111.88321","state":"AZ","email address:":"jlane98@yahoo.com"},"type":"Feature","geometry":{"type":"Point","coordinates":[-111.901812,33.700041]}},{"properties":{"city":"Edmond","zip":"73034","response":"Yes","zip:":"73034","geo_score":0.875,"name:":"KJ","id":"a67hbf7mlymm","geo_precision":"zip","lat":"35.683768","phone number:":null,"long":"-97.44686","state":"OK","email address:":"kj5@me.com"},"type":"Feature","geometry":{"type":"Point","coordinates":[-97.478096,35.72533]}},{"properties":{"city":"Sacramento","zip":"95816","response":"Yes","zip:":"95816","geo_score":1.0,"name:":"KT Jorgensen","id":"a67hbf0w5ta3","geo_precision":"zip","lat":"38.571661","phone number:":null,"long":"-121.46827","state":"CA","email address:":"kt@vin.com"},"type":"Feature","geometry":{"type":"Point","coordinates":[-121.467549,38.571505]}},{"properties":{"city":"Mountain View","zip":"94040","response":null,"zip:":"94040","geo_score":1.0,"name:":"Karen Paradise","id":"a67hbf871e5y","geo_precision":"zip","lat":"37.380207","phone number:":null,"long":"-122.08787","state":"CA","email address:":"kdparadise@yahoo.com"},"type":"Feature","geometry":{"type":"Point","coordinates":[-121.705327,37.189396]}},{"properties":{"city":"West Boylston","zip":"1583","response":"No","zip:":"1583","geo_score":1.0,"name:":"Karin","id":"a67hbeyduil4","geo_precision":"zip","lat":"42.359842","phone number:":null,"long":"-71.787","state":"MA","email address:":"karinlh@yahoo.com"},"type":"Feature","geometry":{"type":"Point","coordinates":[-71.781215,42.362783]}},{"properties":{"city":"Doylestown","zip":"44230","response":"Yes","zip:":"44230","geo_score":1.0,"name:":"Karla Wehling","id":"a67hbew6wd6y","geo_precision":"zip","lat":"40.964111","phone number:":null,"long":"-81.68961","state":"OH","email address:":"mrskwehling@yahoo.com"},"type":"Feature","geometry":{"type":"Point","coordinates":[-81.770787,40.958926]}},{"properties":{"city":"Lexington","zip":"27295","response":"Yes","zip:":"27295","geo_score":1.0,"name:":"Keith Fields","id":"a67hbexd4unh","geo_precision":"zip","lat":"35.856896","phone number:":null,"long":"-80.28961","state":"NC","email address:":"kfields5584@yahoo.com"},"type":"Feature","geometry":{"type":"Point","coordinates":[-80.277877,35.813292]}},{"properties":{"city":"Orange","zip":"92868","response":"Yes","zip:":"92868","geo_score":1.0,"name:":"Kelly Aveleno","id":"a67hbf8de8i4","geo_precision":"zip","lat":"33.787266","phone number:":null,"long":"-117.87494","state":"CA","email address:":"ocspidergirl@gmail.com"},"type":"Feature","geometry":{"type":"Point","coordinates":[-117.769442,33.640302]}},{"properties":{"city":"Northridge","zip":"91326","response":"Yes","zip:":"91326","geo_score":0.909,"name:":"Kevin M Gallagher","id":"a67hbfb020c5","geo_precision":"zip","lat":"34.276154","phone number:":null,"long":"-118.54581","state":"CA","email address:":"gallagher.kevinm@gmail.com"},"type":"Feature","geometry":{"type":"Point","coordinates":[-118.298662,33.786594]}},{"properties":{"city":"#N/A","zip":"#N/A","response":"Yes","zip:":"k2b8n3","geo_score":0.643,"name:":"Kim Truong","id":"a67hbf3zh7px","geo_precision":"city","lat":"#N/A","phone number:":null,"long":"#N/A","state":"#N/A","email address:":"kim.y.truong@gmail.com"},"type":"Feature","geometry":{"type":"Point","coordinates":[-85.558572,34.132319]}},{"properties":{"city":"New York","zip":"10001","response":"No","zip:":"10001","geo_score":1.0,"name:":"Kristin","id":"a67hbevxhk07","geo_precision":"zip","lat":"40.750742","phone number:":null,"long":"-73.99653","state":"NY","email address:":"myorangehat@gmail.com"},"type":"Feature","geometry":{"type":"Point","coordinates":[-73.996328,40.750422]}},{"properties":{"city":"Washington","zip":"20009","response":"No","zip:":"20009","geo_score":1.0,"name:":"Kristopher Simpson","id":"a67hbexo2vjh","geo_precision":"zip","lat":"38.919211","phone number:":null,"long":"-77.03777","state":"DC","email address:":"calkrissimpson@yahoo.com"},"type":"Feature","geometry":{"type":"Point","coordinates":[-77.039798,38.919261]}},{"properties":{"city":"San Francisco","zip":"94103","response":"Yes","zip:":"94103","geo_score":1.0,"name:":"Kyle Anderson","id":"a67hbeydkcyn","geo_precision":"zip","lat":"37.772329","phone number:":null,"long":"-122.41087","state":"CA","email address:":"kyle.august.anderson@gmail.com"},"type":"Feature","geometry":{"type":"Point","coordinates":[-122.412131,37.775678]}},{"properties":{"city":"Milton","zip":"32570","response":"Yes","zip:":"32570","geo_score":0.878,"name:":"Kyle Cuttie","id":"a67hbexr8n25","geo_precision":"zip","lat":"30.70969","phone number:":null,"long":"-87.01098","state":"FL","email address:":"kc.cuttie@gmail.com"},"type":"Feature","geometry":{"type":"Point","coordinates":[-87.179971,30.677414]}},{"properties":{"city":"Worcester","zip":"1605","response":"No","zip:":"1605","geo_score":1.0,"name:":"LUTFI KARIM","id":"a67hbf8bpotw","geo_precision":"zip","lat":"42.286543","phone number:":null,"long":"-71.78846","state":"MA","email address:":"lutfikarim@hotmail.com"},"type":"Feature","geometry":{"type":"Point","coordinates":[-71.796128,42.288792]}},{"properties":{"city":"Vancouver","zip":"98661","response":"Yes","zip:":"98661","geo_score":0.873,"name:":"Lamin  Williams","id":"a67hbexragiw","geo_precision":"zip","lat":"45.63873","phone number:":null,"long":"-122.62846","state":"WA","email address:":"lamin.williams@gmail.com"},"type":"Feature","geometry":{"type":"Point","coordinates":[-122.648708,45.659006]}},{"properties":{"city":"San Antonio","zip":"78253","response":"Yes","zip:":"78253","geo_score":1.0,"name:":"Lance Strickland","id":"a67hbeyi7pa3","geo_precision":"zip","lat":"29.461353","phone number:":null,"long":"-98.75976","state":"TX","email address:":"william.strickland.1@us.af.mil; Lscrapiron97@yahoo.com"},"type":"Feature","geometry":{"type":"Point","coordinates":[-98.757439,29.471977]}},{"properties":{"city":"Pompano Beach","zip":"33073","response":"Yes","zip:":"33073","geo_score":1.0,"name:":"Larry Horak","id":"a67hbew8n7wh","geo_precision":"zip","lat":"26.305433","phone number:":null,"long":"-80.18287","state":"FL","email address:":"lhorak1@fau.edu"},"type":"Feature","geometry":{"type":"Point","coordinates":[-80.180078,26.298352]}},{"properties":{"city":"Little Rock","zip":"72227","response":"No","zip:":"72227","geo_score":1.0,"name:":"Lena Calaway","id":"a67hbf9vgm30","geo_precision":"zip","lat":"34.771024","phone number:":null,"long":"-92.37117","state":"AR","email address:":"lena.calaway@gmail.com"},"type":"Feature","geometry":{"type":"Point","coordinates":[-92.372386,34.775747]}},{"properties":{"city":"#N/A","zip":"#N/A","response":null,"zip:":null,"geo_score":0.643,"name:":"Leo Vandoros","id":"a67hbf47ms3h","geo_precision":"city","lat":"#N/A","phone number:":null,"long":"#N/A","state":"#N/A","email address:":"vandoros@email.unc.edu"},"type":"Feature","geometry":{"type":"Point","coordinates":[-85.558572,34.132319]}},{"properties":{"city":"Hermitage","zip":"16148","response":"Yes","zip:":"16148","geo_score":1.0,"name:":"Leslie Tuk","id":"a67hbfbm61bh","geo_precision":"zip","lat":"41.232543","phone number:":null,"long":"-80.45797","state":"PA","email address:":"ltuk@rtiintl.com"},"type":"Feature","geometry":{"type":"Point","coordinates":[-80.438887,41.221984]}},{"properties":{"city":"Burlington","zip":"27215","response":"Yes","zip:":"27215","geo_score":0.871,"name:":"Linda Leister","id":"a67hbfa09yit","geo_precision":"zip","lat":"36.072336","phone number:":null,"long":"-79.4698","state":"NC","email address:":"linda_leister@bellsouth.net"},"type":"Feature","geometry":{"type":"Point","coordinates":[-79.400022,36.207636]}},{"properties":{"city":"San Diego","zip":"92123","response":"Yes","zip:":"92123","geo_score":0.889,"name:":"Lisa Uribe","id":"a67hbevfanwv","geo_precision":"zip","lat":"32.803799","phone number:":null,"long":"-117.13595","state":"CA","email address:":"caleb2boo@att.net"},"type":"Feature","geometry":{"type":"Point","coordinates":[-117.138366,32.802827]}},{"properties":{"city":"Minneapolis","zip":"55443","response":"Yes","zip:":"55443","geo_score":0.857,"name:":"Lori Mathis","id":"a67hbewbq8gw","geo_precision":"zip","lat":"45.108581","phone number:":null,"long":"-93.33988","state":"MN","email address:":"lori.mathis@gmail.com"},"type":"Feature","geometry":{"type":"Point","coordinates":[-93.356341,45.094132]}},{"properties":{"city":"Fairbanks","zip":"99709","response":"Yes","zip:":"99709","geo_score":1.0,"name:":"Lorilyn Boone","id":"a67hbezz7aox","geo_precision":"zip","lat":"64.854937","phone number:":null,"long":"-147.87406","state":"AK","email address:":"lboone@alaska.edu"},"type":"Feature","geometry":{"type":"Point","coordinates":[-147.999791,64.860126]}},{"properties":{"city":"#N/A","zip":"#N/A","response":"Yes","zip:":"Zip","geo_score":0.643,"name:":"Lou Alfieri, Sr.","id":"a67hbf8naz01","geo_precision":"city","lat":"#N/A","phone number:":null,"long":"#N/A","state":"#N/A","email address:":"lou.alfieri@comcast.net"},"type":"Feature","geometry":{"type":"Point","coordinates":[-85.558572,34.132319]}},{"properties":{"city":"Wichita","zip":"67210","response":"Yes","zip:":"67210","geo_score":1.0,"name:":"Louise","id":"a67hbf7xixyz","geo_precision":"zip","lat":"37.638946","phone number:":null,"long":"-97.26652","state":"KS","email address:":"lmcclellan@cox.net"},"type":"Feature","geometry":{"type":"Point","coordinates":[-97.247359,37.615901]}},{"properties":{"city":"San Antonio","zip":"78232","response":"Yes","zip:":"78232","geo_score":0.868,"name:":"MIKE J GONZALEZ","id":"a67hbf05och5","geo_precision":"zip","lat":"29.584698","phone number:":null,"long":"-98.46987","state":"TX","email address:":"mikejgonzalez@gmail.com"},"type":"Feature","geometry":{"type":"Point","coordinates":[-98.48724,29.600505]}},{"properties":{"city":"#N/A","zip":"#N/A","response":"Yes","zip:":"H1E-1V5","geo_score":0.643,"name:":"Marcello Iannantuono","id":"a67hbeyl7men","geo_precision":"city","lat":"#N/A","phone number:":null,"long":"#N/A","state":"#N/A","email address:":"Marcelloifdranco@yahoo.ca"},"type":"Feature","geometry":{"type":"Point","coordinates":[-85.558572,34.132319]}},{"properties":{"city":"Houston","zip":"77021","response":"No","zip:":"77021","geo_score":1.0,"name:":"Marcus Ards","id":"a67hbf642tbz","geo_precision":"zip","lat":"29.695879","phone number:":null,"long":"-95.3573","state":"TX","email address:":"mlards@sbcglobal.net"},"type":"Feature","geometry":{"type":"Point","coordinates":[-95.373966,29.67843]}},{"properties":{"city":"Collingswood","zip":"8108","response":"Yes","zip:":"8108","geo_score":0.869,"name:":"Mark Costanzo","id":"a67hbevwj2lo","geo_precision":"zip","lat":"39.915263","phone number:":null,"long":"-75.06401","state":"NJ","email address:":"costanzoms@gmail.com"},"type":"Feature","geometry":{"type":"Point","coordinates":[-75.047949,39.909835]}},{"properties":{"city":"San Diego","zip":"92110","response":"No","zip:":"92110","geo_score":1.0,"name:":"Mark O'Leary","id":"a67hbf1862t4","geo_precision":"zip","lat":"32.766482","phone number:":null,"long":"-117.20077","state":"CA","email address:":"olearymw@gmail.com"},"type":"Feature","geometry":{"type":"Point","coordinates":[-117.207965,32.775849]}},{"properties":{"city":"Pine Brook","zip":"7058","response":"Yes","zip:":"7058","geo_score":1.0,"name:":"Marlena","id":"a67hbex2pqjz","geo_precision":"zip","lat":"40.871299","phone number:":null,"long":"-74.34331","state":"NJ","email address:":"all4sofbal@aol.com"},"type":"Feature","geometry":{"type":"Point","coordinates":[-74.340144,40.871014]}},{"properties":{"city":"Charlottesville","zip":"22902","response":"Yes","zip:":"22902","geo_score":1.0,"name:":"Matt","id":"a67hbf695td6","geo_precision":"zip","lat":"38.00847","phone number:":null,"long":"-78.47803","state":"VA","email address:":"mbcpatterson@gmail.com"},"type":"Feature","geometry":{"type":"Point","coordinates":[-78.48045,38.026588]}},{"properties":{"city":"Richland","zip":"49083","response":"Yes","zip:":"49083","geo_score":0.873,"name:":"Matt Schau","id":"a67hbfa02dg7","geo_precision":"zip","lat":"42.379689","phone number:":null,"long":"-85.45022","state":"MI","email address:":"mhschau@gmail.com"},"type":"Feature","geometry":{"type":"Point","coordinates":[-85.40167,42.375317]}},{"properties":{"city":"Denver","zip":"80212","response":"Yes","zip:":"80212","geo_score":0.893,"name:":"Matthew Capek","id":"a67hbf40285s","geo_precision":"zip","lat":"39.770336","phone number:":null,"long":"-105.04688","state":"CO","email address:":"mcapekgmail.com"},"type":"Feature","geometry":{"type":"Point","coordinates":[-105.055539,39.774431]}},{"properties":{"city":"Buford","zip":"30519","response":null,"zip:":"30519","geo_score":1.0,"name:":"Meg Fitzpatrick","id":"a67hbf2gx6x6","geo_precision":"zip","lat":"34.089419","phone number:":null,"long":"-83.94701","state":"GA","email address:":"mfitz54@gmail.com"},"type":"Feature","geometry":{"type":"Point","coordinates":[-83.930765,34.079715]}},{"properties":{"city":"Granbury","zip":"76049","response":"Yes","zip:":"76049","geo_score":0.857,"name:":"Michael","id":"a67hbf7log5b","geo_precision":"zip","lat":"32.440376","phone number:":null,"long":"-97.72002","state":"TX","email address:":"bigchiefs99@yahoo.com"},"type":"Feature","geometry":{"type":"Point","coordinates":[-97.695027,32.429861]}},{"properties":{"city":"Auburn","zip":"36830","response":"Yes","zip:":"36830","geo_score":1.0,"name:":"Mike Robinson","id":"a67hbf3zxemd","geo_precision":"zip","lat":"32.577135","phone number:":null,"long":"-85.47282","state":"AL","email address:":"augoalie@me.com"},"type":"Feature","geometry":{"type":"Point","coordinates":[-85.468222,32.547542]}},{"properties":{"city":"#N/A","zip":"#N/A","response":"Yes","zip:":"Canada","geo_score":0.643,"name:":"Nathan","id":"a67hbf3726il","geo_precision":"city","lat":"#N/A","phone number:":null,"long":"#N/A","state":"#N/A","email address:":"njblanchard@yahoo.com"},"type":"Feature","geometry":{"type":"Point","coordinates":[-85.558572,34.132319]}},{"properties":{"city":"Lincoln","zip":"68508","response":"Yes","zip:":"68508","geo_score":1.0,"name:":"Nathan Jurgens","id":"a67hbf75hp6k","geo_precision":"zip","lat":"40.814191","phone number:":null,"long":"-96.70744","state":"NE","email address:":"nebstorm111@hotmail.com"},"type":"Feature","geometry":{"type":"Point","coordinates":[-96.624692,40.7981]}},{"properties":{"city":"Cape Coral","zip":"33914","response":"Yes","zip:":"33914","geo_score":1.0,"name:":"Nick Roller","id":"a67hbf98w99i","geo_precision":"zip","lat":"26.579862","phone number:":null,"long":"-82.00227","state":"FL","email address:":"nroller@aol.com"},"type":"Feature","geometry":{"type":"Point","coordinates":[-81.923974,26.622535]}},{"properties":{"city":"Pompano Beach","zip":"33076","response":"No","zip:":"33076","geo_score":1.0,"name:":"Nik Bredy","id":"a67hbfaom3ux","geo_precision":"zip","lat":"26.30116","phone number:":null,"long":"-80.2731","state":"FL","email address:":"nabredy@yahoo.com"},"type":"Feature","geometry":{"type":"Point","coordinates":[-80.313415,26.221054]}},{"properties":{"city":"Grapevine","zip":"76051","response":"Yes","zip:":"76051","geo_score":1.0,"name:":"Omar","id":"a67hbf7ab5nb","geo_precision":"zip","lat":"32.93195","phone number:":null,"long":"-97.08498","state":"TX","email address:":"omar.alameddin@tx.rr.com"},"type":"Feature","geometry":{"type":"Point","coordinates":[-97.080802,32.932843]}},{"properties":{"city":"Silver Spring","zip":"20906","response":"Yes","zip:":"20906","geo_score":0.881,"name:":"PAM WILSON","id":"a67hbfb3354g","geo_precision":"zip","lat":"39.07737","phone number:":null,"long":"-77.06433","state":"MD","email address:":"pwilson8@verizon.net"},"type":"Feature","geometry":{"type":"Point","coordinates":[-77.041089,39.095386]}},{"properties":{"city":"Frederick","zip":"21702","response":"Yes","zip:":"21702","geo_score":1.0,"name:":"Paige Hillard","id":"a67hbf20pqo3","geo_precision":"zip","lat":"39.451934","phone number:":null,"long":"-77.442","state":"MD","email address:":"paigehill@hotmail.com"},"type":"Feature","geometry":{"type":"Point","coordinates":[-77.461211,39.492596]}},{"properties":{"city":"Redwood City","zip":"94065","response":"No","zip:":"94065","geo_score":1.0,"name:":"Pat Motheral","id":"a67hbf647i8w","geo_precision":"zip","lat":"37.533538","phone number:":null,"long":"-122.24602","state":"CA","email address:":"patmotbd@yahoo.com"},"type":"Feature","geometry":{"type":"Point","coordinates":[-122.247806,37.53256]}},{"properties":{"city":"Ocean Shores","zip":"98569","response":"Yes","zip:":"98569","geo_score":0.922,"name:":"Peggy Denton","id":"a67hbf9tvsyn","geo_precision":"zip","lat":"46.983877","phone number:":null,"long":"-124.15607","state":"WA","email address:":"dentoncs@yahoo.com"},"type":"Feature","geometry":{"type":"Point","coordinates":[-124.166009,47.070919]}},{"properties":{"city":"Aurora","zip":"60506","response":"Yes","zip:":"60506","geo_score":1.0,"name:":"Philip Finn","id":"a67hbeyimmii","geo_precision":"zip","lat":"41.766029","phone number:":null,"long":"-88.35254","state":"IL","email address:":"Wuggy77@msn.com"},"type":"Feature","geometry":{"type":"Point","coordinates":[-88.416837,41.79083]}},{"properties":{"city":"The Colony","zip":"75056","response":"Yes","zip:":"75056","geo_score":1.0,"name:":"Phyllis White","id":"a67hbf9po0n9","geo_precision":"zip","lat":"33.081421","phone number:":null,"long":"-96.88957","state":"TX","email address:":"magnoliapw@gmail.com"},"type":"Feature","geometry":{"type":"Point","coordinates":[-96.901605,33.077136]}},{"properties":{"city":"#N/A","zip":"#N/A","response":"Yes","zip:":"07039-6121","geo_score":0.643,"name:":"Randy Gilman","id":"a67hbf4p5hnt","geo_precision":"city","lat":"#N/A","phone number:":null,"long":"#N/A","state":"#N/A","email address:":"randygilman@comcast.net"},"type":"Feature","geometry":{"type":"Point","coordinates":[-85.558572,34.132319]}},{"properties":{"city":"Pennsauken","zip":"8110","response":"Yes","zip:":"8110","geo_score":0.87,"name:":"Raymond Rose","id":"a67hbf00gmzm","geo_precision":"zip","lat":"39.966812","phone number:":null,"long":"-75.05681","state":"NJ","email address:":"boorose427@yahoo.com"},"type":"Feature","geometry":{"type":"Point","coordinates":[-75.048783,39.972335]}},{"properties":{"city":"Stockton","zip":"95205","response":"No","zip:":"95205","geo_score":0.875,"name:":"Regina Widick","id":"a67hbf6ilmlz","geo_precision":"zip","lat":"37.962873","phone number:":null,"long":"-121.26401","state":"CA","email address:":"rwidick@pacwest.com"},"type":"Feature","geometry":{"type":"Point","coordinates":[-121.24578,38.038533]}},{"properties":{"city":"Millsboro","zip":"19966","response":"Yes","zip:":"19966","geo_score":0.873,"name:":"Renee Christenbury","id":"a67hbf5698kf","geo_precision":"zip","lat":"38.601355","phone number:":null,"long":"-75.2411","state":"DE","email address:":"renee.christenbury@gmail.com"},"type":"Feature","geometry":{"type":"Point","coordinates":[-75.191297,38.594002]}},{"properties":{"city":"Layton","zip":"84040","response":"Yes","zip:":"84040","geo_score":0.943,"name:":"Richard Barber","id":"a67hbf362kso","geo_precision":"zip","lat":"41.086894","phone number:":null,"long":"-111.9271","state":"UT","email address:":"rbar65@msn.com"},"type":"Feature","geometry":{"type":"Point","coordinates":[-111.919941,41.081055]}},{"properties":{"city":"Winston Salem","zip":"27105","response":"Yes","zip:":"27105","geo_score":0.869,"name:":"Robert  Waddell","id":"a67hbewy5767","geo_precision":"zip","lat":"36.147887","phone number:":null,"long":"-80.23423","state":"NC","email address:":"rjwbro@aol.com"},"type":"Feature","geometry":{"type":"Point","coordinates":[-80.138934,36.088748]}},{"properties":{"city":"Merrillville","zip":"46410","response":"Yes","zip:":"46410","geo_score":0.873,"name:":"Robert T Crowder","id":"a67hbf2xolys","geo_precision":"zip","lat":"41.487369","phone number:":null,"long":"-87.34024","state":"IN","email address:":"simrob045@htmail.com"},"type":"Feature","geometry":{"type":"Point","coordinates":[-87.34337,41.495314]}},{"properties":{"city":"San Antonio","zip":"78247","response":"Yes","zip:":"78247","geo_score":1.0,"name:":"Roland Flores","id":"a67hbf6kvmu3","geo_precision":"zip","lat":"29.581304","phone number:":null,"long":"-98.40889","state":"TX","email address:":"Flores_1085@yahoo.com"},"type":"Feature","geometry":{"type":"Point","coordinates":[-98.461582,29.437532]}},{"properties":{"city":"Kernersville","zip":"27284","response":"Yes","zip:":"27284","geo_score":0.869,"name:":"Ryan","id":"a67hbf52nenm","geo_precision":"zip","lat":"36.119887","phone number:":null,"long":"-80.08726","state":"NC","email address:":"doolrp9@mba.wfu.edu"},"type":"Feature","geometry":{"type":"Point","coordinates":[-80.118933,36.04847]}},{"properties":{"city":"Houston","zip":"77056","response":"No","zip:":"77056","geo_score":1.0,"name:":"Ryan","id":"a67hbf0zvabe","geo_precision":"zip","lat":"29.747328","phone number:":null,"long":"-95.46931","state":"TX","email address:":"rkb699@hotmail.com"},"type":"Feature","geometry":{"type":"Point","coordinates":[-95.207161,29.698579]}},{"properties":{"city":"Jacksonville","zip":"28540","response":"Yes","zip:":"28540","geo_score":0.893,"name:":"Ryan Anderson","id":"a67hbf11xltu","geo_precision":"zip","lat":"34.755669","phone number:":null,"long":"-77.4559","state":"NC","email address:":"ryaneanderson@yahoo.com"},"type":"Feature","geometry":{"type":"Point","coordinates":[-77.508301,34.738776]}},{"properties":{"city":"#N/A","zip":"#N/A","response":"Yes","zip:":"H9H4T2","geo_score":0.643,"name:":"Sara Makosz-Cook","id":"a67hbf065a9e","geo_precision":"city","lat":"#N/A","phone number:":null,"long":"#N/A","state":"#N/A","email address:":"saramakosz@yahoo.ca"},"type":"Feature","geometry":{"type":"Point","coordinates":[-85.558572,34.132319]}},{"properties":{"city":"Minneapolis","zip":"55423","response":"Yes","zip:":"55423","geo_score":0.883,"name:":"Sarah Shoulak","id":"a67hbf5xwq5r","geo_precision":"zip","lat":"44.877164","phone number:":null,"long":"-93.28124","state":"MN","email address:":"sarah.shoulak@yahoo.com"},"type":"Feature","geometry":{"type":"Point","coordinates":[-93.283002,44.883298]}},{"properties":{"city":"Aurora","zip":"80015","response":"Yes","zip:":"80015","geo_score":0.871,"name:":"Shane Meakim","id":"a67hbf73b2nx","geo_precision":"zip","lat":"39.623896","phone number:":null,"long":"-104.77723","state":"CO","email address:":"smeakim@yahoo.com"},"type":"Feature","geometry":{"type":"Point","coordinates":[-104.876923,39.579155]}},{"properties":{"city":"Rohnert Park","zip":"94928","response":"Yes","zip:":"94928","geo_score":1.0,"name:":"Shane Porter","id":"a67hbf3hm9ht","geo_precision":"zip","lat":"38.347174","phone number:":null,"long":"-122.69537","state":"CA","email address:":"USCGCoastie05@aol.com"},"type":"Feature","geometry":{"type":"Point","coordinates":[-122.698398,38.345663]}},{"properties":{"city":"Oxford","zip":"34484","response":"Yes","zip:":"34484","geo_score":1.0,"name:":"Sharon Erksa","id":"a67hbf7av35j","geo_precision":"zip","lat":"28.921705","phone number:":null,"long":"-82.07847","state":"FL","email address:":"paris_angl@yahoo.com"},"type":"Feature","geometry":{"type":"Point","coordinates":[-82.061193,28.905906]}},{"properties":{"city":"Groves","zip":"77619","response":"Yes","zip:":"77619","geo_score":1.0,"name:":"Sheldon M Valka","id":"a67hbf5vh1kt","geo_precision":"zip","lat":"29.947563","phone number:":null,"long":"-93.91857","state":"TX","email address:":"bt4sunburst@yahoo.com"},"type":"Feature","geometry":{"type":"Point","coordinates":[-93.916957,29.941563]}},{"properties":{"city":"Wadesboro","zip":"28170","response":"Yes","zip:":"28170","geo_score":0.921,"name:":"Skyler Beau Melton","id":"a67hbex7qz2a","geo_precision":"zip","lat":"34.985423","phone number:":null,"long":"-80.08543","state":"NC","email address:":"Soccer10rocks@yahoo.com"},"type":"Feature","geometry":{"type":"Point","coordinates":[-80.047004,34.96571]}},{"properties":{"city":"Englewood","zip":"80112","response":"Yes","zip:":"80112","geo_score":1.0,"name:":"Stephen Gnagie","id":"a67hbf3z17dh","geo_precision":"zip","lat":"39.579454","phone number:":null,"long":"-104.88288","state":"CO","email address:":"sgnagie@hotmail.com"},"type":"Feature","geometry":{"type":"Point","coordinates":[-104.862194,39.581238]}},{"properties":{"city":"Stockton","zip":"95204","response":"Yes","zip:":"95204","geo_score":1.0,"name:":"Steve Anderson","id":"a67hbf8uhxh8","geo_precision":"zip","lat":"37.974273","phone number:":null,"long":"-121.3147","state":"CA","email address:":"asaccus@aol.com"},"type":"Feature","geometry":{"type":"Point","coordinates":[-121.323758,37.975473]}},{"properties":{"city":"Slocomb","zip":"36375","response":"Yes","zip:":"36375","geo_score":0.875,"name:":"Steve Smith","id":"a67hbevvob62","geo_precision":"zip","lat":"31.096836","phone number:":null,"long":"-85.54403","state":"AL","email address:":"kapman06@aol.com"},"type":"Feature","geometry":{"type":"Point","coordinates":[-85.635489,31.163787]}},{"properties":{"city":"Dallas","zip":"75219","response":"Yes","zip:":"75219","geo_score":1.0,"name:":"Steven Crawford","id":"a67hbeys3pth","geo_precision":"zip","lat":"32.812462","phone number:":null,"long":"-96.81412","state":"TX","email address:":"crawfords_tx@yahoo.com"},"type":"Feature","geometry":{"type":"Point","coordinates":[-96.777626,32.767268]}},{"properties":{"city":"North Attleboro","zip":"2760","response":"Yes","zip:":"2760","geo_score":0.878,"name:":"Tara","id":"a67hbfacc24x","geo_precision":"zip","lat":"41.975495","phone number:":null,"long":"-71.33086","state":"MA","email address:":"Tara52788@yahoo.com"},"type":"Feature","geometry":{"type":"Point","coordinates":[-71.370334,41.927877]}},{"properties":{"city":"Uxbridge","zip":"1569","response":"Yes","zip:":"1569","geo_score":0.879,"name:":"Thomas Jacques","id":"a67hbf1d3bk3","geo_precision":"zip","lat":"42.064978","phone number:":null,"long":"-71.62992","state":"MA","email address:":"thomas_jacques@student.uml.edu"},"type":"Feature","geometry":{"type":"Point","coordinates":[-71.614788,42.080653]}},{"properties":{"city":"San Francisco","zip":"94123","response":"Yes","zip:":"94123","geo_score":1.0,"name:":"Thomas Street","id":"a67hbf5wgup4","geo_precision":"zip","lat":"37.801028","phone number:":null,"long":"-122.43836","state":"CA","email address:":"tgstreet@gmail.com"},"type":"Feature","geometry":{"type":"Point","coordinates":[-122.435732,37.79967]}},{"properties":{"city":"Alameda","zip":"94501","response":"Yes","zip:":"94501","geo_score":1.0,"name:":"Tiaire L. Evans","id":"a67hbewf25el","geo_precision":"zip","lat":"37.769528","phone number:":null,"long":"-122.25937","state":"CA","email address:":"saintda2nd@yahoo.com"},"type":"Feature","geometry":{"type":"Point","coordinates":[-122.264779,37.770563]}},{"properties":{"city":"Garden Plain","zip":"67050","response":"Yes","zip:":"67050","geo_score":1.0,"name:":"Tim Rowold","id":"a67hbez93zzt","geo_precision":"zip","lat":"37.663743","phone number:":null,"long":"-97.68539","state":"KS","email address:":"timrowold@gmail.com"},"type":"Feature","geometry":{"type":"Point","coordinates":[-97.654917,37.674242]}},{"properties":{"city":"Burlington","zip":"53105","response":"No","zip:":"53105","geo_score":0.857,"name:":"Tim Wermeling","id":"a67hbeyx3j7m","geo_precision":"zip","lat":"42.662671","phone number:":null,"long":"-88.28132","state":"WI","email address:":"twermeling@wi.rr.com"},"type":"Feature","geometry":{"type":"Point","coordinates":[-88.208422,42.593907]}},{"properties":{"city":"Keller","zip":"76248","response":"Yes","zip:":"76248","geo_score":0.893,"name:":"Timothy Beggans","id":"a67hbf4df31k","geo_precision":"zip","lat":"32.92704","phone number:":null,"long":"-97.2506","state":"TX","email address:":"timothy_beggans@xtoenergy.com"},"type":"Feature","geometry":{"type":"Point","coordinates":[-97.195014,32.991235]}},{"properties":{"city":"Atlanta","zip":"30309","response":"No","zip:":"30309","geo_score":1.0,"name:":"Timothy McGuckin","id":"a67hbf6s2073","geo_precision":"zip","lat":"33.794055","phone number:":null,"long":"-84.38525","state":"GA","email address:":"timothy.mcguckin@gmail.com"},"type":"Feature","geometry":{"type":"Point","coordinates":[-84.387726,33.797854]}},{"properties":{"city":"Gardner","zip":"66030","response":"Yes","zip:":"66030","geo_score":1.0,"name:":"Todd","id":"a67hbf9f36g8","geo_precision":"zip","lat":"38.813839","phone number:":null,"long":"-94.9265","state":"KS","email address:":"pokerplayer@kc.rr.com"},"type":"Feature","geometry":{"type":"Point","coordinates":[-94.94139,38.814998]}},{"properties":{"city":"Pompano Beach","zip":"33073","response":"Yes","zip:":"33073","geo_score":1.0,"name:":"Todd Bennett","id":"a67hbf3oxoow","geo_precision":"zip","lat":"26.305433","phone number:":null,"long":"-80.18287","state":"FL","email address:":"todd_bennett30@hotmail.com"},"type":"Feature","geometry":{"type":"Point","coordinates":[-80.180078,26.298352]}},{"properties":{"city":"Los Angeles","zip":"90094","response":"No","zip:":"90094","geo_score":0.871,"name:":"Tofiq Sajawal","id":"a67hbf5svzgz","geo_precision":"zip","lat":"33.786594","phone number:":null,"long":"-118.298662","state":"CA","email address:":"tofiq.sajawal@gmail.com"},"type":"Feature","geometry":{"type":"Point","coordinates":[-118.427578,33.97279]}},{"properties":{"city":"Pendleton","zip":"46064","response":null,"zip:":"46064","geo_score":0.871,"name:":"Tom Childress","id":"a67hbeygy4je","geo_precision":"zip","lat":"39.997694","phone number:":null,"long":"-85.75075","state":"IN","email address:":"childresstm@yahoo.com"},"type":"Feature","geometry":{"type":"Point","coordinates":[-85.730255,40.008653]}},{"properties":{"city":"Humble","zip":"77346","response":"No","zip:":"77346","geo_score":0.857,"name:":"Tonya West","id":"a67hbfbms0cp","geo_precision":"zip","lat":"30.001902","phone number:":null,"long":"-95.16962","state":"TX","email address:":null},"type":"Feature","geometry":{"type":"Point","coordinates":[-95.176598,29.998831]}},{"properties":{"city":"Newnan","zip":"30265","response":"No","zip:":"30265","geo_score":1.0,"name:":"Tory McDermott","id":"a67hbf8rnee2","geo_precision":"zip","lat":"33.400875","phone number:":null,"long":"-84.71206","state":"GA","email address:":"torymcdermott@ymail.com"},"type":"Feature","geometry":{"type":"Point","coordinates":[-84.705681,33.415987]}},{"properties":{"city":"Shakopee","zip":"55379","response":"Yes","zip:":"55379","geo_score":0.857,"name:":"Troy Ziesmer","id":"a67hbf54l84f","geo_precision":"zip","lat":"44.776138","phone number:":null,"long":"-93.52556","state":"MN","email address:":"tcagent@me.com"},"type":"Feature","geometry":{"type":"Point","coordinates":[-93.541343,44.720796]}},{"properties":{"city":"Santa Monica","zip":"90404","response":"Yes","zip:":"90404","geo_score":1.0,"name:":"Valerie Peterson","id":"a67hbf4yqduz","geo_precision":"zip","lat":"34.026959","phone number:":null,"long":"-118.47432","state":"CA","email address:":"val.peterson@sbcglobal.net"},"type":"Feature","geometry":{"type":"Point","coordinates":[-118.298662,33.786594]}},{"properties":{"city":"Knoxville","zip":"37918","response":"Yes","zip:":"37918","geo_score":0.87,"name:":"Vickie Allison","id":"a67hbevoy4el","geo_precision":"zip","lat":"36.046598","phone number:":null,"long":"-83.92511","state":"TN","email address:":"vallison@tds.net"},"type":"Feature","geometry":{"type":"Point","coordinates":[-83.771014,36.063418]}},{"properties":{"city":"Atlanta","zip":"30349","response":"Yes","zip:":"30349","geo_score":1.0,"name:":"Victor Frazier","id":"a67hbezp3qw8","geo_precision":"zip","lat":"33.61541","phone number:":null,"long":"-84.49033","state":"GA","email address:":"Victorfrazier@gmail.com"},"type":"Feature","geometry":{"type":"Point","coordinates":[-84.550147,33.61806]}},{"properties":{"city":"Ypsilanti","zip":"48197","response":"Yes","zip:":"48197","geo_score":0.87,"name:":"Victor Robinson","id":"a67hbf8qylh7","geo_precision":"zip","lat":"42.223482","phone number:":null,"long":"-83.63316","state":"MI","email address:":"mrvicjr@yahoo.com"},"type":"Feature","geometry":{"type":"Point","coordinates":[-83.551604,42.215317]}},{"properties":{"city":"Huntington Beach","zip":"92646","response":"No","zip:":"92646","geo_score":1.0,"name:":"Vince Mann","id":"a67hbf82sgfw","geo_precision":"zip","lat":"33.666269","phone number:":null,"long":"-117.9693","state":"CA","email address:":"mann@socal.rr.com"},"type":"Feature","geometry":{"type":"Point","coordinates":[-117.769442,33.640302]}},{"properties":{"city":"Powder Springs","zip":"30127","response":"Yes","zip:":"30127","geo_score":1.0,"name:":"Wanda Grogan","id":"a67hbf0cj08h","geo_precision":"zip","lat":"33.874553","phone number:":null,"long":"-84.68784","state":"GA","email address:":null},"type":"Feature","geometry":{"type":"Point","coordinates":[-84.685885,33.91351]}},{"properties":{"city":"Ridgecrest","zip":"93555","response":"Yes","zip:":"93555","geo_score":1.0,"name:":"William Duncan","id":"a67hbf4axs8x","geo_precision":"zip","lat":"35.599177","phone number:":null,"long":"-117.68065","state":"CA","email address:":"happiness2632@yahoo.com"},"type":"Feature","geometry":{"type":"Point","coordinates":[-117.794007,35.540458]}},{"properties":{"city":"El Paso","zip":"79936","response":"Yes","zip:":"79936","geo_score":1.0,"name:":"Yarizett Azpeitia","id":"a67hbf3bepip","geo_precision":"zip","lat":"31.766355","phone number:":null,"long":"-106.29828","state":"TX","email address:":"spanish_lady_1@hotmail.com"},"type":"Feature","geometry":{"type":"Point","coordinates":[-106.243004,31.711209]}},{"properties":{"city":"Boston","zip":"2207","response":"No","zip:":"2207","geo_score":1.0,"name:":"alex rodriguez","id":"a67hbf79ll6d","geo_precision":"zip","lat":"42.338947","phone number:":null,"long":"-70.919635","state":"MA","email address:":"yankees@yahho.com"},"type":"Feature","geometry":{"type":"Point","coordinates":[-70.919635,42.338947]}},{"properties":{"city":"#N/A","zip":"#N/A","response":"No","zip:":null,"geo_score":0.643,"name:":"andrea","id":"a67hbf4rwtk1","geo_precision":"city","lat":"#N/A","phone number:":null,"long":"#N/A","state":"#N/A","email address:":"aabshire@gmail.com"},"type":"Feature","geometry":{"type":"Point","coordinates":[-85.558572,34.132319]}},{"properties":{"city":"Henderson","zip":"89052","response":"Yes","zip:":"89052","geo_score":1.0,"name:":"barry MARKOWITZ","id":"a67hbezjwwnl","geo_precision":"zip","lat":"35.979863","phone number:":null,"long":"-115.09895","state":"NV","email address:":"bfrank_markowitz@hotmail.com"},"type":"Feature","geometry":{"type":"Point","coordinates":[-115.116652,35.987798]}},{"properties":{"city":"Valencia","zip":"91354","response":"Yes","zip:":"91354","geo_score":1.0,"name:":"casey","id":"a67hbf0jejf6","geo_precision":"zip","lat":"34.445313","phone number:":null,"long":"-118.55252","state":"CA","email address:":"tantrum399@yahoo.com"},"type":"Feature","geometry":{"type":"Point","coordinates":[-118.298662,33.786594]}},{"properties":{"city":"Arlington","zip":"76002","response":"No","zip:":"76002","geo_score":1.0,"name:":"cedrick","id":"a67hbex7dodv","geo_precision":"zip","lat":"32.632349","phone number:":null,"long":"-97.0963","state":"TX","email address:":"cfreeman210@gmail.com"},"type":"Feature","geometry":{"type":"Point","coordinates":[-97.291484,32.771419]}},{"properties":{"city":"Greenville","zip":"29601","response":"Yes","zip:":"29601","geo_score":0.876,"name:":"chad collins","id":"a67hbeyu89dt","geo_precision":"zip","lat":"34.848301","phone number:":null,"long":"-82.40578","state":"SC","email address:":"yankees1cc@aol.com"},"type":"Feature","geometry":{"type":"Point","coordinates":[-82.454845,34.936506]}},{"properties":{"city":"Brooklyn","zip":"11207","response":"Yes","zip:":"11207","geo_score":0.87,"name:":"felipe nunez","id":"a67hbf7278og","geo_precision":"zip","lat":"40.670874","phone number:":null,"long":"-73.89424","state":"NY","email address:":"felipenunez@hotmail.com"},"type":"Feature","geometry":{"type":"Point","coordinates":[-73.882358,40.66677]}},{"properties":{"city":"Naperville","zip":"60565","response":"No","zip:":"60565","geo_score":1.0,"name:":"gloria spielman","id":"a67hbf5x0vk9","geo_precision":"zip","lat":"41.728738","phone number:":null,"long":"-88.12824","state":"IL","email address:":"gspielman@wideopenwest.com"},"type":"Feature","geometry":{"type":"Point","coordinates":[-88.112714,41.737929]}},{"properties":{"city":"Naperville","zip":"60565","response":"No","zip:":"60565","geo_score":1.0,"name:":"gloria spielman","id":"a67hbf98pnt8","geo_precision":"zip","lat":"41.728738","phone number:":null,"long":"-88.12824","state":"IL","email address:":"gspielman@wideopenwest.com"},"type":"Feature","geometry":{"type":"Point","coordinates":[-88.112714,41.737929]}},{"properties":{"city":"Whitestone","zip":"11357","response":"Yes","zip:":"11357","geo_score":0.857,"name:":"greg mcmanus","id":"a67hbf0x0s9r","geo_precision":"zip","lat":"40.784453","phone number:":null,"long":"-73.80922","state":"NY","email address:":"gregory_mcmanus@msn.com"},"type":"Feature","geometry":{"type":"Point","coordinates":[-73.804578,40.79149]}},{"properties":{"city":"Winston Salem","zip":"27105","response":"Yes","zip:":"27105","geo_score":0.869,"name:":"james samuel","id":"a67hbexewp7j","geo_precision":"zip","lat":"36.147887","phone number:":null,"long":"-80.23423","state":"NC","email address:":"heavy5088@yahoo.com"},"type":"Feature","geometry":{"type":"Point","coordinates":[-80.138934,36.088748]}},{"properties":{"city":"Winston Salem","zip":"27105","response":"Yes","zip:":"27105","geo_score":0.869,"name:":"james samuel","id":"a67hbf3ozksv","geo_precision":"zip","lat":"36.147887","phone number:":null,"long":"-80.23423","state":"NC","email address:":"heavy5088@yahoo.com"},"type":"Feature","geometry":{"type":"Point","coordinates":[-80.138934,36.088748]}},{"properties":{"city":"Gaithersburg","zip":"20882","response":"No","zip:":"20882","geo_score":0.881,"name:":"jeff burmeister","id":"a67hbezaiodv","geo_precision":"zip","lat":"39.229652","phone number:":null,"long":"-77.1594","state":"MD","email address:":"pente@live.com"},"type":"Feature","geometry":{"type":"Point","coordinates":[-77.142759,39.212051]}},{"properties":{"city":"Plano","zip":"75093","response":"Yes","zip:":"75093","geo_score":1.0,"name:":"jennifer stewart","id":"a67hbf9e4dt1","geo_precision":"zip","lat":"33.03505","phone number:":null,"long":"-96.80492","state":"TX","email address:":"jdanahystewart@yahoo.com"},"type":"Feature","geometry":{"type":"Point","coordinates":[-96.805055,33.032674]}},{"properties":{"city":"Venice","zip":"90291","response":"Yes","zip:":"90291","geo_score":1.0,"name:":"jevon hamm","id":"a67hbeweda0b","geo_precision":"zip","lat":"33.992411","phone number:":null,"long":"-118.46531","state":"CA","email address:":"thekidsimfamous@aol.com"},"type":"Feature","geometry":{"type":"Point","coordinates":[-118.298662,33.786594]}},{"properties":{"city":"McKinney","zip":"75070","response":"Yes","zip:":"75070","geo_score":1.0,"name:":"jim lancastert","id":"a67hbexq0nmw","geo_precision":"zip","lat":"33.212203","phone number:":null,"long":"-96.67522","state":"TX","email address:":"jlancaster@eddiedeen.com"},"type":"Feature","geometry":{"type":"Point","coordinates":[-96.627018,33.230381]}},{"properties":{"city":"Wallingford","zip":"19086","response":"No","zip:":"19086","geo_score":0.857,"name:":"jon","id":"a67hbf82uv8a","geo_precision":"zip","lat":"39.888913","phone number:":null,"long":"-75.37006","state":"PA","email address:":"jbarnes@pit.edu"},"type":"Feature","geometry":{"type":"Point","coordinates":[-75.368803,39.909279]}},{"properties":{"city":"Lubbock","zip":"79407","response":"Yes","zip:":"79407","geo_score":0.857,"name:":"jordan badley","id":"a67hbf3q4x11","geo_precision":"zip","lat":"33.567134","phone number:":null,"long":"-101.98329","state":"TX","email address:":"d_badley@yahoo.com"},"type":"Feature","geometry":{"type":"Point","coordinates":[-101.97378,33.580085]}},{"properties":{"city":"Allen","zip":"75013","response":"Yes","zip:":"75013","geo_score":1.0,"name:":"karen Milner","id":"a67hbewerx5l","geo_precision":"zip","lat":"33.106582","phone number:":null,"long":"-96.69402","state":"TX","email address:":"hmilner41@sbcglobal.net"},"type":"Feature","geometry":{"type":"Point","coordinates":[-96.677328,33.118645]}},{"properties":{"city":"Dearborn","zip":"48124","response":"No","zip:":"48124","geo_score":1.0,"name:":"keith moore","id":"a67hbeza57wk","geo_precision":"zip","lat":"42.294987","phone number:":null,"long":"-83.25049","state":"MI","email address:":"kam11277@yahoo.com"},"type":"Feature","geometry":{"type":"Point","coordinates":[-83.242577,42.299302]}},{"properties":{"city":"Bedford","zip":"76022","response":"Yes","zip:":"76022","geo_score":1.0,"name:":"kevin smith","id":"a67hbewq6nyx","geo_precision":"zip","lat":"32.831228","phone number:":null,"long":"-97.14593","state":"TX","email address:":"kd_smith12@hotmail.com"},"type":"Feature","geometry":{"type":"Point","coordinates":[-97.144339,32.831019]}},{"properties":{"city":"Washington","zip":"63090","response":"Yes","zip:":"63090","geo_score":0.871,"name:":"matt kosark","id":"a67hbewrmwmi","geo_precision":"zip","lat":"38.535499","phone number:":null,"long":"-91.02348","state":"MO","email address:":"ko.sark@hotmail.com"},"type":"Feature","geometry":{"type":"Point","coordinates":[-91.045701,38.497552]}},{"properties":{"city":"Las Vegas","zip":"89123","response":"Yes","zip:":"89123","geo_score":1.0,"name:":"michele taylor","id":"a67hbez31r7x","geo_precision":"zip","lat":"36.026532","phone number:":null,"long":"-115.14848","state":"NV","email address:":"michelebt@cox.net"},"type":"Feature","geometry":{"type":"Point","coordinates":[-115.157513,35.988844]}},{"properties":{"city":"Paramount","zip":"90723","response":"Yes","zip:":"90723","geo_score":1.0,"name:":"nacho sandoval","id":"a67hbf8v1o0u","geo_precision":"zip","lat":"33.899915","phone number:":null,"long":"-118.16231","state":"CA","email address:":"nachotalks@yahoo.com"},"type":"Feature","geometry":{"type":"Point","coordinates":[-118.165152,33.899015]}},{"properties":{"city":"Brunswick","zip":"31525","response":"Yes","zip:":"31525","geo_score":1.0,"name:":"nathan cravey","id":"a67hbfb1sclh","geo_precision":"zip","lat":"31.260995","phone number:":null,"long":"-81.49832","state":"GA","email address:":"ncravey@hotmail.com"},"type":"Feature","geometry":{"type":"Point","coordinates":[-81.530477,31.280403]}},{"properties":{"city":"Garland","zip":"75040","response":"Yes","zip:":"75040","geo_score":1.0,"name:":"ris","id":"a67hbf5obye1","geo_precision":"zip","lat":"32.920574","phone number:":null,"long":"-96.62639","state":"TX","email address:":"klooh15@yahoo.com"},"type":"Feature","geometry":{"type":"Point","coordinates":[-96.615821,32.931523]}},{"properties":{"city":"Greenville","zip":"29615","response":"Yes","zip:":"29615","geo_score":1.0,"name:":"tim ware","id":"a67hbf0ce7hx","geo_precision":"zip","lat":"34.866801","phone number:":null,"long":"-82.31739","state":"SC","email address:":"timothy-ware@att.net"},"type":"Feature","geometry":{"type":"Point","coordinates":[-82.358999,34.938893]}},{"properties":{"city":"Philadelphia","zip":"19138","response":"No","zip:":"19138","geo_score":1.0,"name:":"warren","id":"a67hbfar7ldg","geo_precision":"zip","lat":"40.055861","phone number:":null,"long":"-75.15654","state":"PA","email address:":"leathaface721@yahoo.com"},"type":"Feature","geometry":{"type":"Point","coordinates":[-75.16117,40.056261]}}],"is_temporal":false,"author":{"url":"","metadata":"","contact_name":"","contact_address":"","source":"","contact_phone":""},"source":"","pagination":{"sort":null,"start":0,"total":266,"limit":1000000},"state":"complete","tags":"","published":"2014-08-10T20:51:33-04:00","id":59340}