{"type":"FeatureCollection","data_type":"Dataset","url_type":null,"permissions":[{"permissions":{"download":true,"view":true},"group_id":"everyone"}],"classification":null,"title":"transmon","count":56,"stream_id":59509,"contributor":{"url":"http://geocommons.com/users/14766","name":"dpkennedy"},"data_attributes":null,"calculation_params":null,"icon_link":null,"link":"http://geocommons.com/overlays/59509.json","extent":[-97.4964,25.7697,-73.7538,42.6208],"geometry_types":["point"],"unique_name":null,"name":"transmon","feature_count":56,"description":"tm terminals","next_feature":null,"is_raster":false,"short_classification":"Y","stats":{"number":{"max":56,"mean":28.5,"variance":266.0,"stdev":16.3095064303001,"min":1,"median":29},"geo_score":{"max":1.0,"mean":0.798089285714286,"variance":0.0256431373376623,"stdev":0.160134747439968,"min":0.443,"median":0.839}},"features":[{"properties":{"city":"Albany","name":"TransMontaigne - Albany","zip":"31707-","number":1,"geo_score":0.878,"id":"a6jdu45c7xkp","geo_precision":"street","address":"1162 Gillionville Rd","state":"GA"},"type":"Feature","geometry":{"type":"Point","coordinates":[-84.183922,31.580522]}},{"properties":{"city":"Cape Girardeau","name":"TransMontaigne - Cape Girardeau","zip":"63701-0704","number":10,"geo_score":0.707,"id":"a6jdu4a95j71","geo_precision":"range","address":"1400 S Giboney","state":"MO"},"type":"Feature","geometry":{"type":"Point","coordinates":[-89.528493,37.28564]}},{"properties":{"city":"Charlotte","name":"TransMontaigne - Charlotte/Paw Creek","zip":"28214-","number":11,"geo_score":0.924,"id":"a6jdu3zmyam9","geo_precision":"range","address":"7615 Old Mount Holly Road","state":"NC"},"type":"Feature","geometry":{"type":"Point","coordinates":[-80.93353,35.278796]}},{"properties":{"city":"Chesapeake","name":"TransMontaigne - Chesapeake","zip":"23324-","number":12,"geo_score":0.886,"id":"a6jdu46xaer0","geo_precision":"street","address":"Halifax Lane","state":"VA"},"type":"Feature","geometry":{"type":"Point","coordinates":[-76.285131,36.814264]}},{"properties":{"city":"Collins","name":"TransMontaigne - Collins","zip":"39428-","number":13,"geo_score":0.571,"id":"a6jdu40gtrrk","geo_precision":"street","address":"First Avenue South","state":"MS"},"type":"Feature","geometry":{"type":"Point","coordinates":[-89.586685,31.727521]}},{"properties":{"city":"Doraville","name":"TransMontaigne - Doraville","zip":"30362-","number":14,"geo_score":0.805,"id":"a6jdu42lf8b8","geo_precision":"range","address":"2836 Woodwin Road","state":"GA"},"type":"Feature","geometry":{"type":"Point","coordinates":[-84.272609,33.916353]}},{"properties":{"city":"East Liverpool","name":"TransMontaigne - E Liverpool","zip":"43920-0000","number":15,"geo_score":0.841,"id":"a6jdu3xzv907","geo_precision":"range","address":"425 River Rd.","state":"OH"},"type":"Feature","geometry":{"type":"Point","coordinates":[-80.559857,40.625377]}},{"properties":{"city":"Evansville","name":"TransMontaigne - Evansville","zip":"47712","number":16,"geo_score":0.667,"id":"a6jdu49rtgd5","geo_precision":"street","address":"2630 Broadway","state":"IN"},"type":"Feature","geometry":{"type":"Point","coordinates":[-87.718657,37.942104]}},{"properties":{"city":"Fairfax","name":"TransMontaigne - Fairfax","zip":"22031-","number":17,"geo_score":1.0,"id":"a6jdu4anzo7a","geo_precision":"range","address":"3790 Pickett Road","state":"VA"},"type":"Feature","geometry":{"type":"Point","coordinates":[-77.273085,38.848312]}},{"properties":{"city":"Fort Lauderdale","name":"TransMontaigne - Fort Lauderdale","zip":"33316-","number":18,"geo_score":0.84,"id":"a6jdu45gvw4z","geo_precision":"street","address":"2401 Eisenhower Blvd.","state":"FL"},"type":"Feature","geometry":{"type":"Point","coordinates":[-80.124297,26.092996]}},{"properties":{"city":"Covington","name":"TransMontaigne - Greater Cinci","zip":"41017-","number":19,"geo_score":0.619,"id":"a6jdu4azhcx4","geo_precision":"street","address":"700 River Rd. (Hwy 8)","state":"KY"},"type":"Feature","geometry":{"type":"Point","coordinates":[-84.566313,39.080194]}},{"properties":{"city":"Americus","name":"TransMontaigne - Americus","zip":"31709-","number":2,"geo_score":0.561,"id":"a6jdu3zztdja","geo_precision":"street","address":"Highway 280 West Plains Rd.","state":"GA"},"type":"Feature","geometry":{"type":"Point","coordinates":[-84.09152,31.965469]}},{"properties":{"city":"Greensboro","name":"TransMontaigne - Greensboro","zip":"27409-","number":20,"geo_score":0.932,"id":"a6jdu3wg1l6g","geo_precision":"range","address":"6907B West Market Street","state":"NC"},"type":"Feature","geometry":{"type":"Point","coordinates":[-79.924911,36.078511]}},{"properties":{"city":"Greensboro","name":"TransMontaigne - Greensboro","zip":"27409-","number":21,"geo_score":0.932,"id":"a6jdu43v11q0","geo_precision":"range","address":"6801 West Market Street","state":"NC"},"type":"Feature","geometry":{"type":"Point","coordinates":[-79.922489,36.077673]}},{"properties":{"city":"Greenville","name":"TransMontaigne - Greenville - N","zip":"38701-","number":22,"geo_score":0.902,"id":"a6jdu45pgh4x","geo_precision":"range","address":"208 Short Clay Street","state":"MS"},"type":"Feature","geometry":{"type":"Point","coordinates":[-91.068981,33.403957]}},{"properties":{"city":"Greenville","name":"Transmontaigne - Greenville- S","zip":"38701-","number":23,"geo_score":0.708,"id":"a6jdu47iiyy1","geo_precision":"street","address":"310 Walthall Street","state":"MS"},"type":"Feature","geometry":{"type":"Point","coordinates":[-91.061557,33.398677]}},{"properties":{"city":"Griffin","name":"TransMontaigne - Griffin","zip":"30223-","number":24,"geo_score":0.902,"id":"a6jdu416j2r1","geo_precision":"range","address":"643B East McIntosh Road","state":"GA"},"type":"Feature","geometry":{"type":"Point","coordinates":[-84.264264,33.279886]}},{"properties":{"city":"Henderson","name":"TransMontaigne - Henderson","zip":"42420-","number":25,"geo_score":0.924,"id":"a6jdu40j4x06","geo_precision":"range","address":"2633 Sunset Lane","state":"KY"},"type":"Feature","geometry":{"type":"Point","coordinates":[-87.573344,37.87598]}},{"properties":{"city":"Arkansas City","name":"TransMontaigne - Intercoastal","zip":"78521","number":26,"geo_score":0.464,"id":"a6jdu46tiuzp","geo_precision":"street","address":"Highway 4 East","state":"AR"},"type":"Feature","geometry":{"type":"Point","coordinates":[-97.496426,25.899161]}},{"properties":{"city":"Brownsville","name":"TransMontaigne - Intercoastal","zip":"78521","number":27,"geo_score":0.657,"id":"a6jdu46kj84l","geo_precision":"street","address":"8701 R. L. Ostos Road","state":"TX"},"type":"Feature","geometry":{"type":"Point","coordinates":[-97.48196,25.904958]}},{"properties":{"city":"Jacksonville","name":"TransMontaigne - Jacksonville","zip":"32206","number":28,"geo_score":1.0,"id":"a6jdu4b1xjcy","geo_precision":"range","address":"3425 Talleyrand Avenue","state":"FL"},"type":"Feature","geometry":{"type":"Point","coordinates":[-81.626922,30.359933]}},{"properties":{"city":"New Albany","name":"TransMontaigne - Kentuckiana","zip":"47150","number":29,"geo_score":0.902,"id":"a6jdu3y9imbk","geo_precision":"range","address":"20 Jackson St.","state":"IN"},"type":"Feature","geometry":{"type":"Point","coordinates":[-85.835195,38.270743]}},{"properties":{"city":"Athens","name":"TransMontaigne - Athens","zip":"30607-","number":3,"geo_score":1.0,"id":"a6jdu3zt2ame","geo_precision":"range","address":"3450 Jefferson Road","state":"GA"},"type":"Feature","geometry":{"type":"Point","coordinates":[-83.419437,33.985699]}},{"properties":{"city":"Chattanooga","name":"TransMontaigne - Lookout Mtn.","zip":"37409-","number":30,"geo_score":0.823,"id":"a6jdu46cidot","geo_precision":"street","address":"5800 St Elmo Avenue","state":"TN"},"type":"Feature","geometry":{"type":"Point","coordinates":[-85.333266,34.983976]}},{"properties":{"city":"Louisville","name":"TransMontaigne - Louisville","zip":"40211-","number":31,"geo_score":1.0,"id":"a6jdu450c6ku","geo_precision":"range","address":"4510 Bells Lane","state":"KY"},"type":"Feature","geometry":{"type":"Point","coordinates":[-85.837186,38.223518]}},{"properties":{"city":"Macon","name":"TransMontaigne - Macon","zip":"31210-","number":32,"geo_score":1.0,"id":"a6jdu40xq4f9","geo_precision":"range","address":"5041 Forsyth Rd.","state":"GA"},"type":"Feature","geometry":{"type":"Point","coordinates":[-83.726563,32.881539]}},{"properties":{"city":"Meridian","name":"TransMontaigne - Meridian","zip":"39307-","number":33,"geo_score":0.875,"id":"a6jdu41v35bu","geo_precision":"range","address":"1401 65th Ave S","state":"MS"},"type":"Feature","geometry":{"type":"Point","coordinates":[-88.744749,32.369811]}},{"properties":{"city":"Mobile","name":"TransMontaigne - Mobile","zip":"36601-","number":34,"geo_score":0.503,"id":"a6jdu49s03bd","geo_precision":"street","address":"145 Cochran Causeway","state":"AL"},"type":"Feature","geometry":{"type":"Point","coordinates":[-88.148193,30.761124]}},{"properties":{"city":"Montvale","name":"TransMontaigne - Montvale","zip":"24122-","number":35,"geo_score":0.93,"id":"a6jdu40f07wb","geo_precision":"range","address":"11685 W Lynchburg Salem Turnpi","state":"VA"},"type":"Feature","geometry":{"type":"Point","coordinates":[-79.734828,37.385762]}},{"properties":{"city":"Montvale","name":"TransMontaigne - Montvale","zip":"24122-","number":36,"geo_score":0.839,"id":"a6jdu3xpxyqj","geo_precision":"street","address":"1147 Oil Terminal Rd. Hwy 460E","state":"VA"},"type":"Feature","geometry":{"type":"Point","coordinates":[-79.698151,37.370746]}},{"properties":{"city":"Mount Vernon","name":"TransMontaigne - Mt Vernon","zip":"65712","number":37,"geo_score":0.588,"id":"a6jdu40hkgr6","geo_precision":"street","address":"15376 Hwy 96","state":"MO"},"type":"Feature","geometry":{"type":"Point","coordinates":[-93.786832,37.188618]}},{"properties":{"city":"Chesapeake","name":"TransMontaigne - Norfolk","zip":"23324-","number":38,"geo_score":0.922,"id":"a6jdu499db7h","geo_precision":"range","address":"7600 Halifax Lane","state":"VA"},"type":"Feature","geometry":{"type":"Point","coordinates":[-76.285131,36.814264]}},{"properties":{"city":"Oklahoma City","name":"TransMontaigne - Oklahoma City","zip":"73117-","number":39,"geo_score":0.619,"id":"a6jdu48l03tp","geo_precision":"street","address":"951 N. Vickie","state":"OK"},"type":"Feature","geometry":{"type":"Point","coordinates":[-97.432301,35.464096]}},{"properties":{"city":"Bainbridge","name":"TransMontaigne - Bainbridge","zip":"31717-","number":4,"geo_score":0.595,"id":"a6jdu41rje57","geo_precision":"zip","address":"1909 East Shotwell Street","state":"GA"},"type":"Feature","geometry":{"type":"Point","coordinates":[-84.614916,30.980464]}},{"properties":{"city":"Owensboro","name":"TransMontaigne - Owensboro","zip":"42302-0000","number":40,"geo_score":0.805,"id":"a6jdu3yo2l6k","geo_precision":"range","address":"900 Pleasant Valley Road","state":"KY"},"type":"Feature","geometry":{"type":"Point","coordinates":[-87.072814,37.780212]}},{"properties":{"city":"Paducah","name":"TransMontaigne - Paducah","zip":"42001-","number":41,"geo_score":0.805,"id":"a6jdu423q4gk","geo_precision":"range","address":"233 Elizabeth St.","state":"KY"},"type":"Feature","geometry":{"type":"Point","coordinates":[-88.58663,37.071765]}},{"properties":{"city":"Pensacola","name":"TransMontaigne - Pensacola","zip":"32507-","number":42,"geo_score":0.913,"id":"a6jdu48jc5o9","geo_precision":"range","address":"3100 Barrancas Avenue","state":"FL"},"type":"Feature","geometry":{"type":"Point","coordinates":[-87.2436,30.397931]}},{"properties":{"city":"Pensacola","name":"TransMontaigne - Pensacola","zip":"32501-","number":43,"geo_score":0.708,"id":"a6jdu421gm9i","geo_precision":"street","address":"511 South Clubbs St.","state":"FL"},"type":"Feature","geometry":{"type":"Point","coordinates":[-87.225518,30.408462]}},{"properties":{"city":"Fort Lauderdale","name":"TransMontaigne - Port Everglades","zip":"33316-","number":44,"geo_score":0.678,"id":"a6jdu41ir4tz","geo_precision":"street","address":"2701 SE 14th Ave","state":"FL"},"type":"Feature","geometry":{"type":"Point","coordinates":[-80.128345,26.095018]}},{"properties":{"city":"Palmetto","name":"TransMontaigne - Port Manatee","zip":"34220-","number":45,"geo_score":0.805,"id":"a6jdu403otef","geo_precision":"range","address":"804 N Dock St.","state":"FL"},"type":"Feature","geometry":{"type":"Point","coordinates":[-82.557005,27.635961]}},{"properties":{"city":"Rogers","name":"TransMontaigne - Razorback","zip":"72756-","number":46,"geo_score":0.703,"id":"a6jdu45f65rs","geo_precision":"street","address":"2801 West Hudson (Hwy 102)","state":"AR"},"type":"Feature","geometry":{"type":"Point","coordinates":[-94.116202,36.355129]}},{"properties":{"city":"Rensselaer","name":"TransMontaigne - Rensselaer","zip":"12144-","number":47,"geo_score":0.927,"id":"a6jdu42f2low","geo_precision":"range","address":"58 Riverside Avenue","state":"NY"},"type":"Feature","geometry":{"type":"Point","coordinates":[-73.753776,42.620788]}},{"properties":{"city":"Richmond","name":"TransMontaigne - Richmond","zip":"23224-","number":48,"geo_score":1.0,"id":"a6jdu44td9vu","geo_precision":"range","address":"700 Goodes Street","state":"VA"},"type":"Feature","geometry":{"type":"Point","coordinates":[-77.428009,37.51092]}},{"properties":{"city":"Richmond","name":"TransMontaigne - Richmond","zip":"23224-7510","number":49,"geo_score":1.0,"id":"a6jdu43aapij","geo_precision":"range","address":"1314 Commerce Road","state":"VA"},"type":"Feature","geometry":{"type":"Point","coordinates":[-77.43176,37.511272]}},{"properties":{"city":"Baytown","name":"TransMontaigne - Baytown","zip":"77520","number":5,"geo_score":0.829,"id":"a6jdu47sznwt","geo_precision":"range","address":"850 Lynchburgh","state":"TX"},"type":"Feature","geometry":{"type":"Point","coordinates":[-95.068888,29.768887]}},{"properties":{"city":"Rome","name":"TransMontaigne - Rome","zip":"30161-","number":50,"geo_score":0.859,"id":"a6jdu3vsnize","geo_precision":"range","address":"2671 Calhoun Road","state":"GA"},"type":"Feature","geometry":{"type":"Point","coordinates":[-85.111483,34.298429]}},{"properties":{"city":"Selma","name":"TransMontaigne - Selma - N","zip":"27576-","number":51,"geo_score":0.643,"id":"a6jdu4140z1m","geo_precision":"street","address":"2600 W. Oak St. (SSR 1929)","state":"NC"},"type":"Feature","geometry":{"type":"Point","coordinates":[-78.283105,35.53799]}},{"properties":{"city":"Brownsville","name":"TransMontaigne - SouthWest","zip":"78521","number":52,"geo_score":0.805,"id":"a6jdu43hc5ot","geo_precision":"street","address":"10150 State Hwy 48","state":"TX"},"type":"Feature","geometry":{"type":"Point","coordinates":[-97.42743,25.943714]}},{"properties":{"city":"Spartansburg","name":"TransMontaigne - Spartansburg","zip":"29304-5021","number":53,"geo_score":0.443,"id":"a6jdu41rvi4c","geo_precision":"street","address":"2300 South Port Rd.","state":"SC"},"type":"Feature","geometry":{"type":"Point","coordinates":[-82.242707,35.133291]}},{"properties":{"city":"Tampa","name":"TransMontaigne - Tampa","zip":"33605-6745","number":54,"geo_score":0.902,"id":"a6jdu49r5stp","geo_precision":"range","address":"1523 Port Avenue","state":"FL"},"type":"Feature","geometry":{"type":"Point","coordinates":[-82.442814,27.923916]}},{"properties":{"city":"Brownsville","name":"TransMontaigne - Tejano","zip":"78521","number":55,"geo_score":1.0,"id":"a6jdu47trn6o","geo_precision":"range","address":"6200 State Highway 48","state":"TX"},"type":"Feature","geometry":{"type":"Point","coordinates":[-97.445217,25.933226]}},{"properties":{"city":"Miami Beach","name":"Transmontaigne Product Services, Inc.","zip":"33109","number":56,"geo_score":0.543,"id":"a6jdu47yw5xq","geo_precision":"street","address":"One B Street","state":"FL"},"type":"Feature","geometry":{"type":"Point","coordinates":[-80.133502,25.769676]}},{"properties":{"city":"Belton","name":"TransMontaigne - Belton","zip":"29627-0250","number":6,"geo_score":0.547,"id":"a6jdu4a2qbkg","geo_precision":"street","address":"14033 Highway 20 North","state":"SC"},"type":"Feature","geometry":{"type":"Point","coordinates":[-82.492342,34.551438]}},{"properties":{"city":"Brownsville","name":"TransMontaigne - Border","zip":"78521","number":7,"geo_score":0.805,"id":"a6jdu3vmdrby","geo_precision":"street","address":"8700 State Highway 48","state":"TX"},"type":"Feature","geometry":{"type":"Point","coordinates":[-97.42743,25.943714]}},{"properties":{"city":"Brownsville","name":"TransMontaigne - Brownsville","zip":"78521","number":8,"geo_score":0.657,"id":"a6jdu49vc827","geo_precision":"street","address":"14701 R. L. Ostos Road","state":"TX"},"type":"Feature","geometry":{"type":"Point","coordinates":[-97.48196,25.904958]}},{"properties":{"city":"Cape Canaveral","name":"TransMontaigne - Cape Canaveral","zip":"32920-","number":9,"geo_score":1.0,"id":"a6jdu47h8gac","geo_precision":"range","address":"8952 North Atlantic Ave","state":"FL"},"type":"Feature","geometry":{"type":"Point","coordinates":[-80.60396,28.402856]}}],"is_temporal":false,"author":{"url":"","metadata":"","contact_name":"","contact_address":"","source":"","contact_phone":""},"source":"","pagination":{"sort":null,"start":0,"total":56,"limit":1000000},"state":"complete","tags":"","published":"2014-08-10T21:03:26-04:00","id":59509}