{"type":"FeatureCollection","data_type":"Dataset","url_type":null,"permissions":[{"permissions":{"download":true,"view":true},"group_id":"everyone"}],"classification":null,"title":"ESPN, MLB Teams Percent Attendance at Home Stadium, USA, 2002-2007","count":29,"stream_id":5995,"contributor":{"url":"http://geocommons.com/users/139","name":"Burkey"},"data_attributes":null,"calculation_params":null,"icon_link":null,"link":"http://geocommons.com/overlays/5995.json","extent":[-122.399,25.9489,-71.0567,47.6021],"geometry_types":["point"],"unique_name":null,"name":"ESPN, MLB Teams Percent Attendance at Home Stadium, USA, 2002-2007","feature_count":29,"description":"This dataset show attendance figures for team in MLB from 2002 to 2007. The data comes from ESPN -Attendance Figures","next_feature":null,"is_raster":false,"short_classification":"Y","stats":{"latitude":{"max":47.60215,"mean":37.9732618275862,"variance":26.1217048604998,"stdev":5.1109397238179,"min":25.94891,"median":39.109829},"zipcode":{"max":98104,"mean":54181.5862068966,"variance":905761766.965517,"stdev":30095.8762451854,"min":2215,"median":55415},"average attendance percentage 2002-2007":{"max":99,"mean":67.6896551724138,"variance":237.57881773399,"stdev":15.4135919802618,"min":34,"median":63},"longitude":{"max":-71.056679,"mean":-92.9356710689655,"variance":282.380698568657,"stdev":16.8041869356615,"min":-122.399323,"median":-87.6577},"attendance percentage 2004":{"max":98,"mean":61.0689655172414,"variance":517.495073891626,"stdev":22.7485180592413,"min":0,"median":63}},"features":[{"properties":{"city":"CORONA","latitude":40.75161,"zipcode":11368,"team name":"New York Mets","average attendance percentage 2002-2007":34,"longitude":-73.863693,"id":"a64mqf1lgez2","attendance percentage 2004":29,"state":"NY"},"type":"Feature","geometry":{"type":"Point","coordinates":[-73.863693,40.75161]}},{"properties":{"city":"BRONX","latitude":40.818821,"zipcode":10451,"team name":"New York Yankees","average attendance percentage 2002-2007":46,"longitude":-73.920731,"id":"a64mqf7brttg","attendance percentage 2004":24,"state":"NY"},"type":"Feature","geometry":{"type":"Point","coordinates":[-73.920731,40.818821]}},{"properties":{"city":"ATLANTA","latitude":33.135526,"zipcode":30315,"team name":"Atlanta Braves","average attendance percentage 2002-2007":47,"longitude":-84.38996,"id":"a64mqf04kamy","attendance percentage 2004":42,"state":"GA"},"type":"Feature","geometry":{"type":"Point","coordinates":[-84.38996,33.135526]}},{"properties":{"city":"BALTIMORE","latitude":39.29546,"zipcode":21201,"team name":"Baltimore Orioles","average attendance percentage 2002-2007":53,"longitude":-76.623917,"id":"a64mqf2bqmwt","attendance percentage 2004":49,"state":"MD"},"type":"Feature","geometry":{"type":"Point","coordinates":[-76.623917,39.29546]}},{"properties":{"city":"WASHINGTON","latitude":38.87775,"zipcode":20003,"team name":"Washington Nationals","average attendance percentage 2002-2007":56,"longitude":-76.986473,"id":"a64mqf54me7y","attendance percentage 2004":67,"state":"DC"},"type":"Feature","geometry":{"type":"Point","coordinates":[-76.986473,38.87775]}},{"properties":{"city":"SAINT LOUIS","latitude":38.636429,"zipcode":63102,"team name":"Saint Louis Cardinals","average attendance percentage 2002-2007":58,"longitude":-90.183563,"id":"a64mqf1um47m","attendance percentage 2004":75,"state":"MO"},"type":"Feature","geometry":{"type":"Point","coordinates":[-90.183563,38.636429]}},{"properties":{"city":"HOUSTON","latitude":29.750259,"zipcode":77002,"team name":"Houston Astros","average attendance percentage 2002-2007":58,"longitude":-95.367302,"id":"a64mqezyvvd0","attendance percentage 2004":59,"state":"TX"},"type":"Feature","geometry":{"type":"Point","coordinates":[-95.367302,29.750259]}},{"properties":{"city":"OAKLAND","latitude":37.735371,"zipcode":94621,"team name":"Oakland Athletics","average attendance percentage 2002-2007":60,"longitude":-122.208549,"id":"a64mqf52x32r","attendance percentage 2004":61,"state":"CA"},"type":"Feature","geometry":{"type":"Point","coordinates":[-122.208549,37.735371]}},{"properties":{"city":"OPA LOCKA","latitude":25.94891,"zipcode":33056,"team name":"Florida Marlins","average attendance percentage 2002-2007":61,"longitude":-80.245522,"id":"a64mqf7flks4","attendance percentage 2004":60,"state":"FL"},"type":"Feature","geometry":{"type":"Point","coordinates":[-80.245522,25.94891]}},{"properties":{"city":"PHILADELPHIA","latitude":39.911812,"zipcode":19148,"team name":"Philadelphia Phillies","average attendance percentage 2002-2007":62,"longitude":-75.151733,"id":"a64mqexklfb7","attendance percentage 2004":0,"state":"PA"},"type":"Feature","geometry":{"type":"Point","coordinates":[-75.151733,39.911812]}},{"properties":{"city":"CINCINNATI","latitude":39.109829,"zipcode":45202,"team name":"Cincinnati Reds","average attendance percentage 2002-2007":63,"longitude":-84.504807,"id":"a64mqf8vxd0c","attendance percentage 2004":64,"state":"OH"},"type":"Feature","geometry":{"type":"Point","coordinates":[-84.504807,39.109829]}},{"properties":{"city":"CLEVELAND","latitude":41.487598,"zipcode":44115,"team name":"Cleveland Indians","average attendance percentage 2002-2007":63,"longitude":-81.677673,"id":"a64mqewun7bl","attendance percentage 2004":68,"state":"OH"},"type":"Feature","geometry":{"type":"Point","coordinates":[-81.677673,41.487598]}},{"properties":{"city":"KANSAS CITY","latitude":39.102951,"zipcode":64141,"team name":"Kansas City Royals","average attendance percentage 2002-2007":63,"longitude":-94.583023,"id":"a64mqf47vayf","attendance percentage 2004":58,"state":"MO"},"type":"Feature","geometry":{"type":"Point","coordinates":[-94.583023,39.102951]}},{"properties":{"city":"ARLINGTON","latitude":32.756069,"zipcode":76011,"team name":"Texas Rangers","average attendance percentage 2002-2007":63,"longitude":-97.076958,"id":"a64mqf30i54h","attendance percentage 2004":65,"state":"TX"},"type":"Feature","geometry":{"type":"Point","coordinates":[-97.076958,32.756069]}},{"properties":{"city":"DENVER","latitude":39.758339,"zipcode":80205,"team name":"Colorado Rockies","average attendance percentage 2002-2007":63,"longitude":-104.967667,"id":"a64mqf27mudq","attendance percentage 2004":88,"state":"CO"},"type":"Feature","geometry":{"type":"Point","coordinates":[-104.967667,39.758339]}},{"properties":{"city":"DETROIT","latitude":42.34626,"zipcode":48201,"team name":"Detroit Tigers","average attendance percentage 2002-2007":63,"longitude":-83.060547,"id":"a64mqf4sbdkr","attendance percentage 2004":57,"state":"MI"},"type":"Feature","geometry":{"type":"Point","coordinates":[-83.060547,42.34626]}},{"properties":{"city":"MINNEAPOLIS","latitude":44.97459,"zipcode":55415,"team name":"Minnesota Twins","average attendance percentage 2002-2007":64,"longitude":-93.256683,"id":"a64mqf5k1ipa","attendance percentage 2004":47,"state":"MN"},"type":"Feature","geometry":{"type":"Point","coordinates":[-93.256683,44.97459]}},{"properties":{"city":"CHICAGO","latitude":41.953972,"zipcode":60613,"team name":"Chicago White Sox","average attendance percentage 2002-2007":67,"longitude":-87.6577,"id":"a64mqf8yijss","attendance percentage 2004":47,"state":"IL"},"type":"Feature","geometry":{"type":"Point","coordinates":[-87.6577,41.953972]}},{"properties":{"city":"PITTSBURGH","latitude":40.467751,"zipcode":15212,"team name":"Pittsburgh Pirates","average attendance percentage 2002-2007":69,"longitude":-79.987717,"id":"a64mqf95ca10","attendance percentage 2004":33,"state":"PA"},"type":"Feature","geometry":{"type":"Point","coordinates":[-79.987717,40.467751]}},{"properties":{"city":"SAN DIEGO","latitude":32.717899,"zipcode":92101,"team name":"San Diego Padres","average attendance percentage 2002-2007":70,"longitude":-117.175468,"id":"a64mqf18uyfa","attendance percentage 2004":41,"state":"CA"},"type":"Feature","geometry":{"type":"Point","coordinates":[-117.175468,32.717899]}},{"properties":{"city":"PHOENIX","latitude":33.450642,"zipcode":85004,"team name":"Arizona Diamondbacks","average attendance percentage 2002-2007":76,"longitude":-112.069351,"id":"a64mqew6banh","attendance percentage 2004":93,"state":"AZ"},"type":"Feature","geometry":{"type":"Point","coordinates":[-112.069351,33.450642]}},{"properties":{"city":"LOS ANGELES","latitude":34.065559,"zipcode":90012,"team name":"Los Angeles Dodgers","average attendance percentage 2002-2007":77,"longitude":-118.239517,"id":"a64mqexlroao","attendance percentage 2004":69,"state":"CA"},"type":"Feature","geometry":{"type":"Point","coordinates":[-118.239517,34.065559]}},{"properties":{"city":"CHICAGO","latitude":41.845821,"zipcode":60616,"team name":"Chicago Cubs","average attendance percentage 2002-2007":82,"longitude":-87.624863,"id":"a64mqew5eve5","attendance percentage 2004":75,"state":"IL"},"type":"Feature","geometry":{"type":"Point","coordinates":[-87.624863,41.845821]}},{"properties":{"city":"SAINT PETERSBURG","latitude":27.743429,"zipcode":33705,"team name":"Tampa Bay Devil Rays","average attendance percentage 2002-2007":84,"longitude":-82.643707,"id":"a64mqetc9z7s","attendance percentage 2004":74,"state":"FL"},"type":"Feature","geometry":{"type":"Point","coordinates":[-82.643707,27.743429]}},{"properties":{"city":"SEATTLE","latitude":47.60215,"zipcode":98104,"team name":"Seattle Mariners","average attendance percentage 2002-2007":85,"longitude":-122.32869,"id":"a64mqewn39xr","attendance percentage 2004":79,"state":"WA"},"type":"Feature","geometry":{"type":"Point","coordinates":[-122.32869,47.60215]}},{"properties":{"city":"ANAHEIM","latitude":33.83099,"zipcode":92806,"team name":"Los Angeles Angels of Anahe","average attendance percentage 2002-2007":86,"longitude":-117.866814,"id":"a64mqf4oriss","attendance percentage 2004":63,"state":"CA"},"type":"Feature","geometry":{"type":"Point","coordinates":[-117.866814,33.83099]}},{"properties":{"city":"BOSTON","latitude":42.358639,"zipcode":2215,"team name":"Boston Red Sox","average attendance percentage 2002-2007":95,"longitude":-71.056679,"id":"a64mqf2muph0","attendance percentage 2004":89,"state":"MA"},"type":"Feature","geometry":{"type":"Point","coordinates":[-71.056679,42.358639]}},{"properties":{"city":"SAN FRANCISCO","latitude":37.767849,"zipcode":94107,"team name":"San Francisco Giants","average attendance percentage 2002-2007":96,"longitude":-122.399323,"id":"a64mqeufchac","attendance percentage 2004":98,"state":"CA"},"type":"Feature","geometry":{"type":"Point","coordinates":[-122.399323,37.767849]}},{"properties":{"city":"MILWAUKEE","latitude":43.022308,"zipcode":53214,"team name":"Milwaukee Astros","average attendance percentage 2002-2007":99,"longitude":-88.015831,"id":"a64mqf18flf3","attendance percentage 2004":97,"state":"WI"},"type":"Feature","geometry":{"type":"Point","coordinates":[-88.015831,43.022308]}}],"is_temporal":false,"author":{"url":"http://www.espn.com","metadata":"","contact_name":"","contact_address":"","source":"ESPN","contact_phone":""},"source":"http://www.espn.com","pagination":{"sort":null,"start":0,"total":29,"limit":1000000},"state":"complete","tags":"athletics,attendance,baseball,espn,mlb,sports","published":"2007-01-01T12:00:00Z","id":5995}