{"type":"FeatureCollection","data_type":"Dataset","url_type":null,"permissions":[{"permissions":{"download":true,"view":true},"group_id":"everyone"}],"classification":null,"title":"Pharmacy Information","count":437,"stream_id":60093,"contributor":{"url":"http://geocommons.com/users/7474","name":"wrice"},"data_attributes":null,"calculation_params":null,"icon_link":null,"link":"http://geocommons.com/overlays/60093.json","extent":[-91.0381,33.3954,-81.7992,36.5877],"geometry_types":["point"],"unique_name":null,"name":"Pharmacy Information","feature_count":437,"description":"","next_feature":null,"is_raster":false,"short_classification":"Y","stats":{"geo_score":{"max":0.902,"mean":0.676874141876429,"variance":0.0317847662334936,"stdev":0.1782828265243,"min":0.286,"median":0.745}},"features":[{"properties":{"city":"CHATTANOOGA","zip":"374150000","st":"TN","practice type":"Community:Independent","pharmacy name":"ACCESS DRUGS","geo_score":0.831,"id":"a6bgsqcn2ch8","geo_precision":"range","address":"4062 HIXSON PIKE"},"type":"Feature","geometry":{"type":"Point","coordinates":[-85.258771,35.1141]}},{"properties":{"city":"ADAMSVILLE","zip":"38310","st":"TN","practice type":"Community:Independent","pharmacy name":"ADAMSVILLE FAMILY PHARMACY","geo_score":0.361,"id":"a6bgspylyonb","geo_precision":"street","address":"721 E. MAIN STREET"},"type":"Feature","geometry":{"type":"Point","coordinates":[-88.394853,35.235884]}},{"properties":{"city":"GAINESBORO","zip":"385620000","st":"TN","practice type":"Community:Independent","pharmacy name":"ANDERSON &amp; HAILE DRUG COMPANY","geo_score":0.339,"id":"a6bgspy1ovvd","geo_precision":"street","address":"101 W. GORE AVENUE"},"type":"Feature","geometry":{"type":"Point","coordinates":[-85.660396,36.354918]}},{"properties":{"city":"NORRIS","zip":"37828","st":"TN","practice type":"Community:Independent","pharmacy name":"ANDERSON CROSSING PHARMACY","geo_score":0.698,"id":"a6bgsq0po40u","geo_precision":"street","address":"3310-C ANDERSONVILLE HIGHWAY"},"type":"Feature","geometry":{"type":"Point","coordinates":[-84.059092,36.188671]}},{"properties":{"city":"ETOWAH","zip":"373310000","st":"TN","practice type":"Community:Independent","pharmacy name":"ANDERSON DRUGS","geo_score":0.621,"id":"a6bgsq5v4x5n","geo_precision":"street","address":"725 TENNESSEE AVENUE"},"type":"Feature","geometry":{"type":"Point","coordinates":[-84.520288,35.337728]}},{"properties":{"city":"WARTBURG","zip":"37887","st":"TN","practice type":"Community:Independent","pharmacy name":"APOTHE CARE","geo_score":0.817,"id":"a6bgsq1gzr3n","geo_precision":"range","address":"1236 KNOXVILLE HIGHWAY"},"type":"Feature","geometry":{"type":"Point","coordinates":[-84.576147,36.103035]}},{"properties":{"city":"CLINTON","zip":"377160000","st":"TN","practice type":"Community:Independent","pharmacy name":"APPLE DISCOUNT DRUGS","geo_score":0.815,"id":"a6bgsqanu3os","geo_precision":"range","address":"512 CLINCH AVENUE"},"type":"Feature","geometry":{"type":"Point","coordinates":[-84.130603,36.083509]}},{"properties":{"city":"SWEETWATER","zip":"378740000","st":"TN","practice type":"Community:Independent","pharmacy name":"ARCHER'S FAMILY PHARMACY","geo_score":0.815,"id":"a6bgsqahrslz","geo_precision":"range","address":"207 NORTH MAIN STREET"},"type":"Feature","geometry":{"type":"Point","coordinates":[-84.462898,35.599401]}},{"properties":{"city":"HALLS","zip":"380400000","st":"TN","practice type":"Community:Independent","pharmacy name":"ARNOLD DRUG COMPANY","geo_score":0.824,"id":"a6bgsqa88qqj","geo_precision":"range","address":"112 EAST MAIN STREET"},"type":"Feature","geometry":{"type":"Point","coordinates":[-89.392727,35.875196]}},{"properties":{"city":"GREENEVILLE","zip":"377430000","st":"TN","practice type":"Community:Independent","pharmacy name":"ATCHLEY'S DRUG STORE","geo_score":0.814,"id":"a6bgsqavhgy8","geo_precision":"range","address":"511 ASHEVILLE HIGHWAY"},"type":"Feature","geometry":{"type":"Point","coordinates":[-82.846977,36.148162]}},{"properties":{"city":"HENDERSONVILLE","zip":"370750000","st":"TN","practice type":"Community:Independent","pharmacy name":"ATRIUM PHARMACY","geo_score":0.439,"id":"a6bgsq21fr06","geo_precision":"street","address":"260 W. MAIN, SUITE 103"},"type":"Feature","geometry":{"type":"Point","coordinates":[-86.613743,36.305481]}},{"properties":{"city":"KINGSTON","zip":"377630000","st":"TN","practice type":"Community:Independent","pharmacy name":"BAGGETT PHARMACY, INC.","geo_score":0.8,"id":"a6bgsq6qxvy1","geo_precision":"range","address":"133 RACE STREET"},"type":"Feature","geometry":{"type":"Point","coordinates":[-84.517005,35.871742]}},{"properties":{"city":"MANCHESTER","zip":"373550000","st":"TN","practice type":"Community:Independent","pharmacy name":"BAKER BROTHERS DRUG COMPANY","geo_score":0.815,"id":"a6bgsq6u9euc","geo_precision":"range","address":"120 EAST MAIN STREET"},"type":"Feature","geometry":{"type":"Point","coordinates":[-86.08804,35.482828]}},{"properties":{"city":"JACKSON","zip":"38301","st":"TN","practice type":"Community:Independent","pharmacy name":"BAKERS DRUG STORE","geo_score":0.366,"id":"a6bgsqd6ksmi","geo_precision":"street","address":"200 W. MAIN STREET"},"type":"Feature","geometry":{"type":"Point","coordinates":[-88.819375,35.614326]}},{"properties":{"city":"BARTLETT","zip":"381340000","st":"TN","practice type":"Community:Independent","pharmacy name":"BARTLETT PRESCRIPTION SHOP","geo_score":0.902,"id":"a6bgsq6asipe","geo_precision":"range","address":"5675 STAGE ROAD"},"type":"Feature","geometry":{"type":"Point","coordinates":[-89.874192,35.204558]}},{"properties":{"city":"MURFREESBORO","zip":"371300000","st":"TN","practice type":"Community:Independent","pharmacy name":"BECKMAN'S PRESCRIPTION SHOP","geo_score":0.813,"id":"a6bgsqcgevx3","geo_precision":"range","address":"120 EAST COLLEGE ST"},"type":"Feature","geometry":{"type":"Point","coordinates":[-86.391023,35.846964]}},{"properties":{"city":"SHELBYVILLE","zip":"37160","st":"TN","practice type":"Community:Independent","pharmacy name":"BEDFORD DRUGS","geo_score":0.36,"id":"a6bgsq8m39bk","geo_precision":"street","address":"629 N. MAIN STREET"},"type":"Feature","geometry":{"type":"Point","coordinates":[-86.459885,35.483432]}},{"properties":{"city":"DYERSBURG","zip":"380240000","st":"TN","practice type":"Community:Independent","pharmacy name":"BELEW &amp; RAY DRUG COMPANY","geo_score":0.669,"id":"a6bgsq3pdx6h","geo_precision":"range","address":"470 HWY 51 BYPASS WEST"},"type":"Feature","geometry":{"type":"Point","coordinates":[-89.385727,36.036262]}},{"properties":{"city":"KNOXVILLE","zip":"379170000","st":"TN","practice type":"Community:Independent","pharmacy name":"BELEW DRUGS","geo_score":0.868,"id":"a6bgsq0nb536","geo_precision":"range","address":"2021 NORTH BROADWAY"},"type":"Feature","geometry":{"type":"Point","coordinates":[-83.92004,35.990877]}},{"properties":{"city":"CHATTANOOGA","zip":"374110000","st":"TN","practice type":"Community:Independent","pharmacy name":"BELVOIR PHARMACY","geo_score":0.805,"id":"a6bgsq5mu8nm","geo_precision":"range","address":"4501 BRAINERD ROAD"},"type":"Feature","geometry":{"type":"Point","coordinates":[-85.233932,35.015339]}},{"properties":{"city":"WINCHESTER","zip":"373980000","st":"TN","practice type":"Community:Independent","pharmacy name":"BENNETT'S PHARMACY","geo_score":0.862,"id":"a6bgsq79gdq8","geo_precision":"range","address":"1201 DINAH SHORE BOULEVARD"},"type":"Feature","geometry":{"type":"Point","coordinates":[-86.099701,35.195838]}},{"properties":{"city":"KINGSPORT","zip":"376640000","st":"TN","practice type":"Community:Independent","pharmacy name":"BERRY'S PHARMACY, INC","geo_score":0.767,"id":"a6bgsqaix306","geo_precision":"range","address":"1717 FT HENRY DRIVE"},"type":"Feature","geometry":{"type":"Point","coordinates":[-82.527256,36.532138]}},{"properties":{"city":"JOHNSON CITY","zip":"376010000","st":"TN","practice type":"Community:Independent","pharmacy name":"BEVINS PHARMACY","geo_score":0.823,"id":"a6bgsq75xpyh","geo_precision":"range","address":"1301 NORTH ROAN STREET"},"type":"Feature","geometry":{"type":"Point","coordinates":[-82.362383,36.325455]}},{"properties":{"city":"MEMPHIS","zip":"38104","st":"TN","practice type":"Community:Independent","pharmacy name":"BIOSCRIP PHARMACY","geo_score":0.902,"id":"a6bgsq88158i","geo_precision":"range","address":"1424 UNION AVENUE"},"type":"Feature","geometry":{"type":"Point","coordinates":[-90.014091,35.136585]}},{"properties":{"city":"MONTEREY","zip":"385740000","st":"TN","practice type":"Community:Independent","pharmacy name":"BISHOP DRUGS","geo_score":0.815,"id":"a6bgsq0c55lz","geo_precision":"range","address":"101 WEST COMMERCIAL AVE."},"type":"Feature","geometry":{"type":"Point","coordinates":[-85.26807,36.14783]}},{"properties":{"city":"JOHNSON CITY","zip":"376010000","st":"TN","practice type":"Community:Independent","pharmacy name":"BLANKENSHIP PHARMACY","geo_score":0.823,"id":"a6bgsq7fyyx7","geo_precision":"range","address":"222 EAST WATAUGA AVENUE"},"type":"Feature","geometry":{"type":"Point","coordinates":[-82.354528,36.323191]}},{"properties":{"city":"KINGSPORT","zip":"376600000","st":"TN","practice type":"Community:Independent","pharmacy name":"BLOOMINGDALE DRUG OF KINGSPORT, LLC","geo_score":0.751,"id":"a6bgsq1151bg","geo_precision":"range","address":"2900 BLOOMINGDALE PIKE"},"type":"Feature","geometry":{"type":"Point","coordinates":[-82.495629,36.581986]}},{"properties":{"city":"ALCOA","zip":"377010000","st":"TN","practice type":"Community:Independent","pharmacy name":"BLOUNT DISCOUNT PHARMACY, INC.","geo_score":0.811,"id":"a6bgsqe2gwcu","geo_precision":"range","address":"129 GILL STREET"},"type":"Feature","geometry":{"type":"Point","coordinates":[-83.970219,35.763394]}},{"properties":{"city":"MARYVILLE","zip":"37803","st":"TN","practice type":"Community:Independent","pharmacy name":"BLOUNT DISCOUNT PHARMACY-WEST","geo_score":0.902,"id":"a6bgsq7mnemy","geo_precision":"range","address":"131 MONTGOMERY LANE"},"type":"Feature","geometry":{"type":"Point","coordinates":[-83.990315,35.73628]}},{"properties":{"city":"MARYVILLE","zip":"37804","st":"TN","practice type":"Community:Independent","pharmacy name":"BLOUNT DISCOUNT PHCY AT BLOUNT MEMORIAL","geo_score":0.585,"id":"a6bgsq29hj02","geo_precision":"zip","address":"152 BMH PHYSICIAN OFFICE BUILDING"},"type":"Feature","geometry":{"type":"Point","coordinates":[-83.885212,35.799053]}},{"properties":{"city":"KNOXVILLE","zip":"379200000","st":"TN","practice type":"Community:Independent","pharmacy name":"BLOUNT PROFESSIONAL PHARMACY","geo_score":0.786,"id":"a6bgsqbs16fj","geo_precision":"range","address":"101 BLOUNT AVENUE"},"type":"Feature","geometry":{"type":"Point","coordinates":[-83.916451,35.954376]}},{"properties":{"city":"BLOUNTVILLE","zip":"376170000","st":"TN","practice type":"Community:Independent","pharmacy name":"BLOUNTVILLE DRUG COMPANY","geo_score":0.619,"id":"a6bgsq0evdet","geo_precision":"street","address":"3090 HIGHWAY 126"},"type":"Feature","geometry":{"type":"Point","coordinates":[-82.327488,36.53272]}},{"properties":{"city":"WINCHESTER","zip":"373980000","st":"TN","practice type":"Community:Independent","pharmacy name":"BLUE FRONT DRUG STORE","geo_score":0.789,"id":"a6bgsq21z8mp","geo_precision":"range","address":"107 FIRST AVENUE NW"},"type":"Feature","geometry":{"type":"Point","coordinates":[-86.112413,35.18633]}},{"properties":{"city":"KNOXVILLE","zip":"37919","st":"TN","practice type":"Community:Independent","pharmacy name":"BLUE RIDGE COMPOUNDING PHARMACY","geo_score":0.797,"id":"a6bgsq3yuhsd","geo_precision":"range","address":"311 NORTHSHORE DRIVE"},"type":"Feature","geometry":{"type":"Point","coordinates":[-84.002568,35.934024]}},{"properties":{"city":"MILLINGTON","zip":"380830000","st":"TN","practice type":"Community:Independent","pharmacy name":"BOATWRIGHT DRUG COMPANY","geo_score":0.805,"id":"a6bgsqcj1rjp","geo_precision":"range","address":"7899 C STREET"},"type":"Feature","geometry":{"type":"Point","coordinates":[-89.893543,35.341881]}},{"properties":{"city":"DRESDEN","zip":"382250000","st":"TN","practice type":"Community:Independent","pharmacy name":"BOB'S DISCOUNT PHARMACY","geo_score":0.563,"id":"a6bgsqbaqpub","geo_precision":"street","address":"8720 HWY 22, SUITE A"},"type":"Feature","geometry":{"type":"Point","coordinates":[-88.713062,36.277637]}},{"properties":{"city":"SAVANNAH","zip":"38372","st":"TN","practice type":"Community:Independent","pharmacy name":"BOB'S DISCOUNT PHARMACY","geo_score":0.716,"id":"a6bgsq9mt450","geo_precision":"range","address":"555 PICKWICK STREEET"},"type":"Feature","geometry":{"type":"Point","coordinates":[-88.245446,35.216153]}},{"properties":{"city":"JOHNSON CITY","zip":"376153959","st":"TN","practice type":"Community:Independent","pharmacy name":"BOONES CREEK PHARMACY","geo_score":0.373,"id":"a6bgsq96oodd","geo_precision":"street","address":"4729 N. ROAN STREET"},"type":"Feature","geometry":{"type":"Point","coordinates":[-82.408464,36.381015]}},{"properties":{"city":"ESTILL SPRINGS","zip":"37330","st":"TN","practice type":"Community:Independent","pharmacy name":"BRADFORD'S PHARMACY","geo_score":0.827,"id":"a6bgsq2pmzyh","geo_precision":"range","address":"104 HUDGINS STREET"},"type":"Feature","geometry":{"type":"Point","coordinates":[-86.126298,35.267983]}},{"properties":{"city":"NASHVILLE","zip":"372090000","st":"TN","practice type":"Community:Independent","pharmacy name":"BRADLEY DRUG COMPANY","geo_score":0.872,"id":"a6bgsq2t4r0m","geo_precision":"range","address":"5208 CHARLOTTE AVENUE"},"type":"Feature","geometry":{"type":"Point","coordinates":[-86.849983,36.151918]}},{"properties":{"city":"BRIGHTON","zip":"38011","st":"TN","practice type":"Community:Independent","pharmacy name":"BRIGHTON PHARMACY","geo_score":0.286,"id":"a6bgsq1ul1cn","geo_precision":"street","address":"1880 OLD HWY 51, SECTION A"},"type":"Feature","geometry":{"type":"Point","coordinates":[-89.695873,35.520838]}},{"properties":{"city":"KINGSPORT","zip":"376600000","st":"TN","practice type":"Community:Independent","pharmacy name":"BROOKSIDE DISCOUNT PHARMACY","geo_score":0.771,"id":"a6bgsqciv6q6","geo_precision":"range","address":"1901 BROOKSIDE ROAD"},"type":"Feature","geometry":{"type":"Point","coordinates":[-82.518476,36.549549]}},{"properties":{"city":"BROWNSVILLE","zip":"380120000","st":"TN","practice type":"Community:Independent","pharmacy name":"BROWNSVILLE APOTHECARY","geo_score":0.751,"id":"a6bgsqb43nb3","geo_precision":"range","address":"2565 N WASHINGTON"},"type":"Feature","geometry":{"type":"Point","coordinates":[-89.241472,35.609903]}},{"properties":{"city":"LEBANON","zip":"370870000","st":"TN","practice type":"Community:Independent","pharmacy name":"BUCKEYE'S DISCOUNT DRUG CTR OF LEBANON","geo_score":0.342,"id":"a6bgsq998bek","geo_precision":"street","address":"315 N. CUMBERLAND ST"},"type":"Feature","geometry":{"type":"Point","coordinates":[-86.294187,36.20171]}},{"properties":{"city":"JAMESTOWN","zip":"385560000","st":"TN","practice type":"Community:Independent","pharmacy name":"BURDEN DRUG CENTER, INC.","geo_score":0.372,"id":"a6bgsqagyc1e","geo_precision":"street","address":"418A W. CENTRAL AVENUE"},"type":"Feature","geometry":{"type":"Point","coordinates":[-84.938467,36.429559]}},{"properties":{"city":"ELIZABETHTON","zip":"376430000","st":"TN","practice type":"Community:Independent","pharmacy name":"BURGIE DRUG STORE","geo_score":0.821,"id":"a6bgsq6x4796","geo_precision":"range","address":"1000 WEST G STREET"},"type":"Feature","geometry":{"type":"Point","coordinates":[-82.241695,36.342291]}},{"properties":{"city":"SMITHVILLE","zip":"371660000","st":"TN","practice type":"Community:Independent","pharmacy name":"CALDWELL'S DRUG STORE INC","geo_score":0.824,"id":"a6bgsq9hn0f6","geo_precision":"range","address":"511 WEST MAIN ST"},"type":"Feature","geometry":{"type":"Point","coordinates":[-85.828644,35.959247]}},{"properties":{"city":"FAYETTEVILLE","zip":"373340000","st":"TN","practice type":"Community:Independent","pharmacy name":"CARTER'S DRUG STORE","geo_score":0.604,"id":"a6bgsq124wno","geo_precision":"range","address":"106 SOUTH ELK"},"type":"Feature","geometry":{"type":"Point","coordinates":[-86.569232,35.152155]}},{"properties":{"city":"FAYETTEVILLE","zip":"37334","st":"TN","practice type":"Community:Independent","pharmacy name":"CARTERS AT STONEBRIDGE","geo_score":0.813,"id":"a6bgsq24px89","geo_precision":"range","address":"6 ELDAD ROAD"},"type":"Feature","geometry":{"type":"Point","coordinates":[-86.561574,35.147272]}},{"properties":{"city":"DUNLAP","zip":"37327","st":"TN","practice type":"Community:Independent","pharmacy name":"CATES STREET PHARMACY","geo_score":0.721,"id":"a6bgsqdl0zt1","geo_precision":"range","address":"104 CATES STREET"},"type":"Feature","geometry":{"type":"Point","coordinates":[-84.533347,35.130387]}},{"properties":{"city":"KINGSPORT","zip":"376600000","st":"TN","practice type":"Community:Independent","pharmacy name":"CAVE'S DRUG STORE","geo_score":0.47,"id":"a6bgsq4oom9k","geo_precision":"street","address":"1328-B SOUTH JOHN B. DENNIS HIGHWAY"},"type":"Feature","geometry":{"type":"Point","coordinates":[-82.554611,36.546326]}},{"properties":{"city":"NASHVILLE","zip":"37214","st":"TN","practice type":"Community:Independent","pharmacy name":"CENTERSTONE PHARMACY NO. 2","geo_score":0.821,"id":"a6bgsq3qz27e","geo_precision":"range","address":"2608 LEBANON PIKE"},"type":"Feature","geometry":{"type":"Point","coordinates":[-86.674422,36.169898]}},{"properties":{"city":"CLEVELAND","zip":"373200000","st":"TN","practice type":"Community:Independent","pharmacy name":"CENTRAL DRUG CO","geo_score":0.488,"id":"a6bgsqe6h2nw","geo_precision":"street","address":"1805 KEITH STREET"},"type":"Feature","geometry":{"type":"Point","coordinates":[-84.853049,35.196497]}},{"properties":{"city":"CLEVELAND","zip":"37312","st":"TN","practice type":"Community:Independent","pharmacy name":"CENTRAL DRUG CO. PEERLESS CROSSING","geo_score":0.634,"id":"a6bgsqb9nqwa","geo_precision":"street","address":"1075 PEERLESS CROSSING"},"type":"Feature","geometry":{"type":"Point","coordinates":[-84.875642,35.18687]}},{"properties":{"city":"GREENEVILLE","zip":"377430000","st":"TN","practice type":"Community:Independent","pharmacy name":"CENTRAL DRUG STORE","geo_score":0.346,"id":"a6bgsq3quavy","geo_precision":"street","address":"239 W. SUMMER STREET, TOWN SQ S/C"},"type":"Feature","geometry":{"type":"Point","coordinates":[-82.831451,36.162234]}},{"properties":{"city":"MEMPHIS","zip":"381069019","st":"TN","practice type":"Community:Independent","pharmacy name":"CHAMPION'S PHARMACY","geo_score":0.805,"id":"a6bgsq0v66cc","geo_precision":"range","address":"2369 ELVIS PRESLEY BOULEVARD"},"type":"Feature","geometry":{"type":"Point","coordinates":[-90.018969,35.080368]}},{"properties":{"city":"HARRIMAN","zip":"377480000","st":"TN","practice type":"Community:Independent","pharmacy name":"CHASE DRUGS INC","geo_score":0.593,"id":"a6bgsqaxs310","geo_precision":"street","address":"319 ROANE STREET"},"type":"Feature","geometry":{"type":"Point","coordinates":[-84.561819,35.922907]}},{"properties":{"city":"RIPLEY","zip":"38063","st":"TN","practice type":"Community:Independent","pharmacy name":"CHRISTIAN FAMILY PHARMACY","geo_score":0.381,"id":"a6bgsqdckmgt","geo_precision":"street","address":"79 HIGHWAY 51 SOUTH, STE. 2"},"type":"Feature","geometry":{"type":"Point","coordinates":[-89.527509,35.775365]}},{"properties":{"city":"CHURCH HILL","zip":"376420000","st":"TN","practice type":"Community:Independent","pharmacy name":"CHURCH HILL DRUG STORE","geo_score":0.347,"id":"a6bgsqd981d6","geo_precision":"street","address":"104 E. MAIN ST. P. O. BOX 208"},"type":"Feature","geometry":{"type":"Point","coordinates":[-82.677889,36.533436]}},{"properties":{"city":"DYERSBURG","zip":"380240000","st":"TN","practice type":"Community:Independent","pharmacy name":"CITY DRUG CO.","geo_score":0.816,"id":"a6bgsqducxrd","geo_precision":"range","address":"101 S MILL AVE"},"type":"Feature","geometry":{"type":"Point","coordinates":[-89.386774,36.032865]}},{"properties":{"city":"HUNTINGDON","zip":"383440000","st":"TN","practice type":"Community:Independent","pharmacy name":"CITY DRUG CO.","geo_score":0.371,"id":"a6bgsqdwi649","geo_precision":"street","address":"630 R.B. WILSON DRIVE"},"type":"Feature","geometry":{"type":"Point","coordinates":[-88.888999,35.8321]}},{"properties":{"city":"MARYVILLE","zip":"37804","st":"TN","practice type":"Community:Independent","pharmacy name":"CITY DRUG CO.","geo_score":0.902,"id":"a6bgsqc2jx4r","geo_precision":"range","address":"1612 EAST LAMAR ALEXANDER PKWY"},"type":"Feature","geometry":{"type":"Point","coordinates":[-83.94905,35.755271]}},{"properties":{"city":"HUMBOLDT","zip":"38343","st":"TN","practice type":"Community:Independent","pharmacy name":"CITY DRUG COMPANY","geo_score":0.774,"id":"a6bgsq6j98kj","geo_precision":"range","address":"1511 MAIN STREET"},"type":"Feature","geometry":{"type":"Point","coordinates":[-88.915076,35.819805]}},{"properties":{"city":"HENDERSON","zip":"383400000","st":"TN","practice type":"Community:Independent","pharmacy name":"CITY DRUG STORE","geo_score":0.805,"id":"a6bgsq3o0jd3","geo_precision":"range","address":"118 E MAIN STREET"},"type":"Feature","geometry":{"type":"Point","coordinates":[-88.640912,35.439424]}},{"properties":{"city":"PARSONS","zip":"383630000","st":"TN","practice type":"Community:Independent","pharmacy name":"CITY DRUG STORE","geo_score":0.589,"id":"a6bgsq80s51q","geo_precision":"street","address":"18 MAIN STREET"},"type":"Feature","geometry":{"type":"Point","coordinates":[-88.126888,35.649716]}},{"properties":{"city":"HENDERSON","zip":"383400000","st":"TN","practice type":"Community:Independent","pharmacy name":"CITY DRUG XPRESS","geo_score":0.659,"id":"a6bgsq33opvp","geo_precision":"range","address":"226 NORTH AVENUE"},"type":"Feature","geometry":{"type":"Point","coordinates":[-88.642635,35.441011]}},{"properties":{"city":"CLARKRANGE","zip":"385530000","st":"TN","practice type":"Community:Independent","pharmacy name":"CLARKRANGE DRUGCENTER","geo_score":0.78,"id":"a6bgspxs7bt9","geo_precision":"range","address":"6845 SOUTH YORK HIGHWAY"},"type":"Feature","geometry":{"type":"Point","coordinates":[-85.020479,36.188514]}},{"properties":{"city":"KNOXVILLE","zip":"379240000","st":"TN","practice type":"Community:Independent","pharmacy name":"CLEN'S PHARMACY II, INC.","geo_score":0.902,"id":"a6bgsq3jmggl","geo_precision":"range","address":"8622 ASHEVILLE HIGHWAY"},"type":"Feature","geometry":{"type":"Point","coordinates":[-83.736603,36.025454]}},{"properties":{"city":"ERWIN","zip":"376500000","st":"TN","practice type":"Community:Independent","pharmacy name":"CLINCHFIELD DRUG COMPANY","geo_score":0.554,"id":"a6bgsq4orus2","geo_precision":"street","address":"101 MAIN &amp; GAY STREET"},"type":"Feature","geometry":{"type":"Point","coordinates":[-82.412684,36.148685]}},{"properties":{"city":"CLINTON","zip":"377160000","st":"TN","practice type":"Community:Independent","pharmacy name":"CLINTON DRUG STORE","geo_score":0.286,"id":"a6bgsq0mut2t","geo_precision":"street","address":"1130 N. CHARLES SEIVERS BLVD"},"type":"Feature","geometry":{"type":"Point","coordinates":[-84.3445,35.732728]}},{"properties":{"city":"MORRISTOWN","zip":"378140000","st":"TN","practice type":"Community:Independent","pharmacy name":"COLLEGE PARK PHARMACY","geo_score":0.824,"id":"a6bgsqe6rd3a","geo_precision":"range","address":"2106 EAST ANDREW JOHNSON HWY"},"type":"Feature","geometry":{"type":"Point","coordinates":[-83.267992,36.226235]}},{"properties":{"city":"COLLINWOOD","zip":"384500000","st":"TN","practice type":"Community:Independent","pharmacy name":"COLLINWOOD DRUGS","geo_score":0.704,"id":"a6bgsqdqdtfo","geo_precision":"street","address":"CORNER HWY 13 &amp; MARSHALL ST"},"type":"Feature","geometry":{"type":"Point","coordinates":[-87.738169,35.169667]}},{"properties":{"city":"KINGSPORT","zip":"376630000","st":"TN","practice type":"Community:Independent","pharmacy name":"COLONIAL HEIGHTS PHARMACY, INC","geo_score":0.824,"id":"a6bgsq5n3y9c","geo_precision":"range","address":"4221 FORT HENRY DRIVE"},"type":"Feature","geometry":{"type":"Point","coordinates":[-82.500792,36.483341]}},{"properties":{"city":"GOODLETTSVILLE","zip":"37072","st":"TN","practice type":"Community:Independent","pharmacy name":"COMMUNITY DRUG","geo_score":0.37,"id":"a6bgsq1myuzv","geo_precision":"street","address":"919 CONFERENCE DRIVE, UNIT #4"},"type":"Feature","geometry":{"type":"Point","coordinates":[-86.691853,36.302756]}},{"properties":{"city":"OLD HICKORY","zip":"37138","st":"TN","practice type":"Community:Independent","pharmacy name":"COMMUNITY DRUG #2","geo_score":0.824,"id":"a6bgsq4h9jah","geo_precision":"range","address":"862 ROBINSON ROAD"},"type":"Feature","geometry":{"type":"Point","coordinates":[-86.663583,36.26493]}},{"properties":{"city":"KNOXVILLE","zip":"379190000","st":"TN","practice type":"Community:Independent","pharmacy name":"COMMUNITY PHARMACY","geo_score":0.797,"id":"a6bgspzpi53y","geo_precision":"range","address":"309 NORTHSHORE DRIVE"},"type":"Feature","geometry":{"type":"Point","coordinates":[-84.002568,35.934012]}},{"properties":{"city":"COOKEVILLE","zip":"38501","st":"TN","practice type":"Community:Independent","pharmacy name":"COOKEVILLE MEDPLUS PHARMACY","geo_score":0.345,"id":"a6bgsq007gn1","geo_precision":"street","address":"315 N. WASHINGTON AVENUE, SUITE 130"},"type":"Feature","geometry":{"type":"Point","coordinates":[-85.499206,36.162631]}},{"properties":{"city":"GREENEVILLE","zip":"377450000","st":"TN","practice type":"Community:Independent","pharmacy name":"CORLEY'S PHARMACY, INC","geo_score":0.902,"id":"a6bgspxwoaa1","geo_precision":"range","address":"1004 SNAPPS FERRY ROAD"},"type":"Feature","geometry":{"type":"Point","coordinates":[-82.812722,36.173007]}},{"properties":{"city":"LAKE CITY","zip":"377690455","st":"TN","practice type":"Community:Independent","pharmacy name":"CORNER DRUG COMPANY","geo_score":0.775,"id":"a6bgsq9yh2xy","geo_precision":"range","address":"414 MAIN STREET"},"type":"Feature","geometry":{"type":"Point","coordinates":[-84.157336,36.227527]}},{"properties":{"city":"DECATURVILLE","zip":"38329","st":"TN","practice type":"Community:Independent","pharmacy name":"CORNERSTONE FAMILY PHARMACY","geo_score":0.627,"id":"a6bgsqb3emtu","geo_precision":"street","address":"9 WEST MAIN STREET"},"type":"Feature","geometry":{"type":"Point","coordinates":[-88.126307,35.582516]}},{"properties":{"city":"JACKSON","zip":"38305","st":"TN","practice type":"Community:Independent","pharmacy name":"COST PLUS PHARMACY, INC","geo_score":0.883,"id":"a6bgspyy55cs","geo_precision":"range","address":"104-A UNIVERSITY PKWY"},"type":"Feature","geometry":{"type":"Point","coordinates":[-88.825467,35.695709]}},{"properties":{"city":"RIPLEY","zip":"380630000","st":"TN","practice type":"Community:Independent","pharmacy name":"CRAIN'S PHARMACY, INC","geo_score":0.35,"id":"a6bgsqarcyi9","geo_precision":"street","address":"251 S. WASHINGTON"},"type":"Feature","geometry":{"type":"Point","coordinates":[-89.534089,35.745207]}},{"properties":{"city":"GREENEVILLE","zip":"377450000","st":"TN","practice type":"Community:Independent","pharmacy name":"CRAWFORD PHARMACY","geo_score":0.5,"id":"a6bgsq9i5z93","geo_precision":"street","address":"GREENE COUNTY DRUG STORE, LLC"},"type":"Feature","geometry":{"type":"Point","coordinates":[-82.764242,36.167573]}},{"properties":{"city":"CLEVELAND","zip":"373110000","st":"TN","practice type":"Community:Independent","pharmacy name":"CRAWFORD'S PHARMACY","geo_score":0.352,"id":"a6bgsq1ek2tn","geo_precision":"street","address":"2260 CHAMBLISS AVE.,N.W."},"type":"Feature","geometry":{"type":"Point","coordinates":[-84.871391,35.170956]}},{"properties":{"city":"MORRISTOWN","zip":"378140000","st":"TN","practice type":"Community:Independent","pharmacy name":"CRESCENT CENTER DRUGS","geo_score":0.751,"id":"a6bgsqaqorzq","geo_precision":"range","address":"228 NORTH FAIRMONT"},"type":"Feature","geometry":{"type":"Point","coordinates":[-83.307766,36.207676]}},{"properties":{"city":"NEW TAZEWELL","zip":"378250000","st":"TN","practice type":"Community:Independent","pharmacy name":"CUNNINGHAM DRUG COMPANY, INC","geo_score":0.37,"id":"a6bgsq4elj8w","geo_precision":"street","address":"BROAD &amp; THIRD"},"type":"Feature","geometry":{"type":"Point","coordinates":[-83.598874,36.443954]}},{"properties":{"city":"BULLS GAP","zip":"37711","st":"TN","practice type":"Community:Independent","pharmacy name":"CUNNINGHAM DRUGS","geo_score":0.371,"id":"a6bgsqaa3j9a","geo_precision":"street","address":"BLC DRUG INC."},"type":"Feature","geometry":{"type":"Point","coordinates":[-82.720136,36.110354]}},{"properties":{"city":"ONEIDA","zip":"37841","st":"TN","practice type":"Community:Independent","pharmacy name":"DANNY'S DRUGS, INC","geo_score":0.629,"id":"a6bgsq7jbxsk","geo_precision":"street","address":"20029 ALBERTA AVENUE"},"type":"Feature","geometry":{"type":"Point","coordinates":[-84.514414,36.505814]}},{"properties":{"city":"BYRDSTOWN","zip":"385490000","st":"TN","practice type":"Community:Independent","pharmacy name":"DAVIDSON DISCOUNT DRUGS","geo_score":0.816,"id":"a6bgsqdkja17","geo_precision":"range","address":"110 HILLCREST DRIVE"},"type":"Feature","geometry":{"type":"Point","coordinates":[-85.135723,36.571475]}},{"properties":{"city":"NASHVILLE","zip":"372110000","st":"TN","practice type":"Community:Independent","pharmacy name":"DEAL DRUG","geo_score":0.355,"id":"a6bgsq8wtfre","geo_precision":"street","address":"395 WALLACE ROAD, SUITE 102"},"type":"Feature","geometry":{"type":"Point","coordinates":[-86.71506,36.072607]}},{"properties":{"city":"SELMER","zip":"383750000","st":"TN","practice type":"Community:Independent","pharmacy name":"DEBERRY DRUGS","geo_score":0.52,"id":"a6bgsq57u111","geo_precision":"zip","address":"103 SOUTH Y SQUARE"},"type":"Feature","geometry":{"type":"Point","coordinates":[-88.696997,35.205361]}},{"properties":{"city":"HENDERSON","zip":"38340","st":"TN","practice type":"Community:Independent","pharmacy name":"DEE'S DISCOUNT DRUGS","geo_score":0.805,"id":"a6bgsq79vt0v","geo_precision":"range","address":"689 KIMBERLY DRIVE"},"type":"Feature","geometry":{"type":"Point","coordinates":[-88.662086,35.442559]}},{"properties":{"city":"DICKSON","zip":"370550000","st":"TN","practice type":"Community:Independent","pharmacy name":"DICKSON APOTHECARY","geo_score":0.453,"id":"a6bgsq02uhjd","geo_precision":"street","address":"104 HIGHWAY 70 EAST"},"type":"Feature","geometry":{"type":"Point","coordinates":[-87.314628,36.090232]}},{"properties":{"city":"LYLES","zip":"370980000","st":"TN","practice type":"Community:Independent","pharmacy name":"DICKSON APOTHECARY-EAST","geo_score":0.286,"id":"a6bgspxs72al","geo_precision":"street","address":"P.O. BOX 708"},"type":"Feature","geometry":{"type":"Point","coordinates":[-87.067596,36.272946]}},{"properties":{"city":"DICKSON","zip":"37055","st":"TN","practice type":"Community:Independent","pharmacy name":"DICKSON MEDICAL PHARMACY","geo_score":0.527,"id":"a6bgsq0n9o02","geo_precision":"street","address":"758 HWY 46 SOUTH"},"type":"Feature","geometry":{"type":"Point","coordinates":[-87.327047,36.000047]}},{"properties":{"city":"CELINA","zip":"38551","st":"TN","practice type":"Community:Independent","pharmacy name":"DONALDSON PHARMACY INC","geo_score":0.69,"id":"a6bgspzp7tv9","geo_precision":"range","address":"201 MCARTHUR AVENUE"},"type":"Feature","geometry":{"type":"Point","coordinates":[-85.502202,36.545584]}},{"properties":{"city":"NASHVILLE","zip":"372140000","st":"TN","practice type":"Community:Independent","pharmacy name":"DONELSON DRUG MART","geo_score":0.821,"id":"a6bgsq3ros2h","geo_precision":"range","address":"2608 LEBANON PIKE"},"type":"Feature","geometry":{"type":"Point","coordinates":[-86.674422,36.169898]}},{"properties":{"city":"BROWNSVILLE","zip":"380120000","st":"TN","practice type":"Community:Independent","pharmacy name":"DOWLING PHARMACY, LLC","geo_score":0.814,"id":"a6bgsq3fgzx4","geo_precision":"range","address":"2571 NORTH WASHINGTON AVENUE"},"type":"Feature","geometry":{"type":"Point","coordinates":[-89.241314,35.609951]}},{"properties":{"city":"BEAN STATION","zip":"37708","st":"TN","practice type":"Community:Independent","pharmacy name":"DOWN HOME PHARMACY","geo_score":0.805,"id":"a6bgsq0ehgvd","geo_precision":"range","address":"1034 MAIN ST"},"type":"Feature","geometry":{"type":"Point","coordinates":[-84.891526,35.912642]}},{"properties":{"city":"NASHVILLE","zip":"37219","st":"TN","practice type":"Community:Independent","pharmacy name":"DSI PHARMACY","geo_score":0.857,"id":"a6bgsq4fx07k","geo_precision":"street","address":"511 UNION STREET, SUITE 1800"},"type":"Feature","geometry":{"type":"Point","coordinates":[-86.780462,36.164778]}},{"properties":{"city":"DYER","zip":"38330","st":"TN","practice type":"Community:Independent","pharmacy name":"DUNCAN'S PHARMACY","geo_score":0.628,"id":"a6bgsq6mqelk","geo_precision":"street","address":"137 SOUTH MAIN STREET"},"type":"Feature","geometry":{"type":"Point","coordinates":[-88.993567,36.06629]}},{"properties":{"city":"WAYNESBORO","zip":"384850000","st":"TN","practice type":"Community:Independent","pharmacy name":"DUREN PHARMACY","geo_score":0.446,"id":"a6bgsqccq0nh","geo_precision":"street","address":"PO BOX 736"},"type":"Feature","geometry":{"type":"Point","coordinates":[-87.29379,35.053028]}},{"properties":{"city":"LINDEN","zip":"37096","st":"TN","practice type":"Community:Independent","pharmacy name":"DUREN'S HEALTH MART","geo_score":0.628,"id":"a6bgsq4szbcu","geo_precision":"street","address":"119 SOUTH MILL STREET"},"type":"Feature","geometry":{"type":"Point","coordinates":[-87.839154,35.612991]}},{"properties":{"city":"HUMBOLDT","zip":"383430000","st":"TN","practice type":"Community:Independent","pharmacy name":"DUVALL DRUGS, INC.","geo_score":0.363,"id":"a6bgsq5qk2qf","geo_precision":"street","address":"1616 E. MAIN STREET"},"type":"Feature","geometry":{"type":"Point","coordinates":[-88.911977,35.819665]}},{"properties":{"city":"UNION CITY","zip":"382610000","st":"TN","practice type":"Community:Independent","pharmacy name":"E.W. JAMES &amp; SONS, INC DBA","geo_score":0.554,"id":"a6bgsqe8c8m6","geo_precision":"range","address":"E.W. JAMES PHARMACY #70"},"type":"Feature","geometry":{"type":"Point","coordinates":[-88.357732,36.371007]}},{"properties":{"city":"CAMDEN","zip":"383200000","st":"TN","practice type":"Community:Independent","pharmacy name":"E.W. JAMES DISCOUNT PHARMACY","geo_score":0.805,"id":"a6bgsqc91r3r","geo_precision":"range","address":"204 W MAIN ST"},"type":"Feature","geometry":{"type":"Point","coordinates":[-88.108668,36.058367]}},{"properties":{"city":"EAGLEVILLE","zip":"370600000","st":"TN","practice type":"Community:Independent","pharmacy name":"EAGLEVILLE DRUG CENTER","geo_score":0.708,"id":"a6bgsq073wyi","geo_precision":"street","address":"104 NORTH MAIN STREET"},"type":"Feature","geometry":{"type":"Point","coordinates":[-86.650539,35.748399]}},{"properties":{"city":"STRAWBERRY PLAINS","zip":"378710000","st":"TN","practice type":"Community:Independent","pharmacy name":"EAST TENNESSEE DISCOUNT DRUG","geo_score":0.829,"id":"a6bgspz93uis","geo_precision":"range","address":"524 ANDREW JOHNSON HWY"},"type":"Feature","geometry":{"type":"Point","coordinates":[-83.722837,36.037044]}},{"properties":{"city":"LENOIR CITY","zip":"377710000","st":"TN","practice type":"Community:Independent","pharmacy name":"EAST TENNESSEE DISCOUNT DRUGS NO. 2","geo_score":0.513,"id":"a6bgsq1kg665","geo_precision":"street","address":"721 HIGHWAY 321 NORTH"},"type":"Feature","geometry":{"type":"Point","coordinates":[-84.28293,35.830661]}},{"properties":{"city":"PARIS","zip":"382420000","st":"TN","practice type":"Community:Independent","pharmacy name":"EASTWOOD PHARMACY, INC.","geo_score":0.805,"id":"a6bgspyh9bqm","geo_precision":"range","address":"1325 EAST WOOD STREET"},"type":"Feature","geometry":{"type":"Point","coordinates":[-88.297701,36.308107]}},{"properties":{"city":"TRENTON","zip":"38382","st":"TN","practice type":"Community:Independent","pharmacy name":"EDDIE'S PHARMACY","geo_score":0.641,"id":"a6bgsq5yzfey","geo_precision":"range","address":"114 DAVY CROCKETT SHOPPING CENTER"},"type":"Feature","geometry":{"type":"Point","coordinates":[-88.929142,35.966293]}},{"properties":{"city":"POWELL","zip":"378490000","st":"TN","practice type":"Community:Independent","pharmacy name":"EDGEMOOR PHARMACY","geo_score":0.615,"id":"a6bgsq5l88je","geo_precision":"street","address":"CHARLOTTE'S WEB"},"type":"Feature","geometry":{"type":"Point","coordinates":[-83.282027,36.22306]}},{"properties":{"city":"ASHLAND CITY","zip":"370150000","st":"TN","practice type":"Community:Independent","pharmacy name":"EMPSON DRUG COMPANY, INC","geo_score":0.814,"id":"a6bgspyutvdm","geo_precision":"range","address":"212 NORTH MAIN STREET"},"type":"Feature","geometry":{"type":"Point","coordinates":[-87.065495,36.276444]}},{"properties":{"city":"CHATTANOOGA","zip":"37421","st":"TN","practice type":"Community:Independent","pharmacy name":"EXPRESS RX, INC.","geo_score":0.78,"id":"a6bgsq7lib4d","geo_precision":"range","address":"7032 B EAST BRAINERD ROAD"},"type":"Feature","geometry":{"type":"Point","coordinates":[-85.17314,35.017984]}},{"properties":{"city":"BOLIVAR","zip":"380080000","st":"TN","practice type":"Community:Independent","pharmacy name":"EXPRESS SAVE-ON DRUGS, LLC","geo_score":0.805,"id":"a6bgsq8wezki","geo_precision":"range","address":"622 W MARKET STREET"},"type":"Feature","geometry":{"type":"Point","coordinates":[-88.995102,35.256426]}},{"properties":{"city":"SMITHVILLE","zip":"371660000","st":"TN","practice type":"Community:Independent","pharmacy name":"F Z WEBB &amp; SONS","geo_score":0.694,"id":"a6bgsq3mm2vg","geo_precision":"range","address":"400 PUBLIC SQUARE"},"type":"Feature","geometry":{"type":"Point","coordinates":[-85.813471,35.96118]}},{"properties":{"city":"ALEXANDRIA","zip":"370120000","st":"TN","practice type":"Community:Independent","pharmacy name":"F Z WEBB &amp; SONS OF ALEXANDRIA","geo_score":0.707,"id":"a6bgspzg8xom","geo_precision":"range","address":"105 SOUTH PUBLIC SQUARE"},"type":"Feature","geometry":{"type":"Point","coordinates":[-87.466517,35.77839]}},{"properties":{"city":"JELLICO","zip":"377620000","st":"TN","practice type":"Community:Independent","pharmacy name":"FAMILY DRUG CENTER,INC","geo_score":0.824,"id":"a6bgsqa7gz80","geo_precision":"range","address":"248 SOUTH MAIN STREET"},"type":"Feature","geometry":{"type":"Point","coordinates":[-84.128128,36.587632]}},{"properties":{"city":"SMITHVILLE","zip":"371660000","st":"TN","practice type":"Community:Independent","pharmacy name":"FAMILY MEDICAL CENTER PHARMACY","geo_score":0.609,"id":"a6bgsq11l1oe","geo_precision":"street","address":"300 NORTH CONGRESS BOULEVARD"},"type":"Feature","geometry":{"type":"Point","coordinates":[-85.811084,35.960246]}},{"properties":{"city":"FALL BRANCH","zip":"376560000","st":"TN","practice type":"Community:Independent","pharmacy name":"FAMILY PHARMACY","geo_score":0.529,"id":"a6bgsq0mtju4","geo_precision":"street","address":"1714 HIGHWAY 93,SUITE 11"},"type":"Feature","geometry":{"type":"Point","coordinates":[-82.631856,36.373546]}},{"properties":{"city":"MEMPHIS","zip":"381150000","st":"TN","practice type":"Community:Independent","pharmacy name":"FAMILY PHARMACY","geo_score":0.805,"id":"a6bgsq9hirx1","geo_precision":"range","address":"5150 AMERICAN WAY"},"type":"Feature","geometry":{"type":"Point","coordinates":[-89.891082,35.077759]}},{"properties":{"city":"LEXINGTON","zip":"38351","st":"TN","practice type":"Community:Independent","pharmacy name":"FAMILY PHARMACY","geo_score":0.813,"id":"a6bgsq6ztuwx","geo_precision":"range","address":"6 HOSPITAL DRIVE"},"type":"Feature","geometry":{"type":"Point","coordinates":[-88.397808,35.654294]}},{"properties":{"city":"MOUNTAIN CITY","zip":"376830000","st":"TN","practice type":"Community:Independent","pharmacy name":"FAMILY PRESCRIPTION CENTER","geo_score":0.805,"id":"a6bgsqav8ycp","geo_precision":"range","address":"129 WEST MAIN STREET"},"type":"Feature","geometry":{"type":"Point","coordinates":[-81.804594,36.474569]}},{"properties":{"city":"KNOXVILLE","zip":"379220000","st":"TN","practice type":"Community:Independent","pharmacy name":"FARRAGUT PHARMACY, INC.","geo_score":0.618,"id":"a6bgsqdbxe39","geo_precision":"street","address":"11424 KINGSTON PIKE"},"type":"Feature","geometry":{"type":"Point","coordinates":[-84.137273,35.89587]}},{"properties":{"city":"COLUMBIA","zip":"384010000","st":"TN","practice type":"Community:Independent","pharmacy name":"FISHER PHARMACY &amp; GIFTS","geo_score":0.805,"id":"a6bgsq184gn0","geo_precision":"range","address":"1396 HATCHER LANE"},"type":"Feature","geometry":{"type":"Point","coordinates":[-87.058929,35.603617]}},{"properties":{"city":"MILAN","zip":"383580000","st":"TN","practice type":"Community:Independent","pharmacy name":"FLIPPIN DRUG COMPANY","geo_score":0.805,"id":"a6bgsq6frdz0","geo_precision":"range","address":"3107 HIGHLAND STREET"},"type":"Feature","geometry":{"type":"Point","coordinates":[-88.753564,35.913388]}},{"properties":{"city":"KNOXVILLE","zip":"379240000","st":"TN","practice type":"Community:Independent","pharmacy name":"FOUR WAY PRESCRIPTION SHOP, INC.","geo_score":0.88,"id":"a6bgsqaf3ck9","geo_precision":"range","address":"8727-A ASHEVILLE HIGHWAY"},"type":"Feature","geometry":{"type":"Point","coordinates":[-83.732222,36.025879]}},{"properties":{"city":"LAWRENCEBURG","zip":"384640000","st":"TN","practice type":"Community:Independent","pharmacy name":"FRISBIE APOTHECARY, INC.","geo_score":0.365,"id":"a6bgsqcqq407","geo_precision":"street","address":"2121 N. LOCUST AVE., STE #4"},"type":"Feature","geometry":{"type":"Point","coordinates":[-87.330501,35.240705]}},{"properties":{"city":"GAINESBORO","zip":"385620000","st":"TN","practice type":"Community:Independent","pharmacy name":"GAINESBORO DRUGS","geo_score":0.575,"id":"a6bgspz49fv4","geo_precision":"street","address":"100 HULL AVENUE"},"type":"Feature","geometry":{"type":"Point","coordinates":[-85.666805,36.353736]}},{"properties":{"city":"BYRDSTOWN","zip":"385490115","st":"TN","practice type":"Community:Independent","pharmacy name":"GARRETT'S PHARMACY","geo_score":0.302,"id":"a6bgsq1cnyk7","geo_precision":"street","address":"8456 HIGHWAY 111, P.O. BOX 115"},"type":"Feature","geometry":{"type":"Point","coordinates":[-85.160949,36.571549]}},{"properties":{"city":"LEBANON","zip":"370870000","st":"TN","practice type":"Community:Independent","pharmacy name":"GIBBS PHARMACY","geo_score":0.794,"id":"a6bgsq6jlhy2","geo_precision":"range","address":"1427-B BADDOUR PARKWAY"},"type":"Feature","geometry":{"type":"Point","coordinates":[-86.333024,36.219504]}},{"properties":{"city":"GLEASON","zip":"382290000","st":"TN","practice type":"Community:Independent","pharmacy name":"GLEASON CITY DRUG LLC","geo_score":0.357,"id":"a6bgspys68cn","geo_precision":"street","address":"102 MAIN STREET, BOX 32"},"type":"Feature","geometry":{"type":"Point","coordinates":[-88.589917,36.196441]}},{"properties":{"city":"KNOXVILLE","zip":"379310000","st":"TN","practice type":"Community:Independent","pharmacy name":"GORDON'S DRUG COMPANY","geo_score":0.902,"id":"a6bgsq5wjml2","geo_precision":"range","address":"7255 OAK RIDGE HIGHWAY"},"type":"Feature","geometry":{"type":"Point","coordinates":[-84.081441,35.987283]}},{"properties":{"city":"GORDONSVILLE","zip":"38563","st":"TN","practice type":"Community:Independent","pharmacy name":"GORDONSVILLE DRUGS, INC.","geo_score":0.613,"id":"a6bgsq6zp4zy","geo_precision":"street","address":"8 NEW MIDDLETON HIGHWAY"},"type":"Feature","geometry":{"type":"Point","coordinates":[-85.957599,36.172256]}},{"properties":{"city":"FRANKLIN","zip":"37064","st":"TN","practice type":"Community:Independent","pharmacy name":"GRAY DRUG COMPANY","geo_score":0.488,"id":"a6bgspzq3w3l","geo_precision":"zip","address":"1025 WESTHAVEN BLVD."},"type":"Feature","geometry":{"type":"Point","coordinates":[-86.926391,35.892565]}},{"properties":{"city":"GRAY","zip":"376150000","st":"TN","practice type":"Community:Independent","pharmacy name":"GRAY PHARMACY","geo_score":0.817,"id":"a6bgspz5gaa5","geo_precision":"range","address":"208 SUNCREST STREET"},"type":"Feature","geometry":{"type":"Point","coordinates":[-82.476781,36.41053]}},{"properties":{"city":"NASHVILLE","zip":"37215","st":"TN","practice type":"Community:Independent","pharmacy name":"GREEN HILLS PHARMACY","geo_score":0.827,"id":"a6bgsq7qt2rq","geo_precision":"range","address":"2134 BANDYWOOD DRIVE"},"type":"Feature","geometry":{"type":"Point","coordinates":[-86.816086,36.105473]}},{"properties":{"city":"GREENBRIER","zip":"37073","st":"TN","practice type":"Community:Independent","pharmacy name":"GREENBRIER PHARMACY","geo_score":0.347,"id":"a6bgsq9hz0wp","geo_precision":"street","address":"2354 HWY 41 SOUTH, UNIT U"},"type":"Feature","geometry":{"type":"Point","coordinates":[-86.770105,36.397151]}},{"properties":{"city":"MORRISTOWN","zip":"37814","st":"TN","practice type":"Community:Independent","pharmacy name":"GREENE'S DISCOUNT PHARMACY","geo_score":0.665,"id":"a6bgsqbvmcry","geo_precision":"range","address":"809 WEST 4TH NORTH STREET"},"type":"Feature","geometry":{"type":"Point","coordinates":[-83.303209,36.212495]}},{"properties":{"city":"CHAPEL HILL","zip":"370340000","st":"TN","practice type":"Community:Independent","pharmacy name":"H &amp; S PHARMACY OF CHAPEL HILL, INC.","geo_score":0.824,"id":"a6bgspxsr3kn","geo_precision":"range","address":"4708 NASHVILLE HWY."},"type":"Feature","geometry":{"type":"Point","coordinates":[-86.697929,35.619693]}},{"properties":{"city":"LEWISBURG","zip":"370911606","st":"TN","practice type":"Community:Independent","pharmacy name":"H &amp; S PHARMACY, INC #1","geo_score":0.816,"id":"a6bgsq007s1w","geo_precision":"range","address":"521 WEST COMMERCE STREET"},"type":"Feature","geometry":{"type":"Point","coordinates":[-86.793635,35.449477]}},{"properties":{"city":"LEWISBURG","zip":"370911606","st":"TN","practice type":"Community:Independent","pharmacy name":"H &amp; S PHARMACY, INC #2","geo_score":0.332,"id":"a6bgspzkunne","geo_precision":"street","address":"850 N. ELLINGTON PKWY"},"type":"Feature","geometry":{"type":"Point","coordinates":[-86.77713,35.451803]}},{"properties":{"city":"BRISTOL","zip":"376204604","st":"TN","practice type":"Community:Independent","pharmacy name":"H.JOHNSON'S PHARMACY, INC.","geo_score":0.805,"id":"a6bgsq9txcq2","geo_precision":"range","address":"1103 BLUFF CITY HWY"},"type":"Feature","geometry":{"type":"Point","coordinates":[-82.205199,36.560229]}},{"properties":{"city":"CARTHAGE","zip":"370300000","st":"TN","practice type":"Community:Independent","pharmacy name":"HACKETT'S DISCOUNT DRUGS","geo_score":0.815,"id":"a6bgsq7ozfci","geo_precision":"range","address":"70 DIXON SPRINGS HWY"},"type":"Feature","geometry":{"type":"Point","coordinates":[-85.955356,36.263311]}},{"properties":{"city":"NASHVILLE","zip":"372030000","st":"TN","practice type":"Community:Independent","pharmacy name":"HADDOX PHARMACY, INC","geo_score":0.556,"id":"a6bgsq3p7eu1","geo_precision":"street","address":"1508 CHARLOTTE"},"type":"Feature","geometry":{"type":"Point","coordinates":[-86.795403,36.159971]}},{"properties":{"city":"HAMPTON","zip":"37658","st":"TN","practice type":"Community:Independent","pharmacy name":"HAMPTON PHARMACY","geo_score":0.805,"id":"a6bgsq9o90uc","geo_precision":"range","address":"339 HIGHWAY 321"},"type":"Feature","geometry":{"type":"Point","coordinates":[-82.1718,36.286868]}},{"properties":{"city":"FRANKLIN","zip":"37064","st":"TN","practice type":"Community:Independent","pharmacy name":"HARPETH PHARMACY","geo_score":0.805,"id":"a6bgsqc74pea","geo_precision":"range","address":"1276 LEWISBURG PIKE"},"type":"Feature","geometry":{"type":"Point","coordinates":[-86.845894,35.866031]}},{"properties":{"city":"HARTSVILLE","zip":"37074","st":"TN","practice type":"Community:Independent","pharmacy name":"HARTSVILLE PHARMACY","geo_score":0.336,"id":"a6bgsqas6md4","geo_precision":"street","address":"207 E. MCMURRY BLVD."},"type":"Feature","geometry":{"type":"Point","coordinates":[-86.156489,36.396044]}},{"properties":{"city":"SPRING CITY","zip":"37381","st":"TN","practice type":"Community:Independent","pharmacy name":"HASSLER'S DRUGS, INC","geo_score":0.613,"id":"a6bgsq1bdr0y","geo_precision":"street","address":"401 FRONT STREET"},"type":"Feature","geometry":{"type":"Point","coordinates":[-84.862308,35.69131]}},{"properties":{"city":"JACKSON","zip":"383010000","st":"TN","practice type":"Community:Independent","pharmacy name":"HEALTH CARE PHARMACY","geo_score":0.818,"id":"a6bgsq4uptz0","geo_precision":"range","address":"505 ROLAND AVENUE"},"type":"Feature","geometry":{"type":"Point","coordinates":[-88.826415,35.632841]}},{"properties":{"city":"FAIRVIEW","zip":"370620000","st":"TN","practice type":"Community:Independent","pharmacy name":"HEALTH SAVER PHARMACY","geo_score":0.623,"id":"a6bgsq6uqc8g","geo_precision":"street","address":"2243 FAIRVIEW BOULEVARD"},"type":"Feature","geometry":{"type":"Point","coordinates":[-87.140864,35.953983]}},{"properties":{"city":"HARROGATE","zip":"377520000","st":"TN","practice type":"Community:Independent","pharmacy name":"HEARTLAND PHARMACY","geo_score":0.286,"id":"a6bgsqage746","geo_precision":"street","address":"170 BEECH STREET, SUITE 1"},"type":"Feature","geometry":{"type":"Point","coordinates":[-83.653978,36.581648]}},{"properties":{"city":"HENDERSONVILLE","zip":"370750000","st":"TN","practice type":"Community:Independent","pharmacy name":"HENDERSONVILLE HEALTH MART","geo_score":0.784,"id":"a6bgspzfxydh","geo_precision":"range","address":"247 WEST MAIN"},"type":"Feature","geometry":{"type":"Point","coordinates":[-86.618261,36.30517]}},{"properties":{"city":"CAMDEN","zip":"383200000","st":"TN","practice type":"Community:Independent","pharmacy name":"HERNDON PHARMACY LLC","geo_score":0.683,"id":"a6bgsq1sofzp","geo_precision":"range","address":"175 WEST MAIN STREET"},"type":"Feature","geometry":{"type":"Point","coordinates":[-88.105933,36.058215]}},{"properties":{"city":"RUTHERFORD","zip":"383690000","st":"TN","practice type":"Community:Independent","pharmacy name":"HESTER DRUG COMPANY","geo_score":0.347,"id":"a6bgsqdkpgqs","geo_precision":"street","address":"114 E. MAIN STREET"},"type":"Feature","geometry":{"type":"Point","coordinates":[-88.98389,36.127618]}},{"properties":{"city":"MEMPHIS","zip":"381220000","st":"TN","practice type":"Community:Independent","pharmacy name":"HIGHLAND HEIGHTS PHARMACY","geo_score":0.902,"id":"a6bgsq07z98b","geo_precision":"range","address":"3423 SUMMER AVENUE"},"type":"Feature","geometry":{"type":"Point","coordinates":[-89.946981,35.14942]}},{"properties":{"city":"JOHNSON CITY","zip":"376040000","st":"TN","practice type":"Community:Independent","pharmacy name":"HILLCREST DRUG STORE, INC.","geo_score":0.902,"id":"a6bgsq8kbsf2","geo_precision":"range","address":"714 WEST MARKET STREET"},"type":"Feature","geometry":{"type":"Point","coordinates":[-82.369774,36.316127]}},{"properties":{"city":"COLUMBIA","zip":"38401","st":"TN","practice type":"Community:Independent","pharmacy name":"HOLLAND'S APOTHECARY","geo_score":0.357,"id":"a6bgsq2u8ad8","geo_precision":"street","address":"1114 W. 7TH STREET"},"type":"Feature","geometry":{"type":"Point","coordinates":[-87.03554,35.615012]}},{"properties":{"city":"LAWRENCEBURG","zip":"384640000","st":"TN","practice type":"Community:Independent","pharmacy name":"HOLLAND'S DRUG, INC.","geo_score":0.711,"id":"a6bgsqdkhr7d","geo_precision":"range","address":"11 PUBLIC SQUARE"},"type":"Feature","geometry":{"type":"Point","coordinates":[-87.334829,35.240534]}},{"properties":{"city":"LAWRENCEBURG","zip":"384640000","st":"TN","practice type":"Community:Independent","pharmacy name":"HOLLAND'S PHARMACY","geo_score":0.821,"id":"a6bgsq2nfd9w","geo_precision":"range","address":"1333 SOUTH LOCUST AVENUE"},"type":"Feature","geometry":{"type":"Point","coordinates":[-87.336348,35.223142]}},{"properties":{"city":"COLUMBIA","zip":"384010000","st":"TN","practice type":"Community:Independent","pharmacy name":"HOLLAND'S PHARMACY, INC.","geo_score":0.805,"id":"a6bgsq60p9qy","geo_precision":"range","address":"1608 HATCHER LANE"},"type":"Feature","geometry":{"type":"Point","coordinates":[-87.064213,35.604147]}},{"properties":{"city":"LIVINGSTON","zip":"385700000","st":"TN","practice type":"Community:Independent","pharmacy name":"HOLT'S FAMILY PHARMACY","geo_score":0.824,"id":"a6bgsqagxcm6","geo_precision":"range","address":"1075 WEST MAIN STREET"},"type":"Feature","geometry":{"type":"Point","coordinates":[-85.334944,36.37805]}},{"properties":{"city":"MEMPHIS","zip":"38134","st":"TN","practice type":"Community:Independent","pharmacy name":"HOMELIFE PHARMACY","geo_score":0.34,"id":"a6bgsqbpm3gr","geo_precision":"street","address":"1675 SHELBY OAKS DR., N. #2"},"type":"Feature","geometry":{"type":"Point","coordinates":[-89.85524,35.169761]}},{"properties":{"city":"MEDINA","zip":"38355","st":"TN","practice type":"Community:Independent","pharmacy name":"HOMETOWN PHARMACY OF MEDINA, LLC","geo_score":0.598,"id":"a6bgsq77x2ms","geo_precision":"range","address":"609 HIGHWAY 45 BY PASS S."},"type":"Feature","geometry":{"type":"Point","coordinates":[-88.798502,35.788388]}},{"properties":{"city":"NEWPORT","zip":"378210000","st":"TN","practice type":"Community:Independent","pharmacy name":"HOMETOWNE PHARMACY","geo_score":0.522,"id":"a6bgspyzcmot","geo_precision":"street","address":"468 EASTERN PLAZA"},"type":"Feature","geometry":{"type":"Point","coordinates":[-83.271495,36.219352]}},{"properties":{"city":"WHITWELL","zip":"373970000","st":"TN","practice type":"Community:Independent","pharmacy name":"HOOPERS DRUG STORE","geo_score":0.623,"id":"a6bgsq2gkcbj","geo_precision":"street","address":"325 EAST SPRING STREET"},"type":"Feature","geometry":{"type":"Point","coordinates":[-85.512851,35.199639]}},{"properties":{"city":"CLINTON","zip":"377160000","st":"TN","practice type":"Community:Independent","pharmacy name":"HOSKINS DRUG STORE #2","geo_score":0.815,"id":"a6bgsq6e5kc9","geo_precision":"range","address":"111 NORTH MAIN ST"},"type":"Feature","geometry":{"type":"Point","coordinates":[-84.133484,36.10022]}},{"properties":{"city":"CARTHAGE","zip":"370300000","st":"TN","practice type":"Community:Independent","pharmacy name":"HOSPITAL DISCOUNT PHARMACY","geo_score":0.62,"id":"a6bgsqd6h971","geo_precision":"range","address":"124 LEBANON ROAD"},"type":"Feature","geometry":{"type":"Point","coordinates":[-85.968063,36.258198]}},{"properties":{"city":"MORRISTOWN","zip":"378140000","st":"TN","practice type":"Community:Independent","pharmacy name":"HOWARD'S PHARMACY","geo_score":0.824,"id":"a6bgsq6z8oj9","geo_precision":"range","address":"3336 WEST ANDREW JOHNSON HWY"},"type":"Feature","geometry":{"type":"Point","coordinates":[-83.33953,36.200184]}},{"properties":{"city":"GREENEVILLE","zip":"377450000","st":"TN","practice type":"Community:Independent","pharmacy name":"HOWARD'S PHARMACY","geo_score":0.902,"id":"a6bgsqcrdvtf","geo_precision":"range","address":"1305 TUSCULUM BOULEVARD"},"type":"Feature","geometry":{"type":"Point","coordinates":[-82.798984,36.17198]}},{"properties":{"city":"JACKSON","zip":"38305","st":"TN","practice type":"Community:Independent","pharmacy name":"HUBCITY RX","geo_score":0.854,"id":"a6bgsq9x9ghv","geo_precision":"range","address":"74 DIRECTORS ROAD"},"type":"Feature","geometry":{"type":"Point","coordinates":[-88.824376,35.668779]}},{"properties":{"city":"BOLIVAR","zip":"380080000","st":"TN","practice type":"Community:Independent","pharmacy name":"HUDSON DRUG STORE, INC","geo_score":0.805,"id":"a6bgsq9m4atq","geo_precision":"range","address":"600 NUCKOLLS ROAD"},"type":"Feature","geometry":{"type":"Point","coordinates":[-89.000712,35.2645]}},{"properties":{"city":"COOKEVILLE","zip":"38501","st":"TN","practice type":"Community:Independent","pharmacy name":"INFINITY PHARMACY, LLC","geo_score":0.743,"id":"a6bgsqdsl7b1","geo_precision":"street","address":"1080 NEAL STREET, SUITE 100"},"type":"Feature","geometry":{"type":"Point","coordinates":[-85.498747,36.137966]}},{"properties":{"city":"KNOXVILLE","zip":"37931","st":"TN","practice type":"Community:Independent","pharmacy name":"INGLES MARKETS PHARMACY #304","geo_score":0.902,"id":"a6bgsq0ty1qj","geo_precision":"range","address":"7466 OAK RIDGE HWY"},"type":"Feature","geometry":{"type":"Point","coordinates":[-84.090055,35.983817]}},{"properties":{"city":"ALAMO","zip":"380010000","st":"TN","practice type":"Community:Independent","pharmacy name":"IRVINE DRUG COMPANY","geo_score":0.695,"id":"a6bgspzr1vxv","geo_precision":"range","address":"5 SOUTH COURT STREET"},"type":"Feature","geometry":{"type":"Point","coordinates":[-89.117237,35.784817]}},{"properties":{"city":"NEWPORT","zip":"378210000","st":"TN","practice type":"Community:Independent","pharmacy name":"JABO'S PHARMACY","geo_score":0.761,"id":"a6bgspyuy1ib","geo_precision":"range","address":"602 EAST BROADWAY"},"type":"Feature","geometry":{"type":"Point","coordinates":[-83.176668,35.963855]}},{"properties":{"city":"JACKSON","zip":"383010000","st":"TN","practice type":"Community:Independent","pharmacy name":"JACKSON CLINIC PHARMACY","geo_score":0.73,"id":"a6bgsqbjhtwu","geo_precision":"range","address":"616 WEST FOREST"},"type":"Feature","geometry":{"type":"Point","coordinates":[-88.828338,35.635487]}},{"properties":{"city":"JACKSON","zip":"38305","st":"TN","practice type":"Community:Independent","pharmacy name":"JACKSON NORTH CLINIC PHARMACY","geo_score":0.632,"id":"a6bgspyalsza","geo_precision":"street","address":"2863 HIGHWAY 45 BY-PASS"},"type":"Feature","geometry":{"type":"Point","coordinates":[-88.855686,35.689659]}},{"properties":{"city":"JASPER","zip":"373470000","st":"TN","practice type":"Community:Independent","pharmacy name":"JASPER DRUGS, LLC","geo_score":0.383,"id":"a6bgsq0e66f5","geo_precision":"street","address":"17 COURT HOUSE SQUARE"},"type":"Feature","geometry":{"type":"Point","coordinates":[-85.599357,35.04031]}},{"properties":{"city":"DANDRIDGE","zip":"377251191","st":"TN","practice type":"Community:Independent","pharmacy name":"JEFFCO DRUGCENTER IN DANDRIDGE","geo_score":0.82,"id":"a6bgspxxi6ao","geo_precision":"range","address":"127 WEST MEETING STREET"},"type":"Feature","geometry":{"type":"Point","coordinates":[-83.417054,36.016277]}},{"properties":{"city":"JEFFERSON CITY","zip":"37760","st":"TN","practice type":"Community:Independent","pharmacy name":"JEFFCO DRUGCENTER IN JEFFERSON CITY","geo_score":0.542,"id":"a6bgsqbqphc4","geo_precision":"range","address":"153 E. BROADWAY BLVD., #103"},"type":"Feature","geometry":{"type":"Point","coordinates":[-83.492891,36.115207]}},{"properties":{"city":"COOKEVILLE","zip":"385010000","st":"TN","practice type":"Community:Independent","pharmacy name":"JEFFERSON AVENUE PHARMACY","geo_score":0.757,"id":"a6bgsqc7hfo4","geo_precision":"range","address":"109 SOUTH JEFFERSON ST."},"type":"Feature","geometry":{"type":"Point","coordinates":[-85.500293,36.161306]}},{"properties":{"city":"JELLICO","zip":"377620000","st":"TN","practice type":"Community:Independent","pharmacy name":"JELLICO DRUG STORE, INC.","geo_score":0.741,"id":"a6bgsqbuut2k","geo_precision":"range","address":"229 SOUTH MAIN"},"type":"Feature","geometry":{"type":"Point","coordinates":[-84.127924,36.587696]}},{"properties":{"city":"JOELTON","zip":"37080","st":"TN","practice type":"Community:Independent","pharmacy name":"JOELTON PRESCRIPTION SHOP","geo_score":0.642,"id":"a6bgspxvahq7","geo_precision":"street","address":"7164 WHITES CREEK PIKE"},"type":"Feature","geometry":{"type":"Point","coordinates":[-86.865848,36.315799]}},{"properties":{"city":"CROSSVILLE","zip":"385550000","st":"TN","practice type":"Community:Independent","pharmacy name":"JOHN SMITH PROFESSIONAL PHARMACY","geo_score":0.348,"id":"a6bgsq7ahg73","geo_precision":"street","address":"100 LANTANA RD.,SUITE 201"},"type":"Feature","geometry":{"type":"Point","coordinates":[-85.025508,35.945434]}},{"properties":{"city":"SMITHVILLE","zip":"371660000","st":"TN","practice type":"Community:Independent","pharmacy name":"JOHNNY'S DRUGS","geo_score":0.788,"id":"a6bgsq4dg9yb","geo_precision":"range","address":"516-B WEST MAIN STREET"},"type":"Feature","geometry":{"type":"Point","coordinates":[-85.828644,35.959247]}},{"properties":{"city":"LEXINGTON","zip":"383510000","st":"TN","practice type":"Community:Independent","pharmacy name":"JONES PHARMACY","geo_score":0.732,"id":"a6bgsq6czdbz","geo_precision":"range","address":"101 LEXINGTON PLAZA"},"type":"Feature","geometry":{"type":"Point","coordinates":[-88.245289,36.038235]}},{"properties":{"city":"GERMANTOWN","zip":"38138","st":"TN","practice type":"Community:Independent","pharmacy name":"JONES PROFESSIONAL BUILDING PHARMACY","geo_score":0.741,"id":"a6bgsq07lbbs","geo_precision":"range","address":"7710 WOLF RIVER CR."},"type":"Feature","geometry":{"type":"Point","coordinates":[-89.806074,35.112902]}},{"properties":{"city":"JONESBOROUGH","zip":"376590000","st":"TN","practice type":"Community:Independent","pharmacy name":"JONESBOROUGH DRUGS","geo_score":0.902,"id":"a6bgsq1olgb4","geo_precision":"range","address":"1003 E JACKSON BOULEVARD"},"type":"Feature","geometry":{"type":"Point","coordinates":[-82.462382,36.300864]}},{"properties":{"city":"KENTON","zip":"382330000","st":"TN","practice type":"Community:Independent","pharmacy name":"KENTON DRUG CO","geo_score":0.773,"id":"a6bgsq0jeap2","geo_precision":"range","address":"116 EAST COLLEGE"},"type":"Feature","geometry":{"type":"Point","coordinates":[-89.012188,36.202882]}},{"properties":{"city":"DUCKTOWN","zip":"373260000","st":"TN","practice type":"Community:Independent","pharmacy name":"KIMSEY PHARMACY, LLC.","geo_score":0.769,"id":"a6bgsq4mehio","geo_precision":"range","address":"125 FIVE POINTS DRIVE"},"type":"Feature","geometry":{"type":"Point","coordinates":[-84.384246,35.030374]}},{"properties":{"city":"CHATTANOOGA","zip":"374120000","st":"TN","practice type":"Community:Independent","pharmacy name":"KINGWOOD REXALL PHARMACY, INC.","geo_score":0.821,"id":"a6bgsq253d97","geo_precision":"range","address":"3824 RINGGOLD ROAD"},"type":"Feature","geometry":{"type":"Point","coordinates":[-85.256587,34.999534]}},{"properties":{"city":"KINGSTON","zip":"377630000","st":"TN","practice type":"Community:Independent","pharmacy name":"KINSER DRUGS, INC","geo_score":0.796,"id":"a6bgspylet8p","geo_precision":"range","address":"142 EAST CUMBERLAND"},"type":"Feature","geometry":{"type":"Point","coordinates":[-84.515591,35.872172]}},{"properties":{"city":"UNION CITY","zip":"38261","st":"TN","practice type":"Community:Independent","pharmacy name":"KIZER PHARMACY, LLC.","geo_score":0.373,"id":"a6bgsq9hcmi2","geo_precision":"street","address":"1117 S. MILES AVENUE, ST. 1"},"type":"Feature","geometry":{"type":"Point","coordinates":[-89.040036,36.424607]}},{"properties":{"city":"LENOIR CITY","zip":"37771","st":"TN","practice type":"Community:Independent","pharmacy name":"LAKEWAY PHARMACY LLC","geo_score":0.452,"id":"a6bgsqc6qdho","geo_precision":"street","address":"460 MEDICAL PARK DRIVE #101"},"type":"Feature","geometry":{"type":"Point","coordinates":[-83.508119,35.703103]}},{"properties":{"city":"SOMERVILLE","zip":"38068","st":"TN","practice type":"Community:Independent","pharmacy name":"LANDRY'S PHARMACY","geo_score":0.286,"id":"a6bgspy8zcr6","geo_precision":"street","address":"KCL, INC."},"type":"Feature","geometry":{"type":"Point","coordinates":[-89.309846,35.932537]}},{"properties":{"city":"LASCASSAS","zip":"37085","st":"TN","practice type":"Community:Independent","pharmacy name":"LASCASSAS DRUGS, LLC.","geo_score":0.815,"id":"a6bgsqdxfdqs","geo_precision":"range","address":"6620 LASCASSAS PIKE"},"type":"Feature","geometry":{"type":"Point","coordinates":[-86.27356,35.92867]}},{"properties":{"city":"LA VERGNE","zip":"37086","st":"TN","practice type":"Community:Independent","pharmacy name":"LAVERGNE DRUG STORE","geo_score":0.676,"id":"a6bgsq5qxpl9","geo_precision":"range","address":"5148-B MURFREESBORO ROAD"},"type":"Feature","geometry":{"type":"Point","coordinates":[-86.577232,36.020344]}},{"properties":{"city":"LAWRENCEBURG","zip":"384640000","st":"TN","practice type":"Community:Independent","pharmacy name":"LEDBETTER DRUG COMPANY","geo_score":0.711,"id":"a6bgsq8ntfy7","geo_precision":"range","address":"47 PUBLIC SQUARE"},"type":"Feature","geometry":{"type":"Point","coordinates":[-87.335321,35.240716]}},{"properties":{"city":"SEVIERVILLE","zip":"37862","st":"TN","practice type":"Community:Independent","pharmacy name":"LEE'S TOTAL HEALTH AT MIDDLE CREEK","geo_score":0.629,"id":"a6bgspzfjo9h","geo_precision":"street","address":"1024 MIDDLE CREEK ROAD #1"},"type":"Feature","geometry":{"type":"Point","coordinates":[-83.546259,35.864501]}},{"properties":{"city":"SEVIERVILLE","zip":"37876","st":"TN","practice type":"Community:Independent","pharmacy name":"LEE'S TOTAL HEALTH PHARMACY #3","geo_score":0.53,"id":"a6bgsq81qp25","geo_precision":"street","address":"2453 BOYD'S CREEK HWY #102"},"type":"Feature","geometry":{"type":"Point","coordinates":[-83.701967,35.901447]}},{"properties":{"city":"SEVIERVILLE","zip":"37862","st":"TN","practice type":"Community:Independent","pharmacy name":"LEE'S TOTAL HEALTH PHARMACY, LLC","geo_score":0.359,"id":"a6bgsq5d6lxf","geo_precision":"street","address":"725 PARKWAY  STE #11"},"type":"Feature","geometry":{"type":"Point","coordinates":[-83.988886,35.728549]}},{"properties":{"city":"LEXINGTON","zip":"383510000","st":"TN","practice type":"Community:Independent","pharmacy name":"LEXINGTON DISCOUNT DRUGS","geo_score":0.813,"id":"a6bgsq1fpdth","geo_precision":"range","address":"148 WEST CHURCH STREET"},"type":"Feature","geometry":{"type":"Point","coordinates":[-88.397148,35.653714]}},{"properties":{"city":"CENTERVILLE","zip":"370330000","st":"TN","practice type":"Community:Independent","pharmacy name":"LIBERTY CLINIC PHARMACY","geo_score":0.814,"id":"a6bgsq6w6gd7","geo_precision":"range","address":"146 EAST SWAN STREET"},"type":"Feature","geometry":{"type":"Point","coordinates":[-87.461677,35.781287]}},{"properties":{"city":"LAWRENCEBURG","zip":"384640000","st":"TN","practice type":"Community:Independent","pharmacy name":"LIBERTY DRUG STORE, INC","geo_score":0.733,"id":"a6bgsq50zuxe","geo_precision":"range","address":"1400 NORTH LOCUST"},"type":"Feature","geometry":{"type":"Point","coordinates":[-87.325278,35.256399]}},{"properties":{"city":"CENTERVILLE","zip":"370330000","st":"TN","practice type":"Community:Independent","pharmacy name":"LIBERTY PHARMACY,INC.","geo_score":0.537,"id":"a6bgsq5wydhs","geo_precision":"street","address":"PUBLIC SQUARE"},"type":"Feature","geometry":{"type":"Point","coordinates":[-87.466827,35.77908]}},{"properties":{"city":"ELIZABETHTON","zip":"376430000","st":"TN","practice type":"Community:Independent","pharmacy name":"LINGERFELT PHARMACY","geo_score":0.779,"id":"a6bgsq4u34du","geo_precision":"range","address":"609 ELK AVENUE"},"type":"Feature","geometry":{"type":"Point","coordinates":[-82.214227,36.348068]}},{"properties":{"city":"SWEETWATER","zip":"378740000","st":"TN","practice type":"Community:Independent","pharmacy name":"LITTLE DRUGS","geo_score":0.371,"id":"a6bgsq519xoi","geo_precision":"street","address":"510 S. MAIN STREET"},"type":"Feature","geometry":{"type":"Point","coordinates":[-84.460259,35.594426]}},{"properties":{"city":"ROCKWOOD","zip":"378540000","st":"TN","practice type":"Community:Independent","pharmacy name":"LIVE AND LET LIVE DRUG STORE","geo_score":0.612,"id":"a6bgsq3brmj0","geo_precision":"street","address":"225 WEST ROCKWOOD STREET"},"type":"Feature","geometry":{"type":"Point","coordinates":[-84.687711,35.868491]}},{"properties":{"city":"DYERSBURG","zip":"380240000","st":"TN","practice type":"Community:Independent","pharmacy name":"LONG &amp; GIBSON PHARMACY","geo_score":0.516,"id":"a6bgsq08rjhe","geo_precision":"street","address":"PARR AT TICKLE"},"type":"Feature","geometry":{"type":"Point","coordinates":[-89.384247,36.044916]}},{"properties":{"city":"KNOXVILLE","zip":"379190000","st":"TN","practice type":"Community:Independent","pharmacy name":"LONG'S DRUG STORE, INC","geo_score":0.82,"id":"a6bgspza10na","geo_precision":"range","address":"4604 KINGSTON PIKE"},"type":"Feature","geometry":{"type":"Point","coordinates":[-83.979487,35.940866]}},{"properties":{"city":"LORETTO","zip":"38469","st":"TN","practice type":"Community:Independent","pharmacy name":"LORETTO DRUGS, LLC","geo_score":0.824,"id":"a6bgsq88vbb5","geo_precision":"range","address":"106 CHURCH STREET"},"type":"Feature","geometry":{"type":"Point","coordinates":[-87.43855,35.076281]}},{"properties":{"city":"MARYVILLE","zip":"378040000","st":"TN","practice type":"Community:Independent","pharmacy name":"LOWE'S DRUGS, INC","geo_score":0.902,"id":"a6bgsq24rqzq","geo_precision":"range","address":"1536 EAST BROADWAY AVE"},"type":"Feature","geometry":{"type":"Point","coordinates":[-83.958573,35.770391]}},{"properties":{"city":"LYNCHBURG","zip":"373520000","st":"TN","practice type":"Community:Independent","pharmacy name":"LYNCHBURG DRUG STORE","geo_score":0.778,"id":"a6bgsqce2yxs","geo_precision":"range","address":"47 MECHANIC STREET"},"type":"Feature","geometry":{"type":"Point","coordinates":[-86.373246,35.282775]}},{"properties":{"city":"NASHVILLE","zip":"372060000","st":"TN","practice type":"Community:Independent","pharmacy name":"LYNN REXALL DRUGS","geo_score":0.902,"id":"a6bgsq9qrduf","geo_precision":"range","address":"606 SHELBY AVENUE"},"type":"Feature","geometry":{"type":"Point","coordinates":[-86.759992,36.168472]}},{"properties":{"city":"KINGSPORT","zip":"376640000","st":"TN","practice type":"Community:Independent","pharmacy name":"MAC'S MEDICINE MART","geo_score":0.522,"id":"a6bgsqaqi2qu","geo_precision":"street","address":"WALMACS, INC."},"type":"Feature","geometry":{"type":"Point","coordinates":[-82.417316,36.536134]}},{"properties":{"city":"KNOXVILLE","zip":"379170000","st":"TN","practice type":"Community:Independent","pharmacy name":"MAC'S PHARMACY, INC.","geo_score":0.868,"id":"a6bgsq5tt1mx","geo_precision":"range","address":"2419 WASHINGTON PIKE"},"type":"Feature","geometry":{"type":"Point","coordinates":[-83.911932,36.001975]}},{"properties":{"city":"ATHENS","zip":"37371","st":"TN","practice type":"Community:Independent","pharmacy name":"MADISON AVENUE PHARMACY","geo_score":0.61,"id":"a6bgsq5xkod2","geo_precision":"street","address":"1001 MADISON AVENUE"},"type":"Feature","geometry":{"type":"Point","coordinates":[-86.575882,35.150138]}},{"properties":{"city":"MEMPHIS","zip":"38104","st":"TN","practice type":"Community:Independent","pharmacy name":"MADISON PHARMACY, INC.","geo_score":0.471,"id":"a6bgsqdze1pj","geo_precision":"street","address":"1750 MADISON AVENUE, SUITE 110"},"type":"Feature","geometry":{"type":"Point","coordinates":[-90.029567,35.140193]}},{"properties":{"city":"WAVERLY","zip":"37185","st":"TN","practice type":"Community:Independent","pharmacy name":"MAIN STREET DRUG, LLC.","geo_score":0.824,"id":"a6bgsq5jorpv","geo_precision":"range","address":"211 WEST MAIN STREET"},"type":"Feature","geometry":{"type":"Point","coordinates":[-87.796808,36.083491]}},{"properties":{"city":"NEWBERN","zip":"380590000","st":"TN","practice type":"Community:Independent","pharmacy name":"MAIN STREET FAMILY PHARMACY, LLC","geo_score":0.395,"id":"a6bgsq5ak3cr","geo_precision":"street","address":"126 E. MAIN STREET"},"type":"Feature","geometry":{"type":"Point","coordinates":[-89.262256,36.112987]}},{"properties":{"city":"MANCHESTER","zip":"373550000","st":"TN","practice type":"Community:Independent","pharmacy name":"MARCROMS PHARMACY","geo_score":0.815,"id":"a6bgsq7ti9gm","geo_precision":"range","address":"1277 MCARTHUR STREET"},"type":"Feature","geometry":{"type":"Point","coordinates":[-86.08818,35.463583]}},{"properties":{"city":"KINGSPORT","zip":"376600000","st":"TN","practice type":"Community:Independent","pharmacy name":"MARCUM'S PHARMACY, INC.","geo_score":0.759,"id":"a6bgsq3keys4","geo_precision":"range","address":"121 EAST RAVINE STREET"},"type":"Feature","geometry":{"type":"Point","coordinates":[-82.552839,36.551176]}},{"properties":{"city":"ONEIDA","zip":"37841","st":"TN","practice type":"Community:Independent","pharmacy name":"MARK'S FAMILY PHARMACY","geo_score":0.352,"id":"a6bgsq6pwl2m","geo_precision":"street","address":"279 UNDERPASS DRIVE"},"type":"Feature","geometry":{"type":"Point","coordinates":[-84.535996,36.479198]}},{"properties":{"city":"LAKE CITY","zip":"377690000","st":"TN","practice type":"Community:Independent","pharmacy name":"MARK'S PHARMACY","geo_score":0.623,"id":"a6bgsq4p4aso","geo_precision":"street","address":"106 CREEK STREET"},"type":"Feature","geometry":{"type":"Point","coordinates":[-84.158609,36.220324]}},{"properties":{"city":"RIPLEY","zip":"380630000","st":"TN","practice type":"Community:Independent","pharmacy name":"MAYS-DUNAVANT DRUGS, INC.","geo_score":0.785,"id":"a6bgsqd1kudg","geo_precision":"range","address":"111 MAIN STREET"},"type":"Feature","geometry":{"type":"Point","coordinates":[-89.529985,35.745645]}},{"properties":{"city":"WHITE HOUSE","zip":"37188","st":"TN","practice type":"Community:Independent","pharmacy name":"MCCORMICK'S PHARMACY INC.","geo_score":0.857,"id":"a6bgsqc4xrjg","geo_precision":"street","address":"491 SAGE ROAD, SUITE 1200"},"type":"Feature","geometry":{"type":"Point","coordinates":[-86.669058,36.456664]}},{"properties":{"city":"MC EWEN","zip":"37101","st":"TN","practice type":"Community:Independent","pharmacy name":"MCEWEN DRUGS","geo_score":0.55,"id":"a6bgspzclb8u","geo_precision":"street","address":"10033 HWY 70E"},"type":"Feature","geometry":{"type":"Point","coordinates":[-87.624543,36.10507]}},{"properties":{"city":"MORRISTOWN","zip":"37814","st":"TN","practice type":"Community:Independent","pharmacy name":"MCFARLAND APOTHECARY","geo_score":0.824,"id":"a6bgsq13xg8d","geo_precision":"range","address":"167 WEST MAIN STREET"},"type":"Feature","geometry":{"type":"Point","coordinates":[-83.293271,36.213347]}},{"properties":{"city":"MORRISTOWN","zip":"37814","st":"TN","practice type":"Community:Independent","pharmacy name":"MCFARLAND PHARMACY","geo_score":0.824,"id":"a6bgsq41aypt","geo_precision":"range","address":"167 WEST MAIN STREET"},"type":"Feature","geometry":{"type":"Point","coordinates":[-83.293271,36.213347]}},{"properties":{"city":"KNOXVILLE","zip":"37909","st":"TN","practice type":"Community:Independent","pharmacy name":"MCFARLAND PHARMACY KNOXVILLE","geo_score":0.829,"id":"a6bgsq8jbeq5","geo_precision":"range","address":"6908 HOSPITALITY CIRCLE"},"type":"Feature","geometry":{"type":"Point","coordinates":[-84.030097,35.946722]}},{"properties":{"city":"SHELBYVILLE","zip":"371600000","st":"TN","practice type":"Community:Independent","pharmacy name":"MCGEES PRESCRIPTION SHOP","geo_score":0.814,"id":"a6bgsq15xaet","geo_precision":"range","address":"842 UNION STREET"},"type":"Feature","geometry":{"type":"Point","coordinates":[-86.473761,35.496059]}},{"properties":{"city":"MCMINNVILLE","zip":"371100000","st":"TN","practice type":"Community:Independent","pharmacy name":"MCMINNVILLE DRUG CENTER","geo_score":0.493,"id":"a6bgsq8xfe6i","geo_precision":"street","address":"1500 SPARTA RD AT HWY 70"},"type":"Feature","geometry":{"type":"Point","coordinates":[-85.726802,35.713875]}},{"properties":{"city":"JAMESTOWN","zip":"385560000","st":"TN","practice type":"Community:Independent","pharmacy name":"MED-I-THRIFT","geo_score":0.784,"id":"a6bgsqc0rv36","geo_precision":"range","address":"346 CENTRAL AVENUE WEST"},"type":"Feature","geometry":{"type":"Point","coordinates":[-84.929578,36.427357]}},{"properties":{"city":"CLEVELAND","zip":"373120000","st":"TN","practice type":"Community:Independent","pharmacy name":"MEDI-MART PHARMACY, INC","geo_score":0.49,"id":"a6bgsq98u1ze","geo_precision":"street","address":"5030 GEORGETOWN ROAD, NORTHWEST"},"type":"Feature","geometry":{"type":"Point","coordinates":[-84.916631,35.262851]}},{"properties":{"city":"BOLIVAR","zip":"380080000","st":"TN","practice type":"Community:Independent","pharmacy name":"MEDICAL ARTS PHARMACY","geo_score":0.78,"id":"a6bgsq43nyl7","geo_precision":"range","address":"407 LAFAYETTE ST"},"type":"Feature","geometry":{"type":"Point","coordinates":[-88.991758,35.255449]}},{"properties":{"city":"CHATTANOOGA","zip":"374040000","st":"TN","practice type":"Community:Independent","pharmacy name":"MEDICAL ARTS PHARMACY","geo_score":0.821,"id":"a6bgsq7gvjgt","geo_precision":"range","address":"2337 MCCALLIE AVE"},"type":"Feature","geometry":{"type":"Point","coordinates":[-85.268336,35.033531]}},{"properties":{"city":"LAFOLLETTE","zip":"377660000","st":"TN","practice type":"Community:Independent","pharmacy name":"MEDICAL CENTER PHARMACY","geo_score":0.325,"id":"a6bgsq3j6v86","geo_precision":"street","address":"901 E. CENTRAL AVENUE"},"type":"Feature","geometry":{"type":"Point","coordinates":[-84.123224,36.380262]}},{"properties":{"city":"PARIS","zip":"382420000","st":"TN","practice type":"Community:Independent","pharmacy name":"MEDICAL CENTER PHARMACY","geo_score":0.805,"id":"a6bgsq0ptr4a","geo_precision":"range","address":"234 TYSON AVENUE"},"type":"Feature","geometry":{"type":"Point","coordinates":[-88.310761,36.298459]}},{"properties":{"city":"CLEVELAND","zip":"37311","st":"TN","practice type":"Community:Independent","pharmacy name":"MEDICAL CENTER PHARMACY","geo_score":0.829,"id":"a6bgsqdmsfhw","geo_precision":"range","address":"2401 NORTH OCOEE STREET"},"type":"Feature","geometry":{"type":"Point","coordinates":[-84.866914,35.176922]}},{"properties":{"city":"NEW TAZEWELL","zip":"378250000","st":"TN","practice type":"Community:Independent","pharmacy name":"MEDICAL CENTER PHARMACY NT, INC.","geo_score":0.352,"id":"a6bgsqb8n58x","geo_precision":"street","address":"606 N. BROAD STREET"},"type":"Feature","geometry":{"type":"Point","coordinates":[-83.598413,36.443343]}},{"properties":{"city":"BRISTOL","zip":"37620","st":"TN","practice type":"Community:Independent","pharmacy name":"MEDICAL MALL PHARMACY, INC.","geo_score":0.381,"id":"a6bgsq8m2nxr","geo_precision":"street","address":"SUITE 106 E"},"type":"Feature","geometry":{"type":"Point","coordinates":[-82.198375,36.563058]}},{"properties":{"city":"JACKSON","zip":"38301","st":"TN","practice type":"Community:Independent","pharmacy name":"MEDICAL SPECIALTY CLINIC PHARMACY","geo_score":0.818,"id":"a6bgsq4qgfx8","geo_precision":"range","address":"27 MEDICAL CENTER DR."},"type":"Feature","geometry":{"type":"Point","coordinates":[-88.829451,35.638804]}},{"properties":{"city":"MILLINGTON","zip":"38053","st":"TN","practice type":"Community:Independent","pharmacy name":"MEDICAP PHARMACY","geo_score":0.815,"id":"a6bgsq2czo4a","geo_precision":"range","address":"4771 NAVY ROAD"},"type":"Feature","geometry":{"type":"Point","coordinates":[-89.904497,35.34137]}},{"properties":{"city":"MEMPHIS","zip":"38133","st":"TN","practice type":"Community:Independent","pharmacy name":"MEDICAP PHARMACY","geo_score":0.48,"id":"a6bgsqar15v1","geo_precision":"street","address":"2435 WHITTEN ROAD, STE.101"},"type":"Feature","geometry":{"type":"Point","coordinates":[-89.836346,35.176778]}},{"properties":{"city":"COOKEVILLE","zip":"385010000","st":"TN","practice type":"Community:Independent","pharmacy name":"MEDICINE CHEST APOTHECARY, INC.","geo_score":0.699,"id":"a6bgsq9dt3jt","geo_precision":"range","address":"330 NORTH OAK"},"type":"Feature","geometry":{"type":"Point","coordinates":[-85.508606,36.167738]}},{"properties":{"city":"CLEVELAND","zip":"37311","st":"TN","practice type":"Community:Independent","pharmacy name":"MEDICINE SHOPPE","geo_score":0.829,"id":"a6bgsqdhgjta","geo_precision":"range","address":"2414 NORTH OCOEE STREET"},"type":"Feature","geometry":{"type":"Point","coordinates":[-84.866165,35.177507]}},{"properties":{"city":"CLARKSVILLE","zip":"37040","st":"TN","practice type":"Community:Independent","pharmacy name":"MEDICINE SHOPPE #1536","geo_score":0.823,"id":"a6bgsqd8uhkp","geo_precision":"range","address":"1756 HIGHWAY 48"},"type":"Feature","geometry":{"type":"Point","coordinates":[-87.375381,36.478331]}},{"properties":{"city":"CROSSVILLE","zip":"38555","st":"TN","practice type":"Community:Independent","pharmacy name":"MEDICINE SHOPPE #1540","geo_score":0.815,"id":"a6bgsqcvhq0h","geo_precision":"range","address":"23 WOODMERE MALL"},"type":"Feature","geometry":{"type":"Point","coordinates":[-85.031335,35.95633]}},{"properties":{"city":"GRAY","zip":"37615","st":"TN","practice type":"Community:Independent","pharmacy name":"MEDISERVE MEDS","geo_score":0.443,"id":"a6bgsq3loofi","geo_precision":"street","address":"1183 SPRATLIN PARK DRIVE"},"type":"Feature","geometry":{"type":"Point","coordinates":[-82.161797,36.579733]}},{"properties":{"city":"BELLS","zip":"380060000","st":"TN","practice type":"Community:Independent","pharmacy name":"MEHR DRUG STORE","geo_score":0.72,"id":"a6bgsq26cnzv","geo_precision":"range","address":"131 MAIN ST"},"type":"Feature","geometry":{"type":"Point","coordinates":[-89.089264,35.712293]}},{"properties":{"city":"CHATTANOOGA","zip":"37404","st":"TN","practice type":"Community:Independent","pharmacy name":"MEMORIAL PHARMACY","geo_score":0.821,"id":"a6bgsq1hnh9w","geo_precision":"range","address":"2525 DESALES AVENUE"},"type":"Feature","geometry":{"type":"Point","coordinates":[-85.261526,35.040175]}},{"properties":{"city":"MICHIE","zip":"38357","st":"TN","practice type":"Community:Independent","pharmacy name":"MICHIE PHARMACY","geo_score":0.629,"id":"a6bgspxvd7m8","geo_precision":"range","address":"5823 HWY 22 SOUTH"},"type":"Feature","geometry":{"type":"Point","coordinates":[-88.435168,35.056106]}},{"properties":{"city":"MORRISTOWN","zip":"37813","st":"TN","practice type":"Community:Independent","pharmacy name":"MIDTOWN DRUG COMPANY","geo_score":0.857,"id":"a6bgsq3bfcrb","geo_precision":"zip","address":null},"type":"Feature","geometry":{"type":"Point","coordinates":[-83.261343,36.188826]}},{"properties":{"city":"MEMPHIS","zip":"38111","st":"TN","practice type":"Community:Independent","pharmacy name":"MIDTOWN DRUGS","geo_score":0.325,"id":"a6bgsq7dobcd","geo_precision":"street","address":"111 S. HIGHLAND AVE, SUITE 422"},"type":"Feature","geometry":{"type":"Point","coordinates":[-89.945128,35.130446]}},{"properties":{"city":"MORRISTOWN","zip":"378160000","st":"TN","practice type":"Community:Independent","pharmacy name":"MIKE'S DISCOUNT PHARMACY, INC.","geo_score":0.371,"id":"a6bgsqcuqw26","geo_precision":"street","address":"3606 W. ANDREW JOHNSON HWY, S-1"},"type":"Feature","geometry":{"type":"Point","coordinates":[-91.038083,33.395381]}},{"properties":{"city":"TRACY CITY","zip":"373870000","st":"TN","practice type":"Community:Independent","pharmacy name":"MIKE'S PHARMACY","geo_score":0.563,"id":"a6bgsq9ax1is","geo_precision":"street","address":"HIGHWAY 150 SOUTH"},"type":"Feature","geometry":{"type":"Point","coordinates":[-85.682875,35.229151]}},{"properties":{"city":"MURFREESBORO","zip":"37127","st":"TN","practice type":"Community:Independent","pharmacy name":"MILLS FAMILY PHARMACY LLC","geo_score":0.333,"id":"a6bgsq59t7ib","geo_precision":"street","address":"2898 S. CHURCH STREET, SUITE D"},"type":"Feature","geometry":{"type":"Point","coordinates":[-86.397039,35.809807]}},{"properties":{"city":"MORRISTOWN","zip":"378150269","st":"TN","practice type":"Community:Independent","pharmacy name":"MINNIS DRUG STORE, INC.","geo_score":0.805,"id":"a6bgsqcx7swd","geo_precision":"range","address":"1035 SOUTH CUMBERLAND STREET"},"type":"Feature","geometry":{"type":"Point","coordinates":[-83.286168,36.204679]}},{"properties":{"city":"CROSSVILLE","zip":"385550000","st":"TN","practice type":"Community:Independent","pharmacy name":"MITCHELL DRUG COMPANY,INC.","geo_score":0.621,"id":"a6bgsqa8217e","geo_precision":"street","address":"97 NORTH MAIN STREET"},"type":"Feature","geometry":{"type":"Point","coordinates":[-85.027906,35.950618]}},{"properties":{"city":"ERIN","zip":"370610000","st":"TN","practice type":"Community:Independent","pharmacy name":"MITCHUM DRUG CO. INC.","geo_score":0.526,"id":"a6bgspzsxsm9","geo_precision":"street","address":"FRONT AND SPRING STREET"},"type":"Feature","geometry":{"type":"Point","coordinates":[-87.694988,36.319165]}},{"properties":{"city":"JOHNSON CITY","zip":"376010000","st":"TN","practice type":"Community:Independent","pharmacy name":"MOONEY'S PHARMACY INC.","geo_score":0.511,"id":"a6bgsq1syoh7","geo_precision":"street","address":"1107 NORTH ROAD STREET"},"type":"Feature","geometry":{"type":"Point","coordinates":[-82.352772,36.330511]}},{"properties":{"city":"CHATTANOOGA","zip":"374030000","st":"TN","practice type":"Community:Independent","pharmacy name":"MOORE &amp; KING PHARMACY","geo_score":0.707,"id":"a6bgspzegk6m","geo_precision":"range","address":"979 E THIRD STREET"},"type":"Feature","geometry":{"type":"Point","coordinates":[-85.291044,35.047907]}},{"properties":{"city":"CHATTANOOGA","zip":"37415","st":"TN","practice type":"Community:Independent","pharmacy name":"MOORE &amp; KING PHARMACY (ERLANGER NORTH)","geo_score":0.831,"id":"a6bgsqcj1aii","geo_precision":"range","address":"632 MORRISON SPRINGS ROAD"},"type":"Feature","geometry":{"type":"Point","coordinates":[-85.302067,35.124594]}},{"properties":{"city":"CHATTANOOGA","zip":"374030000","st":"TN","practice type":"Community:Independent","pharmacy name":"MOORE &amp; KING PHARMACY (WHITEWALL)","geo_score":0.707,"id":"a6bgsq4jmcj3","geo_precision":"range","address":"960 EAST THIRD STREET"},"type":"Feature","geometry":{"type":"Point","coordinates":[-85.291342,35.048044]}},{"properties":{"city":"CHATTANOOGA","zip":"374110000","st":"TN","practice type":"Community:Independent","pharmacy name":"MOORE &amp; KING PHARMACY(BRAINERD)","geo_score":0.666,"id":"a6bgsq8bat42","geo_precision":"range","address":"4515 BRAINERD RD P O BOX 8859"},"type":"Feature","geometry":{"type":"Point","coordinates":[-85.233736,35.015239]}},{"properties":{"city":"KINGSPORT","zip":"376600000","st":"TN","practice type":"Community:Independent","pharmacy name":"MOORE'S PHARMACY","geo_score":0.824,"id":"a6bgsq3g99az","geo_precision":"range","address":"1201 NORTH WILCOX DRIVE"},"type":"Feature","geometry":{"type":"Point","coordinates":[-82.543044,36.540382]}},{"properties":{"city":"MORRISTOWN","zip":"378140000","st":"TN","practice type":"Community:Independent","pharmacy name":"MORRISTOWN PHARMACY","geo_score":0.665,"id":"a6bgsq198xv5","geo_precision":"range","address":"925 WEST 4TH NORTH STREET"},"type":"Feature","geometry":{"type":"Point","coordinates":[-83.304958,36.211644]}},{"properties":{"city":"MOSHEIM","zip":"37818","st":"TN","practice type":"Community:Independent","pharmacy name":"MOSHEIM PHARMACY","geo_score":0.817,"id":"a6bgsqd8gvme","geo_precision":"range","address":"6766 WEST ANDREW JOHNSON HIGHWAY"},"type":"Feature","geometry":{"type":"Point","coordinates":[-82.933382,36.184799]}},{"properties":{"city":"MCKENZIE","zip":"382010000","st":"TN","practice type":"Community:Independent","pharmacy name":"MOTHERAL SUPER DRUG-MCKENZIE","geo_score":0.805,"id":"a6bgsq0qe02y","geo_precision":"range","address":"2340 CEDAR STREET"},"type":"Feature","geometry":{"type":"Point","coordinates":[-88.517879,36.13197]}},{"properties":{"city":"MOUNTAIN CITY","zip":"37683","st":"TN","practice type":"Community:Independent","pharmacy name":"MOUNTAIN CITY PHARMACY","geo_score":0.805,"id":"a6bgsqc29heh","geo_precision":"range","address":"1641 SOUTH SHADY STREET"},"type":"Feature","geometry":{"type":"Point","coordinates":[-81.799239,36.456344]}},{"properties":{"city":"KNOXVILLE","zip":"379200000","st":"TN","practice type":"Community:Independent","pharmacy name":"MUGFORD PHARMACY INC","geo_score":0.774,"id":"a6bgsq06r0mn","geo_precision":"range","address":"4013 MARTIN MILL PK"},"type":"Feature","geometry":{"type":"Point","coordinates":[-83.913409,35.934817]}},{"properties":{"city":"JEFFERSON CITY","zip":"377600000","st":"TN","practice type":"Community:Independent","pharmacy name":"MURPHY'S SAV-MOR PHARMACY","geo_score":0.786,"id":"a6bgsq179vz3","geo_precision":"range","address":"1403 S RUSSELL AVENUE"},"type":"Feature","geometry":{"type":"Point","coordinates":[-83.493043,36.115324]}},{"properties":{"city":"NASHVILLE","zip":"37203","st":"TN","practice type":"Community:Independent","pharmacy name":"NASHVILLE PHARMACY SERVICES, LLC","geo_score":0.612,"id":"a6bgspxu1uai","geo_precision":"street","address":"2222 STATE STREET, SUITE A"},"type":"Feature","geometry":{"type":"Point","coordinates":[-86.794713,36.157719]}},{"properties":{"city":"NEWBERN","zip":"380590000","st":"TN","practice type":"Community:Independent","pharmacy name":"NEWBERN DISCOUNT DRUG, LLC","geo_score":0.801,"id":"a6bgsq28ab4c","geo_precision":"range","address":"625 A WEST MAIN STREET"},"type":"Feature","geometry":{"type":"Point","coordinates":[-89.277274,36.110937]}},{"properties":{"city":"NEWPORT","zip":"378210000","st":"TN","practice type":"Community:Independent","pharmacy name":"NEWPORT DRUGS, INC.","geo_score":0.814,"id":"a6bgsq8phw2w","geo_precision":"range","address":"646 COSBY HIGHWAY"},"type":"Feature","geometry":{"type":"Point","coordinates":[-83.196999,35.955868]}},{"properties":{"city":"KNOXVILLE","zip":"379120000","st":"TN","practice type":"Community:Independent","pharmacy name":"NORWOOD PHARMACY","geo_score":0.752,"id":"a6bgspy72qhj","geo_precision":"range","address":"815 MERCHANTS ROAD"},"type":"Feature","geometry":{"type":"Point","coordinates":[-83.979344,36.005692]}},{"properties":{"city":"BAXTER","zip":"385440000","st":"TN","practice type":"Community:Independent","pharmacy name":"NUNALLY DRUG STORE, LLC.","geo_score":0.805,"id":"a6bgsq5t5hdh","geo_precision":"range","address":"226 MAIN STREET"},"type":"Feature","geometry":{"type":"Point","coordinates":[-85.642361,36.154273]}},{"properties":{"city":"MAYNARDVILLE","zip":"37807","st":"TN","practice type":"Community:Independent","pharmacy name":"OKIE'S PHARMACY","geo_score":0.619,"id":"a6bgsq7fpvoq","geo_precision":"street","address":"4221 MAYNARDVILLE HWY"},"type":"Feature","geometry":{"type":"Point","coordinates":[-83.776055,36.265849]}},{"properties":{"city":"BLAINE","zip":"37709","st":"TN","practice type":"Community:Independent","pharmacy name":"OKIES PHARMACY II, INC.","geo_score":0.707,"id":"a6bgsq4ui0gt","geo_precision":"range","address":"1050 RUTLEDGE PIKE"},"type":"Feature","geometry":{"type":"Point","coordinates":[-83.702519,36.156519]}},{"properties":{"city":"TAZEWELL","zip":"37879","st":"TN","practice type":"Community:Independent","pharmacy name":"OLD TOWN PHARMACY, INC.","geo_score":0.729,"id":"a6bgsq58r2gp","geo_precision":"zip","address":"HOMETOWN PHARMACY"},"type":"Feature","geometry":{"type":"Point","coordinates":[-83.52435,36.424251]}},{"properties":{"city":"JONESBOROUGH","zip":"376590000","st":"TN","practice type":"Community:Independent","pharmacy name":"OLDE TOWNE PHARMACY, INC.","geo_score":0.902,"id":"a6bgsq57kebw","geo_precision":"range","address":"102 WEST JACKSON BLVD."},"type":"Feature","geometry":{"type":"Point","coordinates":[-82.475268,36.29709]}},{"properties":{"city":"LEBANON","zip":"37087","st":"TN","practice type":"Community:Independent","pharmacy name":"ON-CALL MEDICAL PHARMACY","geo_score":0.819,"id":"a6bgspy2u4gv","geo_precision":"range","address":"337 SOUTH CUMBERLAND STREET"},"type":"Feature","geometry":{"type":"Point","coordinates":[-86.291962,36.201922]}},{"properties":{"city":"OAK RIDGE","zip":"378300000","st":"TN","practice type":"Community:Independent","pharmacy name":"OVERTON'S PHARMACY, INC","geo_score":0.821,"id":"a6bgsqb93wc9","geo_precision":"range","address":"981 OAK RIDGE TURNPIKE"},"type":"Feature","geometry":{"type":"Point","coordinates":[-84.243413,36.023825]}},{"properties":{"city":"HENDERSONVILLE","zip":"37075","st":"TN","practice type":"Community:Independent","pharmacy name":"P &amp; P PRESCRIPTION SHOP, INC.","geo_score":0.675,"id":"a6bgsqdhwx99","geo_precision":"street","address":"107 IMPERIAL BLVD.  #9"},"type":"Feature","geometry":{"type":"Point","coordinates":[-86.632019,36.302369]}},{"properties":{"city":"KINGSPORT","zip":"376600000","st":"TN","practice type":"Community:Independent","pharmacy name":"P &amp; S PHARMACY, INC","geo_score":0.824,"id":"a6bgsq5yx1ff","geo_precision":"range","address":"613 WATAUGA STREET"},"type":"Feature","geometry":{"type":"Point","coordinates":[-82.555971,36.549033]}},{"properties":{"city":"ROGERSVILLE","zip":"378570000","st":"TN","practice type":"Community:Independent","pharmacy name":"P &amp; S PHARMACY, INC","geo_score":0.539,"id":"a6bgsq4wse4f","geo_precision":"street","address":"4017 SOUTH HIGHWAY 66 #7"},"type":"Feature","geometry":{"type":"Point","coordinates":[-83.02226,36.40123]}},{"properties":{"city":"SOUTH PITTSBURG","zip":"37380","st":"TN","practice type":"Community:Independent","pharmacy name":"P.H.L., INC","geo_score":0.812,"id":"a6bgsqa4b06i","geo_precision":"range","address":"335 SOUTH CEDAR AVENUE"},"type":"Feature","geometry":{"type":"Point","coordinates":[-85.705297,35.011616]}},{"properties":{"city":"PALMER","zip":"373650000","st":"TN","practice type":"Community:Independent","pharmacy name":"PALMER DRUGS","geo_score":0.519,"id":"a6bgspz2iu05","geo_precision":"street","address":"HIGHWAY 108"},"type":"Feature","geometry":{"type":"Point","coordinates":[-85.521903,35.196359]}},{"properties":{"city":"NASHVILLE","zip":"372030000","st":"TN","practice type":"Community:Independent","pharmacy name":"PARDUES PHARMACY","geo_score":0.902,"id":"a6bgsq8c3gih","geo_precision":"range","address":"1900 PATTERSON STREET"},"type":"Feature","geometry":{"type":"Point","coordinates":[-86.800376,36.156228]}},{"properties":{"city":"NASHVILLE","zip":"37203","st":"TN","practice type":"Community:Independent","pharmacy name":"PARK PHARMACY","geo_score":0.499,"id":"a6bgsq2chdg6","geo_precision":"street","address":"250 25TH AVENUE NORTH, STE.110"},"type":"Feature","geometry":{"type":"Point","coordinates":[-86.811203,36.15104]}},{"properties":{"city":"GATLINBURG","zip":"377380000","st":"TN","practice type":"Community:Independent","pharmacy name":"PARKWAY PHARMACY","geo_score":0.694,"id":"a6bgsq6pyfup","geo_precision":"range","address":"917 PARKWAY"},"type":"Feature","geometry":{"type":"Point","coordinates":[-83.518914,35.710929]}},{"properties":{"city":"LEWISBURG","zip":"370910616","st":"TN","practice type":"Community:Independent","pharmacy name":"PARSONS PHARMACY INC","geo_score":0.763,"id":"a6bgsq86l092","geo_precision":"range","address":"117 WEST COMMERCE"},"type":"Feature","geometry":{"type":"Point","coordinates":[-86.78812,35.449052]}},{"properties":{"city":"GALLATIN","zip":"370660000","st":"TN","practice type":"Community:Independent","pharmacy name":"PERKINS DRUGS","geo_score":0.823,"id":"a6bgsq6avho2","geo_precision":"range","address":"532 HARTSVILLE PIKE"},"type":"Feature","geometry":{"type":"Point","coordinates":[-86.434597,36.391148]}},{"properties":{"city":"PARIS","zip":"382420000","st":"TN","practice type":"Community:Independent","pharmacy name":"PERKINS DRUGS","geo_score":0.805,"id":"a6bgsq9rrruu","geo_precision":"range","address":"110 EAST WASHINGTON STREET"},"type":"Feature","geometry":{"type":"Point","coordinates":[-88.325225,36.302732]}},{"properties":{"city":"ADAMSVILLE","zip":"383100000","st":"TN","practice type":"Community:Independent","pharmacy name":"PETTIGREW REXALL DRUGS","geo_score":0.815,"id":"a6bgsqbvo64z","geo_precision":"range","address":"139 WEST MAIN STREET"},"type":"Feature","geometry":{"type":"Point","coordinates":[-88.396133,35.23474]}},{"properties":{"city":"PORTLAND","zip":"37148","st":"TN","practice type":"Community:Independent","pharmacy name":"PHARMACY EXPRESS OF PORTLAND","geo_score":0.333,"id":"a6bgsq7ulnks","geo_precision":"street","address":"105 N. BROADWAY"},"type":"Feature","geometry":{"type":"Point","coordinates":[-86.515672,36.579726]}},{"properties":{"city":"CLEVELAND","zip":"37311","st":"TN","practice type":"Community:Independent","pharmacy name":"PHD, LLC","geo_score":0.648,"id":"a6bgsq5imueo","geo_precision":"street","address":"110 KEITH STREET SW"},"type":"Feature","geometry":{"type":"Point","coordinates":[-84.883122,35.1626]}},{"properties":{"city":"BRUCETON","zip":"383170000","st":"TN","practice type":"Community:Independent","pharmacy name":"PHIPPS PHARMACY","geo_score":0.902,"id":"a6bgsq1pjeld","geo_precision":"range","address":"121 MAPLE ST"},"type":"Feature","geometry":{"type":"Point","coordinates":[-88.245901,36.03919]}},{"properties":{"city":"JACKSON","zip":"38305","st":"TN","practice type":"Community:Independent","pharmacy name":"PHIPPS PHARMACY #3","geo_score":0.902,"id":"a6bgsqdafk4r","geo_precision":"range","address":"10 CHANNING WAY"},"type":"Feature","geometry":{"type":"Point","coordinates":[-88.854095,35.681275]}},{"properties":{"city":"MC KENZIE","zip":"38201","st":"TN","practice type":"Community:Independent","pharmacy name":"PHIPPS PHARMACY, INC.","geo_score":0.778,"id":"a6bgsq4jtyu0","geo_precision":"range","address":"205-B HOSPITAL DRIVE"},"type":"Feature","geometry":{"type":"Point","coordinates":[-88.49013,36.136493]}},{"properties":{"city":"PIGEON FORGE","zip":"378630000","st":"TN","practice type":"Community:Independent","pharmacy name":"PIGEON FORGE DRUGS","geo_score":0.777,"id":"a6bgspxqi8c8","geo_precision":"range","address":"3346 PARKWAY"},"type":"Feature","geometry":{"type":"Point","coordinates":[-83.55639,35.789129]}},{"properties":{"city":"PINEY FLATS","zip":"376860000","st":"TN","practice type":"Community:Independent","pharmacy name":"PINEY FLATS DRUG CENTER","geo_score":0.707,"id":"a6bgsq2jhrsr","geo_precision":"range","address":"5908 US HWY 11E"},"type":"Feature","geometry":{"type":"Point","coordinates":[-82.3151,36.427438]}},{"properties":{"city":"ONEIDA","zip":"378410000","st":"TN","practice type":"Community:Independent","pharmacy name":"PLATEAU DRUGS,INC","geo_score":0.743,"id":"a6bgsq5iulwb","geo_precision":"street","address":"1857S. ALBERTA AVE."},"type":"Feature","geometry":{"type":"Point","coordinates":[-84.515722,36.501819]}},{"properties":{"city":"NASHVILLE","zip":"372050000","st":"TN","practice type":"Community:Independent","pharmacy name":"PLAZA PHARMACY","geo_score":0.651,"id":"a6bgsqap26bq","geo_precision":"street","address":"4230 HARDING ROAD, SUITE A-214"},"type":"Feature","geometry":{"type":"Point","coordinates":[-86.869484,36.101977]}},{"properties":{"city":"PLEASANT VIEW","zip":"371460000","st":"TN","practice type":"Community:Independent","pharmacy name":"PLEASANT VIEW PHARMACY","geo_score":0.829,"id":"a6bgsq27q8j2","geo_precision":"range","address":"6361 HIGHWAY 41-A"},"type":"Feature","geometry":{"type":"Point","coordinates":[-87.025714,36.396425]}},{"properties":{"city":"CHARLESTON","zip":"37310","st":"TN","practice type":"Community:Independent","pharmacy name":"PREFERRED FAMILY PHARMACY, LLC","geo_score":0.823,"id":"a6bgsq32img3","geo_precision":"range","address":"8897 HIWASSEE STREET"},"type":"Feature","geometry":{"type":"Point","coordinates":[-84.760031,35.28455]}},{"properties":{"city":"BENTON","zip":"37307","st":"TN","practice type":"Community:Independent","pharmacy name":"PREFERRED PHARMACY, INC","geo_score":0.732,"id":"a6bgsq6mx2a2","geo_precision":"range","address":"6206 HWY 411"},"type":"Feature","geometry":{"type":"Point","coordinates":[-84.653548,35.172235]}},{"properties":{"city":"JOHNSON CITY","zip":"376010000","st":"TN","practice type":"Community:Independent","pharmacy name":"PRINCETON DRUG INC","geo_score":0.805,"id":"a6bgsq8nah9x","geo_precision":"range","address":"105 BROYLES DRIVE"},"type":"Feature","geometry":{"type":"Point","coordinates":[-82.37603,36.344059]}},{"properties":{"city":"HERMITAGE","zip":"37076","st":"TN","practice type":"Community:Independent","pharmacy name":"PROFESSIONAL ARTS PHARMACY","geo_score":0.868,"id":"a6bgsqbraut0","geo_precision":"range","address":"5655 FRIST BOULEVARD"},"type":"Feature","geometry":{"type":"Point","coordinates":[-86.60643,36.179448]}},{"properties":{"city":"LEXINGTON","zip":"38351","st":"TN","practice type":"Community:Independent","pharmacy name":"PROFESSIONAL ARTS PHARMACY","geo_score":0.345,"id":"a6bgsqabz0e8","geo_precision":"street","address":"270 WEST CHURCH STREET, SUITE C"},"type":"Feature","geometry":{"type":"Point","coordinates":[-88.394857,35.652035]}},{"properties":{"city":"MEMPHIS","zip":"38126","st":"TN","practice type":"Community:Independent","pharmacy name":"QOL MEDS","geo_score":0.902,"id":"a6bgsqdgr9my","geo_precision":"range","address":"427 LINDEN AVENUE"},"type":"Feature","geometry":{"type":"Point","coordinates":[-90.047247,35.13701]}},{"properties":{"city":"SELMER","zip":"38375","st":"TN","practice type":"Community:Independent","pharmacy name":"QUALITY CARE PHARMACY, PLLC","geo_score":0.837,"id":"a6bgsq6nt6zo","geo_precision":"range","address":"144 HOUSTON AVENUE"},"type":"Feature","geometry":{"type":"Point","coordinates":[-88.593154,35.169666]}},{"properties":{"city":"BROWNSVILLE","zip":"380120000","st":"TN","practice type":"Community:Independent","pharmacy name":"QUALITY DRUG COMPANY","geo_score":0.751,"id":"a6bgsqc9vl6u","geo_precision":"range","address":"2288 NORTH WASHINGTON STREET"},"type":"Feature","geometry":{"type":"Point","coordinates":[-89.247862,35.608132]}},{"properties":{"city":"FRIENDSHIP","zip":"380340066","st":"TN","practice type":"Community:Independent","pharmacy name":"QUALITY DRUG STORE","geo_score":0.623,"id":"a6bgsqdqzr3m","geo_precision":"street","address":"548 MAIN STREET"},"type":"Feature","geometry":{"type":"Point","coordinates":[-89.247072,35.902851]}},{"properties":{"city":"BELLS","zip":"380060000","st":"TN","practice type":"Community:Independent","pharmacy name":"RAINES PHARMACY","geo_score":0.393,"id":"a6bgsq7c9ng3","geo_precision":"street","address":"13049 N. HWY 79"},"type":"Feature","geometry":{"type":"Point","coordinates":[-89.165247,35.656639]}},{"properties":{"city":"CHATTANOOGA","zip":"37412","st":"TN","practice type":"Community:Independent","pharmacy name":"RAPID RX","geo_score":0.821,"id":"a6bgsqcw28tx","geo_precision":"range","address":"4335 RINGGOLD ROAD"},"type":"Feature","geometry":{"type":"Point","coordinates":[-85.237496,34.99581]}},{"properties":{"city":"SEVIERVILLE","zip":"378620000","st":"TN","practice type":"Community:Independent","pharmacy name":"REAMS DRUG STORE","geo_score":0.823,"id":"a6bgspzo5njx","geo_precision":"range","address":"250 MIDDLE CREEK ROAD"},"type":"Feature","geometry":{"type":"Point","coordinates":[-83.546174,35.861572]}},{"properties":{"city":"PULASKI","zip":"384780000","st":"TN","practice type":"Community:Independent","pharmacy name":"REEVES DRUG STORE","geo_score":0.735,"id":"a6bgspyi5gq9","geo_precision":"range","address":"125 NORTH FIRST ST."},"type":"Feature","geometry":{"type":"Point","coordinates":[-87.030874,35.199284]}},{"properties":{"city":"ATHENS","zip":"373030000","st":"TN","practice type":"Community:Independent","pharmacy name":"RIDDLE &amp; WALLACE DRUG INC","geo_score":0.376,"id":"a6bgsq38kzu2","geo_precision":"street","address":"8 WASHINGTON AVENUE, NE"},"type":"Feature","geometry":{"type":"Point","coordinates":[-84.592903,35.442982]}},{"properties":{"city":"OAK RIDGE","zip":"37830","st":"TN","practice type":"Community:Independent","pharmacy name":"RIDDLE DRUG #3","geo_score":0.821,"id":"a6bgsq28jhd0","geo_precision":"range","address":"1050 OAK RIDGE TURNPIKE"},"type":"Feature","geometry":{"type":"Point","coordinates":[-84.245473,36.022028]}},{"properties":{"city":"HARRIMAN","zip":"37748","st":"TN","practice type":"Community:Independent","pharmacy name":"RIDDLE DRUGS","geo_score":0.815,"id":"a6bgsq8yt8im","geo_precision":"range","address":"520 DEVONIA ST"},"type":"Feature","geometry":{"type":"Point","coordinates":[-84.550849,35.936149]}},{"properties":{"city":"OLIVER SPRINGS","zip":"37840","st":"TN","practice type":"Community:Independent","pharmacy name":"RIDDLE DRUGS","geo_score":0.355,"id":"a6bgsq4zrce1","geo_precision":"street","address":"616 E. TRI COUNTY BLVD."},"type":"Feature","geometry":{"type":"Point","coordinates":[-84.278843,36.087258]}},{"properties":{"city":"WARTBURG","zip":"37887","st":"TN","practice type":"Community:Independent","pharmacy name":"RIDDLE EXPRESS PHARMACY","geo_score":0.624,"id":"a6bgsq8t2p0l","geo_precision":"street","address":"830 MAIN STREET"},"type":"Feature","geometry":{"type":"Point","coordinates":[-84.594117,36.104233]}},{"properties":{"city":"LAFOLLETTE","zip":"377660000","st":"TN","practice type":"Community:Independent","pharmacy name":"RIGGS DRUG","geo_score":0.805,"id":"a6bgsq26peuf","geo_precision":"range","address":"502 W CENTRAL AVENUE"},"type":"Feature","geometry":{"type":"Point","coordinates":[-84.127833,36.376583]}},{"properties":{"city":"JACKSBORO","zip":"37757","st":"TN","practice type":"Community:Independent","pharmacy name":"RIGGS DRUG-JACKSBORO","geo_score":0.491,"id":"a6bgsq5s0t7y","geo_precision":"street","address":"2636 JACKSBORO PIKE"},"type":"Feature","geometry":{"type":"Point","coordinates":[-84.171956,36.337951]}},{"properties":{"city":"LEXINGTON","zip":"38351","st":"TN","practice type":"Community:Independent","pharmacy name":"RIVER VALLEY PHARMACY AND SUPPLY, LLC","geo_score":0.813,"id":"a6bgsq3ne875","geo_precision":"range","address":"58 S MAIN ST"},"type":"Feature","geometry":{"type":"Point","coordinates":[-88.39241,35.648473]}},{"properties":{"city":"ROAN MOUNTAIN","zip":"376873343","st":"TN","practice type":"Community:Independent","pharmacy name":"ROAN MOUNTAIN PHARMACY","geo_score":0.642,"id":"a6bgspzltkbk","geo_precision":"street","address":"8251 HIGHWAY 19 EAST"},"type":"Feature","geometry":{"type":"Point","coordinates":[-82.073381,36.200046]}},{"properties":{"city":"ONEIDA","zip":"378410000","st":"TN","practice type":"Community:Independent","pharmacy name":"ROARK'S PHARMACY, INC.","geo_score":0.824,"id":"a6bgsqdiqkxg","geo_precision":"range","address":"19118 ALBERTA STREET"},"type":"Feature","geometry":{"type":"Point","coordinates":[-84.487106,36.533715]}},{"properties":{"city":"ERWIN","zip":"376500000","st":"TN","practice type":"Community:Independent","pharmacy name":"ROLLER PHARMACY","geo_score":0.821,"id":"a6bgsqdhahrp","geo_precision":"range","address":"109 N MAIN AVE"},"type":"Feature","geometry":{"type":"Point","coordinates":[-82.416602,36.145299]}},{"properties":{"city":"GOODLETTSVILLE","zip":"37072","st":"TN","practice type":"Community:Independent","pharmacy name":"ROMAN PHARMACY, LLC.","geo_score":0.745,"id":"a6bgsq3z6trr","geo_precision":"range","address":"300 FRANCES STREET"},"type":"Feature","geometry":{"type":"Point","coordinates":[-86.70956,36.315018]}},{"properties":{"city":"CHATTANOOGA","zip":"37404","st":"TN","practice type":"Community:Independent","pharmacy name":"ROSS PHARMACY","geo_score":0.381,"id":"a6bgsq4ts7yk","geo_precision":"street","address":"2001 E. THIRD STREET"},"type":"Feature","geometry":{"type":"Point","coordinates":[-85.308613,35.053551]}},{"properties":{"city":"KINGSPORT","zip":"376640000","st":"TN","practice type":"Community:Independent","pharmacy name":"ROWE'S PHARMACY, INC","geo_score":0.82,"id":"a6bgsqbu46i6","geo_precision":"range","address":"2416 MEMORIAL BLVD"},"type":"Feature","geometry":{"type":"Point","coordinates":[-82.517519,36.531157]}},{"properties":{"city":"LOUDON","zip":"37774","st":"TN","practice type":"Community:Independent","pharmacy name":"RX-PERTS PHARMACY","geo_score":0.477,"id":"a6bgsq8me6a0","geo_precision":"street","address":"2350 HIGHWAY 72 NORTH"},"type":"Feature","geometry":{"type":"Point","coordinates":[-84.368167,35.720409]}},{"properties":{"city":"WHITE PINE","zip":"378900000","st":"TN","practice type":"Community:Independent","pharmacy name":"SANITARY DRUG COMPANY","geo_score":0.302,"id":"a6bgsq3jes5n","geo_precision":"street","address":"1627 MAIN ST. P.O. BOX 510"},"type":"Feature","geometry":{"type":"Point","coordinates":[-83.296539,36.093236]}},{"properties":{"city":"HUNTSVILLE","zip":"377560000","st":"TN","practice type":"Community:Independent","pharmacy name":"SCOTT COUNTY PHARMACY","geo_score":0.62,"id":"a6bgsq4yiabo","geo_precision":"street","address":"950 BAKER HIGHWAY"},"type":"Feature","geometry":{"type":"Point","coordinates":[-84.459485,36.410737]}},{"properties":{"city":"SCOTTS HILL","zip":"383740000","st":"TN","practice type":"Community:Independent","pharmacy name":"SCOTTS HILL PHARMACY","geo_score":0.683,"id":"a6bgsq5ekrp5","geo_precision":"range","address":"640 HIGHWAY 114 SOUTH"},"type":"Feature","geometry":{"type":"Point","coordinates":[-88.249677,35.521811]}},{"properties":{"city":"SELMER","zip":"383752180","st":"TN","practice type":"Community:Independent","pharmacy name":"SELMER DRUG COMPANY","geo_score":0.74,"id":"a6bgsq935xw8","geo_precision":"range","address":"133 WEST COURT AVENUE"},"type":"Feature","geometry":{"type":"Point","coordinates":[-88.59389,35.171304]}},{"properties":{"city":"SEYMOUR","zip":"378650000","st":"TN","practice type":"Community:Independent","pharmacy name":"SEYMOUR ADVALUE PHARMACY","geo_score":0.823,"id":"a6bgsq89fc0a","geo_precision":"range","address":"10721 CHAPMAN HIGHWAY"},"type":"Feature","geometry":{"type":"Point","coordinates":[-83.775202,35.879025]}},{"properties":{"city":"SIGNAL MOUNTAIN","zip":"37377","st":"TN","practice type":"Community:Independent","pharmacy name":"SIGNAL COMPOUNDING LAB","geo_score":0.531,"id":"a6bgsqbfvbh3","geo_precision":"street","address":"804 RIDGEWAY AVENUE"},"type":"Feature","geometry":{"type":"Point","coordinates":[-84.617569,35.427551]}},{"properties":{"city":"SIGNAL MOUNTAIN","zip":"373770000","st":"TN","practice type":"Community:Independent","pharmacy name":"SIGNAL MOUNTAIN PHARMACY","geo_score":0.531,"id":"a6bgsq940n8w","geo_precision":"street","address":"804 RIDGEWAY AVENUE"},"type":"Feature","geometry":{"type":"Point","coordinates":[-84.617569,35.427551]}},{"properties":{"city":"NORTH CARTHAGE","zip":"370300000","st":"TN","practice type":"Community:Independent","pharmacy name":"SMITH COUNTY DRUG CENTER, INC.","geo_score":0.618,"id":"a6bgsq554bt7","geo_precision":"street","address":"1210 MAIN STREET"},"type":"Feature","geometry":{"type":"Point","coordinates":[-85.950814,36.259906]}},{"properties":{"city":"RUTLEDGE","zip":"378610000","st":"TN","practice type":"Community:Independent","pharmacy name":"SMITH DRUG STORE","geo_score":0.61,"id":"a6bgsqc06ieq","geo_precision":"street","address":"8120 RUTLEDGE PIKE"},"type":"Feature","geometry":{"type":"Point","coordinates":[-83.770848,36.07469]}},{"properties":{"city":"COOKEVILLE","zip":"385010000","st":"TN","practice type":"Community:Independent","pharmacy name":"SMITH PHARMACY","geo_score":0.6,"id":"a6bgsq0f0qbo","geo_precision":"street","address":"100 WEST 3RD ST. SUITE A"},"type":"Feature","geometry":{"type":"Point","coordinates":[-85.506591,36.167263]}},{"properties":{"city":"SNEEDVILLE","zip":"378690000","st":"TN","practice type":"Community:Independent","pharmacy name":"SMITH-TURNER DRUG STORE, INC.","geo_score":0.636,"id":"a6bgsq0k5ce9","geo_precision":"street","address":"140 CHURCH STREET"},"type":"Feature","geometry":{"type":"Point","coordinates":[-83.217508,36.53027]}},{"properties":{"city":"SMYRNA","zip":"371670000","st":"TN","practice type":"Community:Independent","pharmacy name":"SMYRNA DRUG COMPANY","geo_score":0.357,"id":"a6bgsq5x5ysr","geo_precision":"street","address":"269 S. LOWRY STREET"},"type":"Feature","geometry":{"type":"Point","coordinates":[-86.495471,35.956585]}},{"properties":{"city":"CHATTANOOGA","zip":"374160000","st":"TN","practice type":"Community:Independent","pharmacy name":"SOLUTIONS PHARMACY","geo_score":0.641,"id":"a6bgsq7t3kh5","geo_precision":"range","address":"4632 HIGHWAY 58 NORTH"},"type":"Feature","geometry":{"type":"Point","coordinates":[-85.191941,35.08621]}},{"properties":{"city":"SPRINGFIELD","zip":"371720000","st":"TN","practice type":"Community:Independent","pharmacy name":"SOUTH SIDE DRUG COMPANY, INC","geo_score":0.647,"id":"a6bgsq718m2h","geo_precision":"street","address":"1000 SOUTH MAIN STREET"},"type":"Feature","geometry":{"type":"Point","coordinates":[-86.885993,36.503327]}},{"properties":{"city":"SOUTH FULTON","zip":"38257","st":"TN","practice type":"Community:Independent","pharmacy name":"SOUTHSIDE DRUG COMPANY, INC","geo_score":0.418,"id":"a6bgsq8i74jy","geo_precision":"street","address":"SOUTHERN VILLAGE SHOPPING CTR"},"type":"Feature","geometry":{"type":"Point","coordinates":[-88.894999,36.356988]}},{"properties":{"city":"SPARTA","zip":"385830000","st":"TN","practice type":"Community:Independent","pharmacy name":"SPARTA DISCOUNT DRUGS","geo_score":0.693,"id":"a6bgspzi2bf8","geo_precision":"range","address":"425 NORTH SPRING STREET"},"type":"Feature","geometry":{"type":"Point","coordinates":[-85.47451,35.948646]}},{"properties":{"city":"SPRING CITY","zip":"373810000","st":"TN","practice type":"Community:Independent","pharmacy name":"SPRING CITY PHARMACY, INC","geo_score":0.371,"id":"a6bgsq1nuw77","geo_precision":"street","address":"P. O. BOX 515"},"type":"Feature","geometry":{"type":"Point","coordinates":[-86.097062,35.203943]}},{"properties":{"city":"SPRINGFIELD","zip":"371720000","st":"TN","practice type":"Community:Independent","pharmacy name":"SPRINGFIELD DRUGS, INC","geo_score":0.661,"id":"a6bgsq0g7umy","geo_precision":"street","address":"511 MEMORIAL BLVD"},"type":"Feature","geometry":{"type":"Point","coordinates":[-86.881283,36.503591]}},{"properties":{"city":"CLARKSVILLE","zip":"370400000","st":"TN","practice type":"Community:Independent","pharmacy name":"ST BETHLEHEM DRUGS, INC.","geo_score":0.823,"id":"a6bgsq2t3dks","geo_precision":"range","address":"2151 WILMA RUDOLPH BLVD."},"type":"Feature","geometry":{"type":"Point","coordinates":[-87.31009,36.564799]}},{"properties":{"city":"DAYTON","zip":"373210000","st":"TN","practice type":"Community:Independent","pharmacy name":"STAN'S PHARMACY, INC.","geo_score":0.731,"id":"a6bgsq1hskli","geo_precision":"range","address":"7787 RHEA COUNTY HIGHWAY"},"type":"Feature","geometry":{"type":"Point","coordinates":[-84.998511,35.514026]}},{"properties":{"city":"PIKEVILLE","zip":"373670000","st":"TN","practice type":"Community:Independent","pharmacy name":"STANDEFER PHARMACY","geo_score":0.498,"id":"a6bgsq863jkj","geo_precision":"street","address":"3051 MAIN STREET"},"type":"Feature","geometry":{"type":"Point","coordinates":[-85.213712,35.585043]}},{"properties":{"city":"NEW TAZEWELL","zip":"37824","st":"TN","practice type":"Community:Independent","pharmacy name":"STANIFER DRUGS LLC","geo_score":0.429,"id":"a6bgsq5t9lr2","geo_precision":"street","address":"420 N. BROAD STREET"},"type":"Feature","geometry":{"type":"Point","coordinates":[-83.600865,36.442008]}},{"properties":{"city":"PIKEVILLE","zip":"37367","st":"TN","practice type":"Community:Independent","pharmacy name":"STEPHENS PHARMACY","geo_score":0.364,"id":"a6bgsq2q660w","geo_precision":"street","address":"BKO STEPHENS PHARMACY, INC"},"type":"Feature","geometry":{"type":"Point","coordinates":[-84.383529,35.506479]}},{"properties":{"city":"MCMINNVILLE","zip":"371100000","st":"TN","practice type":"Community:Independent","pharmacy name":"STEWART PLAZA PHARMACY","geo_score":0.387,"id":"a6bgsqdeeyah","geo_precision":"street","address":"PLAZA SHOPPING CENTER"},"type":"Feature","geometry":{"type":"Point","coordinates":[-85.771833,35.688988]}},{"properties":{"city":"SEVIERVILLE","zip":"378620000","st":"TN","practice type":"Community:Independent","pharmacy name":"STEWART'S DRUGS, INC","geo_score":0.746,"id":"a6bgspz57khz","geo_precision":"range","address":"229 FORKS OF RIVER PARKWAY"},"type":"Feature","geometry":{"type":"Point","coordinates":[-83.567577,35.86664]}},{"properties":{"city":"PIGEON FORGE","zip":"37868","st":"TN","practice type":"Community:Independent","pharmacy name":"STEWART'S DRUGS, INC #2","geo_score":0.679,"id":"a6bgsq1ktyxo","geo_precision":"range","address":"3120 PARKWAY"},"type":"Feature","geometry":{"type":"Point","coordinates":[-83.560693,35.793498]}},{"properties":{"city":"JACKSON","zip":"38305","st":"TN","practice type":"Community:Independent","pharmacy name":"STONEBRIDGE APOTHECARY, L.L.C.","geo_score":0.902,"id":"a6bgsq9zp2ae","geo_precision":"range","address":"111 STONEBRIDGE BLVD."},"type":"Feature","geometry":{"type":"Point","coordinates":[-88.852685,35.676131]}},{"properties":{"city":"SMYRNA","zip":"37167","st":"TN","practice type":"Community:Independent","pharmacy name":"STONECREST REXALL DRUGS","geo_score":0.519,"id":"a6bgsqaa6l7i","geo_precision":"street","address":"300 STONECREST BLVD., SUITE 130"},"type":"Feature","geometry":{"type":"Point","coordinates":[-86.459885,35.483432]}},{"properties":{"city":"KNOXVILLE","zip":"37932","st":"TN","practice type":"Community:Independent","pharmacy name":"SUMMIT VIEW PHARMACY SERVICES, INC.","geo_score":0.902,"id":"a6bgsq23udae","geo_precision":"range","address":"10703 DUTCHTOWN ROAD"},"type":"Feature","geometry":{"type":"Point","coordinates":[-84.145557,35.911527]}},{"properties":{"city":"LIVINGSTON","zip":"385700000","st":"TN","practice type":"Community:Independent","pharmacy name":"SUPER DISCOUNT DRUGS,LLC","geo_score":0.824,"id":"a6bgsqd0nnxj","geo_precision":"range","address":"718 WEST MAIN STREET"},"type":"Feature","geometry":{"type":"Point","coordinates":[-85.330743,36.380122]}},{"properties":{"city":"CLEVELAND","zip":"373230000","st":"TN","practice type":"Community:Independent","pharmacy name":"SUPER DISCOUNT PHARMACY","geo_score":0.535,"id":"a6bgspytdir0","geo_precision":"street","address":"2010 SPRING PLACE ROAD"},"type":"Feature","geometry":{"type":"Point","coordinates":[-84.857253,35.130946]}},{"properties":{"city":"GREENEVILLE","zip":"37745","st":"TN","practice type":"Community:Independent","pharmacy name":"SUSONG PHARMACY","geo_score":0.902,"id":"a6bgsqack26i","geo_precision":"range","address":"2255 EAST ANDREW JOHNSON HIGHWAY"},"type":"Feature","geometry":{"type":"Point","coordinates":[-82.783155,36.178323]}},{"properties":{"city":"COPPERHILL","zip":"373170000","st":"TN","practice type":"Community:Independent","pharmacy name":"TALLENT DRUG CO","geo_score":0.314,"id":"a6bgsq7rjdqi","geo_precision":"street","address":"116 W. OCOEE STREET"},"type":"Feature","geometry":{"type":"Point","coordinates":[-84.371309,34.988949]}},{"properties":{"city":"MADISONVILLE","zip":"373540000","st":"TN","practice type":"Community:Independent","pharmacy name":"TALLENT DRUG STORE","geo_score":0.813,"id":"a6bgsq2tlvpr","geo_precision":"range","address":"126 COLLEGE STREET"},"type":"Feature","geometry":{"type":"Point","coordinates":[-84.363518,35.519347]}},{"properties":{"city":"RIDGELY","zip":"380800000","st":"TN","practice type":"Community:Independent","pharmacy name":"TAYLOR BROTHERS PHARMACY, LLC","geo_score":0.805,"id":"a6bgsqczxtg0","geo_precision":"range","address":"109 NORTH MAIN STREET"},"type":"Feature","geometry":{"type":"Point","coordinates":[-89.487471,36.264145]}},{"properties":{"city":"MEMPHIS","zip":"38105","st":"TN","practice type":"Community:Independent","pharmacy name":"TAYLOR BROWN APOTHECARY","geo_score":0.902,"id":"a6bgsqan3i1r","geo_precision":"range","address":"568 POPLAR AVENUE"},"type":"Feature","geometry":{"type":"Point","coordinates":[-90.040335,35.147343]}},{"properties":{"city":"TELLICO PLAINS","zip":"37385","st":"TN","practice type":"Community:Independent","pharmacy name":"TELLICO FAMILY WELLNESS CENTER","geo_score":0.61,"id":"a6bgsq42ybok","geo_precision":"street","address":"707 VETERAN'S MEMORIAL DRIVE"},"type":"Feature","geometry":{"type":"Point","coordinates":[-86.005678,35.260601]}},{"properties":{"city":"MURFREESBORO","zip":"371300000","st":"TN","practice type":"Community:Independent","pharmacy name":"TERRACE PHARMACY","geo_score":0.813,"id":"a6bgsq4r9g9l","geo_precision":"range","address":"502 HIGHLAND TERRACE"},"type":"Feature","geometry":{"type":"Point","coordinates":[-86.382239,35.858492]}},{"properties":{"city":"LAFOLLETTE","zip":"377660000","st":"TN","practice type":"Community:Independent","pharmacy name":"TERRY'S PHARMACY, INC.","geo_score":0.805,"id":"a6bgsq9wriks","geo_precision":"range","address":"310 EAST CENTRAL AVENUE"},"type":"Feature","geometry":{"type":"Point","coordinates":[-84.119978,36.382859]}},{"properties":{"city":"JACKSBORO","zip":"37757","st":"TN","practice type":"Community:Independent","pharmacy name":"TERRY'S PHARMACY, JACKSBORO","geo_score":0.589,"id":"a6bgsq9khmja","geo_precision":"street","address":"3088 APPALACHIAN HWY."},"type":"Feature","geometry":{"type":"Point","coordinates":[-84.132733,36.369531]}},{"properties":{"city":"NASHVILLE","zip":"372030000","st":"TN","practice type":"Community:Independent","pharmacy name":"THE CORNER PHARMACY","geo_score":0.902,"id":"a6bgsq8cvrfs","geo_precision":"range","address":"2010 CHURCH STREET"},"type":"Feature","geometry":{"type":"Point","coordinates":[-86.80099,36.153304]}},{"properties":{"city":"BENTON","zip":"373070000","st":"TN","practice type":"Community:Independent","pharmacy name":"THE DRUG STORE","geo_score":0.714,"id":"a6bgsqdzhjts","geo_precision":"street","address":"MAIN STREET"},"type":"Feature","geometry":{"type":"Point","coordinates":[-84.65335,35.173812]}},{"properties":{"city":"BOLIVAR","zip":"38008","st":"TN","practice type":"Community:Independent","pharmacy name":"THE HATCHIE PHARMACY","geo_score":0.805,"id":"a6bgsqcbu23g","geo_precision":"range","address":"640 NUCKOLLS ROAD"},"type":"Feature","geometry":{"type":"Point","coordinates":[-89.000607,35.267205]}},{"properties":{"city":"COVINGTON","zip":"380190000","st":"TN","practice type":"Community:Independent","pharmacy name":"THE MEDICINE SHOPPE","geo_score":0.741,"id":"a6bgsq2pzcqe","geo_precision":"range","address":"730 HIGHWAY 51 NORTH"},"type":"Feature","geometry":{"type":"Point","coordinates":[-89.645808,35.571626]}},{"properties":{"city":"ELIZABETHTON","zip":"37643","st":"TN","practice type":"Community:Independent","pharmacy name":"THE MEDICINE SHOPPE","geo_score":0.696,"id":"a6bgsqe2ohuk","geo_precision":"range","address":"625 WEST ELK"},"type":"Feature","geometry":{"type":"Point","coordinates":[-82.231519,36.35151]}},{"properties":{"city":"ERWIN","zip":"376500000","st":"TN","practice type":"Community:Independent","pharmacy name":"THE MEDICINE SHOPPE","geo_score":0.628,"id":"a6bgsq3v3h80","geo_precision":"street","address":"300 NORTH MAIN STREET"},"type":"Feature","geometry":{"type":"Point","coordinates":[-82.413996,36.147505]}},{"properties":{"city":"GREENEVILLE","zip":"37745","st":"TN","practice type":"Community:Independent","pharmacy name":"THE MEDICINE SHOPPE","geo_score":0.88,"id":"a6bgsqc1l9sv","geo_precision":"range","address":"910-A TUSCULUM BOULEVARD"},"type":"Feature","geometry":{"type":"Point","coordinates":[-82.813068,36.168551]}},{"properties":{"city":"JONESBOROUGH","zip":"37659","st":"TN","practice type":"Community:Independent","pharmacy name":"THE MEDICINE SHOPPE","geo_score":0.805,"id":"a6bgsq1uxitg","geo_precision":"range","address":"807 EAST JACKSON"},"type":"Feature","geometry":{"type":"Point","coordinates":[-82.462652,36.300791]}},{"properties":{"city":"KINGSPORT","zip":"376640000","st":"TN","practice type":"Community:Independent","pharmacy name":"THE MEDICINE SHOPPE","geo_score":0.82,"id":"a6bgsq28o4rh","geo_precision":"range","address":"109 JACK WHITE DRIVE"},"type":"Feature","geometry":{"type":"Point","coordinates":[-82.518638,36.545315]}},{"properties":{"city":"MEMPHIS","zip":"381190000","st":"TN","practice type":"Community:Independent","pharmacy name":"THE MEDICINE SHOPPE","geo_score":0.829,"id":"a6bgsqa17ia6","geo_precision":"range","address":"920 ESTATE DRIVE"},"type":"Feature","geometry":{"type":"Point","coordinates":[-89.884231,35.106531]}},{"properties":{"city":"MEMPHIS","zip":"381180000","st":"TN","practice type":"Community:Independent","pharmacy name":"THE MEDICINE SHOPPE #1072","geo_score":0.815,"id":"a6bgsq7dvy8n","geo_precision":"range","address":"4770 KNIGHT ARNOLD ROAD"},"type":"Feature","geometry":{"type":"Point","coordinates":[-89.90471,35.062356]}},{"properties":{"city":"KNOXVILLE","zip":"379200000","st":"TN","practice type":"Community:Independent","pharmacy name":"THE MEDICINE SHOPPE #1122","geo_score":0.816,"id":"a6bgsqd5cu83","geo_precision":"range","address":"4206 CHAPMAN HIGHWAY"},"type":"Feature","geometry":{"type":"Point","coordinates":[-83.907006,35.936231]}},{"properties":{"city":"KNOXVILLE","zip":"379180000","st":"TN","practice type":"Community:Independent","pharmacy name":"THE MEDICINE SHOPPE #1396","geo_score":0.299,"id":"a6bgspzr26re","geo_precision":"street","address":"5110 NORTH BROADWAY, SUITE 2"},"type":"Feature","geometry":{"type":"Point","coordinates":[-83.922598,36.016365]}},{"properties":{"city":"ROGERSVILLE","zip":"37857","st":"TN","practice type":"Community:Independent","pharmacy name":"THE MEDICINE SHOPPE #2","geo_score":0.393,"id":"a6bgsqd4xnvv","geo_precision":"street","address":"921 EAST MAIN STREET, SUITE #2"},"type":"Feature","geometry":{"type":"Point","coordinates":[-82.890464,36.453022]}},{"properties":{"city":"GALLATIN","zip":"37066","st":"TN","practice type":"Community:Independent","pharmacy name":"THE PHARMACY AT LIVINGWELL-GALLATIN","geo_score":0.455,"id":"a6bgsq0t3wyq","geo_precision":"street","address":"HEALTHSPRING PHARMACY OF TN, LLC"},"type":"Feature","geometry":{"type":"Point","coordinates":[-86.500226,36.336118]}},{"properties":{"city":"HARROGATE","zip":"377520000","st":"TN","practice type":"Community:Independent","pharmacy name":"THE PRESCRIPTION SHOP","geo_score":0.575,"id":"a6bgsq51xef3","geo_precision":"street","address":"7030 CUMBERLAND GAP PKWY"},"type":"Feature","geometry":{"type":"Point","coordinates":[-83.637672,36.546622]}},{"properties":{"city":"SAVANNAH","zip":"383720000","st":"TN","practice type":"Community:Independent","pharmacy name":"THE PRESCRIPTION SHOP","geo_score":0.787,"id":"a6bgsq6hh59x","geo_precision":"range","address":"765-B FLORENCE RD"},"type":"Feature","geometry":{"type":"Point","coordinates":[-88.239294,35.212323]}},{"properties":{"city":"RED BOILING SPRINGS","zip":"371500000","st":"TN","practice type":"Community:Independent","pharmacy name":"THE PRESCRIPTION SHOP","geo_score":0.303,"id":"a6bgsqag23qm","geo_precision":"street","address":"MARKET STREET, BOX 59"},"type":"Feature","geometry":{"type":"Point","coordinates":[-85.850526,36.533267]}},{"properties":{"city":"KINGSPORT","zip":"376600000","st":"TN","practice type":"Community:Independent","pharmacy name":"THE PRESCRIPTION SHOP","geo_score":0.824,"id":"a6bgsqarytzs","geo_precision":"range","address":"1046 DALE STREET"},"type":"Feature","geometry":{"type":"Point","coordinates":[-82.550116,36.53907]}},{"properties":{"city":"MEMPHIS","zip":"381250000","st":"TN","practice type":"Community:Independent","pharmacy name":"THE RX SHOPPE, INC.","geo_score":0.464,"id":"a6bgsq20wcyx","geo_precision":"street","address":"3315 HACKS CROSS ROAD, SUITE 111"},"type":"Feature","geometry":{"type":"Point","coordinates":[-89.793163,35.06181]}},{"properties":{"city":"CHATTANOOGA","zip":"37421","st":"TN","practice type":"Community:Independent","pharmacy name":"THE WELLNESS CENTER PHARMACY, INC.","geo_score":0.805,"id":"a6bgsq7sx44n","geo_precision":"range","address":"7304 JARNIGAN ROAD"},"type":"Feature","geometry":{"type":"Point","coordinates":[-85.159173,35.029449]}},{"properties":{"city":"ANTIOCH","zip":"37013","st":"TN","practice type":"Community:Independent","pharmacy name":"THE WELLNESS PHARMACY, INC","geo_score":0.837,"id":"a6bgspzl310m","geo_precision":"range","address":"5801 CROSSINGS BLVD"},"type":"Feature","geometry":{"type":"Point","coordinates":[-86.643268,36.037594]}},{"properties":{"city":"CROSS PLAINS","zip":"370490000","st":"TN","practice type":"Community:Independent","pharmacy name":"THOMAS DRUGS","geo_score":0.534,"id":"a6bgspycf1t9","geo_precision":"range","address":"7802 HIGHWAY 25E"},"type":"Feature","geometry":{"type":"Point","coordinates":[-86.697141,36.548462]}},{"properties":{"city":"OOLTEWAH","zip":"37363","st":"TN","practice type":"Community:Independent","pharmacy name":"THRIFTY MED PLUS PHARMACY","geo_score":0.805,"id":"a6bgsq68we2l","geo_precision":"range","address":"5032 OOLTEWAH-RINGGOLD ROAD"},"type":"Feature","geometry":{"type":"Point","coordinates":[-85.066569,35.060674]}},{"properties":{"city":"HIXSON","zip":"37343","st":"TN","practice type":"Community:Independent","pharmacy name":"THRIFTY MED PLUS PHARMACY (NO. 2)","geo_score":0.814,"id":"a6bgsq9z0isc","geo_precision":"range","address":"8600 HIXSON PIKE"},"type":"Feature","geometry":{"type":"Point","coordinates":[-85.158821,35.20061]}},{"properties":{"city":"DANDRIDGE","zip":"377250000","st":"TN","practice type":"Community:Independent","pharmacy name":"TINSLEY-BIBLE DRUG COMPANY, INC.","geo_score":0.627,"id":"a6bgspz0rzo3","geo_precision":"street","address":"1224 GAY STREET"},"type":"Feature","geometry":{"type":"Point","coordinates":[-83.420524,36.020455]}},{"properties":{"city":"TIPTONVILLE","zip":"380790000","st":"TN","practice type":"Community:Independent","pharmacy name":"TIPTONVILLE HEALTH MART DRUG","geo_score":0.823,"id":"a6bgsqa906md","geo_precision":"range","address":"139 CHURCH STREET"},"type":"Feature","geometry":{"type":"Point","coordinates":[-89.486026,36.378409]}},{"properties":{"city":"ADAMSVILLE","zip":"383100000","st":"TN","practice type":"Community:Independent","pharmacy name":"TODD'S DISCOUNT DRUGS, INC.","geo_score":0.361,"id":"a6bgsq2pgpfu","geo_precision":"street","address":"347 E. MAIN STREET"},"type":"Feature","geometry":{"type":"Point","coordinates":[-88.394853,35.235884]}},{"properties":{"city":"NEWPORT","zip":"378210000","st":"TN","practice type":"Community:Independent","pharmacy name":"TOWN &amp; COUNTRY DRUGS","geo_score":0.704,"id":"a6bgsq017j22","geo_precision":"range","address":"771 COSBY ROAD"},"type":"Feature","geometry":{"type":"Point","coordinates":[-83.199462,35.952572]}},{"properties":{"city":"CLARKSVILLE","zip":"370400000","st":"TN","practice type":"Community:Independent","pharmacy name":"TOWN &amp; COUNTRY DRUGS, INC.","geo_score":0.823,"id":"a6bgsq6kkwo0","geo_precision":"range","address":"1051 SOUTH RIVERSIDE DRIVE"},"type":"Feature","geometry":{"type":"Point","coordinates":[-87.366455,36.510424]}},{"properties":{"city":"TROY","zip":"382600000","st":"TN","practice type":"Community:Independent","pharmacy name":"TROY PHARMACY","geo_score":0.797,"id":"a6bgsqdtjvn9","geo_precision":"range","address":"404 EAST HARPER ST."},"type":"Feature","geometry":{"type":"Point","coordinates":[-89.166997,36.33855]}},{"properties":{"city":"TULLAHOMA","zip":"373880000","st":"TN","practice type":"Community:Independent","pharmacy name":"TULLAHOMA DRUG STORE, INC.","geo_score":0.816,"id":"a6bgspyehvei","geo_precision":"range","address":"100 WESTSIDE DRIVE"},"type":"Feature","geometry":{"type":"Point","coordinates":[-86.219286,35.356772]}},{"properties":{"city":"MAYNARDVILLE","zip":"37807","st":"TN","practice type":"Community:Independent","pharmacy name":"UNION DISCOUNT PHARMACY, INC.","geo_score":0.629,"id":"a6bgsq6ktdai","geo_precision":"street","address":"2959 MAYNARDVILLE HWY"},"type":"Feature","geometry":{"type":"Point","coordinates":[-83.838489,36.230064]}},{"properties":{"city":"ELIZABETHTON","zip":"376430000","st":"TN","practice type":"Community:Independent","pharmacy name":"UNION PRESCRIPTION SHOP","geo_score":0.504,"id":"a6bgsq1cucwf","geo_precision":"zip","address":"402 BEMBERG DRIVE"},"type":"Feature","geometry":{"type":"Point","coordinates":[-82.109016,36.397057]}},{"properties":{"city":"JOHNSON CITY","zip":"376040000","st":"TN","practice type":"Community:Independent","pharmacy name":"VAL-U-PHARMACY","geo_score":0.902,"id":"a6bgsq5f6m8a","geo_precision":"range","address":"2811 WEST MARKET STREET"},"type":"Feature","geometry":{"type":"Point","coordinates":[-82.397028,36.309493]}},{"properties":{"city":"MARTIN","zip":"382370000","st":"TN","practice type":"Community:Independent","pharmacy name":"VAN'S PHARMACY","geo_score":0.873,"id":"a6bgsq0ry0zx","geo_precision":"range","address":"319 LINDELL STREET"},"type":"Feature","geometry":{"type":"Point","coordinates":[-88.850454,36.343165]}},{"properties":{"city":"JACKSON","zip":"383010000","st":"TN","practice type":"Community:Independent","pharmacy name":"VANTREESE DISCOUNT PHARMACY","geo_score":0.34,"id":"a6bgsq8wvo07","geo_precision":"street","address":"1463 S. HIGHLAND AVENUE"},"type":"Feature","geometry":{"type":"Point","coordinates":[-88.819414,35.613468]}},{"properties":{"city":"POWELL","zip":"378490000","st":"TN","practice type":"Community:Independent","pharmacy name":"VAUGHN PHARMACY","geo_score":0.801,"id":"a6bgsq9yurs6","geo_precision":"range","address":"2141 EMORY ROAD"},"type":"Feature","geometry":{"type":"Point","coordinates":[-84.031008,36.029205]}},{"properties":{"city":"PORTLAND","zip":"371480000","st":"TN","practice type":"Community:Independent","pharmacy name":"VILLAGE DRUGS","geo_score":0.805,"id":"a6bgsq2mnpxg","geo_precision":"range","address":"100 WEST KNIGHT STREET"},"type":"Feature","geometry":{"type":"Point","coordinates":[-86.51393,36.575444]}},{"properties":{"city":"MARYVILLE","zip":"37804","st":"TN","practice type":"Community:Independent","pharmacy name":"VILLAGE PHARMACY","geo_score":0.829,"id":"a6bgsq83w9df","geo_precision":"range","address":"2541 EAST BROADWAY"},"type":"Feature","geometry":{"type":"Point","coordinates":[-83.946731,35.789524]}},{"properties":{"city":"PARSONS","zip":"383632525","st":"TN","practice type":"Community:Independent","pharmacy name":"VISE'S DISCOUNT PHARMACY","geo_score":0.353,"id":"a6bgsq1r0qg7","geo_precision":"street","address":"179 TENNESSEE AVENUE, NORTH"},"type":"Feature","geometry":{"type":"Point","coordinates":[-88.128709,35.655098]}},{"properties":{"city":"MEMPHIS","zip":"381200000","st":"TN","practice type":"Community:Independent","pharmacy name":"WALNUT GROVE PLAZA PHARMACY","geo_score":0.902,"id":"a6bgsq6qiqvs","geo_precision":"range","address":"6025 WALNUT GROVE ROAD"},"type":"Feature","geometry":{"type":"Point","coordinates":[-89.856763,35.131677]}},{"properties":{"city":"CLARKSVILLE","zip":"370430000","st":"TN","practice type":"Community:Independent","pharmacy name":"WARREN'S APOTHECARY, INC.","geo_score":0.814,"id":"a6bgspzuh43s","geo_precision":"range","address":"1746 MEMORIAL DRIVE"},"type":"Feature","geometry":{"type":"Point","coordinates":[-87.310549,36.516937]}},{"properties":{"city":"WARTBURG","zip":"37887","st":"TN","practice type":"Community:Independent","pharmacy name":"WARTBURG PHARMACY","geo_score":0.624,"id":"a6bgsq668j75","geo_precision":"street","address":"1006 MAIN STREET"},"type":"Feature","geometry":{"type":"Point","coordinates":[-84.587687,36.101803]}},{"properties":{"city":"TREZEVANT","zip":"38258","st":"TN","practice type":"Community:Independent","pharmacy name":"WEST CARROLL PHARMACY","geo_score":0.659,"id":"a6bgsqe8tjpy","geo_precision":"range","address":"5600 NORTH BROAD"},"type":"Feature","geometry":{"type":"Point","coordinates":[-88.621943,36.012297]}},{"properties":{"city":"JOHNSON CITY","zip":"376040000","st":"TN","practice type":"Community:Independent","pharmacy name":"WEST TOWNE PHARMACY, INC.","geo_score":0.902,"id":"a6bgsq94afk4","geo_precision":"range","address":"1619 WEST MARKET STREET"},"type":"Feature","geometry":{"type":"Point","coordinates":[-82.382554,36.312945]}},{"properties":{"city":"WESTMORELAND","zip":"37186","st":"TN","practice type":"Community:Independent","pharmacy name":"WESTMORELAND PHARMACY","geo_score":0.585,"id":"a6bgspzepsk0","geo_precision":"street","address":"1124 NEW HIGHWAY 52"},"type":"Feature","geometry":{"type":"Point","coordinates":[-86.245576,36.555631]}},{"properties":{"city":"WHITWELL","zip":"373970000","st":"TN","practice type":"Community:Independent","pharmacy name":"WHITWELL PHARMACY","geo_score":0.476,"id":"a6bgsq0jqczh","geo_precision":"street","address":"13810 HIGHWAY 28"},"type":"Feature","geometry":{"type":"Point","coordinates":[-85.510905,35.206664]}},{"properties":{"city":"DECATUR","zip":"373220000","st":"TN","practice type":"Community:Independent","pharmacy name":"WIL-SAV DRUGS","geo_score":0.483,"id":"a6bgsqba2xbo","geo_precision":"street","address":"HIGHWAY 58 NORTH"},"type":"Feature","geometry":{"type":"Point","coordinates":[-84.906319,35.382259]}},{"properties":{"city":"MADISONVILLE","zip":"373540000","st":"TN","practice type":"Community:Independent","pharmacy name":"WIL-SAV DRUGS","geo_score":0.585,"id":"a6bgsq8v33p8","geo_precision":"range","address":"4249 HIGHWAY 411 NORTH"},"type":"Feature","geometry":{"type":"Point","coordinates":[-84.346885,35.527512]}},{"properties":{"city":"SWEETWATER","zip":"378740000","st":"TN","practice type":"Community:Independent","pharmacy name":"WIL-SAV DRUGS OF SWEETWATER, INC.","geo_score":0.705,"id":"a6bgsqclq2xv","geo_precision":"range","address":"787 NEW HIGHWAY 68"},"type":"Feature","geometry":{"type":"Point","coordinates":[-84.45496,35.593346]}},{"properties":{"city":"VONORE","zip":"378850000","st":"TN","practice type":"Community:Independent","pharmacy name":"WIL-SAV DRUGS VONORE","geo_score":0.748,"id":"a6bgsqc9q3q1","geo_precision":"range","address":"1121 HWY 411"},"type":"Feature","geometry":{"type":"Point","coordinates":[-84.237128,35.590119]}},{"properties":{"city":"MEMPHIS","zip":"381040000","st":"TN","practice type":"Community:Independent","pharmacy name":"WILES-SMITH DRUG STORE","geo_score":0.902,"id":"a6bgsq4vshpa","geo_precision":"range","address":"1635 UNION AVENUE"},"type":"Feature","geometry":{"type":"Point","coordinates":[-90.007188,35.135904]}},{"properties":{"city":"ALTAMONT","zip":"373010000","st":"TN","practice type":"Community:Independent","pharmacy name":"WILEY'S PHARMACY","geo_score":0.805,"id":"a6bgsq4opk8x","geo_precision":"range","address":"1595 MAIN STREET"},"type":"Feature","geometry":{"type":"Point","coordinates":[-85.6694,35.048574]}},{"properties":{"city":"SURGOINSVILLE","zip":"378730000","st":"TN","practice type":"Community:Independent","pharmacy name":"WILLIAMS DRUG STORE","geo_score":0.405,"id":"a6bgsq1k1mho","geo_precision":"street","address":"110 BELLAMY AVENUE"},"type":"Feature","geometry":{"type":"Point","coordinates":[-83.175972,35.884921]}},{"properties":{"city":"CLIFTON","zip":"384250000","st":"TN","practice type":"Community:Independent","pharmacy name":"WILLOUGHBY DRUGS","geo_score":0.717,"id":"a6bgspz3ojcz","geo_precision":"street","address":"104 MAIN STREET"},"type":"Feature","geometry":{"type":"Point","coordinates":[-87.994836,35.38595]}},{"properties":{"city":"ENGLEWOOD","zip":"373290000","st":"TN","practice type":"Community:Independent","pharmacy name":"WILSON DRUGS, INC.","geo_score":0.694,"id":"a6bgsq8sh37k","geo_precision":"range","address":"18 CHURCH STREET"},"type":"Feature","geometry":{"type":"Point","coordinates":[-84.485793,35.427436]}},{"properties":{"city":"JOHNSON CITY","zip":"37615","st":"TN","practice type":"Community:Independent","pharmacy name":"WILSON PHARMACY","geo_score":0.378,"id":"a6bgsq89rmg6","geo_precision":"street","address":"2685 BOONES CREEK ROAD, SUITE 105"},"type":"Feature","geometry":{"type":"Point","coordinates":[-82.440972,36.357775]}},{"properties":{"city":"KINGSPORT","zip":"37660","st":"TN","practice type":"Community:Independent","pharmacy name":"WILSON PHARMACY","geo_score":0.824,"id":"a6bgsq5g1hqf","geo_precision":"range","address":"1657 EAST STONE DRIVE"},"type":"Feature","geometry":{"type":"Point","coordinates":[-82.519054,36.547909]}},{"properties":{"city":"JOHNSON CITY","zip":"376025289","st":"TN","practice type":"Community:Independent","pharmacy name":"WILSON PHARMACY, INC.","geo_score":0.772,"id":"a6bgsq9ak67x","geo_precision":"range","address":"525 N STATE OF FRANKLIN"},"type":"Feature","geometry":{"type":"Point","coordinates":[-82.388124,36.313194]}},{"properties":{"city":"NEWPORT","zip":"378210000","st":"TN","practice type":"Community:Independent","pharmacy name":"WILSON'S SAV-MOR PHARMACY","geo_score":0.814,"id":"a6bgsq6y254b","geo_precision":"range","address":"243 EAST MAIN STREET"},"type":"Feature","geometry":{"type":"Point","coordinates":[-83.187356,35.967773]}},{"properties":{"city":"WOODBURY","zip":"371900000","st":"TN","practice type":"Community:Independent","pharmacy name":"WOODSON'S PHARMACY","geo_score":0.816,"id":"a6bgsq0srn4i","geo_precision":"range","address":"304 WEST MAIN STREET"},"type":"Feature","geometry":{"type":"Point","coordinates":[-86.07131,35.827736]}},{"properties":{"city":"NEW TAZEWELL","zip":"37825","st":"TN","practice type":"Community:Independent","pharmacy name":"WOODY'S PHARMACY","geo_score":0.777,"id":"a6bgsqccxj0r","geo_precision":"range","address":"408 BROAD STREET"},"type":"Feature","geometry":{"type":"Point","coordinates":[-83.613395,36.434641]}}],"is_temporal":false,"author":{"url":"","metadata":"","contact_name":"","contact_address":"","source":"","contact_phone":""},"source":"","pagination":{"sort":null,"start":0,"total":437,"limit":1000000},"state":"complete","tags":"","published":"2014-08-10T11:05:06-04:00","id":60093}