{"type":"FeatureCollection","data_type":"Dataset","url_type":null,"permissions":[{"permissions":{"download":true,"view":true},"group_id":"everyone"}],"classification":null,"title":"BOGCProps","count":359,"stream_id":60330,"contributor":{"url":"http://geocommons.com/users/15164","name":"kcobler"},"data_attributes":null,"calculation_params":null,"icon_link":null,"link":"http://geocommons.com/overlays/60330.json","extent":[-122.869,31.7124,-106.29,45.6301],"geometry_types":["point"],"unique_name":null,"name":"BOGCProps","feature_count":359,"description":"","next_feature":null,"is_raster":false,"short_classification":"Y","stats":{"geo_score":{"max":1.0,"mean":0.786239554317548,"variance":0.0313887860288511,"stdev":0.177168806590921,"min":0.0,"median":0.861}},"features":[{"properties":{"city":"Sacramento","zip":"95826","propname":"8413 Jackson Road","geo_score":0.927,"propno":"003-0010","id":"a6lrdmiozsno","geo_precision":"range","address":"8413 Jackson Road","assettype":"Industrial","state":"CA"},"type":"Feature","geometry":{"type":"Point","coordinates":[-121.395503,38.545459]}},{"properties":{"city":"Stockton","zip":"95206","propname":"2414 Boeing Way","geo_score":0.902,"propno":"007-0010","id":"a6lrdmaxk2mu","geo_precision":"range","address":"2414 Boeing Way","assettype":"Industrial","state":"CA"},"type":"Feature","geometry":{"type":"Point","coordinates":[-121.23906,37.910416]}},{"properties":{"city":"Stockton","zip":"95206","propname":"2452 Boeing Way","geo_score":0.902,"propno":"007-0020","id":"a6lrdm9urcry","geo_precision":"range","address":"2452 Boeing Way","assettype":"Industrial","state":"CA"},"type":"Feature","geometry":{"type":"Point","coordinates":[-121.238554,37.910472]}},{"properties":{"city":"Stockton","zip":"95206","propname":"2720 Transworld Drive","geo_score":0.902,"propno":"007-0060","id":"a6lrdmiukuzu","geo_precision":"range","address":"2720 Transworld Drive","assettype":"Industrial","state":"CA"},"type":"Feature","geometry":{"type":"Point","coordinates":[-121.233058,37.908372]}},{"properties":{"city":"Sacramento","zip":"95831","propname":"7405 Greenhaven Drive","geo_score":1.0,"propno":"031-0030","id":"a6lrdm5x1s7r","geo_precision":"range","address":"7405 Greenhaven Drive","assettype":"Office","state":"CA"},"type":"Feature","geometry":{"type":"Point","coordinates":[-121.517711,38.490036]}},{"properties":{"city":"Indio","zip":"92201","propname":"82855 Market St - Bldg A","geo_score":0.719,"propno":"031-0031","id":"a6lrdmid7wy9","geo_precision":"street","address":"82855 Market Street","assettype":"Industrial","state":"CA"},"type":"Feature","geometry":{"type":"Point","coordinates":[-116.219656,33.726096]}},{"properties":{"city":"Indio","zip":"92201","propname":"82855 Market St - Bldg C","geo_score":0.719,"propno":"031-0032","id":"a6lrdmhowabb","geo_precision":"street","address":"82855 Market Street","assettype":"Industrial","state":"CA"},"type":"Feature","geometry":{"type":"Point","coordinates":[-116.219656,33.726096]}},{"properties":{"city":"Indio","zip":"92201","propname":"82855 Market St - Bldg E","geo_score":0.719,"propno":"031-0033","id":"a6lrdmifbfnn","geo_precision":"street","address":"82855 Market Street","assettype":"Industrial","state":"CA"},"type":"Feature","geometry":{"type":"Point","coordinates":[-116.219656,33.726096]}},{"properties":{"city":"Indio","zip":"92201","propname":"82855 Market St - Bldg B","geo_score":0.719,"propno":"031-0034","id":"a6lrdm5cwab1","geo_precision":"street","address":"82855 Market Street","assettype":"Industrial","state":"CA"},"type":"Feature","geometry":{"type":"Point","coordinates":[-116.219656,33.726096]}},{"properties":{"city":"Indio","zip":"92201","propname":"82855 Market St - Bldg D","geo_score":0.719,"propno":"031-0035","id":"a6lrdmg3pfrd","geo_precision":"street","address":"82855 Market Street","assettype":"Industrial","state":"CA"},"type":"Feature","geometry":{"type":"Point","coordinates":[-116.219656,33.726096]}},{"properties":{"city":"Indio","zip":"92201","propname":"82855 Market St - Bldg F","geo_score":0.719,"propno":"031-0036","id":"a6lrdm4aht0v","geo_precision":"street","address":"82855 Market Street","assettype":"Industrial","state":"CA"},"type":"Feature","geometry":{"type":"Point","coordinates":[-116.219656,33.726096]}},{"properties":{"city":"Indio","zip":"92201","propname":"82855 Market St - Bldg G","geo_score":0.719,"propno":"031-0037","id":"a6lrdmdyfpva","geo_precision":"street","address":"82855 Market Street","assettype":"Industrial","state":"CA"},"type":"Feature","geometry":{"type":"Point","coordinates":[-116.219656,33.726096]}},{"properties":{"city":"Indio","zip":"92201","propname":"82855 Market St - Bldg H","geo_score":0.719,"propno":"031-0038","id":"a6lrdmi81kv4","geo_precision":"street","address":"82855 Market Street","assettype":"Industrial","state":"CA"},"type":"Feature","geometry":{"type":"Point","coordinates":[-116.219656,33.726096]}},{"properties":{"city":"Indio","zip":"92201","propname":"82855 Market St - Bldg I","geo_score":0.719,"propno":"031-0039","id":"a6lrdmjvrce9","geo_precision":"street","address":"82855 Market Street","assettype":"Industrial","state":"CA"},"type":"Feature","geometry":{"type":"Point","coordinates":[-116.219656,33.726096]}},{"properties":{"city":"Indio","zip":"92201","propname":"82855 Market St - Bldg J","geo_score":0.719,"propno":"031-0040","id":"a6lrdmh2yzwl","geo_precision":"street","address":"82855 Market Street","assettype":"Industrial","state":"CA"},"type":"Feature","geometry":{"type":"Point","coordinates":[-116.219656,33.726096]}},{"properties":{"city":"Tahoe","zip":null,"propname":"300 West Lake Tahoe Condo","geo_score":0.0,"propno":"031-0080","id":"a6lrdm5nxi58","geo_precision":"unmatched","address":"300 West Lake","assettype":"Misc","state":"CA"},"type":"Feature","geometry":null},{"properties":{"city":"Sacramento","zip":"95828","propname":"8600 Unsworth Avenue","geo_score":0.922,"propno":"031-0110","id":"a6lrdm7od1u2","geo_precision":"range","address":"8600 Unsworth Avenue","assettype":"Industrial","state":"CA"},"type":"Feature","geometry":{"type":"Point","coordinates":[-121.388105,38.521507]}},{"properties":{"city":"Sacramento","zip":"95828","propname":"8565 Morrison Creek","geo_score":0.883,"propno":"031-0340","id":"a6lrdm8e8kn9","geo_precision":"range","address":"8565 Morrison Creek","assettype":"Industrial","state":"CA"},"type":"Feature","geometry":{"type":"Point","coordinates":[-121.38885,38.50609]}},{"properties":{"city":"Sacramento","zip":"95828","propname":"8569 Morrison Creek","geo_score":0.883,"propno":"031-0341","id":"a6lrdm7ekbva","geo_precision":"range","address":"8569 Morrison Creek","assettype":"Industrial","state":"CA"},"type":"Feature","geometry":{"type":"Point","coordinates":[-121.388744,38.50609]}},{"properties":{"city":"Sacramento","zip":"95828","propname":"8573 Morrison Creek","geo_score":0.883,"propno":"031-0342","id":"a6lrdmai7g1d","geo_precision":"range","address":"8573 Morrison Creek","assettype":"Industrial","state":"CA"},"type":"Feature","geometry":{"type":"Point","coordinates":[-121.388638,38.506089]}},{"properties":{"city":"Sacramento","zip":"95828","propname":"8577 Morrison Creek","geo_score":0.883,"propno":"031-0343","id":"a6lrdm6zup2l","geo_precision":"range","address":"8577 Morrison Creek","assettype":"Industrial","state":"CA"},"type":"Feature","geometry":{"type":"Point","coordinates":[-121.388532,38.506089]}},{"properties":{"city":"Sacramento","zip":"95828","propname":"8581 Morrison Creek","geo_score":0.883,"propno":"031-0344","id":"a6lrdmcm4ff2","geo_precision":"range","address":"8581 Morrison Creek","assettype":"Industrial","state":"CA"},"type":"Feature","geometry":{"type":"Point","coordinates":[-121.388426,38.506089]}},{"properties":{"city":"Sacramento","zip":"95828","propname":"8585 Morrison Creek","geo_score":0.883,"propno":"031-0345","id":"a6lrdmj7ybyp","geo_precision":"range","address":"8585 Morrison Creek","assettype":"Industrial","state":"CA"},"type":"Feature","geometry":{"type":"Point","coordinates":[-121.38832,38.506089]}},{"properties":{"city":"Sacramento","zip":"95828","propname":"8500 Morrison Creek","geo_score":0.883,"propno":"031-0370","id":"a6lrdm5se7ae","geo_precision":"range","address":"8500 Morrison Creek","assettype":"Industrial","state":"CA"},"type":"Feature","geometry":{"type":"Point","coordinates":[-121.390546,38.506093]}},{"properties":{"city":"Sacramento","zip":"95828","propname":"6735 Florin Perkins Road","geo_score":0.922,"propno":"031-0375","id":"a6lrdmit1l8q","geo_precision":"range","address":"6735 Florin Perkins Road","assettype":"Industrial","state":"CA"},"type":"Feature","geometry":{"type":"Point","coordinates":[-121.390547,38.505752]}},{"properties":{"city":"Rocklin","zip":null,"propname":"Whitney Oaks Residence","geo_score":0.701,"propno":"031-0390","id":"a6lrdmck3p97","geo_precision":"street","address":"Whitney Oaks","assettype":"Misc","state":"CA"},"type":"Feature","geometry":{"type":"Point","coordinates":[-121.254548,38.801928]}},{"properties":{"city":"Sacramento","zip":"95826","propname":"8401 Jackson Road","geo_score":0.927,"propno":"031-0410","id":"a6lrdmb3pt40","geo_precision":"range","address":"8401 Jackson Road","assettype":"Office","state":"CA"},"type":"Feature","geometry":{"type":"Point","coordinates":[-121.395909,38.545607]}},{"properties":{"city":"Sacramento","zip":"95826","propname":"8411 Jackson Road","geo_score":0.927,"propno":"031-0415","id":"a6lrdm587l02","geo_precision":"range","address":"8411 Jackson Road","assettype":"Industrial","state":"CA"},"type":"Feature","geometry":{"type":"Point","coordinates":[-121.395571,38.545484]}},{"properties":{"city":"San Diego","zip":null,"propname":"San Diego Condo","geo_score":0.805,"propno":"031-0680","id":"a6lrdm8xl4fa","geo_precision":"range","address":"500 Front Street, #2302","assettype":"Misc","state":"CA"},"type":"Feature","geometry":{"type":"Point","coordinates":[-117.164824,32.729295]}},{"properties":{"city":"Lincoln","zip":"95648","propname":"1601 Aviation Blvd.","geo_score":1.0,"propno":"031-0710","id":"a6lrdmh71100","geo_precision":"range","address":"1601 Aviation Blvd.","assettype":"Industrial","state":"CA"},"type":"Feature","geometry":{"type":"Point","coordinates":[-121.340059,38.898598]}},{"properties":{"city":"Lincoln","zip":"95648","propname":"1721 Aviation Blvd.","geo_score":1.0,"propno":"031-0720","id":"a6lrdmbe34q2","geo_precision":"range","address":"1721 Aviation Blvd.","assettype":"Industrial","state":"CA"},"type":"Feature","geometry":{"type":"Point","coordinates":[-121.340086,38.90418]}},{"properties":{"city":"Lincoln","zip":"95648","propname":"1741 Aviation Blvd.","geo_score":1.0,"propno":"031-0730","id":"a6lrdmhojzls","geo_precision":"range","address":"1741 Aviation Blvd.","assettype":"Industrial","state":"CA"},"type":"Feature","geometry":{"type":"Point","coordinates":[-121.340086,38.90354]}},{"properties":{"city":"Lincoln","zip":"95648","propname":"3130 Venture Drive","geo_score":1.0,"propno":"031-0740","id":"a6lrdmf0gp8j","geo_precision":"range","address":"3130 Venture Drive","assettype":"Industrial","state":"CA"},"type":"Feature","geometry":{"type":"Point","coordinates":[-121.328335,38.906996]}},{"properties":{"city":"Lincoln","zip":"95648","propname":"2975-3071 Venture Drive","geo_score":1.0,"propno":"031-0770","id":"a6lrdmih4esw","geo_precision":"range","address":"2975-3071 Venture Drive","assettype":"Industrial","state":"CA"},"type":"Feature","geometry":{"type":"Point","coordinates":[-121.326944,38.907584]}},{"properties":{"city":"Sacramento","zip":"95826","propname":"8864 Fruitridge Road","geo_score":0.927,"propno":"032-0070","id":"a6lrdm76m10v","geo_precision":"range","address":"8864 Fruitridge Road","assettype":"Industrial","state":"CA"},"type":"Feature","geometry":{"type":"Point","coordinates":[-121.372771,38.52523]}},{"properties":{"city":"Sacramento","zip":"95826","propname":"8866 Fruitridge Road","geo_score":0.927,"propno":"032-0075","id":"a6lrdm6aaybh","geo_precision":"range","address":"8866 Fruitridge Road","assettype":"Industrial","state":"CA"},"type":"Feature","geometry":{"type":"Point","coordinates":[-121.372666,38.525231]}},{"properties":{"city":"Elk Grove","zip":"95758","propname":"Laguna Professional Center Bldg J","geo_score":0.683,"propno":"032-0082","id":"a6lrdmiuot34","geo_precision":"zip","address":"2230 Longport Court","assettype":"Office","state":"CA"},"type":"Feature","geometry":{"type":"Point","coordinates":[-121.428681,38.347205]}},{"properties":{"city":"Elk Grove","zip":"95758","propname":"Laguna Professional Center Bldg K","geo_score":0.683,"propno":"032-0083","id":"a6lrdmhgwm9r","geo_precision":"zip","address":"2232 Longport Court","assettype":"Office","state":"CA"},"type":"Feature","geometry":{"type":"Point","coordinates":[-121.428681,38.347205]}},{"properties":{"city":"Elk Grove","zip":"95758","propname":"Laguna Professional Center Bldg L","geo_score":0.683,"propno":"032-0084","id":"a6lrdmkocox9","geo_precision":"zip","address":"2228 Longport Court","assettype":"Office","state":"CA"},"type":"Feature","geometry":{"type":"Point","coordinates":[-121.428681,38.347205]}},{"properties":{"city":"Elk Grove","zip":"95758","propname":"Laguna Professional Center Bldg M","geo_score":0.683,"propno":"032-0085","id":"a6lrdmcf4bhe","geo_precision":"zip","address":"2234 Longport Court","assettype":"Office","state":"CA"},"type":"Feature","geometry":{"type":"Point","coordinates":[-121.428681,38.347205]}},{"properties":{"city":"Elk Grove","zip":"95758","propname":"Laguna Professional Center Bldg N","geo_score":0.683,"propno":"032-0086","id":"a6lrdm8ms807","geo_precision":"zip","address":"2236 Longport Court","assettype":"Office","state":"CA"},"type":"Feature","geometry":{"type":"Point","coordinates":[-121.428681,38.347205]}},{"properties":{"city":"Sacramento","zip":"95828","propname":"5961 Outfall Circle","geo_score":0.605,"propno":"032-0165","id":"a6lrdmdt6jqr","geo_precision":"zip","address":"5961 Outfall Circle","assettype":"Industrial","state":"CA"},"type":"Feature","geometry":{"type":"Point","coordinates":[-121.408842,38.496019]}},{"properties":{"city":"Modesto","zip":"95358","propname":"1733 Morgan Road","geo_score":1.0,"propno":"032-0410","id":"a6lrdmd1ouor","geo_precision":"range","address":"1733 Morgan Road","assettype":"Industrial","state":"CA"},"type":"Feature","geometry":{"type":"Point","coordinates":[-120.975338,37.60488]}},{"properties":{"city":"Woodland","zip":"95776","propname":"2340 E. Main Street","geo_score":0.633,"propno":"032-0500","id":"a6lrdm6u9ghp","geo_precision":"street","address":"2340 E. Main Street","assettype":"Industrial","state":"CA"},"type":"Feature","geometry":{"type":"Point","coordinates":[-121.765362,38.677452]}},{"properties":{"city":"Elk Grove","zip":"95624","propname":"10175 Iron Rock Way","geo_score":0.915,"propno":"032-0760","id":"a6lrdmevpib6","geo_precision":"range","address":"10175 Iron Rock Way","assettype":"Industrial","state":"CA"},"type":"Feature","geometry":{"type":"Point","coordinates":[-121.359933,38.388598]}},{"properties":{"city":"Bakersfield","zip":"93304","propname":"2200 Wible Road","geo_score":1.0,"propno":"032-0840","id":"a6lrdm4mnc2j","geo_precision":"range","address":"2200 Wible Road","assettype":"Retail","state":"CA"},"type":"Feature","geometry":{"type":"Point","coordinates":[-119.038957,35.334927]}},{"properties":{"city":"Stockton","zip":"95205","propname":"2626 West Lane","geo_score":0.768,"propno":"032-0870","id":"a6lrdmahiy74","geo_precision":"range","address":"2626 West Lane","assettype":"Industrial","state":"CA"},"type":"Feature","geometry":{"type":"Point","coordinates":[-121.282102,37.98033]}},{"properties":{"city":"Stockton","zip":"95205","propname":"2646 West Lane","geo_score":0.768,"propno":"032-0880","id":"a6lrdmjqa3o9","geo_precision":"range","address":"2646 West Lane","assettype":"Industrial","state":"CA"},"type":"Feature","geometry":{"type":"Point","coordinates":[-121.282395,37.980498]}},{"properties":{"city":"Stockton","zip":"95205","propname":"2666 West Lane","geo_score":0.768,"propno":"032-0890","id":"a6lrdmhls0um","geo_precision":"range","address":"2666 West Lane","assettype":"Industrial","state":"CA"},"type":"Feature","geometry":{"type":"Point","coordinates":[-121.28245,37.980667]}},{"properties":{"city":"Sacramento","zip":"95821","propname":"960 Fulton Avenue","geo_score":0.737,"propno":"032-0990","id":"a6lrdmfz4vf7","geo_precision":"street","address":"960 Fulton Avenue","assettype":"Office","state":"CA"},"type":"Feature","geometry":{"type":"Point","coordinates":[-121.401433,38.610647]}},{"properties":{"city":"Sacramento","zip":"95828","propname":"6251 Florin Perkins","geo_score":0.883,"propno":"032-1100","id":"a6lrdm50ngza","geo_precision":"range","address":"6251 Florin Perkins","assettype":"Industrial","state":"CA"},"type":"Feature","geometry":{"type":"Point","coordinates":[-121.390581,38.514197]}},{"properties":{"city":"Sacramento","zip":"95820","propname":"3331 Fruitridge Road","geo_score":1.0,"propno":"032-1200","id":"a6lrdmhcqsrm","geo_precision":"range","address":"3331 Fruitridge Road","assettype":"Industrial","state":"CA"},"type":"Feature","geometry":{"type":"Point","coordinates":[-121.471106,38.524896]}},{"properties":{"city":"Stockton","zip":"95206","propname":"2701 Boeing Way","geo_score":0.902,"propno":"032-1250","id":"a6lrdmag6xd0","geo_precision":"range","address":"2701 Boeing Way","assettype":"Industrial","state":"CA"},"type":"Feature","geometry":{"type":"Point","coordinates":[-121.233139,37.91092]}},{"properties":{"city":"Stockton","zip":"95206","propname":"2707 Boeing Way","geo_score":0.902,"propno":"032-1255","id":"a6lrdm68npnn","geo_precision":"range","address":"2707 Boeing Way","assettype":"Industrial","state":"CA"},"type":"Feature","geometry":{"type":"Point","coordinates":[-121.232937,37.910934]}},{"properties":{"city":"Stockton","zip":"95206","propname":"2713 Boeing Way","geo_score":0.902,"propno":"032-1260","id":"a6lrdma67vsd","geo_precision":"range","address":"2713 Boeing Way","assettype":"Industrial","state":"CA"},"type":"Feature","geometry":{"type":"Point","coordinates":[-121.232669,37.910939]}},{"properties":{"city":"Stockton","zip":"95206","propname":"2719 Boeing Way","geo_score":0.902,"propno":"032-1265","id":"a6lrdmd2wkoc","geo_precision":"range","address":"2719 Boeing Way","assettype":"Industrial","state":"CA"},"type":"Feature","geometry":{"type":"Point","coordinates":[-121.232466,37.910941]}},{"properties":{"city":"Stockton","zip":"95206","propname":"2727 Boeing Way","geo_score":0.902,"propno":"032-1270","id":"a6lrdmjdhvo8","geo_precision":"range","address":"2727 Boeing Way","assettype":"Industrial","state":"CA"},"type":"Feature","geometry":{"type":"Point","coordinates":[-121.232196,37.910944]}},{"properties":{"city":"Stockton","zip":"95206","propname":"2733 Boeing Way","geo_score":0.902,"propno":"032-1275","id":"a6lrdmisfrn8","geo_precision":"range","address":"2733 Boeing Way","assettype":"Industrial","state":"CA"},"type":"Feature","geometry":{"type":"Point","coordinates":[-121.231993,37.910946]}},{"properties":{"city":"Stockton","zip":"95206","propname":"2739 Boeing Way","geo_score":0.902,"propno":"032-1280","id":"a6lrdmitge15","geo_precision":"range","address":"2739 Boeing Way","assettype":"Industrial","state":"CA"},"type":"Feature","geometry":{"type":"Point","coordinates":[-121.23179,37.910948]}},{"properties":{"city":"Stockton","zip":"95206","propname":"2745 Boeing Way","geo_score":0.902,"propno":"032-1285","id":"a6lrdmj2bvit","geo_precision":"range","address":"2745 Boeing Way","assettype":"Industrial","state":"CA"},"type":"Feature","geometry":{"type":"Point","coordinates":[-121.231587,37.91095]}},{"properties":{"city":"Stockton","zip":"95206","propname":"2751 Boeing Way","geo_score":0.902,"propno":"032-1290","id":"a6lrdmg5cz68","geo_precision":"range","address":"2751 Boeing Way","assettype":"Industrial","state":"CA"},"type":"Feature","geometry":{"type":"Point","coordinates":[-121.231384,37.910953]}},{"properties":{"city":"Stockton","zip":"95206","propname":"2757 Boeing Way","geo_score":0.902,"propno":"032-1295","id":"a6lrdm98fa4u","geo_precision":"range","address":"2757 Boeing Way","assettype":"Industrial","state":"CA"},"type":"Feature","geometry":{"type":"Point","coordinates":[-121.231182,37.910955]}},{"properties":{"city":"Stockton","zip":"95206","propname":"2763 Boeing Way","geo_score":0.902,"propno":"032-1300","id":"a6lrdmg4q3qo","geo_precision":"range","address":"2763 Boeing Way","assettype":"Industrial","state":"CA"},"type":"Feature","geometry":{"type":"Point","coordinates":[-121.230979,37.910957]}},{"properties":{"city":"Stockton","zip":"95206","propname":"2769 Boeing Way","geo_score":0.902,"propno":"032-1305","id":"a6lrdmgv4gym","geo_precision":"range","address":"2769 Boeing Way","assettype":"Industrial","state":"CA"},"type":"Feature","geometry":{"type":"Point","coordinates":[-121.230776,37.910959]}},{"properties":{"city":"Stockton","zip":"95206","propname":"2775 Boeing Way","geo_score":0.902,"propno":"032-1310","id":"a6lrdmh5ehl5","geo_precision":"range","address":"2775 Boeing Way","assettype":"Industrial","state":"CA"},"type":"Feature","geometry":{"type":"Point","coordinates":[-121.230573,37.910961]}},{"properties":{"city":"Sacramento","zip":"95828","propname":"8614 Unsworth Avenue","geo_score":0.922,"propno":"032-1320","id":"a6lrdm83ue3h","geo_precision":"range","address":"8614 Unsworth Avenue","assettype":"Industrial","state":"CA"},"type":"Feature","geometry":{"type":"Point","coordinates":[-121.387742,38.521509]}},{"properties":{"city":"Sacramento","zip":"95828","propname":"5740 Outfall Circle","geo_score":0.605,"propno":"032-1325","id":"a6lrdmbj9vjf","geo_precision":"zip","address":"5740 Outfall Circle","assettype":"Industrial","state":"CA"},"type":"Feature","geometry":{"type":"Point","coordinates":[-121.408842,38.496019]}},{"properties":{"city":"West Sacramento","zip":"95691","propname":"289 3rd Street","geo_score":0.688,"propno":"032-1330","id":"a6lrdmarai5w","geo_precision":"street","address":"289 3rd Street","assettype":"Office","state":"CA"},"type":"Feature","geometry":{"type":"Point","coordinates":[-121.511551,38.581367]}},{"properties":{"city":"Sacramento","zip":"95828","propname":"South Watt Self-Storage","geo_score":0.728,"propno":"032-1335","id":"a6lrdm9p8991","geo_precision":"street","address":"8870 Fruitridge Road","assettype":"Misc","state":"CA"},"type":"Feature","geometry":{"type":"Point","coordinates":[-121.367775,38.525255]}},{"properties":{"city":"El Dorado Hills","zip":"95762","propname":"4659 Golden Foothill Parkway I","geo_score":0.81,"propno":"032-1345","id":"a6lrdm6u7dnh","geo_precision":"street","address":"4659 Golden Foothill Parkway","assettype":"Office","state":"CA"},"type":"Feature","geometry":{"type":"Point","coordinates":[-121.06819,38.628629]}},{"properties":{"city":"El Dorado Hills","zip":"95762","propname":"4661 Golden Foothill Parkway J","geo_score":0.81,"propno":"032-1350","id":"a6lrdmjkkszx","geo_precision":"street","address":"4661 Golden Foothill Parkway","assettype":"Office","state":"CA"},"type":"Feature","geometry":{"type":"Point","coordinates":[-121.06819,38.628629]}},{"properties":{"city":"El Dorado Hills","zip":"95762","propname":"4667 Golden Foothill Parkway D","geo_score":0.811,"propno":"032-1355","id":"a6lrdmhhzogf","geo_precision":"street","address":"4667 Golden Foothill Parkway","assettype":"Office","state":"CA"},"type":"Feature","geometry":{"type":"Point","coordinates":[-121.06819,38.628629]}},{"properties":{"city":"El Dorado Hills","zip":"95762","propname":"4669 Golden Foothill Parkway C","geo_score":0.811,"propno":"032-1360","id":"a6lrdmfpo8tr","geo_precision":"street","address":"4669 Golden Foothill Parkway","assettype":"Office","state":"CA"},"type":"Feature","geometry":{"type":"Point","coordinates":[-121.06819,38.628629]}},{"properties":{"city":"Elk Grove","zip":null,"propname":"Kent Street Acquisition","geo_score":0.415,"propno":"032-1375","id":"a6lrdmij8g16","geo_precision":"street","address":"9721-9757 Kent Street","assettype":"Industrial","state":"CA"},"type":"Feature","geometry":{"type":"Point","coordinates":[-122.844202,38.367839]}},{"properties":{"city":"Sacramento","zip":"95828","propname":"6750 Florin Perkins","geo_score":0.883,"propno":"033-0010","id":"a6lrdm6zx4ou","geo_precision":"range","address":"6750 Florin Perkins","assettype":"Industrial","state":"CA"},"type":"Feature","geometry":{"type":"Point","coordinates":[-121.390547,38.50573]}},{"properties":{"city":"Sacramento","zip":"95828","propname":"8451 Rovana Circle","geo_score":0.922,"propno":"033-0020","id":"a6lrdm7wfpi2","geo_precision":"range","address":"8451 Rovana Circle","assettype":"Industrial","state":"CA"},"type":"Feature","geometry":{"type":"Point","coordinates":[-121.395031,38.50717]}},{"properties":{"city":"Sacramento","zip":"95828","propname":"8440 Rovana Circle","geo_score":0.922,"propno":"033-0180","id":"a6lrdm6liekc","geo_precision":"range","address":"8440 Rovana Circle","assettype":"Industrial","state":"CA"},"type":"Feature","geometry":{"type":"Point","coordinates":[-121.393863,38.504647]}},{"properties":{"city":"Sacramento","zip":"95826","propname":"4601 Florin Perkins Rd","geo_score":0.927,"propno":"033-0190","id":"a6lrdmkbudj9","geo_precision":"range","address":"4601 Florin Perkins Rd","assettype":"Industrial","state":"CA"},"type":"Feature","geometry":{"type":"Point","coordinates":[-121.390718,38.534647]}},{"properties":{"city":"Vacaville","zip":"95688","propname":"Vacaville Industrial Center","geo_score":0.924,"propno":"035-0020","id":"a6lrdm4hl28s","geo_precision":"range","address":"1070 Piper Drive","assettype":"Industrial","state":"CA"},"type":"Feature","geometry":{"type":"Point","coordinates":[-121.95536,38.391011]}},{"properties":{"city":"Vacaville","zip":"95688","propname":"Vacaville Industrial Park","geo_score":0.924,"propno":"035-0040","id":"a6lrdm52yyru","geo_precision":"range","address":"2031 Cessna Drive","assettype":"Industrial","state":"CA"},"type":"Feature","geometry":{"type":"Point","coordinates":[-121.958153,38.394264]}},{"properties":{"city":"Sacramento","zip":"95828","propname":"6003 88th Street","geo_score":0.824,"propno":"071-0040","id":"a6lrdmg1px59","geo_precision":"range","address":"6003 88th Street","assettype":"Industrial","state":"CA"},"type":"Feature","geometry":{"type":"Point","coordinates":[-121.375816,38.519126]}},{"properties":{"city":"Sacramento","zip":"95828","propname":"6210 88th Street","geo_score":0.631,"propno":"071-0090","id":"a6lrdmda4083","geo_precision":"street","address":"6210 88th Street","assettype":"Industrial","state":"CA"},"type":"Feature","geometry":{"type":"Point","coordinates":[-121.3721,38.513399]}},{"properties":{"city":"Sacramento","zip":"95828","propname":"6220 88th Street","geo_score":0.631,"propno":"071-0095","id":"a6lrdmbg101q","geo_precision":"street","address":"6220 88th Street","assettype":"Industrial","state":"CA"},"type":"Feature","geometry":{"type":"Point","coordinates":[-121.3721,38.513399]}},{"properties":{"city":"Sacramento","zip":"95828","propname":"6230 88th Street","geo_score":0.631,"propno":"071-0100","id":"a6lrdmh1kdxt","geo_precision":"street","address":"6230 88th Street","assettype":"Industrial","state":"CA"},"type":"Feature","geometry":{"type":"Point","coordinates":[-121.3721,38.513399]}},{"properties":{"city":"Sacramento","zip":"95828","propname":"6240 88th Street","geo_score":0.631,"propno":"071-0105","id":"a6lrdma1xehb","geo_precision":"street","address":"6240 88th Street","assettype":"Industrial","state":"CA"},"type":"Feature","geometry":{"type":"Point","coordinates":[-121.3721,38.513399]}},{"properties":{"city":"Sacramento","zip":"95828","propname":"6250 88th Street","geo_score":0.631,"propno":"071-0110","id":"a6lrdmhlhxm2","geo_precision":"street","address":"6250 88th Street","assettype":"Industrial","state":"CA"},"type":"Feature","geometry":{"type":"Point","coordinates":[-121.3721,38.513399]}},{"properties":{"city":"Sacramento","zip":"95828","propname":"6260 88th Street","geo_score":0.63,"propno":"071-0115","id":"a6lrdm4fuqq3","geo_precision":"street","address":"6260 88th Street","assettype":"Industrial","state":"CA"},"type":"Feature","geometry":{"type":"Point","coordinates":[-121.3721,38.513399]}},{"properties":{"city":"Sacramento","zip":"95828","propname":"6270 88th Street","geo_score":0.63,"propno":"071-0120","id":"a6lrdmj5nfv8","geo_precision":"street","address":"6270 88th Street","assettype":"Industrial","state":"CA"},"type":"Feature","geometry":{"type":"Point","coordinates":[-121.3721,38.513399]}},{"properties":{"city":"Sacramento","zip":"95828","propname":"6280 88th Street","geo_score":0.63,"propno":"071-0125","id":"a6lrdma5nzzc","geo_precision":"street","address":"6280 88th Street","assettype":"Industrial","state":"CA"},"type":"Feature","geometry":{"type":"Point","coordinates":[-121.3721,38.513399]}},{"properties":{"city":"Sacramento","zip":"95828","propname":"6290 88th Street","geo_score":0.63,"propno":"071-0130","id":"a6lrdmcqnb9x","geo_precision":"street","address":"6290 88th Street","assettype":"Industrial","state":"CA"},"type":"Feature","geometry":{"type":"Point","coordinates":[-121.3721,38.513399]}},{"properties":{"city":"Sacramento","zip":"95825","propname":"5901 88th Street","geo_score":0.585,"propno":"072-0010","id":"a6lrdma4erkj","geo_precision":"range","address":"5901 88th Street","assettype":"Industrial","state":"CA"},"type":"Feature","geometry":{"type":"Point","coordinates":[-121.375817,38.519356]}},{"properties":{"city":"Sacramento","zip":"95828","propname":"6261 Florin Perkins Road","geo_score":0.922,"propno":"072-0070","id":"a6lrdmhonpup","geo_precision":"range","address":"6261 Florin Perkins Road","assettype":"Industrial","state":"CA"},"type":"Feature","geometry":{"type":"Point","coordinates":[-121.39058,38.513951]}},{"properties":{"city":"Sacramento","zip":"95828","propname":"6271 Florin Perkins Road","geo_score":0.922,"propno":"072-0080","id":"a6lrdm9gavnd","geo_precision":"range","address":"6271 Florin Perkins Road","assettype":"Industrial","state":"CA"},"type":"Feature","geometry":{"type":"Point","coordinates":[-121.390578,38.513704]}},{"properties":{"city":"Sacramento","zip":"95828","propname":"8711 Elder Creek Road","geo_score":0.922,"propno":"080-0020","id":"a6lrdm5mn9d4","geo_precision":"range","address":"8711 Elder Creek Road","assettype":"Industrial","state":"CA"},"type":"Feature","geometry":{"type":"Point","coordinates":[-121.385793,38.51065]}},{"properties":{"city":"Woodland","zip":"95776","propname":"420 N Pioneer","geo_score":0.92,"propno":"093-0040","id":"a6lrdmitjrnv","geo_precision":"range","address":"420 N Pioneer","assettype":"Industrial","state":"CA"},"type":"Feature","geometry":{"type":"Point","coordinates":[-121.746777,38.69211]}},{"properties":{"city":"Woodland","zip":"95776","propname":"460 N Pioneer","geo_score":0.92,"propno":"093-0050","id":"a6lrdmeu0dru","geo_precision":"range","address":"460 N Pioneer","assettype":"Industrial","state":"CA"},"type":"Feature","geometry":{"type":"Point","coordinates":[-121.746766,38.692793]}},{"properties":{"city":"Stockton","zip":"95206","propname":"4239 Pock Lane","geo_score":0.902,"propno":"096-0040","id":"a6lrdm8luftg","geo_precision":"range","address":"4239 Pock Lane","assettype":"Industrial","state":"CA"},"type":"Feature","geometry":{"type":"Point","coordinates":[-121.238597,37.913609]}},{"properties":{"city":"Stockton","zip":"95206","propname":"2385 Arch Airport Road","geo_score":0.902,"propno":"096-0050","id":"a6lrdmg54l8b","geo_precision":"range","address":"2385 Arch Airport Road","assettype":"Industrial","state":"CA"},"type":"Feature","geometry":{"type":"Point","coordinates":[-121.236448,37.907317]}},{"properties":{"city":"Stockton","zip":"95206","propname":"2610 Lycoming Court","geo_score":0.873,"propno":"096-0060","id":"a6lrdm5tu4y1","geo_precision":"range","address":"2610 Lycoming Court","assettype":"Industrial","state":"CA"},"type":"Feature","geometry":{"type":"Point","coordinates":[-121.234866,37.908956]}},{"properties":{"city":"Stockton","zip":"95206","propname":"4360 Pock Lane","geo_score":0.902,"propno":"096-0080","id":"a6lrdmjg0qa6","geo_precision":"range","address":"4360 Pock Lane","assettype":"Industrial","state":"CA"},"type":"Feature","geometry":{"type":"Point","coordinates":[-121.239123,37.911175]}},{"properties":{"city":"Stockton","zip":"95206","propname":"4274 Pock Lane","geo_score":0.902,"propno":"096-0100","id":"a6lrdmi886bb","geo_precision":"range","address":"4274 Pock Lane","assettype":"Industrial","state":"CA"},"type":"Feature","geometry":{"type":"Point","coordinates":[-121.238481,37.912871]}},{"properties":{"city":"Stockton","zip":"95206","propname":"4336 Pock Lane","geo_score":0.902,"propno":"096-0110","id":"a6lrdm9g91kr","geo_precision":"range","address":"4336 Pock Lane","assettype":"Industrial","state":"CA"},"type":"Feature","geometry":{"type":"Point","coordinates":[-121.238895,37.911642]}},{"properties":{"city":"Stockton","zip":"95206","propname":"4283 Pock Lane","geo_score":0.902,"propno":"096-0170","id":"a6lrdm6c6rip","geo_precision":"range","address":"4283 Pock Lane","assettype":"Industrial","state":"CA"},"type":"Feature","geometry":{"type":"Point","coordinates":[-121.238493,37.912706]}},{"properties":{"city":"Stockton","zip":"95206","propname":"4331 Pock Lane","geo_score":0.902,"propno":"096-0180","id":"a6lrdmg6dtg7","geo_precision":"range","address":"4331 Pock Lane","assettype":"Industrial","state":"CA"},"type":"Feature","geometry":{"type":"Point","coordinates":[-121.238841,37.911754]}},{"properties":{"city":"Stockton","zip":"95205","propname":"2121 Boeing Way","geo_score":0.805,"propno":"096-0190","id":"a6lrdmhze659","geo_precision":"range","address":"2121 Boeing Way","assettype":"Industrial","state":"CA"},"type":"Feature","geometry":{"type":"Point","coordinates":[-121.243568,37.909593]}},{"properties":{"city":"Stockton","zip":"95206","propname":"2001 Arch-Airport Road","geo_score":0.902,"propno":"096-0300","id":"a6lrdmgc3my0","geo_precision":"range","address":"2001 Arch-Airport Road","assettype":"Industrial","state":"CA"},"type":"Feature","geometry":{"type":"Point","coordinates":[-121.245711,37.90527]}},{"properties":{"city":"Stockton","zip":"95206","propname":"2109 Arch-Airport Road","geo_score":0.902,"propno":"096-0310","id":"a6lrdmf3l8ci","geo_precision":"range","address":"2109 Arch-Airport Road","assettype":"Industrial","state":"CA"},"type":"Feature","geometry":{"type":"Point","coordinates":[-121.242732,37.905923]}},{"properties":{"city":"Stockton","zip":"95205","propname":"1928 Boeing Way","geo_score":0.805,"propno":"096-0350","id":"a6lrdmccv2m0","geo_precision":"range","address":"1928 Boeing Way","assettype":"Industrial","state":"CA"},"type":"Feature","geometry":{"type":"Point","coordinates":[-121.247057,37.908504]}},{"properties":{"city":"Sacramento","zip":"95821","propname":"Country Club / Liberty Centre","geo_score":0.852,"propno":"098-0010","id":"a6lrdmb3i2w1","geo_precision":"range","address":"3310-3460 El Camino Ave","assettype":"Retail &amp; Office","state":"CA"},"type":"Feature","geometry":{"type":"Point","coordinates":[-121.386739,38.610492]}},{"properties":{"city":"Lincoln","zip":"95648","propname":"3390 Venture Drive","geo_score":1.0,"propno":"099-0940","id":"a6lrdmc9k888","geo_precision":"range","address":"3390 Venture Drive","assettype":"Industrial","state":"CA"},"type":"Feature","geometry":{"type":"Point","coordinates":[-121.339672,38.904311]}},{"properties":{"city":"Lincoln","zip":"95648","propname":"1401 Aviation Blvd.","geo_score":0.807,"propno":"099-1000","id":"a6lrdmcqpw4w","geo_precision":"street","address":"1401 Aviation Blvd.","assettype":"Industrial","state":"CA"},"type":"Feature","geometry":{"type":"Point","coordinates":[-121.340066,38.897271]}},{"properties":{"city":"Sacramento","zip":"95828","propname":"8615 Elder Creek Road - HQ","geo_score":0.922,"propno":"100-0020","id":"a6lrdmc3ug8y","geo_precision":"range","address":"8615 Elder Creek Road","assettype":"Industrial","state":"CA"},"type":"Feature","geometry":{"type":"Point","coordinates":[-121.388491,38.510611]}},{"properties":{"city":"Sacramento","zip":"95826","propname":"3201 Florin Perkins","geo_score":0.888,"propno":"100-0030","id":"a6lrdm9vzxyx","geo_precision":"range","address":"3201 Florin Perkins","assettype":"Office","state":"CA"},"type":"Feature","geometry":{"type":"Point","coordinates":[-121.392117,38.546543]}},{"properties":{"city":"Sacramento","zip":"95826","propname":"5360 South Watt Avenue","geo_score":0.927,"propno":"100-0560","id":"a6lrdmif3bxq","geo_precision":"range","address":"5360 South Watt Avenue","assettype":"Industrial","state":"CA"},"type":"Feature","geometry":{"type":"Point","coordinates":[-121.370323,38.527364]}},{"properties":{"city":"Sacramento","zip":"95826","propname":"8935 Fruitridge Road","geo_score":0.927,"propno":"100-0580","id":"a6lrdmio9u6p","geo_precision":"range","address":"8935 Fruitridge Road","assettype":"Industrial","state":"CA"},"type":"Feature","geometry":{"type":"Point","coordinates":[-121.369562,38.525249]}},{"properties":{"city":"Sacramento","zip":"95827","propname":"3709 Bradview Drive","geo_score":1.0,"propno":"100-0800","id":"a6lrdmhhma06","geo_precision":"range","address":"3709 Bradview Drive","assettype":"Industrial","state":"CA"},"type":"Feature","geometry":{"type":"Point","coordinates":[-121.325716,38.557339]}},{"properties":{"city":"Sacramento","zip":"95827","propname":"3727 Bradview Drive","geo_score":1.0,"propno":"100-0810","id":"a6lrdmbevd4u","geo_precision":"range","address":"3727 Bradview Drive","assettype":"Industrial","state":"CA"},"type":"Feature","geometry":{"type":"Point","coordinates":[-121.326222,38.555962]}},{"properties":{"city":"Sacramento","zip":"95827","propname":"3735 Bradview Drive","geo_score":1.0,"propno":"100-0820","id":"a6lrdmgodheu","geo_precision":"range","address":"3735 Bradview Drive","assettype":"Industrial","state":"CA"},"type":"Feature","geometry":{"type":"Point","coordinates":[-121.326148,38.555322]}},{"properties":{"city":"Stockton","zip":"95206","propname":"4440 Alitalia Avenue","geo_score":0.631,"propno":"100-1230","id":"a6lrdmjwj8i6","geo_precision":"street","address":"4440 Alitalia Avenue","assettype":"Industrial","state":"CA"},"type":"Feature","geometry":{"type":"Point","coordinates":[-121.249511,37.907937]}},{"properties":{"city":"Stockton","zip":"95206","propname":"4510 Alitalia Avenue","geo_score":0.823,"propno":"100-1240","id":"a6lrdmkijnfz","geo_precision":"range","address":"4510 Alitalia Avenue","assettype":"Industrial","state":"CA"},"type":"Feature","geometry":{"type":"Point","coordinates":[-121.249454,37.907552]}},{"properties":{"city":"Rocklin","zip":"95677","propname":"2640 Sunset Blvd.","geo_score":1.0,"propno":"100-1400","id":"a6lrdm7z8tfd","geo_precision":"range","address":"2640 Sunset Blvd.","assettype":"Retail","state":"CA"},"type":"Feature","geometry":{"type":"Point","coordinates":[-121.255563,38.788561]}},{"properties":{"city":"Lincoln","zip":"95648","propname":"2800 Nicholas Road","geo_score":0.581,"propno":"103-0330","id":"a6lrdmcy4uko","geo_precision":"street","address":"2800 Nicholas Road","assettype":"Office","state":"CA"},"type":"Feature","geometry":{"type":"Point","coordinates":[-121.421561,39.017188]}},{"properties":{"city":"Sacramento","zip":"95818","propname":"2730 Broadway (DMV)","geo_score":0.941,"propno":"106-0010","id":"a6lrdmd47evq","geo_precision":"range","address":"2730 Broadway","assettype":"Office","state":"CA"},"type":"Feature","geometry":{"type":"Point","coordinates":[-121.477445,38.557605]}},{"properties":{"city":"Sacramento","zip":"95826","propname":"8395 Jackson Road","geo_score":0.927,"propno":"1070-0020","id":"a6lrdmitd97g","geo_precision":"range","address":"8395 Jackson Road","assettype":"Office","state":"CA"},"type":"Feature","geometry":{"type":"Point","coordinates":[-121.396112,38.545681]}},{"properties":{"city":"Rancho Cordova","zip":"95827","propname":"10361 Rockingham Drive","geo_score":0.925,"propno":"108-0010","id":"a6lrdma9k0p2","geo_precision":"range","address":"10361 Rockingham Drive","assettype":"Office","state":"CA"},"type":"Feature","geometry":{"type":"Point","coordinates":[-121.30492,38.574381]}},{"properties":{"city":"Sacramento","zip":"95605","propname":"1050 Richards Boulevard","geo_score":0.492,"propno":"117-0020","id":"a6lrdmbmdb34","geo_precision":"street","address":"1050 Richards Boulevard","assettype":"Industrial","state":"CA"},"type":"Feature","geometry":{"type":"Point","coordinates":[-121.738582,38.540807]}},{"properties":{"city":"Sacramento","zip":"95818","propname":"2201 Broadway","geo_score":0.941,"propno":"121-0010","id":"a6lrdmh9nypt","geo_precision":"range","address":"2201 Broadway","assettype":"Office","state":"CA"},"type":"Feature","geometry":{"type":"Point","coordinates":[-121.484366,38.559472]}},{"properties":{"city":"Sacramento","zip":"95818","propname":"2200 X St","geo_score":1.0,"propno":"121-0020","id":"a6lrdm68u7ck","geo_precision":"range","address":"2200 X St","assettype":"Office","state":"CA"},"type":"Feature","geometry":{"type":"Point","coordinates":[-121.4839,38.560552]}},{"properties":{"city":"Davis","zip":"95616","propname":"202 Cousteau Place","geo_score":0.571,"propno":"127-0010","id":"a6lrdmdb383g","geo_precision":"street","address":"202 Cousteau Place","assettype":"Office","state":"CA"},"type":"Feature","geometry":{"type":"Point","coordinates":[-121.833398,38.554272]}},{"properties":{"city":"Davis","zip":"95618","propname":"260 Cousteau Place","geo_score":0.463,"propno":"127-0020","id":"a6lrdmkiym73","geo_precision":"street","address":"260 Cousteau Place","assettype":"Office","state":"CA"},"type":"Feature","geometry":{"type":"Point","coordinates":[-121.552293,38.541236]}},{"properties":{"city":"Davis","zip":"95616","propname":"2795 Second Street","geo_score":0.785,"propno":"128-0010","id":"a6lrdmjuatp0","geo_precision":"range","address":"2795 Second Street","assettype":"Industrial","state":"CA"},"type":"Feature","geometry":{"type":"Point","coordinates":[-121.710758,38.550097]}},{"properties":{"city":"Davis","zip":"95616","propname":"607 Pena Drive","geo_score":0.638,"propno":"128-0020","id":"a6lrdmgu3501","geo_precision":"street","address":"607 Pena Drive","assettype":"Industrial","state":"CA"},"type":"Feature","geometry":{"type":"Point","coordinates":[-121.728645,38.55592]}},{"properties":{"city":"Sacramento","zip":"95834","propname":"4400 East Commerce","geo_score":0.503,"propno":"135-0050","id":"a6lrdmiuyfxu","geo_precision":"street","address":"4400 East Commerce","assettype":"Industrial","state":"CA"},"type":"Feature","geometry":{"type":"Point","coordinates":[-121.459308,38.597276]}},{"properties":{"city":"Sacramento","zip":null,"propname":"Antenna Easement / License","geo_score":0.857,"propno":"135-0060","id":"a6lrdm52s3c0","geo_precision":"city","address":null,"assettype":"Misc","state":"CA"},"type":"Feature","geometry":{"type":"Point","coordinates":[-121.4944,38.581572]}},{"properties":{"city":"Sacramento","zip":"95834","propname":"Del Paso Venture (2450)","geo_score":1.0,"propno":"135-0100","id":"a6lrdma6lyqa","geo_precision":"range","address":"2450 Del Paso Road","assettype":"Office","state":"CA"},"type":"Feature","geometry":{"type":"Point","coordinates":[-121.51397,38.655974]}},{"properties":{"city":"Sacramento","zip":"95834","propname":"Del Paso Venture (2420)","geo_score":1.0,"propno":"135-0110","id":"a6lrdmg1w0yp","geo_precision":"range","address":"2420 Del Paso Road","assettype":"Office","state":"CA"},"type":"Feature","geometry":{"type":"Point","coordinates":[-121.51374,38.655978]}},{"properties":{"city":"Sacramento","zip":"95834","propname":"Del Paso Marketplace Bldg. G","geo_score":1.0,"propno":"135-0410","id":"a6lrdmcrnf6o","geo_precision":"range","address":"2800 Del Paso Road","assettype":"Retail","state":"CA"},"type":"Feature","geometry":{"type":"Point","coordinates":[-121.526477,38.655837]}},{"properties":{"city":"Sacramento","zip":"95834","propname":"Del Paso Marketplace Bldg. A","geo_score":1.0,"propno":"135-0420","id":"a6lrdmigfa1a","geo_precision":"range","address":"2810 Del Paso Road","assettype":"Retail","state":"CA"},"type":"Feature","geometry":{"type":"Point","coordinates":[-121.526702,38.655834]}},{"properties":{"city":"Sacramento","zip":"95834","propname":"Del Paso Marketplace Bldg. B","geo_score":1.0,"propno":"135-0430","id":"a6lrdma0wy6r","geo_precision":"range","address":"2820 Del Paso Road","assettype":"Retail","state":"CA"},"type":"Feature","geometry":{"type":"Point","coordinates":[-121.526926,38.655831]}},{"properties":{"city":"Sacramento","zip":"95834","propname":"Del Paso Marketplace Bldg. F","geo_score":1.0,"propno":"135-0440","id":"a6lrdm7slcgj","geo_precision":"range","address":"2830 Del Paso Road","assettype":"Retail","state":"CA"},"type":"Feature","geometry":{"type":"Point","coordinates":[-121.527151,38.655828]}},{"properties":{"city":"Sacramento","zip":"95834","propname":"Del Paso Marketplace Bldg. E","geo_score":1.0,"propno":"135-0450","id":"a6lrdmbp1w36","geo_precision":"range","address":"2840 Del Paso Road","assettype":"Retail","state":"CA"},"type":"Feature","geometry":{"type":"Point","coordinates":[-121.527376,38.655825]}},{"properties":{"city":"Sacramento","zip":"95834","propname":"Del Paso Marketplace Bldg. D","geo_score":1.0,"propno":"135-0460","id":"a6lrdmetp10e","geo_precision":"range","address":"2850 Del Paso Road","assettype":"Retail","state":"CA"},"type":"Feature","geometry":{"type":"Point","coordinates":[-121.527601,38.655821]}},{"properties":{"city":"Sacramento","zip":"95834","propname":"Del Paso Marketplace Bldg. C","geo_score":1.0,"propno":"135-0470","id":"a6lrdm8zhuqq","geo_precision":"range","address":"2860 Del Paso Road","assettype":"Retail","state":"CA"},"type":"Feature","geometry":{"type":"Point","coordinates":[-121.527826,38.655818]}},{"properties":{"city":"Sacramento","zip":"95834","propname":"Old Arco Arena","geo_score":1.0,"propno":"140-0010","id":"a6lrdmjmj4js","geo_precision":"range","address":"1625 North Market Boulevard","assettype":"Office","state":"CA"},"type":"Feature","geometry":{"type":"Point","coordinates":[-121.502906,38.646627]}},{"properties":{"city":"Sacramento","zip":"95798","propname":"1733 Sports Drive","geo_score":0.655,"propno":"140-0060","id":"a6lrdmd4tige","geo_precision":"zip","address":"1733 Sports Drive","assettype":"Office","state":"CA"},"type":"Feature","geometry":{"type":"Point","coordinates":[-121.961532,38.619545]}},{"properties":{"city":"Sacramento","zip":null,"propname":"1747 N. Market","geo_score":0.325,"propno":"140-0070","id":"a6lrdm8nvuua","geo_precision":"street","address":"1747 N. Market","assettype":"Retail","state":"CA"},"type":"Feature","geometry":{"type":"Point","coordinates":[-121.487671,38.646862]}},{"properties":{"city":"Sacramento","zip":"95828","propname":"8301 Belvedere Ave","geo_score":0.805,"propno":"148-0010","id":"a6lrdmjf41pf","geo_precision":"range","address":"8301 Belvedere Ave","assettype":"Industrial","state":"CA"},"type":"Feature","geometry":{"type":"Point","coordinates":[-121.399834,38.537946]}},{"properties":{"city":"Folsom","zip":"95630","propname":"Folsom Office Building","geo_score":0.639,"propno":"150-0010","id":"a6lrdm8u193k","geo_precision":"street","address":"950 Iron Point Road","assettype":"Office","state":"CA"},"type":"Feature","geometry":{"type":"Point","coordinates":[-121.184303,38.642239]}},{"properties":{"city":"Cypress","zip":"90630","propname":"10801 Walker Street","geo_score":0.916,"propno":"161-0010","id":"a6lrdm89xd56","geo_precision":"range","address":"10801 Walker Street","assettype":"Office","state":"CA"},"type":"Feature","geometry":{"type":"Point","coordinates":[-118.03698,33.80643]}},{"properties":{"city":"Stockton","zip":"95206","propname":"4866 Frontier Road","geo_score":0.725,"propno":"170-0010","id":"a6lrdm851ymi","geo_precision":"range","address":"4866 Frontier Road","assettype":"Industrial","state":"CA"},"type":"Feature","geometry":{"type":"Point","coordinates":[-121.212992,37.905896]}},{"properties":{"city":"Stockton","zip":"95206","propname":"4848 Frontier Road","geo_score":0.725,"propno":"170-0020","id":"a6lrdmicmwu2","geo_precision":"range","address":"4848 Frontier Road","assettype":"Industrial","state":"CA"},"type":"Feature","geometry":{"type":"Point","coordinates":[-121.212994,37.90627]}},{"properties":{"city":"Stockton","zip":"95206","propname":"4790 Frontier Road","geo_score":0.725,"propno":"170-0030","id":"a6lrdmb97167","geo_precision":"range","address":"4790 Frontier Road","assettype":"Industrial","state":"CA"},"type":"Feature","geometry":{"type":"Point","coordinates":[-121.213005,37.907353]}},{"properties":{"city":"Stockton","zip":"95206","propname":"4772 Frontier Road","geo_score":0.725,"propno":"170-0040","id":"a6lrdmf4h3gg","geo_precision":"range","address":"4772 Frontier Road","assettype":"Industrial","state":"CA"},"type":"Feature","geometry":{"type":"Point","coordinates":[-121.213006,37.907545]}},{"properties":{"city":"Stockton","zip":"95206","propname":"4686 Frontier Way","geo_score":0.805,"propno":"170-0050","id":"a6lrdmdip7bb","geo_precision":"range","address":"4686 Frontier Way","assettype":"Industrial","state":"CA"},"type":"Feature","geometry":{"type":"Point","coordinates":[-121.213013,37.908466]}},{"properties":{"city":"Stockton","zip":"95206","propname":"3838 Imperial Way","geo_score":0.805,"propno":"170-0120","id":"a6lrdmbf39vl","geo_precision":"range","address":"3838 Imperial Way","assettype":"Industrial","state":"CA"},"type":"Feature","geometry":{"type":"Point","coordinates":[-121.217432,37.90937]}},{"properties":{"city":"Stockton","zip":"95206","propname":"4113 Gold River","geo_score":0.484,"propno":"170-0140","id":"a6lrdmjxcs77","geo_precision":"street","address":"4113 Gold River","assettype":"Industrial","state":"CA"},"type":"Feature","geometry":{"type":"Point","coordinates":[-120.473024,38.374354]}},{"properties":{"city":"Stockton","zip":"95205","propname":"3663 Arch Road","geo_score":0.805,"propno":"170-0180","id":"a6lrdm7m5iyf","geo_precision":"range","address":"3663 Arch Road","assettype":"Office","state":"CA"},"type":"Feature","geometry":{"type":"Point","coordinates":[-121.220229,37.905194]}},{"properties":{"city":"Stockton","zip":"95206","propname":"3836 Gold River Lane","geo_score":0.561,"propno":"170-0260","id":"a6lrdmhj8h0w","geo_precision":"street","address":"3836 Gold River Lane","assettype":"Industrial","state":"CA"},"type":"Feature","geometry":{"type":"Point","coordinates":[-121.32274,37.928435]}},{"properties":{"city":"Stockton","zip":"95206","propname":"3837 Imperial Way","geo_score":0.805,"propno":"170-0270","id":"a6lrdmjzpf5a","geo_precision":"range","address":"3837 Imperial Way","assettype":"Industrial","state":"CA"},"type":"Feature","geometry":{"type":"Point","coordinates":[-121.217456,37.90937]}},{"properties":{"city":"Stockton","zip":"95206","propname":"3840 Metro Drive","geo_score":0.805,"propno":"170-0330","id":"a6lrdmgl4gh7","geo_precision":"range","address":"3840 Metro Drive","assettype":"Industrial","state":"CA"},"type":"Feature","geometry":{"type":"Point","coordinates":[-121.215994,37.907256]}},{"properties":{"city":"Stockton","zip":"95206","propname":"4072 Metro Drive","geo_score":0.611,"propno":"170-0335","id":"a6lrdm8sfsc7","geo_precision":"street","address":"4072 Metro Drive","assettype":"Industrial","state":"CA"},"type":"Feature","geometry":{"type":"Point","coordinates":[-121.213,37.907267]}},{"properties":{"city":"Stockton","zip":"95206","propname":"4082 Metro Drive","geo_score":0.611,"propno":"170-0340","id":"a6lrdmdil5ck","geo_precision":"street","address":"4082 Metro Drive","assettype":"Industrial","state":"CA"},"type":"Feature","geometry":{"type":"Point","coordinates":[-121.213,37.907267]}},{"properties":{"city":"Stockton","zip":"95206","propname":"4092 Metro Drive","geo_score":0.611,"propno":"170-0345","id":"a6lrdm8deju1","geo_precision":"street","address":"4092 Metro Drive","assettype":"Industrial","state":"CA"},"type":"Feature","geometry":{"type":"Point","coordinates":[-121.213,37.907267]}},{"properties":{"city":"Stockton","zip":"95206","propname":"7199 S Longe Street","geo_score":0.671,"propno":"172-0020","id":"a6lrdma9qlrb","geo_precision":"street","address":"7199 S Longe Street","assettype":"Industrial","state":"CA"},"type":"Feature","geometry":{"type":"Point","coordinates":[-121.250575,37.894082]}},{"properties":{"city":"Stockton","zip":"95206","propname":"7679 S Longe Street","geo_score":0.68,"propno":"172-0040","id":"a6lrdmjs90ht","geo_precision":"street","address":"7679 S Longe Street","assettype":"Industrial","state":"CA"},"type":"Feature","geometry":{"type":"Point","coordinates":[-121.250575,37.894082]}},{"properties":{"city":"Stockton","zip":"95206","propname":"6750 S Longe Street","geo_score":0.671,"propno":"172-0050","id":"a6lrdmfgiktl","geo_precision":"street","address":"6750 S Longe Street","assettype":"Industrial","state":"CA"},"type":"Feature","geometry":{"type":"Point","coordinates":[-121.250575,37.894082]}},{"properties":{"city":"Stockton","zip":"95206","propname":"7100 S Longe Street","geo_score":0.671,"propno":"172-0060","id":"a6lrdm6zc63v","geo_precision":"street","address":"7100 S Longe Street","assettype":"Industrial","state":"CA"},"type":"Feature","geometry":{"type":"Point","coordinates":[-121.250575,37.894082]}},{"properties":{"city":"Stockton","zip":"95206","propname":"1621 Citation Street","geo_score":0.561,"propno":"172-0090","id":"a6lrdm9xa68a","geo_precision":"street","address":"1621 Citation Street","assettype":"Industrial","state":"CA"},"type":"Feature","geometry":{"type":"Point","coordinates":[-121.251093,37.892522]}},{"properties":{"city":"Stockton","zip":"95206","propname":"1641 Citation Street","geo_score":0.561,"propno":"172-0100","id":"a6lrdmaj4q9u","geo_precision":"street","address":"1641 Citation Street","assettype":"Industrial","state":"CA"},"type":"Feature","geometry":{"type":"Point","coordinates":[-121.251093,37.892522]}},{"properties":{"city":"Stockton","zip":"95206","propname":"6755 Dixon Street","geo_score":0.568,"propno":"172-0110","id":"a6lrdmix8f89","geo_precision":"street","address":"6755 Dixon Street","assettype":"Industrial","state":"CA"},"type":"Feature","geometry":{"type":"Point","coordinates":[-120.858817,38.139255]}},{"properties":{"city":"West Sacramento","zip":"95605","propname":"710 Riverpoint Circle","geo_score":0.864,"propno":"177-0040","id":"a6lrdmg92bsw","geo_precision":"range","address":"710 Riverpoint Circle","assettype":"Office","state":"CA"},"type":"Feature","geometry":{"type":"Point","coordinates":[-121.548451,38.593378]}},{"properties":{"city":"Fresno","zip":"97706","propname":"2825 S Elm Avenue","geo_score":0.357,"propno":"178-0010","id":"a6lrdmco6jvp","geo_precision":"street","address":"2825 S. Elm Avenue","assettype":"Industrial","state":"CA"},"type":"Feature","geometry":{"type":"Point","coordinates":[-121.549945,44.292186]}},{"properties":{"city":"Fresno","zip":"97706","propname":"2855 S. Elm Avenue","geo_score":0.357,"propno":"178-0020","id":"a6lrdm9yyhqr","geo_precision":"street","address":"2855 S. Elm Avenue","assettype":"Industrial","state":"CA"},"type":"Feature","geometry":{"type":"Point","coordinates":[-121.549945,44.292186]}},{"properties":{"city":"Fresno","zip":"97706","propname":"2875 S Elm Avenue","geo_score":0.568,"propno":"178-0030","id":"a6lrdmkimmye","geo_precision":"street","address":"2875 S Elm Avenue","assettype":"Industrial","state":"CA"},"type":"Feature","geometry":{"type":"Point","coordinates":[-119.049092,43.592766]}},{"properties":{"city":"Sacramento","zip":"95828","propname":"8671 Younger Creek Drive","geo_score":0.922,"propno":"180-0010","id":"a6lrdmi1nzyr","geo_precision":"range","address":"8671 Younger Creek Drive","assettype":"Industrial","state":"CA"},"type":"Feature","geometry":{"type":"Point","coordinates":[-121.382931,38.516855]}},{"properties":{"city":"Sacramento","zip":"95828","propname":"8681 Younger Creek Dr","geo_score":0.922,"propno":"180-0020","id":"a6lrdmbuh0j5","geo_precision":"range","address":"8681 Younger Creek Dr","assettype":"Industrial","state":"CA"},"type":"Feature","geometry":{"type":"Point","coordinates":[-121.382198,38.517391]}},{"properties":{"city":"Sacramento","zip":"95828","propname":"8825 Elder Creek","geo_score":0.873,"propno":"180-0050","id":"a6lrdm5kn63b","geo_precision":"range","address":"8825 Elder Creek","assettype":"Industrial","state":"CA"},"type":"Feature","geometry":{"type":"Point","coordinates":[-121.375118,38.510684]}},{"properties":{"city":"Tracy","zip":"95376","propname":"1050 E. Grantline Road","geo_score":0.485,"propno":"180-0110","id":"a6lrdm99c131","geo_precision":"street","address":"1050 E. Grantline Road","assettype":"Industrial","state":"CA"},"type":"Feature","geometry":{"type":"Point","coordinates":[-121.425901,37.754264]}},{"properties":{"city":"Tracy","zip":"95376","propname":"1820 N MacArthur Dr","geo_score":0.485,"propno":"180-0120","id":"a6lrdmervomd","geo_precision":"street","address":"1820 N. MacArthur Dr","assettype":"Industrial","state":"CA"},"type":"Feature","geometry":{"type":"Point","coordinates":[-121.416527,37.737415]}},{"properties":{"city":"Tracy","zip":"95376","propname":"1565 N MacArthur Dr","geo_score":0.485,"propno":"180-0130","id":"a6lrdmjjv2nh","geo_precision":"street","address":"1565 N. MacArthur Dr","assettype":"Industrial","state":"CA"},"type":"Feature","geometry":{"type":"Point","coordinates":[-121.416527,37.737415]}},{"properties":{"city":"Tracy","zip":"95376","propname":"1830 N MacArthur","geo_score":0.485,"propno":"180-0140","id":"a6lrdmi2okps","geo_precision":"street","address":"1830 N. MacArthur","assettype":"Industrial","state":"CA"},"type":"Feature","geometry":{"type":"Point","coordinates":[-121.416527,37.737415]}},{"properties":{"city":"Stockton","zip":"95206","propname":"3656 Perlman Drive","geo_score":0.902,"propno":"180-0150","id":"a6lrdmg7ckvy","geo_precision":"range","address":"3656 Perlman Drive","assettype":"Industrial","state":"CA"},"type":"Feature","geometry":{"type":"Point","coordinates":[-121.267925,37.913462]}},{"properties":{"city":"Stockton","zip":"95206","propname":"811 Zephyr Street","geo_score":0.902,"propno":"180-0160","id":"a6lrdm4uhu8f","geo_precision":"range","address":"811 Zephyr Street","assettype":"Industrial","state":"CA"},"type":"Feature","geometry":{"type":"Point","coordinates":[-121.265857,37.912673]}},{"properties":{"city":"Vacaville","zip":"95688","propname":"2001 Cessna Drive","geo_score":0.924,"propno":"189-0010","id":"a6lrdmi866uq","geo_precision":"range","address":"2001 Cessna Drive","assettype":"Office","state":"CA"},"type":"Feature","geometry":{"type":"Point","coordinates":[-121.957581,38.395225]}},{"properties":{"city":"Vacaville","zip":"95688","propname":"2141 Beechcraft Road","geo_score":0.607,"propno":"189-0150","id":"a6lrdma0trd5","geo_precision":"zip","address":"2141 Beechcraft Road","assettype":"Industrial","state":"CA"},"type":"Feature","geometry":{"type":"Point","coordinates":[-121.943022,38.444631]}},{"properties":{"city":"Vacaville","zip":"95688","propname":"2131 Beechcraft Road","geo_score":0.607,"propno":"189-0160","id":"a6lrdm9tbdo3","geo_precision":"zip","address":"2131 Beechcraft Road","assettype":"Industrial","state":"CA"},"type":"Feature","geometry":{"type":"Point","coordinates":[-121.943022,38.444631]}},{"properties":{"city":"Vacaville","zip":"95688","propname":"2051 Cessna Drive","geo_score":0.924,"propno":"189-0170","id":"a6lrdmfh3zmy","geo_precision":"range","address":"2051 Cessna Drive","assettype":"Industrial","state":"CA"},"type":"Feature","geometry":{"type":"Point","coordinates":[-121.958436,38.393765]}},{"properties":{"city":"Vacaville","zip":"95688","propname":"2055 Cessna Drive","geo_score":0.924,"propno":"189-0175","id":"a6lrdm65yoiq","geo_precision":"range","address":"2055 Cessna Drive","assettype":"Industrial","state":"CA"},"type":"Feature","geometry":{"type":"Point","coordinates":[-121.9585,38.393647]}},{"properties":{"city":"Vacaville","zip":"95688","propname":"2148 Beechcraft Road","geo_score":0.607,"propno":"189-0180","id":"a6lrdmj56vlr","geo_precision":"zip","address":"2148 Beechcraft Road","assettype":"Industrial","state":"CA"},"type":"Feature","geometry":{"type":"Point","coordinates":[-121.943022,38.444631]}},{"properties":{"city":"Vacaville","zip":"95688","propname":"2144 Beechcraft Road","geo_score":0.607,"propno":"189-0185","id":"a6lrdm97y47w","geo_precision":"zip","address":"2144 Beechcraft Road","assettype":"Industrial","state":"CA"},"type":"Feature","geometry":{"type":"Point","coordinates":[-121.943022,38.444631]}},{"properties":{"city":"Vacaville","zip":"95688","propname":"2140 Beechcraft Road","geo_score":0.607,"propno":"189-0190","id":"a6lrdm5b9l8j","geo_precision":"zip","address":"2140 Beechcraft Road","assettype":"Industrial","state":"CA"},"type":"Feature","geometry":{"type":"Point","coordinates":[-121.943022,38.444631]}},{"properties":{"city":"Vacaville","zip":"95668","propname":"2041 Cessna Drive","geo_score":0.805,"propno":"189-0210","id":"a6lrdmklr4g9","geo_precision":"range","address":"2041 Cessna Drive","assettype":"Industrial","state":"CA"},"type":"Feature","geometry":{"type":"Point","coordinates":[-121.958275,38.394062]}},{"properties":{"city":"Sacramento","zip":"95828","propname":"8583 Elder Creek Road","geo_score":0.922,"propno":"200-0130","id":"a6lrdmjpnf8z","geo_precision":"range","address":"8583 Elder Creek Road","assettype":"Industrial","state":"CA"},"type":"Feature","geometry":{"type":"Point","coordinates":[-121.389062,38.510597]}},{"properties":{"city":"Stockton","zip":"95206","propname":"3412 Perlman Drive","geo_score":0.71,"propno":"200-0200","id":"a6lrdmf7zgrd","geo_precision":"street","address":"3412 Perlman Drive","assettype":"Industrial","state":"CA"},"type":"Feature","geometry":{"type":"Point","coordinates":[-121.269731,37.917944]}},{"properties":{"city":"Sacramento","zip":"95834","propname":"2414 Del Paso Road (Bldg A)","geo_score":1.0,"propno":"200-0305","id":"a6lrdmcsr8s0","geo_precision":"range","address":"2414 Del Paso Road","assettype":"Office","state":"CA"},"type":"Feature","geometry":{"type":"Point","coordinates":[-121.513694,38.655978]}},{"properties":{"city":"Sacramento","zip":"95834","propname":"2408 Del Paso Road (Bldg C)","geo_score":1.0,"propno":"200-0315","id":"a6lrdmgstkae","geo_precision":"range","address":"2408 Del Paso Road","assettype":"Office","state":"CA"},"type":"Feature","geometry":{"type":"Point","coordinates":[-121.513648,38.655979]}},{"properties":{"city":"Sacramento","zip":"95834","propname":"2402 Del Paso Road (Bldg D)","geo_score":1.0,"propno":"200-0320","id":"a6lrdmd2wcfs","geo_precision":"range","address":"2402 Del Paso Road","assettype":"Office","state":"CA"},"type":"Feature","geometry":{"type":"Point","coordinates":[-121.513601,38.65598]}},{"properties":{"city":"Sacramento","zip":"95834","propname":"2406 Del Paso Road (Bldg E)","geo_score":1.0,"propno":"200-0325","id":"a6lrdmbntrk9","geo_precision":"range","address":"2406 Del Paso Road","assettype":"Office","state":"CA"},"type":"Feature","geometry":{"type":"Point","coordinates":[-121.513632,38.655979]}},{"properties":{"city":"Sacramento","zip":"95834","propname":"2404 Del Paso Road (Bldg F)","geo_score":1.0,"propno":"200-0330","id":"a6lrdmfnx2v6","geo_precision":"range","address":"2404 Del Paso Road","assettype":"Office","state":"CA"},"type":"Feature","geometry":{"type":"Point","coordinates":[-121.513617,38.655979]}},{"properties":{"city":"Lincoln","zip":"95648","propname":"1331 Aviation (Bldg A)","geo_score":0.747,"propno":"200-0950","id":"a6lrdmbfl4j6","geo_precision":"street","address":"1331 Aviation","assettype":"Industrial","state":"CA"},"type":"Feature","geometry":{"type":"Point","coordinates":[-121.340066,38.897271]}},{"properties":{"city":"Lincoln","zip":"95648","propname":"800 Business Park Dr (Bldg B)","geo_score":0.61,"propno":"200-0955","id":"a6lrdmdkl43k","geo_precision":"street","address":"800 Business Park Drive","assettype":"Industrial","state":"CA"},"type":"Feature","geometry":{"type":"Point","coordinates":[-121.820328,38.452943]}},{"properties":{"city":"Lincoln","zip":"95648","propname":"600 Business Park Dr (Bldg D)","geo_score":0.61,"propno":"200-0965","id":"a6lrdmkapg3a","geo_precision":"street","address":"600 Business Park Drive","assettype":"Industrial","state":"CA"},"type":"Feature","geometry":{"type":"Point","coordinates":[-121.820328,38.452943]}},{"properties":{"city":"Lincoln","zip":"95648","propname":"570 Business Park Dr (Bldg E)","geo_score":0.61,"propno":"200-0970","id":"a6lrdm7sdhwz","geo_precision":"street","address":"570 Business Park Drive","assettype":"Industrial","state":"CA"},"type":"Feature","geometry":{"type":"Point","coordinates":[-121.820328,38.452943]}},{"properties":{"city":"Vacaville","zip":"95688","propname":"Vacaville Industrial Park","geo_score":0.924,"propno":"202-0010","id":"a6lrdmkk1wsx","geo_precision":"range","address":"2050 Cessna Drive","assettype":"Industrial","state":"CA"},"type":"Feature","geometry":{"type":"Point","coordinates":[-121.958436,38.393765]}},{"properties":{"city":"North Highlands","zip":"95660","propname":"3300 Winona Way Pole Barn","geo_score":0.916,"propno":"204-0010","id":"a6lrdm9r2256","geo_precision":"range","address":"3300 Winona Way","assettype":"Industrial","state":"CA"},"type":"Feature","geometry":{"type":"Point","coordinates":[-121.387026,38.651967]}},{"properties":{"city":"North Highlands","zip":"95660","propname":"3390 Winona Way","geo_score":0.916,"propno":"204-0020","id":"a6lrdm94ror1","geo_precision":"range","address":"3390 Winona Way","assettype":"Industrial","state":"CA"},"type":"Feature","geometry":{"type":"Point","coordinates":[-121.383226,38.651869]}},{"properties":{"city":"West Sacramento","zip":"95691","propname":"Northport Industrial Park","geo_score":1.0,"propno":"204-0030","id":"a6lrdmimze4t","geo_precision":"range","address":"3920 West Capitol Ave","assettype":"Industrial","state":"CA"},"type":"Feature","geometry":{"type":"Point","coordinates":[-121.562901,38.5784]}},{"properties":{"city":"Sacramento","zip":"95828","propname":"5410 Florin Perkins","geo_score":0.689,"propno":"207-0040","id":"a6lrdm60momd","geo_precision":"street","address":"5410 Florin Perkins","assettype":"Industrial","state":"CA"},"type":"Feature","geometry":{"type":"Point","coordinates":[-121.390694,38.525179]}},{"properties":{"city":"Sacramento","zip":"95828","propname":"5430 Florin Perkins","geo_score":0.689,"propno":"207-0050","id":"a6lrdm7ackjy","geo_precision":"street","address":"5430 Florin Perkins","assettype":"Industrial","state":"CA"},"type":"Feature","geometry":{"type":"Point","coordinates":[-121.390694,38.525179]}},{"properties":{"city":"Sacramento","zip":"95828","propname":"5440 Florin Perkins","geo_score":0.689,"propno":"207-0060","id":"a6lrdmahdlrg","geo_precision":"street","address":"5440 Florin Perkins","assettype":"Industrial","state":"CA"},"type":"Feature","geometry":{"type":"Point","coordinates":[-121.390694,38.525179]}},{"properties":{"city":"Sacramento","zip":"95828","propname":"5450 Florin Perkins","geo_score":0.689,"propno":"207-0070","id":"a6lrdm7jm6by","geo_precision":"street","address":"5450 Florin Perkins","assettype":"Industrial","state":"CA"},"type":"Feature","geometry":{"type":"Point","coordinates":[-121.390694,38.525179]}},{"properties":{"city":"Sacramento","zip":"95826","propname":"5380 S Watt Ave","geo_score":0.927,"propno":"207-0110","id":"a6lrdm85204p","geo_precision":"range","address":"5380 S Watt Ave","assettype":"Industrial","state":"CA"},"type":"Feature","geometry":{"type":"Point","coordinates":[-121.37032,38.527053]}},{"properties":{"city":"Sacramento","zip":"95828","propname":"4540 Florin Perkins","geo_score":0.688,"propno":"207-0115","id":"a6lrdmgm3wa5","geo_precision":"street","address":"4540 Florin Perkins","assettype":"Industrial","state":"CA"},"type":"Feature","geometry":{"type":"Point","coordinates":[-121.390694,38.525179]}},{"properties":{"city":"Sacramento","zip":"95828","propname":"4570 Florin Perkins","geo_score":0.688,"propno":"207-0120","id":"a6lrdmhyd2k5","geo_precision":"street","address":"4570 Florin Perkins","assettype":"Industrial","state":"CA"},"type":"Feature","geometry":{"type":"Point","coordinates":[-121.390694,38.525179]}},{"properties":{"city":"Sacramento","zip":"95828","propname":"4600 Florin Perkins","geo_score":0.688,"propno":"207-0125","id":"a6lrdmk28wbm","geo_precision":"street","address":"4600 Florin Perkins","assettype":"Industrial","state":"CA"},"type":"Feature","geometry":{"type":"Point","coordinates":[-121.390694,38.525179]}},{"properties":{"city":"Sacramento","zip":"95828","propname":"4630 Florin Perkins","geo_score":0.688,"propno":"207-0130","id":"a6lrdm94a3vx","geo_precision":"street","address":"4630 Florin Perkins","assettype":"Industrial","state":"CA"},"type":"Feature","geometry":{"type":"Point","coordinates":[-121.390694,38.525179]}},{"properties":{"city":"Sacramento","zip":"95828","propname":"4660 Florin Perkins","geo_score":0.688,"propno":"207-0135","id":"a6lrdm7xctqd","geo_precision":"street","address":"4660 Florin Perkins","assettype":"Industrial","state":"CA"},"type":"Feature","geometry":{"type":"Point","coordinates":[-121.390694,38.525179]}},{"properties":{"city":"Sacramento","zip":"95828","propname":"8501 Younger Creek Rd","geo_score":0.88,"propno":"207-0140","id":"a6lrdm8xwina","geo_precision":"range","address":"8501 Younger Creek Rd","assettype":"Industrial","state":"CA"},"type":"Feature","geometry":{"type":"Point","coordinates":[-121.390598,38.516566]}},{"properties":{"city":"Sacramento","zip":"95828","propname":"8511 Younger Creek Rd","geo_score":0.88,"propno":"207-0150","id":"a6lrdmechcu2","geo_precision":"range","address":"8511 Younger Creek Rd","assettype":"Industrial","state":"CA"},"type":"Feature","geometry":{"type":"Point","coordinates":[-121.39022,38.516576]}},{"properties":{"city":"Sacramento","zip":"95828","propname":"8555 Elder Creek Road","geo_score":0.922,"propno":"207-0160","id":"a6lrdm5nkf3d","geo_precision":"range","address":"8555 Elder Creek Road","assettype":"Industrial","state":"CA"},"type":"Feature","geometry":{"type":"Point","coordinates":[-121.389562,38.510584]}},{"properties":{"city":"Sacramento","zip":"95828","propname":"6301 Florin Perkins","geo_score":0.883,"propno":"207-0180","id":"a6lrdmbp6ytu","geo_precision":"range","address":"6301 Florin Perkins","assettype":"Industrial","state":"CA"},"type":"Feature","geometry":{"type":"Point","coordinates":[-121.390566,38.513013]}},{"properties":{"city":"Sacramento","zip":"95828","propname":"Florin Deport Corporate Center","geo_score":0.883,"propno":"207-0190","id":"a6lrdmc8n7y1","geo_precision":"range","address":"6311 Florin Perkins","assettype":"Industrial","state":"CA"},"type":"Feature","geometry":{"type":"Point","coordinates":[-121.390564,38.512763]}},{"properties":{"city":"Sacramento","zip":"95838","propname":"5071 Kelton Way","geo_score":0.729,"propno":"207-0200","id":"a6lrdmhcdawf","geo_precision":"street","address":"5071 Kelton Way","assettype":"Industrial","state":"CA"},"type":"Feature","geometry":{"type":"Point","coordinates":[-121.46615,38.655169]}},{"properties":{"city":"Sacramento","zip":"95838","propname":"5091 Kelton (Bldg B)","geo_score":0.631,"propno":"207-0210","id":"a6lrdmc9xx9j","geo_precision":"street","address":"5091 Kelton","assettype":"Industrial","state":"CA"},"type":"Feature","geometry":{"type":"Point","coordinates":[-121.46615,38.655169]}},{"properties":{"city":"Sacramento","zip":"95838","propname":"5081 Kelton (Bldg C)","geo_score":0.631,"propno":"207-0220","id":"a6lrdmbfuowf","geo_precision":"street","address":"5081 Kelton","assettype":"Industrial","state":"CA"},"type":"Feature","geometry":{"type":"Point","coordinates":[-121.46615,38.655169]}},{"properties":{"city":"Sacramento","zip":"95815","propname":"2709 Academy Way","geo_score":0.846,"propno":"207-0250","id":"a6lrdmabmzf1","geo_precision":"range","address":"2709 Academy Way","assettype":"Industrial","state":"CA"},"type":"Feature","geometry":{"type":"Point","coordinates":[-121.431222,38.616573]}},{"properties":{"city":"Sacramento","zip":"95815","propname":"2701 Academy Way Parcel 1","geo_score":0.846,"propno":"207-0260","id":"a6lrdmdtasb4","geo_precision":"range","address":"2701 Academy Way","assettype":"Industrial","state":"CA"},"type":"Feature","geometry":{"type":"Point","coordinates":[-121.431474,38.616267]}},{"properties":{"city":"Sacramento","zip":"95831","propname":"1110 Corporate Way","geo_score":1.0,"propno":"207-0350","id":"a6lrdm6bllmi","geo_precision":"range","address":"1110 Corporate Way","assettype":"Office","state":"CA"},"type":"Feature","geometry":{"type":"Point","coordinates":[-121.516808,38.489954]}},{"properties":{"city":"Sacramento","zip":"95831","propname":"1122 Corporate Way","geo_score":1.0,"propno":"207-0360","id":"a6lrdmbfqq6z","geo_precision":"range","address":"1122 Corporate Way","assettype":"Office","state":"CA"},"type":"Feature","geometry":{"type":"Point","coordinates":[-121.516182,38.490483]}},{"properties":{"city":"Sacramento","zip":"95831","propname":"1120 Corporate Way","geo_score":1.0,"propno":"207-0365","id":"a6lrdmchqgch","geo_precision":"range","address":"1120 Corporate Way","assettype":"Office","state":"CA"},"type":"Feature","geometry":{"type":"Point","coordinates":[-121.516254,38.490374]}},{"properties":{"city":"Elk Grove","zip":"95624","propname":"10271 Iron Rock Way","geo_score":0.915,"propno":"207-0400","id":"a6lrdma2dn0m","geo_precision":"range","address":"10271 Iron Rock Way","assettype":"Industrial","state":"CA"},"type":"Feature","geometry":{"type":"Point","coordinates":[-121.358738,38.385249]}},{"properties":{"city":"Elk Grove","zip":"95624","propname":"10281 Iron Rock Way","geo_score":0.915,"propno":"207-0410","id":"a6lrdmaad1np","geo_precision":"range","address":"10281 Iron Rock Way","assettype":"Industrial","state":"CA"},"type":"Feature","geometry":{"type":"Point","coordinates":[-121.358659,38.384977]}},{"properties":{"city":"Elk Grove","zip":"95624","propname":"10273 Iron Rock Way","geo_score":0.915,"propno":"207-0420","id":"a6lrdmi3ywiy","geo_precision":"range","address":"10273 Iron Rock Way","assettype":"Industrial","state":"CA"},"type":"Feature","geometry":{"type":"Point","coordinates":[-121.358722,38.385194]}},{"properties":{"city":"Elk Grove","zip":"95624","propname":"10283 Iron Rock Way","geo_score":0.915,"propno":"207-0430","id":"a6lrdme8t9ja","geo_precision":"range","address":"10283 Iron Rock Way","assettype":"Industrial","state":"CA"},"type":"Feature","geometry":{"type":"Point","coordinates":[-121.358643,38.384923]}},{"properties":{"city":"Elk Grove","zip":"95624","propname":"10277 Iron Rock Way","geo_score":0.915,"propno":"207-0440","id":"a6lrdmc3s04i","geo_precision":"range","address":"10277 Iron Rock Way","assettype":"Industrial","state":"CA"},"type":"Feature","geometry":{"type":"Point","coordinates":[-121.35869,38.385086]}},{"properties":{"city":"Sacramento","zip":"95828","propname":"8622 Elder Creek","geo_score":0.873,"propno":"207-0605","id":"a6lrdmavtebc","geo_precision":"range","address":"8622 Elder Creek","assettype":"Industrial","state":"CA"},"type":"Feature","geometry":{"type":"Point","coordinates":[-121.387675,38.510632]}},{"properties":{"city":"Sacramento","zip":"95828","propname":"8624 Elder Creek (Bldg B)","geo_score":0.873,"propno":"207-0610","id":"a6lrdmkoof58","geo_precision":"range","address":"8624 Elder Creek","assettype":"Industrial","state":"CA"},"type":"Feature","geometry":{"type":"Point","coordinates":[-121.387628,38.510633]}},{"properties":{"city":"Sacramento","zip":"95828","propname":"8626 Elder Creek (Bldg C)","geo_score":0.873,"propno":"207-0615","id":"a6lrdm8co9kq","geo_precision":"range","address":"8626 Elder Creek","assettype":"Industrial","state":"CA"},"type":"Feature","geometry":{"type":"Point","coordinates":[-121.387582,38.510635]}},{"properties":{"city":"Sacramento","zip":"95828","propname":"8628 Elder Creek","geo_score":0.873,"propno":"207-0620","id":"a6lrdmhb1ykp","geo_precision":"range","address":"8628 Elder Creek","assettype":"Industrial","state":"CA"},"type":"Feature","geometry":{"type":"Point","coordinates":[-121.387535,38.510636]}},{"properties":{"city":"Sacramento","zip":"95828","propname":"8630 Elder Creek","geo_score":0.873,"propno":"207-0625","id":"a6lrdmahxqft","geo_precision":"range","address":"8630 Elder Creek","assettype":"Industrial","state":"CA"},"type":"Feature","geometry":{"type":"Point","coordinates":[-121.387488,38.510637]}},{"properties":{"city":"Sacramento","zip":"95828","propname":"8632 Elder Creek (Bldg F)","geo_score":0.873,"propno":"207-0630","id":"a6lrdmavv2xt","geo_precision":"range","address":"8632 Elder Creek","assettype":"Industrial","state":"CA"},"type":"Feature","geometry":{"type":"Point","coordinates":[-121.387441,38.510638]}},{"properties":{"city":"Sacramento","zip":"95828","propname":"8634 Elder Creek","geo_score":0.873,"propno":"207-0635","id":"a6lrdmb9of82","geo_precision":"range","address":"8634 Elder Creek","assettype":"Industrial","state":"CA"},"type":"Feature","geometry":{"type":"Point","coordinates":[-121.387395,38.510639]}},{"properties":{"city":"Sacramento","zip":"95828","propname":"8636 Elder Creek (Bldg H)","geo_score":0.873,"propno":"207-0640","id":"a6lrdm4yga8c","geo_precision":"range","address":"8636 Elder Creek","assettype":"Industrial","state":"CA"},"type":"Feature","geometry":{"type":"Point","coordinates":[-121.387348,38.510641]}},{"properties":{"city":"Sacramento","zip":"95828","propname":"8638 Elder Creek","geo_score":0.873,"propno":"207-0645","id":"a6lrdmjip19t","geo_precision":"range","address":"8638 Elder Creek","assettype":"Industrial","state":"CA"},"type":"Feature","geometry":{"type":"Point","coordinates":[-121.387301,38.510642]}},{"properties":{"city":"Sacramento","zip":"95828","propname":"8640 Elder Creek","geo_score":0.873,"propno":"207-0650","id":"a6lrdm57rxsb","geo_precision":"range","address":"8640 Elder Creek","assettype":"Industrial","state":"CA"},"type":"Feature","geometry":{"type":"Point","coordinates":[-121.387254,38.510643]}},{"properties":{"city":"Sacramento","zip":"95828","propname":"8651 Morrison Creek","geo_score":0.692,"propno":"207-0720","id":"a6lrdmaqnlwa","geo_precision":"street","address":"8651 Morrison Creek","assettype":"Industrial","state":"CA"},"type":"Feature","geometry":{"type":"Point","coordinates":[-121.387228,38.506088]}},{"properties":{"city":"Sacramento","zip":"95828","propname":"8671 Morrison Creek","geo_score":0.691,"propno":"207-0730","id":"a6lrdmbllon6","geo_precision":"street","address":"8671 Morrison Creek","assettype":"Industrial","state":"CA"},"type":"Feature","geometry":{"type":"Point","coordinates":[-121.387228,38.506088]}},{"properties":{"city":"Woodland","zip":"95776","propname":"440 N Pioneer","geo_score":0.92,"propno":"207-0800","id":"a6lrdmbho5ew","geo_precision":"range","address":"440 N Pioneer","assettype":"Industrial","state":"CA"},"type":"Feature","geometry":{"type":"Point","coordinates":[-121.74677,38.692452]}},{"properties":{"city":"Stockton","zip":"95206","propname":"3021 Boeing Way","geo_score":0.902,"propno":"207-0805","id":"a6lrdm9zr6bc","geo_precision":"range","address":"3021 Boeing Way","assettype":"Industrial","state":"CA"},"type":"Feature","geometry":{"type":"Point","coordinates":[-121.228323,37.910982]}},{"properties":{"city":"Rocklin","zip":"95765","propname":"3735 Cincinnati Avenue","geo_score":1.0,"propno":"207-0910","id":"a6lrdmgbzcsx","geo_precision":"range","address":"3735 Cincinnati Avenue","assettype":"Industrial","state":"CA"},"type":"Feature","geometry":{"type":"Point","coordinates":[-121.312034,38.812966]}},{"properties":{"city":"Rocklin","zip":"95765","propname":"3725 Cincinnati Avenue","geo_score":1.0,"propno":"207-0920","id":"a6lrdmdn4mwz","geo_precision":"range","address":"3725 Cincinnati Avenue","assettype":"Industrial","state":"CA"},"type":"Feature","geometry":{"type":"Point","coordinates":[-121.312039,38.812286]}},{"properties":{"city":"Stockton","zip":"95206","propname":"1718 Boeing Way","geo_score":0.71,"propno":"207-1210","id":"a6lrdm4z2z9h","geo_precision":"street","address":"1718 Boeing Way","assettype":"Industrial","state":"CA"},"type":"Feature","geometry":{"type":"Point","coordinates":[-121.249511,37.907937]}},{"properties":{"city":"Modesto","zip":"95358","propname":"821 Oates Ct","geo_score":0.806,"propno":"207-1500","id":"a6lrdmdevtf1","geo_precision":"street","address":"821 Oates Ct","assettype":"Industrial","state":"CA"},"type":"Feature","geometry":{"type":"Point","coordinates":[-120.981941,37.603728]}},{"properties":{"city":"Modesto","zip":"95358","propname":"1101 Oates Ct","geo_score":0.902,"propno":"207-1510","id":"a6lrdmg6wbp1","geo_precision":"street","address":"1101 Oates Ct","assettype":"Industrial","state":"CA"},"type":"Feature","geometry":{"type":"Point","coordinates":[-120.975313,37.603755]}},{"properties":{"city":"Rancho Cordova","zip":"95827","propname":"Campbell-Thomas Center","geo_score":0.925,"propno":"208-0010","id":"a6lrdme8piya","geo_precision":"range","address":"10009-10025 Folsom Blvd","assettype":"Retail","state":"CA"},"type":"Feature","geometry":{"type":"Point","coordinates":[-121.321362,38.580038]}},{"properties":{"city":"Stockton","zip":"95205","propname":"2846 Boeing Way","geo_score":0.614,"propno":"209-0010","id":"a6lrdm5p6kux","geo_precision":"street","address":"2846 Boeing Way","assettype":"Industrial","state":"CA"},"type":"Feature","geometry":{"type":"Point","coordinates":[-121.22894,37.91097]}},{"properties":{"city":"Stockton","zip":"95205","propname":"2928 Boeing Way","geo_score":0.612,"propno":"209-0020","id":"a6lrdmgvvqno","geo_precision":"street","address":"2928 Boeing Way","assettype":"Industrial","state":"CA"},"type":"Feature","geometry":{"type":"Point","coordinates":[-121.22894,37.91097]}},{"properties":{"city":"West Sacramento","zip":"95691","propname":"Southport Industrial Park","geo_score":0.683,"propno":"211-0010","id":"a6lrdm4brb9j","geo_precision":"zip","address":"3010 Ramco Street","assettype":"Industrial","state":"CA"},"type":"Feature","geometry":{"type":"Point","coordinates":[-121.610919,38.608615]}},{"properties":{"city":"Yuba City","zip":"95991","propname":"4581 Skyway Drive (Bldg B)","geo_score":0.527,"propno":"218-0030","id":"a6lrdmjmv4ob","geo_precision":"street","address":"4581 Skyway Drive (Bldg B)","assettype":"Industrial","state":"CA"},"type":"Feature","geometry":{"type":"Point","coordinates":[-121.606444,39.136181]}},{"properties":{"city":"Yuba City","zip":"95991","propname":"4577 Skyway Dr (Bldg C)","geo_score":0.442,"propno":"218-0040","id":"a6lrdmjd0jjh","geo_precision":"street","address":"4577 Skyway Dr (Bldg C)","assettype":"Industrial","state":"CA"},"type":"Feature","geometry":{"type":"Point","coordinates":[-121.604559,39.135619]}},{"properties":{"city":"Yuba City","zip":"95991","propname":"4557 Skyway Dr (Bldg E)","geo_score":0.87,"propno":"218-0060","id":"a6lrdm98tf6z","geo_precision":"zip","address":"4557 Skyway Dr (Bldg E)","assettype":"Industrial","state":"CA"},"type":"Feature","geometry":{"type":"Point","coordinates":[-121.666912,39.148781]}},{"properties":{"city":"Yuba City","zip":"95991","propname":"4561 Skyway Dr (Bldg F)","geo_score":0.429,"propno":"218-0070","id":"a6lrdmipk6ed","geo_precision":"street","address":"4561 Skyway Dr (Bldg F)","assettype":"Industrial","state":"CA"},"type":"Feature","geometry":{"type":"Point","coordinates":[-122.229672,39.760439]}},{"properties":{"city":"Yuba City","zip":"95991","propname":"4565 Skyway Dr (Bldg G)","geo_score":0.442,"propno":"218-0080","id":"a6lrdm4hzn0u","geo_precision":"street","address":"4565 Skyway Dr (Bldg G)","assettype":"Industrial","state":"CA"},"type":"Feature","geometry":{"type":"Point","coordinates":[-121.604559,39.135619]}},{"properties":{"city":"Yuba City","zip":"95991","propname":"4569 Skyway Dr (Bldg H)","geo_score":0.457,"propno":"218-0090","id":"a6lrdm83uouz","geo_precision":"street","address":"4569 Skyway Dr (Bldg H)","assettype":"Industrial","state":"CA"},"type":"Feature","geometry":{"type":"Point","coordinates":[-122.208878,39.754214]}},{"properties":{"city":"Yuba City","zip":"95991","propname":"4553 Skyway Dr (Bldg I)","geo_score":0.381,"propno":"218-0100","id":"a6lrdmcsfxp6","geo_precision":"street","address":"4553 Skyway Dr (Bldg I)","assettype":"Industrial","state":"CA"},"type":"Feature","geometry":{"type":"Point","coordinates":[-121.650137,39.7341]}},{"properties":{"city":"Yuba City","zip":"95991","propname":"4549 Skyway Dr (Bldg J)","geo_score":0.429,"propno":"218-0110","id":"a6lrdmbc9ajt","geo_precision":"street","address":"4549 Skyway Dr (Bldg J)","assettype":"Industrial","state":"CA"},"type":"Feature","geometry":{"type":"Point","coordinates":[-122.190699,39.583873]}},{"properties":{"city":"Yuba City","zip":"95991","propname":"4545 Skyway Dr (Bldg K)","geo_score":0.442,"propno":"218-0120","id":"a6lrdmettn5z","geo_precision":"street","address":"4545 Skyway Dr (Bldg K)","assettype":"Industrial","state":"CA"},"type":"Feature","geometry":{"type":"Point","coordinates":[-121.604559,39.135619]}},{"properties":{"city":"Yuba City","zip":"95991","propname":"4541 Skyway Dr (Bldg L)","geo_score":0.451,"propno":"218-0130","id":"a6lrdmfd8vld","geo_precision":"street","address":"4541 Skyway Dr (Bldg L)","assettype":"Industrial","state":"CA"},"type":"Feature","geometry":{"type":"Point","coordinates":[-121.205385,39.227365]}},{"properties":{"city":"Yuba City","zip":"95991","propname":"4525 Skyway Dr (Bldg M)","geo_score":0.429,"propno":"218-0140","id":"a6lrdmcmbu0o","geo_precision":"street","address":"4525 Skyway Dr (Bldg M)","assettype":"Industrial","state":"CA"},"type":"Feature","geometry":{"type":"Point","coordinates":[-122.169146,39.752458]}},{"properties":{"city":"Yuba City","zip":"95991","propname":"4529 Skyway Dr (Bldg N)","geo_score":0.87,"propno":"218-0150","id":"a6lrdmjda16m","geo_precision":"zip","address":"4529 Skyway Dr (Bldg N)","assettype":"Industrial","state":"CA"},"type":"Feature","geometry":{"type":"Point","coordinates":[-121.666912,39.148781]}},{"properties":{"city":"Yuba City","zip":"95991","propname":"4533 Skyway Dr (Bldg O)","geo_score":0.87,"propno":"218-0160","id":"a6lrdm5vmwdo","geo_precision":"zip","address":"4533 Skyway Dr (Bldg O)","assettype":"Industrial","state":"CA"},"type":"Feature","geometry":{"type":"Point","coordinates":[-121.666912,39.148781]}},{"properties":{"city":"Yuba City","zip":"95991","propname":"4537 Skyway Dr (Bldg P)","geo_score":0.429,"propno":"218-0170","id":"a6lrdmhiee5e","geo_precision":"street","address":"4537 Skyway Dr (Bldg P)","assettype":"Industrial","state":"CA"},"type":"Feature","geometry":{"type":"Point","coordinates":[-122.138162,39.746946]}},{"properties":{"city":"El Paso","zip":"79906","propname":"5 Founders Blvd","geo_score":0.913,"propno":"220-0010","id":"a6lrdm5epqgc","geo_precision":"range","address":"5 Founders Blvd","assettype":"Industrial","state":"TX"},"type":"Feature","geometry":{"type":"Point","coordinates":[-106.402644,31.817569]}},{"properties":{"city":"El Paso","zip":"79906","propname":"7 Founders Blvd","geo_score":0.816,"propno":"220-0020","id":"a6lrdm93vc83","geo_precision":"street","address":"7 Founders Blvd","assettype":"Industrial","state":"TX"},"type":"Feature","geometry":{"type":"Point","coordinates":[-106.402644,31.817569]}},{"properties":{"city":"El Paso","zip":"79906","propname":"9 Founders Drive","geo_score":0.816,"propno":"220-0030","id":"a6lrdmcyy17a","geo_precision":"range","address":"9 Founders Drive","assettype":"Industrial","state":"TX"},"type":"Feature","geometry":{"type":"Point","coordinates":[-106.40109,31.817588]}},{"properties":{"city":"El Paso","zip":"79906","propname":"11 Founders Blvd","geo_score":0.913,"propno":"220-0040","id":"a6lrdm8qpz49","geo_precision":"range","address":"11 Founders Blvd","assettype":"Industrial","state":"TX"},"type":"Feature","geometry":{"type":"Point","coordinates":[-106.39981,31.817615]}},{"properties":{"city":"El Paso","zip":"79936","propname":"12135 Esther Lama Drive","geo_score":1.0,"propno":"220-0060","id":"a6lrdmjc1gpv","geo_precision":"range","address":"12135 Esther Lama Drive","assettype":"Industrial","state":"TX"},"type":"Feature","geometry":{"type":"Point","coordinates":[-106.29813,31.721572]}},{"properties":{"city":"El Paso","zip":"79936","propname":"12050 Rojas Dr","geo_score":1.0,"propno":"222-0120","id":"a6lrdmhvndo5","geo_precision":"range","address":"12050 Rojas Dr","assettype":"Industrial","state":"TX"},"type":"Feature","geometry":{"type":"Point","coordinates":[-106.295315,31.721563]}},{"properties":{"city":"El Paso","zip":"79906","propname":"20 Zane Grey","geo_score":0.855,"propno":"224-0070","id":"a6lrdm5wf5oe","geo_precision":"range","address":"20 Zane Grey","assettype":"Industrial","state":"TX"},"type":"Feature","geometry":{"type":"Point","coordinates":[-106.399067,31.813287]}},{"properties":{"city":"El Paso","zip":"79906","propname":"16 Zane Grey","geo_score":0.855,"propno":"224-0080","id":"a6lrdmjwqbv8","geo_precision":"range","address":"16 Zane Grey","assettype":"Industrial","state":"TX"},"type":"Feature","geometry":{"type":"Point","coordinates":[-106.399063,31.813073]}},{"properties":{"city":"El Paso","zip":"79906","propname":"21 Butterfield Trail","geo_score":0.851,"propno":"224-0090","id":"a6lrdmebrhwa","geo_precision":"range","address":"21 Butterfield Trail","assettype":"Industrial","state":"TX"},"type":"Feature","geometry":{"type":"Point","coordinates":[-106.391288,31.813366]}},{"properties":{"city":"El Paso","zip":"79906","propname":"12112-12124 Rojas","geo_score":0.721,"propno":"225-0140","id":"a6lrdmk4e3tr","geo_precision":"range","address":"12112-12124 Rojas","assettype":"Industrial","state":"TX"},"type":"Feature","geometry":{"type":"Point","coordinates":[-106.293552,31.718377]}},{"properties":{"city":"El Paso","zip":"79936","propname":"10823 Pellicano Drive","geo_score":0.805,"propno":"226-0100","id":"a6lrdmcf4ld5","geo_precision":"street","address":"10823 Pellicano Drive","assettype":"Industrial","state":"TX"},"type":"Feature","geometry":{"type":"Point","coordinates":[-106.318782,31.747576]}},{"properties":{"city":"El Paso","zip":"79936","propname":"12220 Rojas Drive","geo_score":1.0,"propno":"228-0180","id":"a6lrdm78l22x","geo_precision":"range","address":"12220 Rojas Drive","assettype":"Industrial","state":"TX"},"type":"Feature","geometry":{"type":"Point","coordinates":[-106.290037,31.71238]}},{"properties":{"city":"Fresno","zip":"93706","propname":"2909 S Elm Avenue","geo_score":0.51,"propno":"240-0010","id":"a6lrdm7998w8","geo_precision":"street","address":"2909 S. Elm Avenue","assettype":"Industrial","state":"CA"},"type":"Feature","geometry":{"type":"Point","coordinates":[-119.790828,36.719626]}},{"properties":{"city":"Fresno","zip":"93706","propname":"2935 S. Elm Avenue","geo_score":0.51,"propno":"240-0020","id":"a6lrdm5ciw60","geo_precision":"street","address":"2935 S. Elm Avenue","assettype":"Industrial","state":"CA"},"type":"Feature","geometry":{"type":"Point","coordinates":[-119.790828,36.719626]}},{"properties":{"city":"Fresno","zip":"93706","propname":"2925 S. Elm Avenue","geo_score":0.51,"propno":"240-0030","id":"a6lrdm7ipf3v","geo_precision":"street","address":"2925 S. Elm Avenue","assettype":"Industrial","state":"CA"},"type":"Feature","geometry":{"type":"Point","coordinates":[-119.790828,36.719626]}},{"properties":{"city":"Fresno","zip":"93706","propname":"2945 S. Elm Avenue","geo_score":0.51,"propno":"240-0040","id":"a6lrdmfzxbdr","geo_precision":"street","address":"2945 S. Elm Avenue","assettype":"Industrial","state":"CA"},"type":"Feature","geometry":{"type":"Point","coordinates":[-119.790828,36.719626]}},{"properties":{"city":"Fresno","zip":"93706","propname":"4753 W. Shaw Avenue","geo_score":0.347,"propno":"240-0250","id":"a6lrdmb9f1xp","geo_precision":"street","address":"4753 W. Shaw Avenue","assettype":"Industrial","state":"CA"},"type":"Feature","geometry":{"type":"Point","coordinates":[-119.78136,36.808538]}},{"properties":{"city":"Fresno","zip":"93706","propname":"4739 W. Shaw Avenue","geo_score":0.347,"propno":"240-0260","id":"a6lrdmho8txb","geo_precision":"street","address":"4739 W. Shaw Avenue","assettype":"Industrial","state":"CA"},"type":"Feature","geometry":{"type":"Point","coordinates":[-119.78136,36.808538]}},{"properties":{"city":"Fresno","zip":"93706","propname":"4715 W. Shaw Avenue","geo_score":0.347,"propno":"240-0270","id":"a6lrdmiyzy3t","geo_precision":"street","address":"4715 W. Shaw Avenue","assettype":"Industrial","state":"CA"},"type":"Feature","geometry":{"type":"Point","coordinates":[-119.78136,36.808538]}},{"properties":{"city":"Fresno","zip":"93706","propname":"4727 W. Shaw Avenue","geo_score":0.347,"propno":"240-0280","id":"a6lrdm6pj7re","geo_precision":"street","address":"4727 W. Shaw Avenue","assettype":"Industrial","state":"CA"},"type":"Feature","geometry":{"type":"Point","coordinates":[-119.78136,36.808538]}},{"properties":{"city":"Fresno","zip":"93706","propname":"4741 W. Shaw Avenue","geo_score":0.347,"propno":"240-0290","id":"a6lrdmjh302a","geo_precision":"street","address":"4741 W. Shaw Avenue","assettype":"Industrial","state":"CA"},"type":"Feature","geometry":{"type":"Point","coordinates":[-119.78136,36.808538]}},{"properties":{"city":"Rancho Cordova","zip":"95670","propname":"10600 White Rock Road","geo_score":0.91,"propno":"242-0010","id":"a6lrdminsyea","geo_precision":"range","address":"10600 White Rock Road","assettype":"Office","state":"CA"},"type":"Feature","geometry":{"type":"Point","coordinates":[-121.294716,38.58584]}},{"properties":{"city":"West Sacramento","zip":"95605","propname":"Riverpoint Marketplace","geo_score":0.592,"propno":"245-0085","id":"a6lrdm7rv2dn","geo_precision":"zip","address":"772 Ikea Court","assettype":"Retail","state":"CA"},"type":"Feature","geometry":{"type":"Point","coordinates":[-121.53829,38.587405]}},{"properties":{"city":"Sacramento","zip":"95814","propname":"1807 13th Street","geo_score":0.709,"propno":"247-0010","id":"a6lrdmd2ca7p","geo_precision":"street","address":"1807 13th Street","assettype":"Office","state":"CA"},"type":"Feature","geometry":{"type":"Point","coordinates":[-121.492561,38.571436]}},{"properties":{"city":"Sacramento","zip":"95815","propname":"1808 14th Street","geo_score":0.707,"propno":"247-0020","id":"a6lrdmba3niw","geo_precision":"range","address":"1808 14th Street","assettype":"Office","state":"CA"},"type":"Feature","geometry":{"type":"Point","coordinates":[-121.491741,38.569901]}},{"properties":{"city":"Sacramento","zip":"95815","propname":"1325 S Street","geo_score":0.805,"propno":"247-0030","id":"a6lrdmdqt0jn","geo_precision":"range","address":"1325 S Street","assettype":"Office","state":"CA"},"type":"Feature","geometry":{"type":"Point","coordinates":[-121.493253,38.569176]}},{"properties":{"city":"Sacramento","zip":"95828","propname":"8000 Elder Creek Road","geo_score":0.727,"propno":"252-0010","id":"a6lrdmg5omp6","geo_precision":"street","address":"8000 Elder Creek Road","assettype":"Office","state":"CA"},"type":"Feature","geometry":{"type":"Point","coordinates":[-121.402188,38.510563]}},{"properties":{"city":"Sacramento","zip":"95828","propname":"8651 Younger Creek","geo_score":0.88,"propno":"256-0020","id":"a6lrdmgfurtw","geo_precision":"range","address":"8651 Younger Creek","assettype":"Industrial","state":"CA"},"type":"Feature","geometry":{"type":"Point","coordinates":[-121.38487,38.516561]}},{"properties":{"city":"Sacramento","zip":"95828","propname":"8655 Younger Creek","geo_score":0.88,"propno":"256-0030","id":"a6lrdm6m0sxc","geo_precision":"range","address":"8655 Younger Creek","assettype":"Industrial","state":"CA"},"type":"Feature","geometry":{"type":"Point","coordinates":[-121.384622,38.516543]}},{"properties":{"city":"Visalia","zip":"93291","propname":"7940 W Doe Avenue","geo_score":0.916,"propno":"267-0010","id":"a6lrdm4bnptw","geo_precision":"range","address":"7940 W Doe Avenue","assettype":"Industrial","state":"CA"},"type":"Feature","geometry":{"type":"Point","coordinates":[-119.375334,36.34602]}},{"properties":{"city":"Visalia","zip":"93291","propname":"7950 W Doe Avenue","geo_score":0.916,"propno":"267-0020","id":"a6lrdmem7g7i","geo_precision":"range","address":"7950 W Doe Avenue","assettype":"Industrial","state":"CA"},"type":"Feature","geometry":{"type":"Point","coordinates":[-119.375401,36.346021]}},{"properties":{"city":"Salt Lake City","zip":"84104","propname":"6075 W 300 South St.","geo_score":0.721,"propno":"273-0010","id":"a6lrdmficwli","geo_precision":"street","address":"6075 W 300 South St.","assettype":"Industrial","state":"UT"},"type":"Feature","geometry":{"type":"Point","coordinates":[-111.93864,40.762792]}},{"properties":{"city":"Salt Lake City","zip":"84104","propname":"6195 W 300 South St.","geo_score":0.721,"propno":"273-0020","id":"a6lrdme13ofv","geo_precision":"street","address":"6195 W 300 South St.","assettype":"Industrial","state":"UT"},"type":"Feature","geometry":{"type":"Point","coordinates":[-111.93864,40.762792]}},{"properties":{"city":"Madera","zip":"93637","propname":"2805 Falcon Drive","geo_score":0.902,"propno":"276-0020","id":"a6lrdmhrdw0h","geo_precision":"range","address":"2805 Falcon Drive","assettype":"Industrial","state":"CA"},"type":"Feature","geometry":{"type":"Point","coordinates":[-120.1037,36.987237]}},{"properties":{"city":"Madera","zip":"93637","propname":"2825 Falcon Drive","geo_score":0.902,"propno":"276-0030","id":"a6lrdmfeh518","geo_precision":"range","address":"2825 Falcon Drive","assettype":"Industrial","state":"CA"},"type":"Feature","geometry":{"type":"Point","coordinates":[-120.103709,36.987678]}},{"properties":{"city":"West Sacramento","zip":"95605","propname":"Riverpoint Marketplace","geo_score":0.592,"propno":"277-0030","id":"a6lrdme2rftv","geo_precision":"zip","address":"744 Ikea Court","assettype":"Retail","state":"CA"},"type":"Feature","geometry":{"type":"Point","coordinates":[-121.53829,38.587405]}},{"properties":{"city":"West Sacramento","zip":"95605","propname":"Riverpoint Marketplace","geo_score":0.592,"propno":"277-0050","id":"a6lrdm9krvsh","geo_precision":"zip","address":"756 Ikea Court","assettype":"Retail","state":"CA"},"type":"Feature","geometry":{"type":"Point","coordinates":[-121.53829,38.587405]}},{"properties":{"city":"West Sacramento","zip":"95605","propname":"Riverpoint Marketplace","geo_score":0.592,"propno":"277-0210","id":"a6lrdmg2b1jp","geo_precision":"zip","address":"763 Ikea Court","assettype":"Retail","state":"CA"},"type":"Feature","geometry":{"type":"Point","coordinates":[-121.53829,38.587405]}},{"properties":{"city":"West Sacramento","zip":"95605","propname":"Riverpoint Marketplace","geo_score":0.592,"propno":"277-0220","id":"a6lrdmcvqv86","geo_precision":"zip","address":"767 Ikea Court","assettype":"Retail","state":"CA"},"type":"Feature","geometry":{"type":"Point","coordinates":[-121.53829,38.587405]}},{"properties":{"city":"West Sacramento","zip":"95605","propname":"Riverpoint Marketplace","geo_score":0.592,"propno":"277-0230","id":"a6lrdmhf4d10","geo_precision":"zip","address":"771 Ikea Court","assettype":"Retail","state":"CA"},"type":"Feature","geometry":{"type":"Point","coordinates":[-121.53829,38.587405]}},{"properties":{"city":"West Sacramento","zip":"95605","propname":"Riverpoint Marketplace","geo_score":0.592,"propno":"277-0240","id":"a6lrdmhttg18","geo_precision":"zip","address":"775 Ikea Court","assettype":"Retail","state":"CA"},"type":"Feature","geometry":{"type":"Point","coordinates":[-121.53829,38.587405]}},{"properties":{"city":"West Sacramento","zip":"95605","propname":"Riverpoint Marketplace","geo_score":0.592,"propno":"277-0250","id":"a6lrdmeq38po","geo_precision":"zip","address":"779 Ikea Court","assettype":"Retail","state":"CA"},"type":"Feature","geometry":{"type":"Point","coordinates":[-121.53829,38.587405]}},{"properties":{"city":"West Sacramento","zip":"95605","propname":"Riverpoint Marketplace","geo_score":0.592,"propno":"277-0260","id":"a6lrdm4qg82v","geo_precision":"zip","address":"783 Ikea Court","assettype":"Retail","state":"CA"},"type":"Feature","geometry":{"type":"Point","coordinates":[-121.53829,38.587405]}},{"properties":{"city":"West Sacramento","zip":"95605","propname":"Riverpoint Marketplace","geo_score":0.861,"propno":"277-0280","id":"a6lrdmdbdpe1","geo_precision":"range","address":"725 Riverpoint Court","assettype":"Retail","state":"CA"},"type":"Feature","geometry":{"type":"Point","coordinates":[-121.548461,38.593256]}},{"properties":{"city":"West Sacramento","zip":"95605","propname":"Riverpoint Marketplace","geo_score":0.861,"propno":"277-0290","id":"a6lrdmfz8lhn","geo_precision":"range","address":"735 Riverpoint Court","assettype":"Retail","state":"CA"},"type":"Feature","geometry":{"type":"Point","coordinates":[-121.548469,38.593169]}},{"properties":{"city":"West Sacramento","zip":"95605","propname":"700 Riverpoint Circle","geo_score":0.864,"propno":"295-0010","id":"a6lrdm655d0h","geo_precision":"range","address":"700 Riverpoint Circle","assettype":"Retail","state":"CA"},"type":"Feature","geometry":{"type":"Point","coordinates":[-121.548443,38.593465]}},{"properties":{"city":"Sacramento","zip":"95828","propname":"Del Paso Corporate Center","geo_score":0.541,"propno":"297-0010","id":"a6lrdmd93sap","geo_precision":"street","address":"2400 Del Paso Boulevard","assettype":"Office","state":"CA"},"type":"Feature","geometry":{"type":"Point","coordinates":[-121.412011,38.490062]}},{"properties":{"city":"Sacramento","zip":"95823","propname":"Methodist Hospital Office","geo_score":0.922,"propno":"5030-0010","id":"a6lrdmh7oxgq","geo_precision":"range","address":"7601 Timberlake Way","assettype":"Office","state":"CA"},"type":"Feature","geometry":{"type":"Point","coordinates":[-121.416672,38.465982]}},{"properties":{"city":"Phoenix","zip":"85043","propname":"Fowler Distribution Center 3","geo_score":0.633,"propno":"5142-0030","id":"a6lrdmg1xsas","geo_precision":"street","address":"1601 S. 75th Avenue","assettype":"Industrial","state":"AZ"},"type":"Feature","geometry":{"type":"Point","coordinates":[-112.222111,33.411595]}},{"properties":{"city":"Riverbank","zip":"95367","propname":"6180 Roselle Avenue","geo_score":1.0,"propno":"5700-0010","id":"a6lrdmk1ei7i","geo_precision":"range","address":"6180 Roselle Avenue","assettype":"Industrial","state":"CA"},"type":"Feature","geometry":{"type":"Point","coordinates":[-120.940458,37.731902]}},{"properties":{"city":"Sacramento","zip":"95828","propname":"20 Blue Sky Court","geo_score":0.922,"propno":"5800-0030","id":"a6lrdmg9p8as","geo_precision":"range","address":"20 Blue Sky Court","assettype":"Industrial","state":"CA"},"type":"Feature","geometry":{"type":"Point","coordinates":[-121.384079,38.514551]}},{"properties":{"city":"Sacramento","zip":"95822","propname":"27th Street Bus Pk #4","geo_score":0.902,"propno":"5900-0010","id":"a6lrdm4ruvbf","geo_precision":"range","address":"6161 27th Street","assettype":"Industrial","state":"CA"},"type":"Feature","geometry":{"type":"Point","coordinates":[-121.477581,38.514065]}},{"properties":{"city":"Sacramento","zip":"95822","propname":"27th Street Bus Pk #2","geo_score":0.902,"propno":"5900-0020","id":"a6lrdm71eqtw","geo_precision":"range","address":"6119 27th Street","assettype":"Industrial","state":"CA"},"type":"Feature","geometry":{"type":"Point","coordinates":[-121.477665,38.514724]}},{"properties":{"city":"Sacramento","zip":"95822","propname":"27th Street Bus Pk #3","geo_score":0.902,"propno":"5900-0040","id":"a6lrdmejvkfu","geo_precision":"range","address":"6155 27th Street","assettype":"Industrial","state":"CA"},"type":"Feature","geometry":{"type":"Point","coordinates":[-121.477593,38.514159]}},{"properties":{"city":"Sacramento","zip":"95822","propname":"27th Street Bus Pk #5","geo_score":0.902,"propno":"5900-0050","id":"a6lrdm6l1ulm","geo_precision":"range","address":"6201 27th Street","assettype":"Industrial","state":"CA"},"type":"Feature","geometry":{"type":"Point","coordinates":[-121.477501,38.513437]}},{"properties":{"city":"Sacramento","zip":"95822","propname":"27th Street Bus Pk #1","geo_score":0.902,"propno":"5900-0070","id":"a6lrdmfao846","geo_precision":"range","address":"6150 27th Street","assettype":"Industrial","state":"CA"},"type":"Feature","geometry":{"type":"Point","coordinates":[-121.477601,38.514222]}},{"properties":{"city":"Sacramento","zip":"95814","propname":"1500 C Street","geo_score":1.0,"propno":"5900-0100","id":"a6lrdminsxn1","geo_precision":"range","address":"1500 C Street","assettype":"Office","state":"CA"},"type":"Feature","geometry":{"type":"Point","coordinates":[-121.483218,38.586123]}},{"properties":{"city":"Springfield","zip":null,"propname":"3188 Gateway Loop Skating Rink","geo_score":0.504,"propno":"5910-0010","id":"a6lrdmicvaqi","geo_precision":"street","address":"3188 Gateway Loop","assettype":"Misc","state":"OR"},"type":"Feature","geometry":{"type":"Point","coordinates":[-121.53437,45.630055]}},{"properties":{"city":"Sacramento","zip":"95822","propname":"27th Street Bus Pk #7","geo_score":0.902,"propno":"5910-0080","id":"a6lrdmdxj6zd","geo_precision":"range","address":"6164-6250 27th Street","assettype":"Industrial","state":"CA"},"type":"Feature","geometry":{"type":"Point","coordinates":[-121.477573,38.514002]}},{"properties":{"city":"Sacramento","zip":"95818","propname":"801 Broadway","geo_score":0.941,"propno":"600-0070","id":"a6lrdm6zrf42","geo_precision":"range","address":"801 Broadway","assettype":"Office","state":"CA"},"type":"Feature","geometry":{"type":"Point","coordinates":[-121.503278,38.564521]}},{"properties":{"city":"Rocklin","zip":"95765","propname":"1000 Sunset Blvd.","geo_score":0.902,"propno":"601-0010","id":"a6lrdmkcws1v","geo_precision":"range","address":"1000 Sunset Blvd.","assettype":"Office","state":"CA"},"type":"Feature","geometry":{"type":"Point","coordinates":[-121.287154,38.815572]}},{"properties":{"city":"Stockton","zip":"95206","propname":"4411 Pock Lane","geo_score":0.724,"propno":"604-0100","id":"a6lrdmeaa2de","geo_precision":"street","address":"4411 Pock Lane","assettype":"Industrial","state":"CA"},"type":"Feature","geometry":{"type":"Point","coordinates":[-121.239246,37.910395]}},{"properties":{"city":"Stockton","zip":"95206","propname":"4463 Pock Lane","geo_score":0.71,"propno":"604-0105","id":"a6lrdmkhq1r0","geo_precision":"street","address":"4463 Pock Lane","assettype":"Industrial","state":"CA"},"type":"Feature","geometry":{"type":"Point","coordinates":[-121.239246,37.910395]}},{"properties":{"city":"Stockton","zip":"95206","propname":"3837 Producers Drive","geo_score":0.71,"propno":"605-0010","id":"a6lrdm95lz1p","geo_precision":"street","address":"3837 Producers Drive","assettype":"Industrial","state":"CA"},"type":"Feature","geometry":{"type":"Point","coordinates":[-121.270292,37.911339]}},{"properties":{"city":"Stockton","zip":"95206","propname":"606 Zephyr Street","geo_score":0.902,"propno":"605-0020","id":"a6lrdm5tbav1","geo_precision":"range","address":"606 Zephyr Street","assettype":"Industrial","state":"CA"},"type":"Feature","geometry":{"type":"Point","coordinates":[-121.269041,37.911813]}},{"properties":{"city":"Stockton","zip":"95206","propname":"2736 N. Teepee Drive","geo_score":0.286,"propno":"6050-0030","id":"a6lrdm5otke7","geo_precision":"street","address":"2736 N. Teepee Drive","assettype":"Industrial","state":"CA"},"type":"Feature","geometry":{"type":"Point","coordinates":[-121.253041,37.984539]}},{"properties":{"city":"North Highlands","zip":"95660","propname":"3333 Orange Grove","geo_score":0.854,"propno":"6070-0010","id":"a6lrdm6ivjmb","geo_precision":"range","address":"3333 Orange Grove","assettype":"Industrial","state":"CA"},"type":"Feature","geometry":{"type":"Point","coordinates":[-121.38519,38.646222]}},{"properties":{"city":"Rancho Cordova","zip":"95670","propname":"11290 Pyrites Drive","geo_score":0.651,"propno":"610-1000","id":"a6lrdmjnriju","geo_precision":"street","address":"11290 Pyrites Drive","assettype":"Office","state":"CA"},"type":"Feature","geometry":{"type":"Point","coordinates":[-121.255153,38.618778]}},{"properties":{"city":"Stockton","zip":"95206","propname":"3136 Boeing Way","geo_score":0.712,"propno":"611-0010","id":"a6lrdm834nwi","geo_precision":"street","address":"3136 Boeing Way","assettype":"Office","state":"CA"},"type":"Feature","geometry":{"type":"Point","coordinates":[-121.225911,37.911496]}},{"properties":{"city":"Stockton","zip":"95206","propname":"3127 Transworld Drive","geo_score":0.902,"propno":"611-0015","id":"a6lrdmcoptzb","geo_precision":"range","address":"3127 Transworld Drive","assettype":"Office","state":"CA"},"type":"Feature","geometry":{"type":"Point","coordinates":[-121.225966,37.907352]}},{"properties":{"city":"Sacramento","zip":"95828","propname":"6251 Sky Creek Drive","geo_score":0.922,"propno":"6200-0010","id":"a6lrdm848l3l","geo_precision":"range","address":"6251 Sky Creek Drive","assettype":"Industrial","state":"CA"},"type":"Feature","geometry":{"type":"Point","coordinates":[-121.384732,38.510652]}},{"properties":{"city":"Sacramento","zip":"95828","propname":"6250 Sky Creek Drive","geo_score":0.8,"propno":"6200-0020","id":"a6lrdmco5rqo","geo_precision":"street","address":"6250 Sky Creek Drive","assettype":"Industrial","state":"CA"},"type":"Feature","geometry":{"type":"Point","coordinates":[-121.384732,38.510652]}},{"properties":{"city":"Sacramento","zip":"95826","propname":"8670 Fruitridge Road","geo_score":0.927,"propno":"632-0010","id":"a6lrdm8om8cq","geo_precision":"range","address":"8670 Fruitridge Road","assettype":"Industrial","state":"CA"},"type":"Feature","geometry":{"type":"Point","coordinates":[-121.382881,38.525205]}},{"properties":{"city":"Sacramento","zip":"95826","propname":"8676 Fruitridge Road","geo_score":0.927,"propno":"632-0015","id":"a6lrdme3aomb","geo_precision":"range","address":"8676 Fruitridge Road","assettype":"Industrial","state":"CA"},"type":"Feature","geometry":{"type":"Point","coordinates":[-121.382688,38.525205]}},{"properties":{"city":"Sacramento","zip":"95816","propname":"3810 J Street","geo_score":1.0,"propno":"645-0010","id":"a6lrdm493mrj","geo_precision":"range","address":"3810 J Street","assettype":"Office","state":"CA"},"type":"Feature","geometry":{"type":"Point","coordinates":[-121.455652,38.57021]}},{"properties":{"city":"Sacramento","zip":"95814","propname":"The Forum Building","geo_score":0.883,"propno":"7210-0010","id":"a6lrdmdcdt3l","geo_precision":"range","address":"1107 9th Street","assettype":"Office","state":"CA"},"type":"Feature","geometry":{"type":"Point","coordinates":[-121.495312,38.5795]}},{"properties":{"city":"Sacramento","zip":"95814","propname":"The Citizen Hotel","geo_score":1.0,"propno":"7220-0010","id":"a6lrdm8cg8y3","geo_precision":"range","address":"926 J Street","assettype":"Misc","state":"CA"},"type":"Feature","geometry":{"type":"Point","coordinates":[-121.494531,38.580578]}},{"properties":{"city":"Sacramento","zip":"95814","propname":"630 K Street","geo_score":1.0,"propno":"7225-0010","id":"a6lrdmaucw36","geo_precision":"range","address":"630 K Street","assettype":"Office","state":"CA"},"type":"Feature","geometry":{"type":"Point","coordinates":[-121.498948,38.580511]}},{"properties":{"city":"Sacramento","zip":"95814","propname":"520 9th Street","geo_score":0.883,"propno":"7700-0020","id":"a6lrdmgybq6o","geo_precision":"range","address":"520 9th Street","assettype":"Office","state":"CA"},"type":"Feature","geometry":{"type":"Point","coordinates":[-121.492527,38.585915]}},{"properties":{"city":"Modesto","zip":"95350","propname":"2005 Evergreen Ave","geo_score":1.0,"propno":"8200-0010","id":"a6lrdmam6yfz","geo_precision":"range","address":"2005 Evergreen Ave","assettype":"Retail","state":"CA"},"type":"Feature","geometry":{"type":"Point","coordinates":[-121.029115,37.667791]}},{"properties":{"city":"Lodi","zip":null,"propname":"512 North Cherokee Lane","geo_score":0.876,"propno":"8610-0010","id":"a6lrdmexrtpl","geo_precision":"range","address":"512 North Cherokee Lane","assettype":"Misc","state":"CA"},"type":"Feature","geometry":{"type":"Point","coordinates":[-121.260458,38.128859]}},{"properties":{"city":"Medford","zip":"97501","propname":"Roller Odyssey Building","geo_score":0.483,"propno":"8630-0010","id":"a6lrdm835njq","geo_precision":"street","address":"2425 S. Pacific Highway","assettype":"Misc","state":"OR"},"type":"Feature","geometry":{"type":"Point","coordinates":[-122.868529,42.324483]}},{"properties":{"city":"El Paso","zip":null,"propname":"Roller King","geo_score":0.857,"propno":"8660-0010","id":"a6lrdmas0v5u","geo_precision":"city","address":null,"assettype":"Misc","state":"TX"},"type":"Feature","geometry":{"type":"Point","coordinates":[-106.486931,31.75872]}},{"properties":{"city":"Davis","zip":"95616","propname":"606 Pena Drive","geo_score":0.638,"propno":"8810-0010","id":"a6lrdmh1y6iv","geo_precision":"street","address":"606 Pena Drive","assettype":"Industrial","state":"CA"},"type":"Feature","geometry":{"type":"Point","coordinates":[-121.728645,38.55592]}},{"properties":{"city":"Davis","zip":"95616","propname":"630 Pena Drive","geo_score":0.638,"propno":"8810-0020","id":"a6lrdmbic4js","geo_precision":"street","address":"630 Pena Drive","assettype":"Industrial","state":"CA"},"type":"Feature","geometry":{"type":"Point","coordinates":[-121.728645,38.55592]}},{"properties":{"city":"West Sacramento","zip":"95691","propname":"2101 Stone Blvd","geo_score":1.0,"propno":"8850-0010","id":"a6lrdm6a9tqo","geo_precision":"range","address":"2101 Stone Blvd","assettype":"Office","state":"CA"},"type":"Feature","geometry":{"type":"Point","coordinates":[-121.537774,38.563151]}},{"properties":{"city":"West Sacramento","zip":"95691","propname":"4000 Channel Drive","geo_score":1.0,"propno":"8870-0010","id":"a6lrdmgihdo4","geo_precision":"range","address":"4000 Channel Drive","assettype":"Industrial","state":"CA"},"type":"Feature","geometry":{"type":"Point","coordinates":[-121.57787,38.558758]}}],"is_temporal":false,"author":{"url":"","metadata":"","contact_name":"","contact_address":"","source":"","contact_phone":""},"source":"","pagination":{"sort":null,"start":0,"total":359,"limit":1000000},"state":"complete","tags":"","published":"2010-08-04T17:26:50Z","id":60330}