{"type":"FeatureCollection","data_type":"Dataset","url_type":null,"permissions":[{"permissions":{"download":true,"view":true},"group_id":"everyone"}],"classification":null,"title":"Average Daily Mobile Scans (Top Cities)","count":43,"stream_id":60550,"contributor":{"url":"http://geocommons.com/users/15157","name":"azubair"},"data_attributes":null,"calculation_params":null,"icon_link":null,"link":"http://geocommons.com/overlays/60550.json","extent":[-157.858,21.3069,-71.4594,61.2181],"geometry_types":["point"],"unique_name":null,"name":"Average Daily Mobile Scans (Top Cities)","feature_count":43,"description":"","next_feature":null,"is_raster":false,"short_classification":"Y","stats":{"scan count (daily average)":{"max":1702,"mean":107.53488372093,"variance":62834.3023255814,"stdev":250.667712969942,"min":29,"median":70},"geo_score":{"max":0.857,"mean":0.668558139534883,"variance":0.121916300110742,"stdev":0.34916514733109,"min":0.0,"median":0.857}},"features":[{"properties":{"scan count (daily average)":115,"city":"anchorage","geo_score":0.857,"id":"a6629v7mz9ki","geo_precision":"city","state":"AK"},"type":"Feature","geometry":{"type":"Point","coordinates":[-149.900278,61.218056]}},{"properties":{"scan count (daily average)":73,"city":"birmingham","geo_score":0.857,"id":"a6629vcvmk4b","geo_precision":"city","state":"AL"},"type":"Feature","geometry":{"type":"Point","coordinates":[-86.80249,33.520661]}},{"properties":{"scan count (daily average)":94,"city":"johnson","geo_score":0.816,"id":"a6629v53c6dv","geo_precision":"city","state":"AR"},"type":"Feature","geometry":{"type":"Point","coordinates":[-94.439106,35.197318]}},{"properties":{"scan count (daily average)":57,"city":"scottsdale","geo_score":0.857,"id":"a6629vhrvg0c","geo_precision":"city","state":"AZ"},"type":"Feature","geometry":{"type":"Point","coordinates":[-111.899033,33.50921]}},{"properties":{"scan count (daily average)":133,"city":"dublin","geo_score":0.857,"id":"a6629v76derp","geo_precision":"city","state":"CA"},"type":"Feature","geometry":{"type":"Point","coordinates":[-121.906329,37.714402]}},{"properties":{"scan count (daily average)":72,"city":"englewood","geo_score":0.857,"id":"a6629v8pb0zu","geo_precision":"city","state":"CO"},"type":"Feature","geometry":{"type":"Point","coordinates":[-104.98776,39.647765]}},{"properties":{"scan count (daily average)":35,"city":"milford","geo_score":0.798,"id":"a6629v5zq9r9","geo_precision":"city","state":"CT"},"type":"Feature","geometry":{"type":"Point","coordinates":[-73.007604,41.22482]}},{"properties":{"scan count (daily average)":31,"city":"keller","geo_score":0.0,"id":"a6629v44l3wx","geo_precision":"unmatched","state":"DC"},"type":"Feature","geometry":null},{"properties":{"scan count (daily average)":46,"city":"san jose","geo_score":0.0,"id":"a6629vj4cnpm","geo_precision":"unmatched","state":"DE"},"type":"Feature","geometry":null},{"properties":{"scan count (daily average)":122,"city":"miami","geo_score":0.857,"id":"a6629v8b4lqo","geo_precision":"city","state":"FL"},"type":"Feature","geometry":{"type":"Point","coordinates":[-80.193659,25.774266]}},{"properties":{"scan count (daily average)":123,"city":"buford","geo_score":0.857,"id":"a6629vfqqy6z","geo_precision":"city","state":"GA"},"type":"Feature","geometry":{"type":"Point","coordinates":[-84.037859,33.960353]}},{"properties":{"scan count (daily average)":95,"city":"honolulu","geo_score":0.857,"id":"a6629v6up7hu","geo_precision":"city","state":"HI"},"type":"Feature","geometry":{"type":"Point","coordinates":[-157.858333,21.306944]}},{"properties":{"scan count (daily average)":41,"city":"boise","geo_score":0.857,"id":"a6629v8zh8rx","geo_precision":"city","state":"ID"},"type":"Feature","geometry":{"type":"Point","coordinates":[-116.203451,43.6135]}},{"properties":{"scan count (daily average)":80,"city":"chicago","geo_score":0.857,"id":"a6629v6bykj5","geo_precision":"city","state":"IL"},"type":"Feature","geometry":{"type":"Point","coordinates":[-87.650052,41.850033]}},{"properties":{"scan count (daily average)":70,"city":"indianapolis","geo_score":0.857,"id":"a6629v5r6jrp","geo_precision":"city","state":"IN"},"type":"Feature","geometry":{"type":"Point","coordinates":[-86.158042,39.768377]}},{"properties":{"scan count (daily average)":62,"city":"lawrence","geo_score":0.857,"id":"a6629vhh1c74","geo_precision":"city","state":"KS"},"type":"Feature","geometry":{"type":"Point","coordinates":[-95.283982,38.907518]}},{"properties":{"scan count (daily average)":111,"city":"bowling green","geo_score":0.738,"id":"a6629v5nnp42","geo_precision":"city","state":"KY"},"type":"Feature","geometry":{"type":"Point","coordinates":[-83.355181,38.067306]}},{"properties":{"scan count (daily average)":71,"city":"houma","geo_score":0.857,"id":"a6629vf6trfi","geo_precision":"city","state":"LA"},"type":"Feature","geometry":{"type":"Point","coordinates":[-90.719535,29.59577]}},{"properties":{"scan count (daily average)":60,"city":"natick","geo_score":0.857,"id":"a6629vi28urr","geo_precision":"city","state":"MA"},"type":"Feature","geometry":{"type":"Point","coordinates":[-71.459405,42.446396]}},{"properties":{"scan count (daily average)":65,"city":"frederick","geo_score":0.813,"id":"a6629v715wsf","geo_precision":"city","state":"MD"},"type":"Feature","geometry":{"type":"Point","coordinates":[-75.883828,39.366223]}},{"properties":{"scan count (daily average)":29,"city":"claremore","geo_score":0.0,"id":"a6629v6pp56g","geo_precision":"unmatched","state":"ME"},"type":"Feature","geometry":null},{"properties":{"scan count (daily average)":41,"city":"stafford","geo_score":0.0,"id":"a6629vakolca","geo_precision":"unmatched","state":"MI"},"type":"Feature","geometry":null},{"properties":{"scan count (daily average)":48,"city":"saint paul","geo_score":0.857,"id":"a6629vfsi2yp","geo_precision":"city","state":"MN"},"type":"Feature","geometry":{"type":"Point","coordinates":[-93.093274,44.94441]}},{"properties":{"scan count (daily average)":81,"city":"columbia","geo_score":0.857,"id":"a6629vfaxh6m","geo_precision":"city","state":"MO"},"type":"Feature","geometry":{"type":"Point","coordinates":[-92.334072,38.951705]}},{"properties":{"scan count (daily average)":37,"city":"atlanta","geo_score":0.857,"id":"a6629vhs87tk","geo_precision":"city","state":"MS"},"type":"Feature","geometry":{"type":"Point","coordinates":[-89.147566,33.798448]}},{"properties":{"scan count (daily average)":59,"city":"fayetteville","geo_score":0.857,"id":"a6629v68m050","geo_precision":"city","state":"NC"},"type":"Feature","geometry":{"type":"Point","coordinates":[-78.878359,35.052664]}},{"properties":{"scan count (daily average)":30,"city":"kingwood","geo_score":0.0,"id":"a6629v8jadhg","geo_precision":"unmatched","state":"NH"},"type":"Feature","geometry":null},{"properties":{"scan count (daily average)":51,"city":"baton rouge","geo_score":0.0,"id":"a6629vk08kl7","geo_precision":"unmatched","state":"NJ"},"type":"Feature","geometry":null},{"properties":{"scan count (daily average)":84,"city":"las vegas","geo_score":0.857,"id":"a6629v5hdsfk","geo_precision":"city","state":"NV"},"type":"Feature","geometry":{"type":"Point","coordinates":[-115.137223,36.174971]}},{"properties":{"scan count (daily average)":76,"city":"new york","geo_score":0.857,"id":"a6629vek46e6","geo_precision":"city","state":"NY"},"type":"Feature","geometry":{"type":"Point","coordinates":[-74.005973,40.714269]}},{"properties":{"scan count (daily average)":43,"city":"boca raton","geo_score":0.73,"id":"a6629vbj9vxt","geo_precision":"city","state":"OH"},"type":"Feature","geometry":{"type":"Point","coordinates":[-82.30404,38.849246]}},{"properties":{"scan count (daily average)":116,"city":"shawnee","geo_score":0.857,"id":"a6629vfzrd6f","geo_precision":"city","state":"OK"},"type":"Feature","geometry":{"type":"Point","coordinates":[-96.960092,35.295843]}},{"properties":{"scan count (daily average)":114,"city":"beaverton","geo_score":0.857,"id":"a6629v6pp0zz","geo_precision":"city","state":"OR"},"type":"Feature","geometry":{"type":"Point","coordinates":[-122.80371,45.487062]}},{"properties":{"scan count (daily average)":92,"city":"york","geo_score":0.857,"id":"a6629vjdsv42","geo_precision":"city","state":"PA"},"type":"Feature","geometry":{"type":"Point","coordinates":[-76.727139,39.962998]}},{"properties":{"scan count (daily average)":31,"city":"bausman","geo_score":0.0,"id":"a6629v42muom","geo_precision":"unmatched","state":"RI"},"type":"Feature","geometry":null},{"properties":{"scan count (daily average)":38,"city":"portsmouth","geo_score":0.0,"id":"a6629vb5gkpc","geo_precision":"unmatched","state":"SC"},"type":"Feature","geometry":null},{"properties":{"scan count (daily average)":65,"city":"franklin","geo_score":0.857,"id":"a6629v5zarw4","geo_precision":"city","state":"TN"},"type":"Feature","geometry":{"type":"Point","coordinates":[-86.965691,35.890746]}},{"properties":{"scan count (daily average)":1702,"city":"austin","geo_score":0.857,"id":"a6629vcb30nz","geo_precision":"city","state":"TX"},"type":"Feature","geometry":{"type":"Point","coordinates":[-97.743061,30.267153]}},{"properties":{"scan count (daily average)":72,"city":"american fork","geo_score":0.857,"id":"a6629v86wqbc","geo_precision":"city","state":"UT"},"type":"Feature","geometry":{"type":"Point","coordinates":[-111.803101,40.395796]}},{"properties":{"scan count (daily average)":86,"city":"fairfax","geo_score":0.857,"id":"a6629vcvm2do","geo_precision":"city","state":"VA"},"type":"Feature","geometry":{"type":"Point","coordinates":[-77.305097,38.853231]}},{"properties":{"scan count (daily average)":95,"city":"kennewick","geo_score":0.857,"id":"a6629vef0qb0","geo_precision":"city","state":"WA"},"type":"Feature","geometry":{"type":"Point","coordinates":[-119.155671,46.212306]}},{"properties":{"scan count (daily average)":40,"city":"west hollywood","geo_score":0.0,"id":"a6629v88n14l","geo_precision":"unmatched","state":"WI"},"type":"Feature","geometry":null},{"properties":{"scan count (daily average)":38,"city":"huntington","geo_score":0.857,"id":"a6629vezpymw","geo_precision":"city","state":"WV"},"type":"Feature","geometry":{"type":"Point","coordinates":[-82.445154,38.41925]}}],"is_temporal":false,"author":{"url":"","metadata":"","contact_name":"","contact_address":"","source":"","contact_phone":""},"source":"","pagination":{"sort":null,"start":0,"total":43,"limit":1000000},"state":"complete","tags":"","published":"2014-08-10T12:14:42-04:00","id":60550}