{"type":"FeatureCollection","data_type":"Dataset","url_type":null,"permissions":[{"permissions":{"download":true,"view":true},"group_id":"everyone"}],"classification":null,"title":"CNA school Address","count":23,"stream_id":60633,"contributor":{"url":"http://geocommons.com/users/15249","name":"asajedi"},"data_attributes":null,"calculation_params":null,"icon_link":null,"link":"http://geocommons.com/overlays/60633.json","extent":[-122.427,33.6104,-114.595,38.6509],"geometry_types":["point"],"unique_name":null,"name":"CNA school Address","feature_count":23,"description":"","next_feature":null,"is_raster":false,"short_classification":"Y","stats":{"geo_score":{"max":1.0,"mean":0.832608695652174,"variance":0.0417275217391304,"stdev":0.20427315471968,"min":0.407,"median":0.924}},"features":[{"properties":{"city":"Santa Maria","zip":"93454","geo_score":0.912,"programname":"Allan Hancock College","id":"a6aww5g9m00t","geo_precision":"range","address":"800 South College Drive","state":"CA"},"type":"Feature","geometry":{"type":"Point","coordinates":[-120.424801,34.946823]}},{"properties":{"city":"Inglewood","zip":"90302","geo_score":1.0,"programname":"American Red Cross - Inglewood","id":"a6aww5jo70m8","geo_precision":"range","address":"610 N Eucalyptus Ave","state":"CA"},"type":"Feature","geometry":{"type":"Point","coordinates":[-118.358801,33.970293]}},{"properties":{"city":"Los Angeles","zip":"90022","geo_score":0.707,"programname":"American Red Cross - Los Angeles","id":"a6aww5ckvgl7","geo_precision":"range","address":"5051 East 3Rd Street","state":"CA"},"type":"Feature","geometry":{"type":"Point","coordinates":[-118.157093,34.033408]}},{"properties":{"city":"Sacramento","zip":"95841","geo_score":0.902,"programname":"American River College","id":"a6aww5f7d1s1","geo_precision":"range","address":"4700 College Oak Drive","state":"CA"},"type":"Feature","geometry":{"type":"Point","coordinates":[-121.350561,38.650948]}},{"properties":{"city":"Lancaster","zip":"93536","geo_score":0.924,"programname":"Antelope Valley College","id":"a6aww5if71g2","geo_precision":"range","address":"3041 West Avenue K","state":"CA"},"type":"Feature","geometry":{"type":"Point","coordinates":[-118.184173,34.674879]}},{"properties":{"city":"North Hollywood","zip":"91601","geo_score":1.0,"programname":"B &amp; R Nursing School","id":"a6aww5j5oibr","geo_precision":"range","address":"10752 Burbank Blvd.","state":"CA"},"type":"Feature","geometry":{"type":"Point","coordinates":[-118.365123,34.172157]}},{"properties":{"city":"Long Beach","zip":"90840","geo_score":0.98,"programname":"C S U, Long Beach Foundation/Cvt","id":"a6aww5fhiz8v","geo_precision":"range","address":"1250 Bellflower Blvd.","state":"CA"},"type":"Feature","geometry":{"type":"Point","coordinates":[-118.122344,33.782344]}},{"properties":{"city":"Los Angeles","zip":"90035","geo_score":0.633,"programname":"Career Development Institute","id":"a6aww56pdaev","geo_precision":"street","address":"1830 So. Robertson Blvd","state":"CA"},"type":"Feature","geometry":{"type":"Point","coordinates":[-118.383551,34.062194]}},{"properties":{"city":"Van Nuys","zip":"91405","geo_score":0.902,"programname":"Casa Loma College","id":"a6aww56duqkm","geo_precision":"range","address":"6850 Van Nuys Blvd.","state":"CA"},"type":"Feature","geometry":{"type":"Point","coordinates":[-118.448721,34.195276]}},{"properties":{"city":"Hawthorne","zip":"90250","geo_score":0.48,"programname":"Casa Loma College","id":"a6aww56r8dnc","geo_precision":"street","address":"12540 S. Crenshaw Blvd.","state":"CA"},"type":"Feature","geometry":{"type":"Point","coordinates":[-118.326506,33.923733]}},{"properties":{"city":"Los Angeles","zip":"90010","geo_score":1.0,"programname":"Central Nursing College","id":"a6aww5i1cu0q","geo_precision":"range","address":"3550 Wilshire Blvd","state":"CA"},"type":"Feature","geometry":{"type":"Point","coordinates":[-118.301994,34.061734]}},{"properties":{"city":"North Hollywood","zip":"91606","geo_score":1.0,"programname":"Computer Institute of Technology","id":"a6aww5jycapp","geo_precision":"range","address":"11631 Victory Blvd","state":"CA"},"type":"Feature","geometry":{"type":"Point","coordinates":[-118.386218,34.186675]}},{"properties":{"city":"Garden Grove","zip":"92840","geo_score":1.0,"programname":"Concorde Career College","id":"a6aww5bind3k","geo_precision":"range","address":"12951 Euclid St.","state":"CA"},"type":"Feature","geometry":{"type":"Point","coordinates":[-117.937924,33.77482]}},{"properties":{"city":"Wilmington","zip":"90744","geo_score":0.932,"programname":"Los Angeles Harbor College","id":"a6aww575ghhl","geo_precision":"range","address":"1111 Figueroa Place","state":"CA"},"type":"Feature","geometry":{"type":"Point","coordinates":[-118.28102,33.781458]}},{"properties":{"city":"Valley Glen","zip":"91401","geo_score":0.932,"programname":"Los Angeles Valley College","id":"a6aww5i3a2xr","geo_precision":"range","address":"5800 Fulton Avenue","state":"CA"},"type":"Feature","geometry":{"type":"Point","coordinates":[-118.422513,34.175757]}},{"properties":{"city":"Walnut","zip":"91789","geo_score":1.0,"programname":"Mt San Antonio College","id":"a6aww55lphq6","geo_precision":"range","address":"1100 N Grand Ave","state":"CA"},"type":"Feature","geometry":{"type":"Point","coordinates":[-117.847498,34.042975]}},{"properties":{"city":"Long Beach","zip":"90814","geo_score":0.902,"programname":"Nursing Learning Center","id":"a6aww5c3troa","geo_precision":"range","address":"2632 E 4th Street","state":"CA"},"type":"Feature","geometry":{"type":"Point","coordinates":[-118.160507,33.771699]}},{"properties":{"city":"Blythe","zip":"92225","geo_score":0.514,"programname":"Palo Verde College","id":"a6aww590csam","geo_precision":"street","address":"One College Drive","state":"CA"},"type":"Feature","geometry":{"type":"Point","coordinates":[-114.595435,33.61038]}},{"properties":{"city":"Van Nuys","zip":"94101","geo_score":0.477,"programname":"Preferred College of Nursing","id":"a6aww5fo9lgc","geo_precision":"street","address":"6551 Van Nuys Blvd.","state":"CA"},"type":"Feature","geometry":{"type":"Point","coordinates":[-122.426613,37.808152]}},{"properties":{"city":"Los Altos","zip":"94022","geo_score":0.939,"programname":"St. Francis Career College","id":"a6aww55ydh4f","geo_precision":"range","address":"26000 Altamont Road","state":"CA"},"type":"Feature","geometry":{"type":"Point","coordinates":[-122.144579,37.358261]}},{"properties":{"city":"Los Angeles","zip":"90006","geo_score":0.607,"programname":"Technical School, INC.","id":"a6aww55dcpya","geo_precision":"street","address":"2300 W. Olympic Blvd.","state":"CA"},"type":"Feature","geometry":{"type":"Point","coordinates":[-118.276532,34.050232]}},{"properties":{"city":"Los Angeles","zip":"90057","geo_score":1.0,"programname":"Walter Jay M.D. Institute","id":"a6aww55hnsd0","geo_precision":"range","address":"1930 Wilshire Blvd.","state":"CA"},"type":"Feature","geometry":{"type":"Point","coordinates":[-118.273868,34.057046]}},{"properties":{"city":"Beverly Hills","zip":"90211","geo_score":0.407,"programname":"West Coast Ultrasound Institute","id":"a6aww5ig9anz","geo_precision":"street","address":"291 S La Cienega Ave.","state":"CA"},"type":"Feature","geometry":{"type":"Point","coordinates":[-118.548371,34.052375]}}],"is_temporal":false,"author":{"url":"","metadata":"","contact_name":"","contact_address":"","source":"","contact_phone":""},"source":"","pagination":{"sort":null,"start":0,"total":23,"limit":1000000},"state":"complete","tags":"","published":"2014-08-10T12:22:50-04:00","id":60633}