{"type":"FeatureCollection","data_type":"Dataset","url_type":null,"permissions":[{"permissions":{"download":true,"view":true},"group_id":"everyone"}],"classification":null,"title":"CM-SJHubMain","count":11,"stream_id":60920,"contributor":{"url":"http://geocommons.com/users/14525","name":"mtorres"},"data_attributes":null,"calculation_params":null,"icon_link":null,"link":"http://geocommons.com/overlays/60920.json","extent":[-121.96,37.2217,-121.771,37.3914],"geometry_types":["point"],"unique_name":null,"name":"CM-SJHubMain","feature_count":11,"description":"","next_feature":null,"is_raster":false,"short_classification":"Y","stats":{"geo_score":{"max":1.0,"mean":0.933363636363636,"variance":0.0149778545454545,"stdev":0.122384045305973,"min":0.614,"median":1.0}},"features":[{"properties":{"city":"San Jose","zip":"95111","operated by":"City of SJ","geo_score":1.0,"site name":"*Seven Trees","id":"a6dc9hj39hi7","geo_precision":"range","address":"3590 Cas Drive","state":"CA"},"type":"Feature","geometry":{"type":"Point","coordinates":[-121.83326,37.284595]}},{"properties":{"city":"San Jose","zip":"95125","operated by":"City of SJ","geo_score":0.805,"site name":"Almaden","id":"a6dc9hr7me88","geo_precision":"range","address":"6445 Camden Avenue","state":"CA"},"type":"Feature","geometry":{"type":"Point","coordinates":[-121.868239,37.221704]}},{"properties":{"city":"San Jose","zip":"95132","operated by":"City of SJ","geo_score":0.929,"site name":"Berryessa","id":"a6dc9hrgslzc","geo_precision":"range","address":"3050 Berryessa Road","state":"CA"},"type":"Feature","geometry":{"type":"Point","coordinates":[-121.852501,37.391448]}},{"properties":{"city":"San Jose","zip":"95124","operated by":"City of SJ","geo_score":0.919,"site name":"Camden","id":"a6dc9hs1l609","geo_precision":"range","address":"3369 Union Avenue","state":"CA"},"type":"Feature","geometry":{"type":"Point","coordinates":[-121.931432,37.263373]}},{"properties":{"city":"San Jose","zip":"95117","operated by":"City of SJ","geo_score":0.614,"site name":"Cypress","id":"a6dc9hoc6lib","geo_precision":"street","address":"403 S. Cypress Ave.","state":"CA"},"type":"Feature","geometry":{"type":"Point","coordinates":[-121.95979,37.32428]}},{"properties":{"city":"San Jose","zip":"95135","operated by":"City of SJ","geo_score":1.0,"site name":"Evergreen","id":"a6dc9hph0voc","geo_precision":"range","address":"4860 San Felipe Road","state":"CA"},"type":"Feature","geometry":{"type":"Point","coordinates":[-121.771479,37.299505]}},{"properties":{"city":"San Jose","zip":"95116","operated by":"City of SJ","geo_score":1.0,"site name":"Mayfair","id":"a6dc9hu9pgab","geo_precision":"range","address":"2039 Kammerer Avenue","state":"CA"},"type":"Feature","geometry":{"type":"Point","coordinates":[-121.844291,37.350802]}},{"properties":{"city":"San Jose","zip":"95116","operated by":"City of SJ","geo_score":1.0,"site name":"Roosevelt","id":"a6dc9hlbbfag","geo_precision":"range","address":"901 East Santa Clara Street","state":"CA"},"type":"Feature","geometry":{"type":"Point","coordinates":[-121.872533,37.344736]}},{"properties":{"city":"San Jose","zip":"95122","operated by":"City of SJ","geo_score":1.0,"site name":"Shirakawa (Iola Williams)","id":"a6dc9htnujlx","geo_precision":"range","address":"2072 Lucretia Avenue","state":"CA"},"type":"Feature","geometry":{"type":"Point","coordinates":[-121.846495,37.319071]}},{"properties":{"city":"San Jose","zip":"95123","operated by":"City of SJ","geo_score":1.0,"site name":"Southside","id":"a6dc9hsztzya","geo_precision":"range","address":"5585 Cottle Road","state":"CA"},"type":"Feature","geometry":{"type":"Point","coordinates":[-121.804026,37.251758]}},{"properties":{"city":"San Jose","zip":"95125","operated by":"City of SJ","geo_score":1.0,"site name":"Willow Glen","id":"a6dc9hssvws6","geo_precision":"range","address":"2175 Lincoln Avenue","state":"CA"},"type":"Feature","geometry":{"type":"Point","coordinates":[-121.888892,37.291596]}}],"is_temporal":false,"author":{"url":"","metadata":"","contact_name":"","contact_address":"","source":"","contact_phone":""},"source":"","pagination":{"sort":null,"start":0,"total":11,"limit":1000000},"state":"complete","tags":"","published":"2014-08-10T12:47:59-04:00","id":60920}