{"type":"FeatureCollection","data_type":"Dataset","url_type":null,"permissions":[{"permissions":{"download":true,"view":true},"group_id":"everyone"}],"classification":null,"title":"DC Public Libraries","count":27,"stream_id":61539,"contributor":{"url":"http://geocommons.com/users/139","name":"Burkey"},"data_attributes":null,"calculation_params":null,"icon_link":null,"link":"http://geocommons.com/overlays/61539.json","extent":[-77.0968,38.8317,-76.9296,38.9799],"geometry_types":["point"],"unique_name":null,"name":"DC Public Libraries","feature_count":27,"description":"","next_feature":null,"is_raster":false,"short_classification":"Y","stats":{"lon":{"max":-76.929625,"mean":-77.0105900740741,"variance":0.00187050456353281,"stdev":0.0432493302090658,"min":-77.096844,"median":-77.013502},"phone":{"max":2027271111,"mean":2025935256.77778,"variance":2684278161204.56,"stdev":1638376.68477202,"min":2022820021,"median":2026710200},"lat":{"max":38.979899,"mean":38.9096061851852,"variance":0.00135106787177209,"stdev":0.0367568751633227,"min":38.831708,"median":38.903914}},"features":[{"properties":{"lon":-76.979443,"city":"Washington","zip":"20020","librarysystem":"District Of Columbia Public Library","phone":2026981190,"id":"a68gujiwd72c","lat":38.865799,"address":"1800 Good Hope Road, SE","state":"DC","libraryname":"Anacostia Neighborhood Library"},"type":"Feature","geometry":{"type":"Point","coordinates":[-76.979443,38.865799]}},{"properties":{"lon":-76.948198,"city":"Washington","zip":"20019","librarysystem":"District Of Columbia Public Library","phone":2027244787,"id":"a68gujeyq6ve","lat":38.894539,"address":"3935 Benning Road, NE","state":"DC","libraryname":"Benning Branch Library"},"type":"Feature","geometry":{"type":"Point","coordinates":[-76.948198,38.894539]}},{"properties":{"lon":-76.929625,"city":"Washington","zip":"20019","librarysystem":"District Of Columbia Public Library","phone":2026450755,"id":"a68guja7ue8j","lat":38.88913,"address":"5001 Central Avenue, SE","state":"DC","libraryname":"Capitol View Branch Library"},"type":"Feature","geometry":{"type":"Point","coordinates":[-76.929625,38.88913]}},{"properties":{"lon":-77.076048,"city":"Washington","zip":"20015","librarysystem":"District Of Columbia Public Library","phone":2022820021,"id":"a68gujheeu6c","lat":38.965914,"address":"5625 Connecticut Avenue, NW","state":"DC","libraryname":"Chevy Chase Branch Library"},"type":"Feature","geometry":{"type":"Point","coordinates":[-77.076048,38.965914]}},{"properties":{"lon":-77.057485,"city":"Washington","zip":"20008","librarysystem":"District Of Columbia Public Library","phone":2022823080,"id":"a68gujf98uow","lat":38.933559,"address":"3310 Connecticut Avenue, NW","state":"DC","libraryname":"Cleveland Park Branch Library"},"type":"Feature","geometry":{"type":"Point","coordinates":[-77.057485,38.933559]}},{"properties":{"lon":-76.943486,"city":"Washington","zip":"20019","librarysystem":"District Of Columbia Public Library","phone":2027248526,"id":"a68gujc5xsxq","lat":38.902125,"address":"4215 Nannie Helen Burroughs Avenue, NE","state":"DC","libraryname":"Deanwood Kiosk"},"type":"Feature","geometry":{"type":"Point","coordinates":[-76.943486,38.902125]}},{"properties":{"lon":-76.954383,"city":"Washington","zip":"20020","librarysystem":"District Of Columbia Public Library","phone":2026454297,"id":"a68gujazvvg0","lat":38.864601,"address":"3660 Alabama Avenue, SE","state":"DC","libraryname":"Francis A. Gregory Branch Library"},"type":"Feature","geometry":{"type":"Point","coordinates":[-76.954383,38.864601]}},{"properties":{"lon":-77.065666,"city":"Washington","zip":"20007","librarysystem":"District Of Columbia Public Library","phone":2022820220,"id":"a68guj8jzyek","lat":38.913507,"address":"3260 R Street, NW","state":"DC","libraryname":"Georgetown Branch Library"},"type":"Feature","geometry":{"type":"Point","coordinates":[-77.065666,38.913507]}},{"properties":{"lon":-77.02663,"city":"Washington","zip":"20012","librarysystem":"District Of Columbia Public Library","phone":2025416100,"id":"a68gujfzvaku","lat":38.979899,"address":"7420 Georgia Avenue, NW","state":"DC","libraryname":"Juanita E. Thornton/Shepherd Park Branch Library"},"type":"Feature","geometry":{"type":"Point","coordinates":[-77.02663,38.979899]}},{"properties":{"lon":-76.999535,"city":"Washington","zip":"20011","librarysystem":"District Of Columbia Public Library","phone":2025416255,"id":"a68gujiycg9a","lat":38.954831,"address":"5401 South Dakota Avenue, NE","state":"DC","libraryname":"Lamond-Riggs Branch Library"},"type":"Feature","geometry":{"type":"Point","coordinates":[-76.999535,38.954831]}},{"properties":{"lon":-76.970289,"city":"Washington","zip":"20002","librarysystem":"District Of Columbia Public Library","phone":2027248665,"id":"a68gujb83t1i","lat":38.897934,"address":"2600 Benning Road, NE","state":"DC","libraryname":"Langston Community Library"},"type":"Feature","geometry":{"type":"Point","coordinates":[-76.970289,38.897934]}},{"properties":{"lon":-77.024164,"city":"Washington","zip":"20001","librarysystem":"District Of Columbia Public Library","phone":2027271111,"id":"a68gujj04jmz","lat":38.898499,"address":"901 G Street, NW","state":"DC","libraryname":"Martin Luther King Jr. Memorial Library - Central Library"},"type":"Feature","geometry":{"type":"Point","coordinates":[-77.024164,38.898499]}},{"properties":{"lon":-77.036618,"city":"Washington","zip":"20010","librarysystem":"District Of Columbia Public Library","phone":2026710200,"id":"a68guji3wx5h","lat":38.929789,"address":"3160 16th Street, NW","state":"DC","libraryname":"Mount Pleasant Branch Library"},"type":"Feature","geometry":{"type":"Point","coordinates":[-77.036618,38.929789]}},{"properties":{"lon":-76.996315,"city":"Washington","zip":"20002","librarysystem":"District Of Columbia Public Library","phone":2026983320,"id":"a68gujcwhxj5","lat":38.893997,"address":"330 7th Street, NE","state":"DC","libraryname":"Northeast Branch Library"},"type":"Feature","geometry":{"type":"Point","coordinates":[-76.996315,38.893997]}},{"properties":{"lon":-77.096844,"city":"Washington","zip":"20007","librarysystem":"District Of Columbia Public Library","phone":2022823139,"id":"a68guj4i0t0h","lat":38.918162,"address":"4901 V Street, NW","state":"DC","libraryname":"Palisades Branch Library"},"type":"Feature","geometry":{"type":"Point","coordinates":[-77.096844,38.918162]}},{"properties":{"lon":-76.980239,"city":"Washington","zip":"20020","librarysystem":"District Of Columbia Public Library","phone":2026981103,"id":"a68guja1fn5h","lat":38.847043,"address":"1700 Alabama Avenue, SE","state":"DC","libraryname":"Parklands-Turner Community Library"},"type":"Feature","geometry":{"type":"Point","coordinates":[-76.980239,38.847043]}},{"properties":{"lon":-77.025952,"city":"Washington","zip":"20011","librarysystem":"District Of Columbia Public Library","phone":2025416300,"id":"a68gujdtzbhn","lat":38.942013,"address":"4200 Kansas Avenue, NW","state":"DC","libraryname":"Petworth Branch Library"},"type":"Feature","geometry":{"type":"Point","coordinates":[-77.025952,38.942013]}},{"properties":{"lon":-76.988006,"city":"Washington","zip":"20002","librarysystem":"District Of Columbia Public Library","phone":2027248599,"id":"a68gujggg1t9","lat":38.900353,"address":"1300 H Street, NE","state":"DC","libraryname":"R. L. Christian Community Library"},"type":"Feature","geometry":{"type":"Point","coordinates":[-76.988006,38.900353]}},{"properties":{"lon":-76.996332,"city":"Washington","zip":"20003","librarysystem":"District Of Columbia Public Library","phone":2026983374,"id":"a68guj7b6q13","lat":38.884108,"address":"403 7th Street, SE","state":"DC","libraryname":"Southeast Branch Library"},"type":"Feature","geometry":{"type":"Point","coordinates":[-76.996332,38.884108]}},{"properties":{"lon":-77.016099,"city":"Washington","zip":"20024","librarysystem":"District Of Columbia Public Library","phone":2027244752,"id":"a68gujjy9cfr","lat":38.879184,"address":"900 Wesley Place, SW","state":"DC","libraryname":"Southwest Branch Library"},"type":"Feature","geometry":{"type":"Point","coordinates":[-77.016099,38.879184]}},{"properties":{"lon":-77.013502,"city":"Washington","zip":"20001","librarysystem":"District Of Columbia Public Library","phone":2027244772,"id":"a68guja7g7a3","lat":38.905831,"address":"135 New York Avenue, NW","state":"DC","libraryname":"Sursum Corda Community Library"},"type":"Feature","geometry":{"type":"Point","coordinates":[-77.013502,38.905831]}},{"properties":{"lon":-77.018591,"city":"Washington","zip":"20012","librarysystem":"District Of Columbia Public Library","phone":2025767252,"id":"a68gujb4e7d4","lat":38.97464,"address":"416 Cedar Street, NW","state":"DC","libraryname":"Takoma Park Branch Library"},"type":"Feature","geometry":{"type":"Point","coordinates":[-77.018591,38.97464]}},{"properties":{"lon":-77.07958,"city":"Washington","zip":"20016","librarysystem":"District Of Columbia Public Library","phone":2022823090,"id":"a68gujb81b9n","lat":38.94741,"address":"4450 Wisconsin Avenue, NW","state":"DC","libraryname":"Tenley-Friendship Branch Library"},"type":"Feature","geometry":{"type":"Point","coordinates":[-77.07958,38.94741]}},{"properties":{"lon":-77.009764,"city":"Washington","zip":"20032","librarysystem":"District Of Columbia Public Library","phone":2026455880,"id":"a68gujh08if4","lat":38.831708,"address":"115 Atlantic Street, SW","state":"DC","libraryname":"Washington Highlands Branch Library"},"type":"Feature","geometry":{"type":"Point","coordinates":[-77.009764,38.831708]}},{"properties":{"lon":-77.022801,"city":"Washington","zip":"20001","librarysystem":"District Of Columbia Public Library","phone":2026710212,"id":"a68guj8w4uwc","lat":38.91277,"address":"1701 8th Street, NW","state":"DC","libraryname":"Watha T. Daniel/Shaw Branch Library"},"type":"Feature","geometry":{"type":"Point","coordinates":[-77.022801,38.91277]}},{"properties":{"lon":-77.051237,"city":"Washington","zip":"20037","librarysystem":"District Of Columbia Public Library","phone":2027248707,"id":"a68guje3napf","lat":38.903914,"address":"1101 24th Street, NW","state":"DC","libraryname":"West End Branch Library"},"type":"Feature","geometry":{"type":"Point","coordinates":[-77.051237,38.903914]}},{"properties":{"lon":-76.9791,"city":"Washington","zip":"20018","librarysystem":"District Of Columbia Public Library","phone":2025416226,"id":"a68gujblie0n","lat":38.928108,"address":"1801 Hamlin Street, NE","state":"DC","libraryname":"Woodridge Regional Branch Library"},"type":"Feature","geometry":{"type":"Point","coordinates":[-76.9791,38.928108]}}],"is_temporal":false,"author":{"url":"","metadata":"","contact_name":"","contact_address":"","source":"","contact_phone":""},"source":"","pagination":{"sort":null,"start":0,"total":27,"limit":1000000},"state":"complete","tags":"","published":"2014-08-10T13:33:41-04:00","id":61539}