{"type":"FeatureCollection","data_type":"Dataset","url_type":null,"permissions":[{"permissions":{"download":true,"view":true},"group_id":"everyone"}],"classification":null,"title":"TwitterTigers  - Locations","count":31,"stream_id":62200,"contributor":{"url":"http://geocommons.com/users/12003","name":"LauraHale"},"data_attributes":null,"calculation_params":null,"icon_link":null,"link":"http://geocommons.com/overlays/62200.json","extent":[-123.109,-42.8827,153.392,51.5002],"geometry_types":["point"],"unique_name":null,"name":"TwitterTigers  - Locations","feature_count":31,"description":"","next_feature":null,"is_raster":false,"short_classification":"Y","stats":{"latitude":{"max":51.5001524,"mean":-10.2915151322581,"variance":1336.45625283505,"stdev":36.5575744933256,"min":-42.882743,"median":-33.867139},"richmond tigers":{"max":232,"mean":11.3225806451613,"variance":1712.15913978495,"stdev":41.3782447644284,"min":1,"median":1},"longitude":{"max":153.3919444,"mean":77.9232824419355,"variance":11066.1359605975,"stdev":105.195703147028,"min":-123.1088,"median":143.847048}},"features":[{"properties":{"city":"Adelaide","latitude":-34.92577,"richmond tigers":19,"country":"Australia","postal code":null,"longitude":138.599732,"id":"a6bdm65muob6","state":"South Australia"},"type":"Feature","geometry":{"type":"Point","coordinates":[138.599732,-34.92577]}},{"properties":{"city":"Alberton","latitude":-34.85922,"richmond tigers":1,"country":"Australia","postal code":"5014","longitude":138.51953,"id":"a6bdm664xivm","state":"South Australia"},"type":"Feature","geometry":{"type":"Point","coordinates":[138.51953,-34.85922]}},{"properties":{"city":"Ballarat","latitude":-37.563318,"richmond tigers":5,"country":"Australia","postal code":"3352","longitude":143.847048,"id":"a6bdm6cex8p8","state":"Victoria"},"type":"Feature","geometry":{"type":"Point","coordinates":[143.847048,-37.563318]}},{"properties":{"city":"Brisbane","latitude":-27.46758,"richmond tigers":10,"country":"Australia","postal code":null,"longitude":153.027892,"id":"a6bdm5zqgsho","state":"Queensland"},"type":"Feature","geometry":{"type":"Point","coordinates":[153.027892,-27.46758]}},{"properties":{"city":"Canberra","latitude":-35.28204,"richmond tigers":2,"country":"Australia","postal code":"2600","longitude":149.12858,"id":"a6bdm66fqvp4","state":"Australian Capital Territory"},"type":"Feature","geometry":{"type":"Point","coordinates":[149.12858,-35.28204]}},{"properties":{"city":"Cranbourne","latitude":-38.11122,"richmond tigers":1,"country":"Australia","postal code":"3977","longitude":145.268832,"id":"a6bdm696koh3","state":"Victoria"},"type":"Feature","geometry":{"type":"Point","coordinates":[145.268832,-38.11122]}},{"properties":{"city":"Darwin","latitude":-12.461334,"richmond tigers":3,"country":"Australia","postal code":"822","longitude":130.841904,"id":"a6bdm6crg2e6","state":"Northern Territory"},"type":"Feature","geometry":{"type":"Point","coordinates":[130.841904,-12.461334]}},{"properties":{"city":"Geelong","latitude":-38.14729,"richmond tigers":5,"country":"Australia","postal code":"3221","longitude":144.360735,"id":"a6bdm68jvjea","state":"Victoria"},"type":"Feature","geometry":{"type":"Point","coordinates":[144.360735,-38.14729]}},{"properties":{"city":"Gold Coast","latitude":-27.9852778,"richmond tigers":5,"country":"Australia","postal code":"4215","longitude":153.3919444,"id":"a6bdm6emo12n","state":"Queensland"},"type":"Feature","geometry":{"type":"Point","coordinates":[153.3919444,-27.9852778]}},{"properties":{"city":"Hobart","latitude":-42.882743,"richmond tigers":3,"country":"Australia","postal code":"7140","longitude":147.330234,"id":"a6bdm65c21ix","state":"Tasmania"},"type":"Feature","geometry":{"type":"Point","coordinates":[147.330234,-42.882743]}},{"properties":{"city":"Hong Kong","latitude":22.396428,"richmond tigers":1,"country":"China","postal code":null,"longitude":114.109497,"id":"a6bdm607fi2n","state":null},"type":"Feature","geometry":{"type":"Point","coordinates":[114.109497,22.396428]}},{"properties":{"city":"Launceston","latitude":-41.440282,"richmond tigers":2,"country":"Australia","postal code":"7250","longitude":147.139353,"id":"a6bdm6264fw3","state":"Tasmania"},"type":"Feature","geometry":{"type":"Point","coordinates":[147.139353,-41.440282]}},{"properties":{"city":"London","latitude":51.5001524,"richmond tigers":2,"country":"United Kingdom","postal code":null,"longitude":-0.1262362,"id":"a6bdm6d6zn95","state":"England"},"type":"Feature","geometry":{"type":"Point","coordinates":[-0.1262362,51.5001524]}},{"properties":{"city":"Manchester","latitude":42.9956397,"richmond tigers":2,"country":"United States","postal code":null,"longitude":-71.4547891,"id":"a6bdm613danq","state":"New Hampshire"},"type":"Feature","geometry":{"type":"Point","coordinates":[-71.4547891,42.9956397]}},{"properties":{"city":"Melbourne","latitude":-37.814251,"richmond tigers":232,"country":"Australia","postal code":null,"longitude":144.963169,"id":"a6bdm6c2aees","state":"Victoria"},"type":"Feature","geometry":{"type":"Point","coordinates":[144.963169,-37.814251]}},{"properties":{"city":"Mildura","latitude":-34.184549,"richmond tigers":1,"country":"Australia","postal code":null,"longitude":142.165565,"id":"a6bdm5yoz2bd","state":"Victoria"},"type":"Feature","geometry":{"type":"Point","coordinates":[142.165565,-34.184549]}},{"properties":{"city":"Minneapolis","latitude":44.9799654,"richmond tigers":1,"country":"United States","postal code":null,"longitude":-93.2638361,"id":"a6bdm60r8szm","state":"Minnesotta"},"type":"Feature","geometry":{"type":"Point","coordinates":[-93.2638361,44.9799654]}},{"properties":{"city":"Moorabbin","latitude":-37.933497,"richmond tigers":1,"country":"Australia","postal code":null,"longitude":145.038504,"id":"a6bdm5zx8h9o","state":"Victoria"},"type":"Feature","geometry":{"type":"Point","coordinates":[145.038504,-37.933497]}},{"properties":{"city":"New York City","latitude":40.7143528,"richmond tigers":1,"country":"United States","postal code":null,"longitude":-74.0059731,"id":"a6bdm5zzr7b6","state":"New York"},"type":"Feature","geometry":{"type":"Point","coordinates":[-74.0059731,40.7143528]}},{"properties":{"city":"Newcastle","latitude":-32.926357,"richmond tigers":1,"country":"Australia","postal code":null,"longitude":151.78122,"id":"a6bdm65ii1h4","state":"New South Wales"},"type":"Feature","geometry":{"type":"Point","coordinates":[151.78122,-32.926357]}},{"properties":{"city":"Orange County","latitude":33.7174708,"richmond tigers":1,"country":"United States","postal code":null,"longitude":-117.8311428,"id":"a6bdm6ci7nvs","state":"California"},"type":"Feature","geometry":{"type":"Point","coordinates":[-117.8311428,33.7174708]}},{"properties":{"city":"Ottawa","latitude":45.411572,"richmond tigers":1,"country":"Canada","postal code":null,"longitude":-75.698194,"id":"a6bdm69u4tdx","state":"Ontario"},"type":"Feature","geometry":{"type":"Point","coordinates":[-75.698194,45.411572]}},{"properties":{"city":"Pakenham","latitude":-38.077355,"richmond tigers":1,"country":"Australia","postal code":null,"longitude":145.493402,"id":"a6bdm5zi8g0q","state":"Victoria"},"type":"Feature","geometry":{"type":"Point","coordinates":[145.493402,-38.077355]}},{"properties":{"city":"Perth","latitude":-31.9554,"richmond tigers":21,"country":"Australia","postal code":null,"longitude":115.85859,"id":"a6bdm64e2uh0","state":"Western Australia"},"type":"Feature","geometry":{"type":"Point","coordinates":[115.85859,-31.9554]}},{"properties":{"city":"Richmond","latitude":-37.818587,"richmond tigers":2,"country":"Australia","postal code":"3121","longitude":144.999181,"id":"a6bdm5ykwcuw","state":"Victoria"},"type":"Feature","geometry":{"type":"Point","coordinates":[144.999181,-37.818587]}},{"properties":{"city":"Seddon","latitude":-37.808769,"richmond tigers":1,"country":"Australia","postal code":"3011","longitude":144.895486,"id":"a6bdm6cfb4ae","state":"Victoria"},"type":"Feature","geometry":{"type":"Point","coordinates":[144.895486,-37.808769]}},{"properties":{"city":"Shawnee","latitude":39.0416718,"richmond tigers":1,"country":"United States","postal code":null,"longitude":-94.7202376,"id":"a6bdm6cjl68j","state":"Kansas"},"type":"Feature","geometry":{"type":"Point","coordinates":[-94.7202376,39.0416718]}},{"properties":{"city":"Sydney","latitude":-33.867139,"richmond tigers":22,"country":"Australia","postal code":null,"longitude":151.207114,"id":"a6bdm63i0y0q","state":"New South Wales"},"type":"Feature","geometry":{"type":"Point","coordinates":[151.207114,-33.867139]}},{"properties":{"city":"Vancouver","latitude":49.248523,"richmond tigers":1,"country":"Canada","postal code":null,"longitude":-123.1088,"id":"a6bdm60uff9p","state":"British Columbia"},"type":"Feature","geometry":{"type":"Point","coordinates":[-123.1088,49.248523]}},{"properties":{"city":"Washington D.C.","latitude":38.8951118,"richmond tigers":1,"country":"United States","postal code":null,"longitude":-77.0363658,"id":"a6bdm67ab0w8","state":null},"type":"Feature","geometry":{"type":"Point","coordinates":[-77.0363658,38.8951118]}},{"properties":{"city":"Wollongong","latitude":-34.425878,"richmond tigers":1,"country":"Australia","postal code":null,"longitude":150.899818,"id":"a6bdm65owo5e","state":"New South Wales"},"type":"Feature","geometry":{"type":"Point","coordinates":[150.899818,-34.425878]}}],"is_temporal":false,"author":{"url":"","metadata":"","contact_name":"","contact_address":"","source":"","contact_phone":""},"source":"","pagination":{"sort":null,"start":0,"total":31,"limit":1000000},"state":"complete","tags":"richmondtigers,twitter","published":"2014-08-10T14:13:11-04:00","id":62200}