{"type":"FeatureCollection","data_type":"Dataset","url_type":null,"permissions":[{"permissions":{"download":true,"view":true},"group_id":"everyone"}],"classification":null,"title":"DRLA service delivery locations","count":79,"stream_id":62530,"contributor":{"url":"http://geocommons.com/users/15688","name":"payson"},"data_attributes":null,"calculation_params":null,"icon_link":null,"link":"http://geocommons.com/overlays/62530.json","extent":[-121.765,29.219,-89.3626,36.7568],"geometry_types":["point"],"unique_name":null,"name":"DRLA service delivery locations","feature_count":79,"description":"DRLA service delivery batchgeo.shp","next_feature":null,"is_raster":false,"short_classification":"Y","stats":{"ZIP":{"max":71119,"mean":70241.2025316456,"variance":50072.035378124,"stdev":223.76781577815,"min":70002,"median":70123},"AG_NB":{"max":13,"mean":5.22784810126582,"variance":11.5115222330412,"stdev":3.3928634268183,"min":1,"median":5},"bg_long":{"max":-89.3626295,"mean":-92.0225362012658,"variance":48.6745258278181,"stdev":6.97671311061435,"min":-121.7653085,"median":-90.111891},"bg_postal":{"max":70607,"mean":59548.7974683544,"variance":643293121.625122,"stdev":25363.2238018971,"min":0,"median":70085},"bg_lat":{"max":36.7568238,"mean":30.2346031481013,"variance":2.3858193407714,"stdev":1.54460976973843,"min":29.2189796,"median":29.9377348},"NB":{"max":81,"mean":40.4430379746835,"variance":554.737098344693,"stdev":23.5528575409587,"min":1,"median":40}},"features":[{"properties":{"CITY":"New Orleans","ZIP":70129,"ORGANIZATI":"DCFS SNAP","AG_NB":1,"bg_long":-89.912314,"TYPE":"SNAP","bg_postal":70129,"bg_lat":30.037007,"STATE":"LA","SITE":"Mary Queen of Vietnam Community Development Corporation","PARISH":"Orleans","id":"a62qj5g4wemv","ADDRESS":"4626 Alcee Fortier Blvd","NB":1,"bg_accurac":"ROOFTOP"},"type":"Feature","geometry":{"type":"Point","coordinates":[-89.912314,30.037007]}},{"properties":{"CITY":"New Orleans","ZIP":70129,"ORGANIZATI":"DCFS SNAP","AG_NB":2,"bg_long":-89.926041,"TYPE":"SNAP","bg_postal":70129,"bg_lat":30.026775,"STATE":"LA","SITE":"BP Site","PARISH":"Orleans","id":"a62qj57skmsp","ADDRESS":"4375 Michoud Blvd","NB":2,"bg_accurac":"ROOFTOP"},"type":"Feature","geometry":{"type":"Point","coordinates":[-89.926041,30.026775]}},{"properties":{"CITY":"Lafitte","ZIP":70067,"ORGANIZATI":"DCFS SNAP","AG_NB":3,"bg_long":-90.111891,"TYPE":"SNAP","bg_postal":70067,"bg_lat":29.7156483,"STATE":"LA","SITE":"City Building","PARISH":"Jefferson","id":"a62qj562g5l9","ADDRESS":"2654 Jean Lafitte Blvd","NB":3,"bg_accurac":"GEOMETRIC_CENTER"},"type":"Feature","geometry":{"type":"Point","coordinates":[-90.111891,29.7156483]}},{"properties":{"CITY":"Arabi","ZIP":70032,"ORGANIZATI":"DCFS SNAP","AG_NB":4,"bg_long":-90.0008302,"TYPE":"SNAP","bg_postal":70032,"bg_lat":29.9565665,"STATE":"LA","SITE":"St Bernard Community Center","PARISH":"St Bernard","id":"a62qj5c0d4ga","ADDRESS":"1107 Le Beau Street","NB":4,"bg_accurac":"RANGE_INTERPOLATED"},"type":"Feature","geometry":{"type":"Point","coordinates":[-90.0008302,29.9565665]}},{"properties":{"CITY":"Chalmette","ZIP":70043,"ORGANIZATI":"DCFS SNAP","AG_NB":5,"bg_long":-89.9644789,"TYPE":"SNAP","bg_postal":70043,"bg_lat":29.9358521,"STATE":"LA","SITE":"First Baptist Church","PARISH":"St Bernard","id":"a62qj58xf7b9","ADDRESS":"305 East St Bernard Hwy","NB":5,"bg_accurac":"RANGE_INTERPOLATED"},"type":"Feature","geometry":{"type":"Point","coordinates":[-89.9644789,29.9358521]}},{"properties":{"CITY":"Chalmette","ZIP":70043,"ORGANIZATI":"DCFS SNAP","AG_NB":6,"bg_long":-89.9835183,"TYPE":"SNAP","bg_postal":70043,"bg_lat":29.9554019,"STATE":"LA","SITE":"LWC","PARISH":"St Bernard","id":"a62qj59k29lv","ADDRESS":"8201 West Judge Perez, 2nd floor","NB":6,"bg_accurac":"RANGE_INTERPOLATED"},"type":"Feature","geometry":{"type":"Point","coordinates":[-89.9835183,29.9554019]}},{"properties":{"CITY":"St Bernard","ZIP":70085,"ORGANIZATI":"DCFS SNAP","AG_NB":7,"bg_long":-89.8594886,"TYPE":"SNAP","bg_postal":70085,"bg_lat":29.8673853,"STATE":"LA","SITE":"Los Islenos Museum","PARISH":"St Bernard","id":"a62qj5kfbsri","ADDRESS":"1345 Bayou Road","NB":7,"bg_accurac":"RANGE_INTERPOLATED"},"type":"Feature","geometry":{"type":"Point","coordinates":[-89.8594886,29.8673853]}},{"properties":{"CITY":"Belle Chase","ZIP":70037,"ORGANIZATI":"DCFS SNAP","AG_NB":8,"bg_long":-90.0189666,"TYPE":"SNAP","bg_postal":70037,"bg_lat":29.8612813,"STATE":"LA","SITE":"LWC","PARISH":"Plaquemines","id":"a62qj5cbbh61","ADDRESS":"1112 Engineers Road","NB":8,"bg_accurac":"RANGE_INTERPOLATED"},"type":"Feature","geometry":{"type":"Point","coordinates":[-90.0189666,29.8612813]}},{"properties":{"CITY":"Port Suplhur","ZIP":70083,"ORGANIZATI":"DCFS SNAP","AG_NB":9,"bg_long":-89.6649841,"TYPE":"SNAP","bg_postal":70083,"bg_lat":29.4559366,"STATE":"LA","SITE":"St Patrick Catholic Church","PARISH":"Plaquemines","id":"a62qj5906tum","ADDRESS":"28698 Highway 23","NB":9,"bg_accurac":"RANGE_INTERPOLATED"},"type":"Feature","geometry":{"type":"Point","coordinates":[-89.6649841,29.4559366]}},{"properties":{"CITY":"Cut Off","ZIP":70345,"ORGANIZATI":"DCFS SNAP","AG_NB":10,"bg_long":-90.3186509,"TYPE":"SNAP","bg_postal":70345,"bg_lat":29.477773,"STATE":"LA","SITE":"BP Site - Tarpon Heights Shopping Center","PARISH":"Lafourche","id":"a62qj5d9a4yj","ADDRESS":"16263 east Main Street","NB":10,"bg_accurac":"RANGE_INTERPOLATED"},"type":"Feature","geometry":{"type":"Point","coordinates":[-90.3186509,29.477773]}},{"properties":{"CITY":"Slidell","ZIP":70461,"ORGANIZATI":"DCFS SNAP","AG_NB":11,"bg_long":-89.7669885,"TYPE":"SNAP","bg_postal":70461,"bg_lat":30.2363654,"STATE":"LA","SITE":"LWC","PARISH":"St Tammany","id":"a62qj5bcd9l6","ADDRESS":"316 E Howze Beach Road","NB":11,"bg_accurac":"ROOFTOP"},"type":"Feature","geometry":{"type":"Point","coordinates":[-89.7669885,30.2363654]}},{"properties":{"CITY":"Chauvin","ZIP":70344,"ORGANIZATI":"DCFS SNAP","AG_NB":12,"bg_long":-90.5953651,"TYPE":"SNAP","bg_postal":0,"bg_lat":29.4385529,"STATE":"LA","SITE":"Council on Aging","PARISH":"Terrebonne","id":"a62qj5gyii28","ADDRESS":"113 Senior Center Street","NB":12,"bg_accurac":"APPROXIMATE"},"type":"Feature","geometry":{"type":"Point","coordinates":[-90.5953651,29.4385529]}},{"properties":{"CITY":"New Orleans","ZIP":70129,"ORGANIZATI":"LED","AG_NB":1,"bg_long":-89.926041,"TYPE":"Business Recovery Center","bg_postal":70129,"bg_lat":30.026775,"STATE":"LA","SITE":"BP Site","PARISH":"Orleans","id":"a62qj59gagnk","ADDRESS":"4375 Michoud Blvd","NB":13,"bg_accurac":"ROOFTOP"},"type":"Feature","geometry":{"type":"Point","coordinates":[-89.926041,30.026775]}},{"properties":{"CITY":"Meterie","ZIP":70002,"ORGANIZATI":"LED","AG_NB":2,"bg_long":-90.1551795,"TYPE":"Business Recovery Center","bg_postal":70002,"bg_lat":30.0100502,"STATE":"LA","SITE":"LSBDC GNO Region - UNO Jefferson Center","PARISH":"Jefferson","id":"a62qj5isquje","ADDRESS":"3330 N Causeway, suite 422","NB":14,"bg_accurac":"APPROXIMATE"},"type":"Feature","geometry":{"type":"Point","coordinates":[-90.1551795,30.0100502]}},{"properties":{"CITY":"Grande Isle","ZIP":70358,"ORGANIZATI":"LED","AG_NB":3,"bg_long":-121.7653085,"TYPE":"Business Recovery Center","bg_postal":0,"bg_lat":36.7568238,"STATE":"LA","SITE":"Grand Isle Community Center","PARISH":"Jefferson","id":"a62qj5kwa9v4","ADDRESS":"3811 Highway 1","NB":15,"bg_accurac":"GEOMETRIC_CENTER"},"type":"Feature","geometry":{"type":"Point","coordinates":[-121.7653085,36.7568238]}},{"properties":{"CITY":"Port Suplhur","ZIP":70083,"ORGANIZATI":"LED","AG_NB":4,"bg_long":-89.6649841,"TYPE":"Business Recovery Center","bg_postal":70083,"bg_lat":29.4559366,"STATE":"LA","SITE":"St Patrick Catholic Church","PARISH":"Plaquemines","id":"a62qj5elcfiy","ADDRESS":"28698 Highway 23","NB":16,"bg_accurac":"RANGE_INTERPOLATED"},"type":"Feature","geometry":{"type":"Point","coordinates":[-89.6649841,29.4559366]}},{"properties":{"CITY":"Venice","ZIP":70091,"ORGANIZATI":"LED","AG_NB":5,"bg_long":-89.3701078,"TYPE":"Business Recovery Center","bg_postal":70091,"bg_lat":29.2189796,"STATE":"LA","SITE":"Venice Boat Harbor Office","PARISH":"Plaquemines","id":"a62qj583pqiu","ADDRESS":"Tiger Pass Road","NB":17,"bg_accurac":"APPROXIMATE"},"type":"Feature","geometry":{"type":"Point","coordinates":[-89.3701078,29.2189796]}},{"properties":{"CITY":"Belle Chase","ZIP":70037,"ORGANIZATI":"LED","AG_NB":6,"bg_long":-89.9841237,"TYPE":"Business Recovery Center","bg_postal":70037,"bg_lat":29.8565827,"STATE":"LA","SITE":"SEEDCO Financial SE LA Fisheries Assistance Center","PARISH":"Plaquemines","id":"a62qj5ivdy78","ADDRESS":"212 Avenue G","NB":18,"bg_accurac":"RANGE_INTERPOLATED"},"type":"Feature","geometry":{"type":"Point","coordinates":[-89.9841237,29.8565827]}},{"properties":{"CITY":"Chalmette","ZIP":70043,"ORGANIZATI":"LED","AG_NB":7,"bg_long":-89.947125,"TYPE":"Business Recovery Center","bg_postal":70043,"bg_lat":29.9377348,"STATE":"LA","SITE":"Gulf Coast Bank and Trust Co","PARISH":"St Bernard","id":"a62qj5e6i8va","ADDRESS":"1801 East Judge Perez Drive","NB":19,"bg_accurac":"RANGE_INTERPOLATED"},"type":"Feature","geometry":{"type":"Point","coordinates":[-89.947125,29.9377348]}},{"properties":{"CITY":"Hopedale","ZIP":70085,"ORGANIZATI":"LED","AG_NB":8,"bg_long":-89.6525599,"TYPE":"Business Recovery Center","bg_postal":70085,"bg_lat":29.818255,"STATE":"LA","SITE":"BP (?)","PARISH":"St Bernard","id":"a62qj5e1eblu","ADDRESS":"7801 Hopedale Highway","NB":20,"bg_accurac":"GEOMETRIC_CENTER"},"type":"Feature","geometry":{"type":"Point","coordinates":[-89.6525599,29.818255]}},{"properties":{"CITY":"Cut Off","ZIP":70345,"ORGANIZATI":"LED","AG_NB":9,"bg_long":-90.3186509,"TYPE":"Business Recovery Center","bg_postal":70345,"bg_lat":29.477773,"STATE":"LA","SITE":"Lafourche Public Library","PARISH":"Lafourche","id":"a62qj58xy4dx","ADDRESS":"16241 east Main Street","NB":21,"bg_accurac":"RANGE_INTERPOLATED"},"type":"Feature","geometry":{"type":"Point","coordinates":[-90.3186509,29.477773]}},{"properties":{"CITY":"Slidell","ZIP":70460,"ORGANIZATI":"LED","AG_NB":10,"bg_long":-89.7811745,"TYPE":"Business Recovery Center","bg_postal":0,"bg_lat":30.2751945,"STATE":"LA","SITE":null,"PARISH":"St Tammany","id":"a62qj59xzb4n","ADDRESS":"1330 Bayou Lane; Trailer 102","NB":22,"bg_accurac":"APPROXIMATE"},"type":"Feature","geometry":{"type":"Point","coordinates":[-89.7811745,30.2751945]}},{"properties":{"CITY":"Grande Isle","ZIP":70358,"ORGANIZATI":"LED","AG_NB":1,"bg_long":-121.7653085,"TYPE":"Mobile - Business and Carrer Solution Center","bg_postal":0,"bg_lat":36.7568238,"STATE":"LA","SITE":"Grand Isle Community Center","PARISH":"Jefferson","id":"a62qj5e65xj9","ADDRESS":"3811 Highway 1","NB":23,"bg_accurac":"GEOMETRIC_CENTER"},"type":"Feature","geometry":{"type":"Point","coordinates":[-121.7653085,36.7568238]}},{"properties":{"CITY":"Lafitte","ZIP":70067,"ORGANIZATI":"LED","AG_NB":2,"bg_long":-90.111891,"TYPE":"Mobile - Business and Carrer Solution Center","bg_postal":70067,"bg_lat":29.7156483,"STATE":"LA","SITE":"City Building","PARISH":"Jefferson","id":"a62qj5890o5i","ADDRESS":"2654 Jean Lafitte Blvd","NB":24,"bg_accurac":"GEOMETRIC_CENTER"},"type":"Feature","geometry":{"type":"Point","coordinates":[-90.111891,29.7156483]}},{"properties":{"CITY":"St Bernard","ZIP":70085,"ORGANIZATI":"LED","AG_NB":3,"bg_long":-89.8594886,"TYPE":"Mobile - Business and Carrer Solution Center","bg_postal":70085,"bg_lat":29.8673853,"STATE":"LA","SITE":"LWC mobile unit","PARISH":"St Bernard","id":"a62qj5ll8kab","ADDRESS":"1345 Bayou Road","NB":25,"bg_accurac":"RANGE_INTERPOLATED"},"type":"Feature","geometry":{"type":"Point","coordinates":[-89.8594886,29.8673853]}},{"properties":{"CITY":"Venice","ZIP":70038,"ORGANIZATI":"LED","AG_NB":4,"bg_long":-89.3696591,"TYPE":"Mobile - Business and Carrer Solution Center","bg_postal":0,"bg_lat":29.291602,"STATE":"LA","SITE":"BP Claims","PARISH":"Plaquemines","id":"a62qj57vae5q","ADDRESS":"41093 Highway 23","NB":26,"bg_accurac":"GEOMETRIC_CENTER"},"type":"Feature","geometry":{"type":"Point","coordinates":[-89.3696591,29.291602]}},{"properties":{"CITY":"Cut Off","ZIP":70345,"ORGANIZATI":"LED","AG_NB":5,"bg_long":-90.3186509,"TYPE":"Mobile - Business and Carrer Solution Center","bg_postal":70345,"bg_lat":29.477773,"STATE":"LA","SITE":"Lafourche Public Library","PARISH":"Lafourche","id":"a62qj5jwynkf","ADDRESS":"16241 east Main Street","NB":27,"bg_accurac":"RANGE_INTERPOLATED"},"type":"Feature","geometry":{"type":"Point","coordinates":[-90.3186509,29.477773]}},{"properties":{"CITY":"New Orleans","ZIP":70129,"ORGANIZATI":"SBA","AG_NB":1,"bg_long":-89.9280794,"TYPE":"SBA Business Recovery Centers (BRCs)","bg_postal":70129,"bg_lat":30.0321309,"STATE":"LA","SITE":"Vietnamese Initatives in Economic Training","PARISH":"Orleans","id":"a62qj5d9y9bz","ADDRESS":"4655 Michoud Blvd #D","NB":28,"bg_accurac":"RANGE_INTERPOLATED"},"type":"Feature","geometry":{"type":"Point","coordinates":[-89.9280794,30.0321309]}},{"properties":{"CITY":"Meterie","ZIP":70002,"ORGANIZATI":"SBA","AG_NB":2,"bg_long":-90.1551795,"TYPE":"SBA Business Recovery Centers (BRCs)","bg_postal":70002,"bg_lat":30.0100502,"STATE":"LA","SITE":"LSBDC GNO Region - UNO Jefferson Center","PARISH":"Jefferson","id":"a62qj5adluas","ADDRESS":"3330 N Causeway, suite 422","NB":29,"bg_accurac":"APPROXIMATE"},"type":"Feature","geometry":{"type":"Point","coordinates":[-90.1551795,30.0100502]}},{"properties":{"CITY":"Grande Isle","ZIP":70358,"ORGANIZATI":"SBA","AG_NB":3,"bg_long":-121.7653085,"TYPE":"SBA Business Recovery Centers (BRCs)","bg_postal":0,"bg_lat":36.7568238,"STATE":"LA","SITE":"Grand Isle Community Center","PARISH":"Jefferson","id":"a62qj5ehqri3","ADDRESS":"3811 Highway 1","NB":30,"bg_accurac":"GEOMETRIC_CENTER"},"type":"Feature","geometry":{"type":"Point","coordinates":[-121.7653085,36.7568238]}},{"properties":{"CITY":"Port Suplhur","ZIP":70083,"ORGANIZATI":"SBA","AG_NB":4,"bg_long":-89.6649841,"TYPE":"SBA Business Recovery Centers (BRCs)","bg_postal":70083,"bg_lat":29.4559366,"STATE":"LA","SITE":"St Patrick Catholic Church","PARISH":"Plaquemines","id":"a62qj5dl9ioj","ADDRESS":"28698 Highway 23","NB":31,"bg_accurac":"RANGE_INTERPOLATED"},"type":"Feature","geometry":{"type":"Point","coordinates":[-89.6649841,29.4559366]}},{"properties":{"CITY":"Belle Chase","ZIP":70037,"ORGANIZATI":"SBA","AG_NB":5,"bg_long":-89.9841237,"TYPE":"SBA Business Recovery Centers (BRCs)","bg_postal":70037,"bg_lat":29.8565827,"STATE":"LA","SITE":"SEEDCO Financial SE LA Fisheries Assistance Center","PARISH":"Plaquemines","id":"a62qj5bgi8o0","ADDRESS":"212 Avenue G","NB":32,"bg_accurac":"RANGE_INTERPOLATED"},"type":"Feature","geometry":{"type":"Point","coordinates":[-89.9841237,29.8565827]}},{"properties":{"CITY":"Chalmette","ZIP":70043,"ORGANIZATI":"SBA","AG_NB":6,"bg_long":-89.947125,"TYPE":"SBA Business Recovery Centers (BRCs)","bg_postal":70043,"bg_lat":29.9377348,"STATE":"LA","SITE":"Gulf Coast Bank and Trust Co","PARISH":"St Bernard","id":"a62qj564flhg","ADDRESS":"1801 East Judge Perez Drive","NB":33,"bg_accurac":"RANGE_INTERPOLATED"},"type":"Feature","geometry":{"type":"Point","coordinates":[-89.947125,29.9377348]}},{"properties":{"CITY":"hopedale","ZIP":70085,"ORGANIZATI":"SBA","AG_NB":7,"bg_long":-89.6525599,"TYPE":"SBA Business Recovery Centers (BRCs)","bg_postal":70085,"bg_lat":29.818255,"STATE":"LA","SITE":"BP (?)","PARISH":"St Bernard","id":"a62qj598wi7x","ADDRESS":"7601 Hopedale Highway","NB":34,"bg_accurac":"GEOMETRIC_CENTER"},"type":"Feature","geometry":{"type":"Point","coordinates":[-89.6525599,29.818255]}},{"properties":{"CITY":"St Bernard","ZIP":70085,"ORGANIZATI":"SBA","AG_NB":8,"bg_long":-89.8594886,"TYPE":"SBA Business Recovery Centers (BRCs)","bg_postal":70085,"bg_lat":29.8673853,"STATE":"LA","SITE":"Los Islenos Museum","PARISH":"St Bernard","id":"a62qj5gw7c68","ADDRESS":"1345 Bayou Road","NB":35,"bg_accurac":"RANGE_INTERPOLATED"},"type":"Feature","geometry":{"type":"Point","coordinates":[-89.8594886,29.8673853]}},{"properties":{"CITY":"Slidell","ZIP":70460,"ORGANIZATI":"SBA","AG_NB":9,"bg_long":-89.7811745,"TYPE":"SBA Business Recovery Centers (BRCs)","bg_postal":0,"bg_lat":30.2751945,"STATE":"LA","SITE":null,"PARISH":"St Tammany","id":"a62qj5l9dy24","ADDRESS":"1330 Bayou Lane; Trailer 102","NB":36,"bg_accurac":"APPROXIMATE"},"type":"Feature","geometry":{"type":"Point","coordinates":[-89.7811745,30.2751945]}},{"properties":{"CITY":"Houma","ZIP":70361,"ORGANIZATI":"SBA","AG_NB":10,"bg_long":-90.7180114,"TYPE":"SBA Business Recovery Centers (BRCs)","bg_postal":70360,"bg_lat":29.5983729,"STATE":"LA","SITE":"TPCG Government Tower","PARISH":"Terrebonne","id":"a62qj5azw5p6","ADDRESS":"8026 Main Street","NB":37,"bg_accurac":"RANGE_INTERPOLATED"},"type":"Feature","geometry":{"type":"Point","coordinates":[-90.7180114,29.5983729]}},{"properties":{"CITY":"New Orleans","ZIP":70129,"ORGANIZATI":"GCCF","AG_NB":1,"bg_long":-89.926041,"TYPE":"Gulf Coast Claims Facility - ex BP","bg_postal":70129,"bg_lat":30.026775,"STATE":"LA","SITE":null,"PARISH":"Orleans","id":"a62qj5hkosky","ADDRESS":"4375 Michoud Blvd","NB":38,"bg_accurac":"ROOFTOP"},"type":"Feature","geometry":{"type":"Point","coordinates":[-89.926041,30.026775]}},{"properties":{"CITY":"Grande Isle","ZIP":70358,"ORGANIZATI":"GCCF","AG_NB":2,"bg_long":-121.7653085,"TYPE":"Gulf Coast Claims Facility - ex BP","bg_postal":0,"bg_lat":36.7568238,"STATE":"LA","SITE":"Grand Isle Community Center","PARISH":"Jefferson","id":"a62qj5kn3o1g","ADDRESS":"3811 Highway 1","NB":39,"bg_accurac":"GEOMETRIC_CENTER"},"type":"Feature","geometry":{"type":"Point","coordinates":[-121.7653085,36.7568238]}},{"properties":{"CITY":"Lafitte","ZIP":70067,"ORGANIZATI":"GCCF","AG_NB":3,"bg_long":-90.111891,"TYPE":"Gulf Coast Claims Facility - ex BP","bg_postal":70067,"bg_lat":29.7156483,"STATE":"LA","SITE":"City Building","PARISH":"Jefferson","id":"a62qj5cncjsi","ADDRESS":"2654 Jean Lafitte Blvd","NB":40,"bg_accurac":"GEOMETRIC_CENTER"},"type":"Feature","geometry":{"type":"Point","coordinates":[-90.111891,29.7156483]}},{"properties":{"CITY":"Gretna","ZIP":70056,"ORGANIZATI":"GCCF","AG_NB":4,"bg_long":-90.0460815,"TYPE":"Gulf Coast Claims Facility - ex BP","bg_postal":70053,"bg_lat":29.8997513,"STATE":"LA","SITE":null,"PARISH":"Plaquemines","id":"a62qj5irn5xs","ADDRESS":"2766 Belle Chase Highway Suite A-9","NB":41,"bg_accurac":"RANGE_INTERPOLATED"},"type":"Feature","geometry":{"type":"Point","coordinates":[-90.0460815,29.8997513]}},{"properties":{"CITY":"Point a la hache","ZIP":70040,"ORGANIZATI":"GCCF","AG_NB":5,"bg_long":-89.9813445,"TYPE":"Gulf Coast Claims Facility - ex BP","bg_postal":70040,"bg_lat":29.765765,"STATE":"LA","SITE":null,"PARISH":"Plaquemines","id":"a62qj59utmo1","ADDRESS":"1553 highway 15","NB":42,"bg_accurac":"APPROXIMATE"},"type":"Feature","geometry":{"type":"Point","coordinates":[-89.9813445,29.765765]}},{"properties":{"CITY":"Venice","ZIP":70038,"ORGANIZATI":"GCCF","AG_NB":6,"bg_long":-89.3696591,"TYPE":"Gulf Coast Claims Facility - ex BP","bg_postal":0,"bg_lat":29.291602,"STATE":"LA","SITE":null,"PARISH":"Plaquemines","id":"a62qj5grsbin","ADDRESS":"41093 Highway 23","NB":43,"bg_accurac":"GEOMETRIC_CENTER"},"type":"Feature","geometry":{"type":"Point","coordinates":[-89.3696591,29.291602]}},{"properties":{"CITY":"Meraux","ZIP":70075,"ORGANIZATI":"GCCF","AG_NB":7,"bg_long":-89.9294863,"TYPE":"Gulf Coast Claims Facility - ex BP","bg_postal":70075,"bg_lat":29.9373713,"STATE":"LA","SITE":null,"PARISH":"St Bernard","id":"a62qj5iv98cb","ADDRESS":"3132 E Judge Perez Drive Suite D","NB":44,"bg_accurac":"RANGE_INTERPOLATED"},"type":"Feature","geometry":{"type":"Point","coordinates":[-89.9294863,29.9373713]}},{"properties":{"CITY":"Slidell","ZIP":70458,"ORGANIZATI":"GCCF","AG_NB":8,"bg_long":-89.7811745,"TYPE":"Gulf Coast Claims Facility - ex BP","bg_postal":0,"bg_lat":30.2751945,"STATE":"LA","SITE":null,"PARISH":"St Tammany","id":"a62qj5bxxz11","ADDRESS":"1300 gause Blvd Suite A5 and A6","NB":45,"bg_accurac":"APPROXIMATE"},"type":"Feature","geometry":{"type":"Point","coordinates":[-89.7811745,30.2751945]}},{"properties":{"CITY":"Cut Off","ZIP":70345,"ORGANIZATI":"GCCF","AG_NB":9,"bg_long":-90.3186509,"TYPE":"Gulf Coast Claims Facility - ex BP","bg_postal":70345,"bg_lat":29.477773,"STATE":"LA","SITE":null,"PARISH":"Lafourche","id":"a62qj5hso5if","ADDRESS":"16263 east Main Street","NB":46,"bg_accurac":"RANGE_INTERPOLATED"},"type":"Feature","geometry":{"type":"Point","coordinates":[-90.3186509,29.477773]}},{"properties":{"CITY":"Houma","ZIP":70363,"ORGANIZATI":"GCCF","AG_NB":10,"bg_long":-90.7195348,"TYPE":"Gulf Coast Claims Facility - ex BP","bg_postal":0,"bg_lat":29.5957696,"STATE":"LA","SITE":null,"PARISH":"Terrebonne","id":"a62qj5eubgk3","ADDRESS":"814 Grand Caillou Rd Suite 2 and 3","NB":47,"bg_accurac":"APPROXIMATE"},"type":"Feature","geometry":{"type":"Point","coordinates":[-90.7195348,29.5957696]}},{"properties":{"CITY":"Morgan City","ZIP":70380,"ORGANIZATI":"GCCF","AG_NB":11,"bg_long":-91.270925,"TYPE":"Gulf Coast Claims Facility - ex BP","bg_postal":70380,"bg_lat":29.680901,"STATE":"LA","SITE":null,"PARISH":"St Mary","id":"a62qj5f62k0t","ADDRESS":"889 US Highway 90","NB":48,"bg_accurac":"RANGE_INTERPOLATED"},"type":"Feature","geometry":{"type":"Point","coordinates":[-91.270925,29.680901]}},{"properties":{"CITY":"New Iberia","ZIP":70560,"ORGANIZATI":"GCCF","AG_NB":12,"bg_long":-91.8170599,"TYPE":"Gulf Coast Claims Facility - ex BP","bg_postal":70560,"bg_lat":29.9884289,"STATE":"LA","SITE":null,"PARISH":"Iberia","id":"a62qj5hc2xhf","ADDRESS":"956 S Lewis Street","NB":49,"bg_accurac":"RANGE_INTERPOLATED"},"type":"Feature","geometry":{"type":"Point","coordinates":[-91.8170599,29.9884289]}},{"properties":{"CITY":"Avondale","ZIP":70094,"ORGANIZATI":"BP dump sites","AG_NB":1,"bg_long":-90.2036868,"TYPE":"BP landfill","bg_postal":0,"bg_lat":29.9129834,"STATE":"LA","SITE":"River Birch Landfill","PARISH":"Jefferson","id":"a62qj5eirv7y","ADDRESS":"2000 S Kenner Road","NB":50,"bg_accurac":"APPROXIMATE"},"type":"Feature","geometry":{"type":"Point","coordinates":[-90.2036868,29.9129834]}},{"properties":{"CITY":"Westwego","ZIP":70094,"ORGANIZATI":"BP dump sites","AG_NB":2,"bg_long":-90.2451218,"TYPE":"BP landfill","bg_postal":70094,"bg_lat":29.9126409,"STATE":"LA","SITE":"Jefferson Parish Sanitary landfill","PARISH":"Jefferson","id":"a62qj5lqopnn","ADDRESS":"5800 Highway 90","NB":51,"bg_accurac":"RANGE_INTERPOLATED"},"type":"Feature","geometry":{"type":"Point","coordinates":[-90.2451218,29.9126409]}},{"properties":{"CITY":"Venice","ZIP":70091,"ORGANIZATI":"BP dump sites","AG_NB":3,"bg_long":-89.3626295,"TYPE":"BP landfill","bg_postal":70091,"bg_lat":29.2557875,"STATE":"LA","SITE":"Tide Water Landfill (Halliburton)","PARISH":"Plaquemines","id":"a62qj5ljzyjh","ADDRESS":"419 Coast guard Road","NB":52,"bg_accurac":"GEOMETRIC_CENTER"},"type":"Feature","geometry":{"type":"Point","coordinates":[-89.3626295,29.2557875]}},{"properties":{"CITY":"New Orleans","ZIP":70129,"ORGANIZATI":"CCANO","AG_NB":1,"bg_long":-89.912314,"TYPE":"Human Services","bg_postal":70129,"bg_lat":30.037007,"STATE":"LA","SITE":"Mary Queen of Vietnam Community Development Corporation","PARISH":"Orleans","id":"a62qj56ak0y5","ADDRESS":"4626 Alcee Fortier Blvd","NB":53,"bg_accurac":"ROOFTOP"},"type":"Feature","geometry":{"type":"Point","coordinates":[-89.912314,30.037007]}},{"properties":{"CITY":"Lafitte","ZIP":70067,"ORGANIZATI":"CCANO","AG_NB":2,"bg_long":-90.111891,"TYPE":"Human Services","bg_postal":70067,"bg_lat":29.7156483,"STATE":"LA","SITE":"St Anthony Catholic Church","PARISH":"Jefferson","id":"a62qj5abg612","ADDRESS":"2635 Jean lafitte Blvd","NB":54,"bg_accurac":"GEOMETRIC_CENTER"},"type":"Feature","geometry":{"type":"Point","coordinates":[-90.111891,29.7156483]}},{"properties":{"CITY":"St Bernard","ZIP":70085,"ORGANIZATI":"CCANO","AG_NB":3,"bg_long":-89.8087178,"TYPE":"Human Services","bg_postal":70085,"bg_lat":29.8670636,"STATE":"LA","SITE":"St Bernard Catholic Church","PARISH":"St Bernard","id":"a62qj5l7x6dv","ADDRESS":"2805 Bayou Road","NB":55,"bg_accurac":"RANGE_INTERPOLATED"},"type":"Feature","geometry":{"type":"Point","coordinates":[-89.8087178,29.8670636]}},{"properties":{"CITY":"Port Suplhur","ZIP":70083,"ORGANIZATI":"CCANO","AG_NB":4,"bg_long":-89.6649841,"TYPE":"Human Services","bg_postal":70083,"bg_lat":29.4559366,"STATE":"LA","SITE":"St Patrick Catholic Church","PARISH":"Plaquemines","id":"a62qj5ccn953","ADDRESS":"28698 Highway 23","NB":56,"bg_accurac":"RANGE_INTERPOLATED"},"type":"Feature","geometry":{"type":"Point","coordinates":[-89.6649841,29.4559366]}},{"properties":{"CITY":"Point a la hache","ZIP":70082,"ORGANIZATI":"CCANO","AG_NB":5,"bg_long":-89.7520768,"TYPE":"Human Services","bg_postal":70082,"bg_lat":29.5511388,"STATE":"LA","SITE":"St Thomas Catholic Church","PARISH":"Plaquemines","id":"a62qj56904p1","ADDRESS":"17605 Highway 15","NB":57,"bg_accurac":"APPROXIMATE"},"type":"Feature","geometry":{"type":"Point","coordinates":[-89.7520768,29.5511388]}},{"properties":{"CITY":"Lafayette","ZIP":70501,"ORGANIZATI":"211","AG_NB":1,"bg_long":-92.017621,"TYPE":"Information Exchange/ Referral","bg_postal":70501,"bg_lat":30.22067,"STATE":"LA","SITE":"232-HELP","PARISH":"Lafayette","id":"a62qj5gek268","ADDRESS":"1005 Jefferson Street","NB":58,"bg_accurac":"ROOFTOP"},"type":"Feature","geometry":{"type":"Point","coordinates":[-92.017621,30.22067]}},{"properties":{"CITY":"Lake Charles","ZIP":70601,"ORGANIZATI":"211","AG_NB":2,"bg_long":-93.21378,"TYPE":"Information Exchange/ Referral","bg_postal":70601,"bg_lat":30.22482,"STATE":"LA","SITE":"310-INFO","PARISH":"Calcasieu","id":"a62qj5ixgn5n","ADDRESS":"1023 Common Street","NB":59,"bg_accurac":"ROOFTOP"},"type":"Feature","geometry":{"type":"Point","coordinates":[-93.21378,30.22482]}},{"properties":{"CITY":"New Orleans","ZIP":70118,"ORGANIZATI":"211","AG_NB":6,"bg_long":-90.1244502,"TYPE":"Information Exchange/ Referral","bg_postal":70118,"bg_lat":29.9256743,"STATE":"LA","SITE":"VIA-LINK","PARISH":"Orleans","id":"a62qj5c2x63r","ADDRESS":"1040 Calhoun Street","NB":61,"bg_accurac":"RANGE_INTERPOLATED"},"type":"Feature","geometry":{"type":"Point","coordinates":[-90.1244502,29.9256743]}},{"properties":{"CITY":"Laplace","ZIP":70068,"ORGANIZATI":"United Way","AG_NB":2,"bg_long":-90.4937169,"TYPE":"Human Services","bg_postal":70068,"bg_lat":30.0721695,"STATE":"LA","SITE":"St. John United Way","PARISH":"St John","id":"a62qj56g1rqd","ADDRESS":"1402 West Airline Hwy., Ste. D","NB":62,"bg_accurac":"RANGE_INTERPOLATED"},"type":"Feature","geometry":{"type":"Point","coordinates":[-90.4937169,30.0721695]}},{"properties":{"CITY":"Opelousas","ZIP":70570,"ORGANIZATI":"United Way","AG_NB":3,"bg_long":-92.0858972,"TYPE":"Human Services","bg_postal":70570,"bg_lat":30.5322633,"STATE":"LA","SITE":"St. Landry-Evangeline United Way","PARISH":"St Landry","id":"a62qj5c73puf","ADDRESS":"311 W. Vine Street","NB":63,"bg_accurac":"ROOFTOP"},"type":"Feature","geometry":{"type":"Point","coordinates":[-92.0858972,30.5322633]}},{"properties":{"CITY":"New Orleans","ZIP":71119,"ORGANIZATI":"United Way","AG_NB":4,"bg_long":-90.0851544,"TYPE":"Human Services","bg_postal":70119,"bg_lat":29.9642179,"STATE":"LA","SITE":"United Way for the GNO Area","PARISH":"Orleans","id":"a62qj57fcd8m","ADDRESS":"2515 Canal Street","NB":64,"bg_accurac":"RANGE_INTERPOLATED"},"type":"Feature","geometry":{"type":"Point","coordinates":[-90.0851544,29.9642179]}},{"properties":{"CITY":"Lafayette","ZIP":70501,"ORGANIZATI":"United Way","AG_NB":5,"bg_long":-92.007771,"TYPE":"Human Services","bg_postal":70501,"bg_lat":30.215142,"STATE":"LA","SITE":"United Way of Acadiana","PARISH":"Lafayette","id":"a62qj5g5wocz","ADDRESS":"215 East Pinhook Rd.","NB":65,"bg_accurac":"ROOFTOP"},"type":"Feature","geometry":{"type":"Point","coordinates":[-92.007771,30.215142]}},{"properties":{"CITY":"New Iberia","ZIP":70560,"ORGANIZATI":"United Way","AG_NB":7,"bg_long":-91.8151125,"TYPE":"Human Services","bg_postal":70560,"bg_lat":30.0006946,"STATE":"LA","SITE":"United Way of Iberia","PARISH":"Iberia","id":"a62qj5l5n9gv","ADDRESS":"449 E. St. Peter, Ste. 201","NB":67,"bg_accurac":"APPROXIMATE"},"type":"Feature","geometry":{"type":"Point","coordinates":[-91.8151125,30.0006946]}},{"properties":{"CITY":"Houma","ZIP":70360,"ORGANIZATI":"United Way","AG_NB":10,"bg_long":-90.731505,"TYPE":"Human Services","bg_postal":70360,"bg_lat":29.5980317,"STATE":"LA","SITE":"United Way of South Louisiana","PARISH":"Terrebonne","id":"a62qj5cix3c0","ADDRESS":"7901 Main St., Ste. 210","NB":68,"bg_accurac":"APPROXIMATE"},"type":"Feature","geometry":{"type":"Point","coordinates":[-90.731505,29.5980317]}},{"properties":{"CITY":"Lake Charles","ZIP":70601,"ORGANIZATI":"United Way","AG_NB":11,"bg_long":-93.216373,"TYPE":"Human Services","bg_postal":70601,"bg_lat":30.229844,"STATE":"LA","SITE":"United Way of Southwest Louisiana","PARISH":"Calcasieu","id":"a62qj5coqxy8","ADDRESS":"715 Ryan St., Ste. 102","NB":69,"bg_accurac":"APPROXIMATE"},"type":"Feature","geometry":{"type":"Point","coordinates":[-93.216373,30.229844]}},{"properties":{"CITY":"Luling","ZIP":70070,"ORGANIZATI":"United Way","AG_NB":12,"bg_long":-90.3574789,"TYPE":"Human Services","bg_postal":70070,"bg_lat":29.9330432,"STATE":"LA","SITE":"United Way of St. Charles","PARISH":"St Charles","id":"a62qj5byuhqb","ADDRESS":"13207 River Road","NB":70,"bg_accurac":"RANGE_INTERPOLATED"},"type":"Feature","geometry":{"type":"Point","coordinates":[-90.3574789,29.9330432]}},{"properties":{"CITY":"Bogalusa","ZIP":70437,"ORGANIZATI":"United Way","AG_NB":13,"bg_long":-89.8717373,"TYPE":"Human Services","bg_postal":70427,"bg_lat":30.7742786,"STATE":"LA","SITE":"United Way of Washington Area","PARISH":"Washington","id":"a62qj57mpl4r","ADDRESS":"716 Avenue F","NB":71,"bg_accurac":"RANGE_INTERPOLATED"},"type":"Feature","geometry":{"type":"Point","coordinates":[-89.8717373,30.7742786]}},{"properties":{"CITY":"Lafayette","ZIP":70583,"ORGANIZATI":"American Red Cross","AG_NB":1,"bg_long":-92.058109,"TYPE":"Information Exchange/ Referral","bg_postal":70583,"bg_lat":30.240787,"STATE":"LA","SITE":"Acadiana Area Chapter","PARISH":"Lafayette","id":"a62qj5lu3yp7","ADDRESS":"101 N. Pat Street","NB":72,"bg_accurac":"ROOFTOP"},"type":"Feature","geometry":{"type":"Point","coordinates":[-92.058109,30.240787]}},{"properties":{"CITY":"Metairie","ZIP":70002,"ORGANIZATI":"American Red Cross","AG_NB":6,"bg_long":-90.196364,"TYPE":"Information Exchange/ Referral","bg_postal":70003,"bg_lat":29.98042,"STATE":"LA","SITE":"Southeast Louisiana Chapter","PARISH":"Jefferson","id":"a62qj5ilsq80","ADDRESS":"3131 North I-10 Service Rd East","NB":73,"bg_accurac":"ROOFTOP"},"type":"Feature","geometry":{"type":"Point","coordinates":[-90.196364,29.98042]}},{"properties":{"CITY":"Lake Charles","ZIP":70607,"ORGANIZATI":"American Red Cross","AG_NB":7,"bg_long":-93.212262,"TYPE":"Information Exchange/ Referral","bg_postal":70607,"bg_lat":30.193748,"STATE":"LA","SITE":"Southwest Louisiana Chapter","PARISH":"Calcasieu","id":"a62qj5brp3cg","ADDRESS":"3512 Kirkman St.","NB":74,"bg_accurac":"ROOFTOP"},"type":"Feature","geometry":{"type":"Point","coordinates":[-93.212262,30.193748]}},{"properties":{"CITY":"Chalmette","ZIP":70043,"ORGANIZATI":"American Red Cross","AG_NB":8,"bg_long":-89.9561909,"TYPE":"Information Exchange/ Referral","bg_postal":70043,"bg_lat":29.9399828,"STATE":"LA","SITE":"St. Bernard Parish Chapter","PARISH":"St Bernard","id":"a62qj5lquh8o","ADDRESS":"909 East Judge Perez","NB":75,"bg_accurac":"RANGE_INTERPOLATED"},"type":"Feature","geometry":{"type":"Point","coordinates":[-89.9561909,29.9399828]}},{"properties":{"CITY":"Lafayette","ZIP":70501,"ORGANIZATI":"Food Bank","AG_NB":1,"bg_long":-92.007771,"TYPE":"Human Services","bg_postal":70501,"bg_lat":30.215142,"STATE":"LA","SITE":"2nd Harvest GNO &amp; Acadiana","PARISH":"Lafayette","id":"a62qj561vj57","ADDRESS":"215 East Pinhook Rd.","NB":76,"bg_accurac":"ROOFTOP"},"type":"Feature","geometry":{"type":"Point","coordinates":[-92.007771,30.215142]}},{"properties":{"CITY":"New Orleans","ZIP":70123,"ORGANIZATI":"Food Bank","AG_NB":2,"bg_long":-90.1965936,"TYPE":"Human Services","bg_postal":70123,"bg_lat":29.9560804,"STATE":"LA","SITE":"2nd Harvest GNO &amp; Acadiana","PARISH":"Orleans","id":"a62qj58qo82c","ADDRESS":"1201 Sams Ave.","NB":77,"bg_accurac":"RANGE_INTERPOLATED"},"type":"Feature","geometry":{"type":"Point","coordinates":[-90.1965936,29.9560804]}},{"properties":{"CITY":"Crowley","ZIP":70526,"ORGANIZATI":"Misc Acadiana","AG_NB":1,"bg_long":-92.3709465,"TYPE":"Human Services","bg_postal":70526,"bg_lat":30.209429,"STATE":"LA","SITE":"ASSIST Agency, Inc.","PARISH":"Acadia","id":"a62qj57y4iuo","ADDRESS":"11 North Parkerson","NB":78,"bg_accurac":"RANGE_INTERPOLATED"},"type":"Feature","geometry":{"type":"Point","coordinates":[-92.3709465,30.209429]}},{"properties":{"CITY":"Youngsville","ZIP":70592,"ORGANIZATI":"Misc Acadiana","AG_NB":2,"bg_long":-92.032406,"TYPE":"Human Services","bg_postal":70592,"bg_lat":30.117327,"STATE":"LA","SITE":"First Assembly Church","PARISH":"Lafayette","id":"a62qj5lfsk0z","ADDRESS":"3555 Verot School Road","NB":79,"bg_accurac":"ROOFTOP"},"type":"Feature","geometry":{"type":"Point","coordinates":[-92.032406,30.117327]}},{"properties":{"CITY":"Lafayette","ZIP":70503,"ORGANIZATI":"Misc Acadiana","AG_NB":3,"bg_long":-92.013211,"TYPE":"Human Services/ volunteers","bg_postal":70503,"bg_lat":30.200998,"STATE":"LA","SITE":"Volunteers of America , Greater Baton Rouge ? Acadiana Region","PARISH":"Lafayette","id":"a62qj5ikr96v","ADDRESS":"114 Exchange Place","NB":80,"bg_accurac":"ROOFTOP"},"type":"Feature","geometry":{"type":"Point","coordinates":[-92.013211,30.200998]}},{"properties":{"CITY":"Lafayette","ZIP":70508,"ORGANIZATI":"Misc Acadiana","AG_NB":4,"bg_long":-92.0475249,"TYPE":"Human Services","bg_postal":70508,"bg_lat":30.152526,"STATE":"LA","SITE":"The Family Tree","PARISH":"Lafayette","id":"a62qj57pnehf","ADDRESS":"4540 Ambassador Caffery Parkway Suite B220","NB":81,"bg_accurac":"APPROXIMATE"},"type":"Feature","geometry":{"type":"Point","coordinates":[-92.0475249,30.152526]}}],"is_temporal":false,"author":{"url":"","metadata":"","contact_name":"","contact_address":"","source":"","contact_phone":""},"source":"","pagination":{"sort":null,"start":0,"total":79,"limit":1000000},"state":"complete","tags":"","published":"2014-08-10T14:36:58-04:00","id":62530}