{"type":"FeatureCollection","data_type":"Dataset","url_type":null,"permissions":[{"permissions":{"download":true,"view":true},"group_id":"everyone"}],"classification":null,"title":"PortalWisconsin.org - Theaters","count":267,"stream_id":63014,"contributor":{"url":"http://geocommons.com/users/13336","name":"natrick"},"data_attributes":null,"calculation_params":null,"icon_link":null,"link":"http://geocommons.com/overlays/63014.json","extent":[-92.4812,42.5345,-87.1017,46.7813],"geometry_types":["point"],"unique_name":null,"name":"PortalWisconsin.org - Theaters","feature_count":267,"description":"All of the theater locations cataloged on PortalWisconsin.org","next_feature":null,"is_raster":false,"short_classification":"Y","stats":{"geo_score":{"max":0.857,"mean":0.833913857677902,"variance":0.00398657525837064,"stdev":0.0631393321026651,"min":0.0,"median":0.857}},"features":[{"properties":{"city":"Racine","zip":null,"add":"411 Sixth St.","geo_score":0.857,"venue":"AGAPE Performing Arts Center","id":"a6g7yvdzfhzc","geo_precision":"city","state":"WI"},"type":"Feature","geometry":{"type":"Point","coordinates":[-87.675979,42.727153]}},{"properties":{"city":"Milwaukee","zip":"53233-2330","add":"628 N. 10th St.","geo_score":0.857,"venue":"African American Children's Theatre (AACT)","id":"a6g7yv4k2q6a","geo_precision":"city","state":"WI"},"type":"Feature","geometry":{"type":"Point","coordinates":[-87.906474,43.038903]}},{"properties":{"city":"Baraboo","zip":"53913","add":"136 Fourth Ave.","geo_score":0.857,"venue":"Al. Ringling Theatre","id":"a6g7yv0lb4dq","geo_precision":"city","state":"WI"},"type":"Feature","geometry":{"type":"Point","coordinates":[-89.863957,43.446602]}},{"properties":{"city":"Milwaukee","zip":"53207","add":"2569 S. Kinnickinnic","geo_score":0.857,"venue":"Alchemist Theatre","id":"a6g7yv0zwx2f","geo_precision":"city","state":"WI"},"type":"Feature","geometry":{"type":"Point","coordinates":[-87.906474,43.038903]}},{"properties":{"city":"Pepin","zip":"54759","add":"417 Second St.","geo_score":0.857,"venue":"Allen-Hovde Theater","id":"a6g7yvaavmo7","geo_precision":"city","state":"WI"},"type":"Feature","geometry":{"type":"Point","coordinates":[-92.131821,44.509108]}},{"properties":{"city":"Mineral Point","zip":"53565","add":"18 Shake Rag St.","geo_score":0.857,"venue":"Alley Stage","id":"a6g7yvczz5r8","geo_precision":"city","state":"WI"},"type":"Feature","geometry":{"type":"Point","coordinates":[-90.152558,42.989701]}},{"properties":{"city":"Milwaukee","zip":"53215","add":"3431 S. 39th St.","geo_score":0.857,"venue":"Alverno College Pitman Theatre","id":"a6g7yv9dkacp","geo_precision":"city","state":"WI"},"type":"Feature","geometry":{"type":"Point","coordinates":[-87.906474,43.038903]}},{"properties":{"city":"Milwaukee","zip":"53234-3922","add":"4100 W. Morgan Avenue","geo_score":0.857,"venue":"Alverno College Wehr Hall","id":"a6g7yv7gq86k","geo_precision":"city","state":"WI"},"type":"Feature","geometry":{"type":"Point","coordinates":[-87.906474,43.038903]}},{"properties":{"city":"Fish Creek","zip":"54212","add":"Peninsula State Park Amphitheatre","geo_score":0.81,"venue":"American Folklore Theatre at Peninsula State Park","id":"a6g7yvd8629a","geo_precision":"city","state":"WI"},"type":"Feature","geometry":{"type":"Point","coordinates":[-92.345472,45.483568]}},{"properties":{"city":"Beloit","zip":"53511","add":"655 Third St..","geo_score":0.786,"venue":"American Industrial Art Gallery","id":"a6g7yv5csjeo","geo_precision":"city","state":"WI"},"type":"Feature","geometry":{"type":"Point","coordinates":[-87.705366,44.34194]}},{"properties":{"city":"Spring Green","zip":"53588","add":"5950 Golf Course Rd.","geo_score":0.753,"venue":"American Players Theatre","id":"a6g7yvg7be2w","geo_precision":"city","state":"WI"},"type":"Feature","geometry":{"type":"Point","coordinates":[-87.745645,44.356106]}},{"properties":{"city":"Sturtevant","zip":null,"add":"Highways I-94 &amp; KR","geo_score":0.857,"venue":"Apple Holler Red Barn Theater","id":"a6g7yvdmuyv3","geo_precision":"city","state":"WI"},"type":"Feature","geometry":{"type":"Point","coordinates":[-87.934013,42.712962]}},{"properties":{"city":"Omro","zip":"54963","add":"6320 Cty Road K","geo_score":0.857,"venue":"Art from the Barn","id":"a6g7yvcwmyl5","geo_precision":"city","state":"WI"},"type":"Feature","geometry":{"type":"Point","coordinates":[-88.754887,44.050782]}},{"properties":{"city":"Fitchburg","zip":"53575-1804","add":"5927 Adams Road","geo_score":0.857,"venue":"Art in the Barn","id":"a6g7yvcbpopo","geo_precision":"city","state":"WI"},"type":"Feature","geometry":{"type":"Point","coordinates":[-89.469843,42.960832]}},{"properties":{"city":"Wausau","zip":"54403","add":"401 N. Fourth St.","geo_score":0.857,"venue":"ArtsBlock / Performing Arts Foundation","id":"a6g7yvfcsp96","geo_precision":"city","state":"WI"},"type":"Feature","geometry":{"type":"Point","coordinates":[-89.794002,44.961874]}},{"properties":{"city":"St. Croix Falls","zip":"54024","add":"210 N. Washington","geo_score":0.75,"venue":"Auditorium Theatre","id":"a6g7yve4jnva","geo_precision":"city","state":"WI"},"type":"Feature","geometry":{"type":"Point","coordinates":[-89.234838,43.089719]}},{"properties":{"city":"Barron","zip":"54812","add":"800 Memorial Drive","geo_score":0.81,"venue":"Barron Area Community Center","id":"a6g7yv1yk4nx","geo_precision":"city","state":"WI"},"type":"Feature","geometry":{"type":"Point","coordinates":[-89.780401,44.423854]}},{"properties":{"city":"Madison","zip":"53704","add":"2090 Atwood Ave.","geo_score":0.857,"venue":"Barrymore Theatre","id":"a6g7yve6mz3y","geo_precision":"city","state":"WI"},"type":"Feature","geometry":{"type":"Point","coordinates":[-89.40123,43.073052]}},{"properties":{"city":"Madison","zip":"53705-2824","add":"113 East Mifflin Street","geo_score":0.857,"venue":"Bartell Theatre","id":"a6g7yvamf570","geo_precision":"city","state":"WI"},"type":"Feature","geometry":{"type":"Point","coordinates":[-89.40123,43.073052]}},{"properties":{"city":"Beaver Dam","zip":"53196","add":"219 N. Spring St.","geo_score":0.81,"venue":"Beaver Dam Area Community Theater, Inc.","id":"a6g7yv9bvx6v","geo_precision":"city","state":"WI"},"type":"Feature","geometry":{"type":"Point","coordinates":[-88.017883,45.13748]}},{"properties":{"city":"Beloit","zip":"53511","add":"700 College St.","geo_score":0.786,"venue":"Beloit College - Eaton Chapel","id":"a6g7yv5o2rmb","geo_precision":"city","state":"WI"},"type":"Feature","geometry":{"type":"Point","coordinates":[-87.705366,44.34194]}},{"properties":{"city":"Beloit","zip":"53511","add":"Bushnell &amp; Prospect Streets","geo_score":0.786,"venue":"Beloit College - Kresge Theatre","id":"a6g7yv3s08qa","geo_precision":"city","state":"WI"},"type":"Feature","geometry":{"type":"Point","coordinates":[-87.705366,44.34194]}},{"properties":{"city":"Beloit","zip":"53511","add":"700 College St.","geo_score":0.786,"venue":"Beloit College - Neese Theater","id":"a6g7yv8voxh9","geo_precision":"city","state":"WI"},"type":"Feature","geometry":{"type":"Point","coordinates":[-87.705366,44.34194]}},{"properties":{"city":"Beloit","zip":"53511","add":"700 College St.","geo_score":0.786,"venue":"Beloit College - Wilson Theatre","id":"a6g7yve4bjt8","geo_precision":"city","state":"WI"},"type":"Feature","geometry":{"type":"Point","coordinates":[-87.705366,44.34194]}},{"properties":{"city":"Beloit","zip":"53511","add":"Various Locations around Beloit","geo_score":0.786,"venue":"Beloit International Film Festival","id":"a6g7yv1p36e2","geo_precision":"city","state":"WI"},"type":"Feature","geometry":{"type":"Point","coordinates":[-87.705366,44.34194]}},{"properties":{"city":"Beloit","zip":"53511","add":"1225 Fourth St.","geo_score":0.786,"venue":"Beloit Memorial High School - Elizabeth Reinholz Theatre","id":"a6g7yv8az3ow","geo_precision":"city","state":"WI"},"type":"Feature","geometry":{"type":"Point","coordinates":[-87.705366,44.34194]}},{"properties":{"city":"Alma","zip":null,"add":"121 S. Main St.","geo_score":0.857,"venue":"Big River Theatre","id":"a6g7yv0wfmkz","geo_precision":"city","state":"WI"},"type":"Feature","geometry":{"type":"Point","coordinates":[-91.836481,44.346721]}},{"properties":{"city":"Egg Harbor","zip":"54209","add":"3821 County Road E - P.O. Box 230","geo_score":0.857,"venue":"Birch Creek Music Performance Center, Inc.","id":"a6g7yv4rcrhb","geo_precision":"city","state":"WI"},"type":"Feature","geometry":{"type":"Point","coordinates":[-87.266031,45.012261]}},{"properties":{"city":"Milwaukee","zip":"53201-0238","add":"2252 S. Kinnickinnic","geo_score":0.857,"venue":"Boulevard Theatre","id":"a6g7yvcbpoli","geo_precision":"city","state":"WI"},"type":"Feature","geometry":{"type":"Point","coordinates":[-87.906474,43.038903]}},{"properties":{"city":"Milwaukee","zip":"53203","add":"1001 N. Fourth Street","geo_score":0.857,"venue":"Bradley Center","id":"a6g7yvbesxsn","geo_precision":"city","state":"WI"},"type":"Feature","geometry":{"type":"Point","coordinates":[-87.906474,43.038903]}},{"properties":{"city":"Fond du Lac","zip":"54935","add":"23 South Main St.","geo_score":0.857,"venue":"Bravo Performing Arts Center","id":"a6g7yv8bya1g","geo_precision":"city","state":"WI"},"type":"Feature","geometry":{"type":"Point","coordinates":[-88.523176,43.734724]}},{"properties":{"city":"Milwaukee","zip":"53218","add":"5132 W. Mill Road","geo_score":0.857,"venue":"Broadway Baby Dinner Theatre","id":"a6g7yv8tkang","geo_precision":"city","state":"WI"},"type":"Feature","geometry":{"type":"Point","coordinates":[-87.906474,43.038903]}},{"properties":{"city":"Milwaukee","zip":"53202","add":"158 N. Broadway","geo_score":0.857,"venue":"Broadway Theatre Center","id":"a6g7yv43eziq","geo_precision":"city","state":"WI"},"type":"Feature","geometry":{"type":"Point","coordinates":[-87.906474,43.038903]}},{"properties":{"city":"Madison","zip":"53703","add":"1119 Williamson St.","geo_score":0.857,"venue":"Broom Street Theater","id":"a6g7yvg4x464","geo_precision":"city","state":"WI"},"type":"Feature","geometry":{"type":"Point","coordinates":[-89.40123,43.073052]}},{"properties":{"city":"Milwaukee","zip":"53208","add":"3046 W. Wisconsin Ave.","geo_score":0.857,"venue":"Brumder Mansion Bed &amp; Breakfast","id":"a6g7yvfpemg7","geo_precision":"city","state":"WI"},"type":"Feature","geometry":{"type":"Point","coordinates":[-87.906474,43.038903]}},{"properties":{"city":"Reedsburg","zip":"53959","add":"1100 S. Albert Ave.","geo_score":0.857,"venue":"CAL Center Auditorium","id":"a6g7yv01lxkm","geo_precision":"city","state":"WI"},"type":"Feature","geometry":{"type":"Point","coordinates":[-89.95589,43.393767]}},{"properties":{"city":"Minocqua","zip":"54548","add":"131 W. Milwaukee St.","geo_score":0.857,"venue":"Campanile Center for the Arts","id":"a6g7yv6zqewe","geo_precision":"city","state":"WI"},"type":"Feature","geometry":{"type":"Point","coordinates":[-89.824294,45.827583]}},{"properties":{"city":"Manitowoc","zip":"54220","add":"913 S. Eighth St.","geo_score":0.8,"venue":"Capitol Civic Centre","id":"a6g7yv7bl4si","geo_precision":"city","state":"WI"},"type":"Feature","geometry":{"type":"Point","coordinates":[-87.700919,44.099161]}},{"properties":{"city":"Milwaukee","zip":"53217","add":"6801 N. Yates Rd.","geo_score":0.857,"venue":"Cardinal Stritch University--Nancy Kendall Theater","id":"a6g7yv7tth8g","geo_precision":"city","state":"WI"},"type":"Feature","geometry":{"type":"Point","coordinates":[-87.906474,43.038903]}},{"properties":{"city":"Milwaukee","zip":"53217-3985","add":"6801 N. Yates Road","geo_score":0.857,"venue":"Cardinal Stritch University--Schroeder Auditorium","id":"a6g7yv331h5y","geo_precision":"city","state":"WI"},"type":"Feature","geometry":{"type":"Point","coordinates":[-87.906474,43.038903]}},{"properties":{"city":"Waukesha","zip":"53186","add":"238 N. East Ave.","geo_score":0.857,"venue":"Carroll University - Humphrey Memorial Chapel","id":"a6g7yv5y2y6f","geo_precision":"city","state":"WI"},"type":"Feature","geometry":{"type":"Point","coordinates":[-88.217715,42.987835]}},{"properties":{"city":"Waukesha","zip":"53186","add":"238 N. East Ave.","geo_score":0.857,"venue":"Carroll University - Otteson Theatre","id":"a6g7yv0pha85","geo_precision":"city","state":"WI"},"type":"Feature","geometry":{"type":"Point","coordinates":[-88.217715,42.987835]}},{"properties":{"city":"Waukesha","zip":"53186","add":"218 N. East Ave.","geo_score":0.857,"venue":"Carroll University - Shattuck Music Center","id":"a6g7yvf694wc","geo_precision":"city","state":"WI"},"type":"Feature","geometry":{"type":"Point","coordinates":[-88.217715,42.987835]}},{"properties":{"city":"Ladysmith","zip":"54848","add":"W8555 Deertail Rd.","geo_score":0.857,"venue":"ChaliceStream","id":"a6g7yvd2ezkn","geo_precision":"city","state":"WI"},"type":"Feature","geometry":{"type":"Point","coordinates":[-91.0943,45.490835]}},{"properties":{"city":"Chilton","zip":null,"add":"221 Park St.","geo_score":0.857,"venue":"Chilton Public Library","id":"a6g7yvg7iazz","geo_precision":"city","state":"WI"},"type":"Feature","geometry":{"type":"Point","coordinates":[-88.185906,44.020561]}},{"properties":{"city":"Chippewa Falls","zip":"54729","add":"21 East Grand Ave. - PO Box 711","geo_score":0.747,"venue":"Chippewa Falls Museum of Industry and Technology","id":"a6g7yv1os75h","geo_precision":"city","state":"WI"},"type":"Feature","geometry":{"type":"Point","coordinates":[-89.234838,43.089719]}},{"properties":{"city":"La Crosse","zip":"54601","add":"615 East Ave N (Corner of East Ave &amp; La Crosse St)","geo_score":0.857,"venue":"Cleary Alumni &amp; Friends Center, UW-La Crosse","id":"a6g7yv8e35e8","geo_precision":"city","state":"WI"},"type":"Feature","geometry":{"type":"Point","coordinates":[-91.132072,43.85456]}},{"properties":{"city":"De Pere","zip":"54115","add":"380 Main Ave.","geo_score":0.786,"venue":"ComedyCity","id":"a6g7yvcl0zvq","geo_precision":"city","state":"WI"},"type":"Feature","geometry":{"type":"Point","coordinates":[-89.243446,44.569975]}},{"properties":{"city":"Mequon","zip":"53097","add":"12800 N. Lake Shore Drive","geo_score":0.857,"venue":"Concordia University Wisconsin - Todd Wehr Auditorium","id":"a6g7yv38oodw","geo_precision":"city","state":"WI"},"type":"Feature","geometry":{"type":"Point","coordinates":[-87.984534,43.236396]}},{"properties":{"city":"Sheboygan","zip":"53083","add":"1007 North Ave","geo_score":0.857,"venue":"Congregation Beth El","id":"a6g7yvfbfbqd","geo_precision":"city","state":"WI"},"type":"Feature","geometry":{"type":"Point","coordinates":[-87.856793,43.722489]}},{"properties":{"city":"Mosinee","zip":"54455","add":"1000 High St.","geo_score":0.857,"venue":"Creske Center","id":"a6g7yvcjh8xy","geo_precision":"city","state":"WI"},"type":"Feature","geometry":{"type":"Point","coordinates":[-89.701277,44.809226]}},{"properties":{"city":"Fish Creek","zip":"54212","add":"3926 State Hwy 42 - PO Box 397","geo_score":0.81,"venue":"Door Community Auditorium","id":"a6g7yv9w1f2x","geo_precision":"city","state":"WI"},"type":"Feature","geometry":{"type":"Point","coordinates":[-92.345472,45.483568]}},{"properties":{"city":"Madison","zip":"53706","add":"455 N. Park St. - Humanities Building","geo_score":0.857,"venue":"Eastman Recital Hall, UW-Madison","id":"a6g7yvd70y6w","geo_precision":"city","state":"WI"},"type":"Feature","geometry":{"type":"Point","coordinates":[-89.40123,43.073052]}},{"properties":{"city":"Eau Claire","zip":"54701","add":"316 Eau Claire St.","geo_score":0.857,"venue":"Eau Claire Regional Arts Center - State Theatre","id":"a6g7yvfw3w6v","geo_precision":"city","state":"WI"},"type":"Feature","geometry":{"type":"Point","coordinates":[-91.473097,44.75653]}},{"properties":{"city":"Edgerton","zip":"53534","add":"200 Elm High Dr.","geo_score":0.857,"venue":"Edgerton Performing Arts Center","id":"a6g7yvb8m67w","geo_precision":"city","state":"WI"},"type":"Feature","geometry":{"type":"Point","coordinates":[-89.101389,42.803797]}},{"properties":{"city":"Madison","zip":"53711","add":"1000 Edgewood College Dr.","geo_score":0.857,"venue":"Edgewood College - Regina Theater","id":"a6g7yve2hkyh","geo_precision":"city","state":"WI"},"type":"Feature","geometry":{"type":"Point","coordinates":[-89.40123,43.073052]}},{"properties":{"city":"Beloit","zip":"53511","add":"1225 Fourth St.","geo_score":0.786,"venue":"Elizabeth Reinholz Theater","id":"a6g7yvagmr6h","geo_precision":"city","state":"WI"},"type":"Feature","geometry":{"type":"Point","coordinates":[-87.705366,44.34194]}},{"properties":{"city":"Viroqua","zip":"54650","add":"116 South Main","geo_score":0.735,"venue":"Encore","id":"a6g7yvg8qpcq","geo_precision":"city","state":"WI"},"type":"Feature","geometry":{"type":"Point","coordinates":[-90.957351,43.455808]}},{"properties":{"city":"Chilton","zip":"53014","add":"530 W Main Street, Highway 151","geo_score":0.857,"venue":"Engler Center for the Performing Arts","id":"a6g7yvaaq96s","geo_precision":"city","state":"WI"},"type":"Feature","geometry":{"type":"Point","coordinates":[-88.185906,44.020561]}},{"properties":{"city":"Shell Lake","zip":"54871","add":"605 First Street","geo_score":0.746,"venue":"Erika Quam Memorial Theatre","id":"a6g7yvgglo2k","geo_precision":"city","state":"WI"},"type":"Feature","geometry":{"type":"Point","coordinates":[-90.375852,44.606893]}},{"properties":{"city":"Eau Claire","zip":"54703","add":"3919 Crescent Ave.","geo_score":0.857,"venue":"Fanny Hill Dinner Theatre","id":"a6g7yv21phdy","geo_precision":"city","state":"WI"},"type":"Feature","geometry":{"type":"Point","coordinates":[-91.473097,44.75653]}},{"properties":{"city":"St. Croix Falls","zip":"54024","add":"210 Washington St.","geo_score":0.75,"venue":"Festival Theatre","id":"a6g7yv6cgsma","geo_precision":"city","state":"WI"},"type":"Feature","geometry":{"type":"Point","coordinates":[-89.234838,43.089719]}},{"properties":{"city":"Mukwonago","zip":null,"add":"Hwy 83 and Hwy NN","geo_score":0.857,"venue":"Field Park, Mukwonago","id":"a6g7yv425a7a","geo_precision":"city","state":"WI"},"type":"Feature","geometry":{"type":"Point","coordinates":[-88.329731,42.97594]}},{"properties":{"city":"Fort Atkinson","zip":"53538","add":"1131 Janesville Ave. - P.O. Box 7","geo_score":0.857,"venue":"Fireside Dinner Theatre","id":"a6g7yvejyzcs","geo_precision":"city","state":"WI"},"type":"Feature","geometry":{"type":"Point","coordinates":[-88.841626,42.926467]}},{"properties":{"city":"Fort Atkinson","zip":"53538","add":"31 West Milwaukee Avenue","geo_score":0.857,"venue":"First Congregational Church United Church of Christ (Fort Atkinson)","id":"a6g7yv2x8q7d","geo_precision":"city","state":"WI"},"type":"Feature","geometry":{"type":"Point","coordinates":[-88.841626,42.926467]}},{"properties":{"city":"Milwaukee","zip":"53202","add":"1342 N. Astor St.","geo_score":0.857,"venue":"First Unitarian Society of Milwaukee - Leenhouts Art Gallery","id":"a6g7yv4b22wj","geo_precision":"city","state":"WI"},"type":"Feature","geometry":{"type":"Point","coordinates":[-87.906474,43.038903]}},{"properties":{"city":"Tisch Mills","zip":"54240","add":"Hwy BB","geo_score":0.757,"venue":"Forst Inn","id":"a6g7yvb1dhw5","geo_precision":"city","state":"WI"},"type":"Feature","geometry":{"type":"Point","coordinates":[-91.009035,44.262183]}},{"properties":{"city":"De Pere","zip":"54115","add":"100 Grant St.","geo_score":0.786,"venue":"Fort Howard Theater-Bemis International Center","id":"a6g7yv6injhl","geo_precision":"city","state":"WI"},"type":"Feature","geometry":{"type":"Point","coordinates":[-89.243446,44.569975]}},{"properties":{"city":"Appleton","zip":"54912","add":"400 W. College Ave.","geo_score":0.857,"venue":"Fox Cities Performing Arts Center","id":"a6g7yvca3xqq","geo_precision":"city","state":"WI"},"type":"Feature","geometry":{"type":"Point","coordinates":[-88.370856,44.275702]}},{"properties":{"city":"Seeley","zip":"54843","add":"Highway 63","geo_score":0.0,"venue":"Freight Station Theatre at Sawmill Saloon","id":"a6g7yvcjflw7","geo_precision":"unmatched","state":"WI"},"type":"Feature","geometry":null},{"properties":{"city":"Loganville","zip":"53943","add":"E6404 Cold Springs Rd.","geo_score":0.857,"venue":"Friendship Rural School Historical Society","id":"a6g7yv7wr7ey","geo_precision":"city","state":"WI"},"type":"Feature","geometry":{"type":"Point","coordinates":[-90.017885,43.385775]}},{"properties":{"city":"Bloomer","zip":"54724","add":"1519 17th Ave.","geo_score":0.857,"venue":"G.E. Bleskacek Family memorial Library","id":"a6g7yv4jnjws","geo_precision":"city","state":"WI"},"type":"Feature","geometry":{"type":"Point","coordinates":[-91.408026,45.042352]}},{"properties":{"city":"Spring Green","zip":"53588","add":"111 E. Jefferson St.","geo_score":0.753,"venue":"Gard Theater","id":"a6g7yvea2h84","geo_precision":"city","state":"WI"},"type":"Feature","geometry":{"type":"Point","coordinates":[-87.745645,44.356106]}},{"properties":{"city":"Lake Geneva","zip":"53147","add":"244 Broad Street","geo_score":0.857,"venue":"Geneva Theatre","id":"a6g7yv4tamz6","geo_precision":"city","state":"WI"},"type":"Feature","geometry":{"type":"Point","coordinates":[-88.52023,42.617877]}},{"properties":{"city":"Madison","zip":"53703","add":"113 E. Mifflin St.","geo_score":0.857,"venue":"Gerald A. Bartell Community Theatre","id":"a6g7yv4wytel","geo_precision":"city","state":"WI"},"type":"Feature","geometry":{"type":"Point","coordinates":[-89.40123,43.073052]}},{"properties":{"city":"Wisconsin Rapids","zip":"54495","add":"220 3rd Ave. So., Suite #6","geo_score":0.798,"venue":"Gilbert and Jaylee Mead Auditorium","id":"a6g7yv1ky1me","geo_precision":"city","state":"WI"},"type":"Feature","geometry":{"type":"Point","coordinates":[-88.911228,45.656073]}},{"properties":{"city":"Racine","zip":"53403","add":"1525 Howe St.","geo_score":0.857,"venue":"Golden Rondelle","id":"a6g7yv8lp5go","geo_precision":"city","state":"WI"},"type":"Feature","geometry":{"type":"Point","coordinates":[-87.675979,42.727153]}},{"properties":{"city":"Fond du Lac","zip":"54935","add":"72 W. Ninth Street","geo_score":0.857,"venue":"Goodrich Little Theatre","id":"a6g7yv94fzgd","geo_precision":"city","state":"WI"},"type":"Feature","geometry":{"type":"Point","coordinates":[-88.523176,43.734724]}},{"properties":{"city":"Eau Claire","zip":"54703","add":"102 W. Grand Ave.","geo_score":0.857,"venue":"Grand Little Theatre","id":"a6g7yveblwl6","geo_precision":"city","state":"WI"},"type":"Feature","geometry":{"type":"Point","coordinates":[-91.473097,44.75653]}},{"properties":{"city":"Oshkosh","zip":"54903","add":"100 High Ave.","geo_score":0.857,"venue":"Grand Opera House","id":"a6g7yvdrb9cs","geo_precision":"city","state":"WI"},"type":"Feature","geometry":{"type":"Point","coordinates":[-88.55756,44.005661]}},{"properties":{"city":"Wausau","zip":"54403-0520","add":"401 Fourth Street","geo_score":0.857,"venue":"Grand Theater","id":"a6g7yvauxfyh","geo_precision":"city","state":"WI"},"type":"Feature","geometry":{"type":"Point","coordinates":[-89.794002,44.961874]}},{"properties":{"city":"Lancaster","zip":"53813","add":"218 S. Madison St.","geo_score":0.857,"venue":"Grantland Theater","id":"a6g7yv7tm7j1","geo_precision":"city","state":"WI"},"type":"Feature","geometry":{"type":"Point","coordinates":[-90.684965,42.864155]}},{"properties":{"city":"Green Bay","zip":"54305","add":"122 N. Chestnut Ave. - P.O. Box 2333","geo_score":0.857,"venue":"Green Bay Community Theater - Robert Brault Playhouse","id":"a6g7yv1s717z","geo_precision":"city","state":"WI"},"type":"Feature","geometry":{"type":"Point","coordinates":[-88.019826,44.519159]}},{"properties":{"city":"Plainfield","zip":null,"add":"N6789 Third Ave.","geo_score":0.814,"venue":"Hamerstrom Reserve","id":"a6g7yv9ib4fj","geo_precision":"city","state":"WI"},"type":"Feature","geometry":{"type":"Point","coordinates":[-89.812625,43.708866]}},{"properties":{"city":"Hazel Green","zip":"53811","add":"2130 Main St.","geo_score":0.743,"venue":"Hazel Green Opera House, LLC","id":"a6g7yvf9d1hb","geo_precision":"city","state":"WI"},"type":"Feature","geometry":{"type":"Point","coordinates":[-87.745645,44.356106]}},{"properties":{"city":"West Salem","zip":"54669","add":"405 E. Hamlin St.","geo_score":0.762,"venue":"Heider Center for the Arts","id":"a6g7yv5dwzha","geo_precision":"city","state":"WI"},"type":"Feature","geometry":{"type":"Point","coordinates":[-90.865184,46.781323]}},{"properties":{"city":"Milwaukee","zip":"53202","add":"1584 North Prospect Avenue","geo_score":0.857,"venue":"Helen Bader Recital Hall - Wisconsin Conservatory of Music","id":"a6g7yv4qgb6k","geo_precision":"city","state":"WI"},"type":"Feature","geometry":{"type":"Point","coordinates":[-87.906474,43.038903]}},{"properties":{"city":"Milwaukee","zip":null,"add":"2625 South Greeley","geo_score":0.857,"venue":"Hide House","id":"a6g7yve6u7p9","geo_precision":"city","state":"WI"},"type":"Feature","geometry":{"type":"Point","coordinates":[-87.906474,43.038903]}},{"properties":{"city":"Spring Green","zip":"53588","add":"6604 Hwy. 23","geo_score":0.753,"venue":"Hillside Theater","id":"a6g7yvcthyzl","geo_precision":"city","state":"WI"},"type":"Feature","geometry":{"type":"Point","coordinates":[-87.745645,44.356106]}},{"properties":{"city":"Milwaukee","zip":"53204","add":"1134 W. Historic Mitchell St.","geo_score":0.857,"venue":"Historic Modjeska Theatre","id":"a6g7yv486ipz","geo_precision":"city","state":"WI"},"type":"Feature","geometry":{"type":"Point","coordinates":[-87.906474,43.038903]}},{"properties":{"city":"Cedarburg","zip":"53021","add":"W62 N567 Washington Ave.","geo_score":0.857,"venue":"Historic Rivoli Theater","id":"a6g7yv68uici","geo_precision":"city","state":"WI"},"type":"Feature","geometry":{"type":"Point","coordinates":[-88.004033,43.321475]}},{"properties":{"city":"Baraboo","zip":"53913","add":"S3214 Highway 12","geo_score":0.857,"venue":"Ho-Chunk Casino","id":"a6g7yv2gs5ba","geo_precision":"city","state":"WI"},"type":"Feature","geometry":{"type":"Point","coordinates":[-89.863957,43.446602]}},{"properties":{"city":"Janesville","zip":"53548","add":"10 S. High St.","geo_score":0.857,"venue":"Janesville Armory","id":"a6g7yv6m33gr","geo_precision":"city","state":"WI"},"type":"Feature","geometry":{"type":"Point","coordinates":[-89.112201,42.710981]}},{"properties":{"city":"Janesville","zip":"53545","add":"408 S. Main St.","geo_score":0.857,"venue":"Janesville Performing Arts Center","id":"a6g7yv8qh64a","geo_precision":"city","state":"WI"},"type":"Feature","geometry":{"type":"Point","coordinates":[-89.112201,42.710981]}},{"properties":{"city":"Jefferson","zip":"53549","add":"700 W. Milwaukee St.","geo_score":0.79,"venue":"Jefferson Performing Arts Center","id":"a6g7yv64453d","geo_precision":"city","state":"WI"},"type":"Feature","geometry":{"type":"Point","coordinates":[-88.790105,43.036947]}},{"properties":{"city":"Milwaukee","zip":"53202","add":"1925 East Kenilworth Pl.","geo_score":0.857,"venue":"Kenilworth Square East - Studio 508","id":"a6g7yv76gq9i","geo_precision":"city","state":"WI"},"type":"Feature","geometry":{"type":"Point","coordinates":[-87.906474,43.038903]}},{"properties":{"city":"Kohler","zip":"53044","add":"260 School St.","geo_score":0.857,"venue":"Kohler Memorial Theatre","id":"a6g7yv2rls0n","geo_precision":"city","state":"WI"},"type":"Feature","geometry":{"type":"Point","coordinates":[-87.776246,43.748441]}},{"properties":{"city":"La Crosse","zip":"54602-1852","add":"118 Fifth Ave. N.","geo_score":0.857,"venue":"La Crosse Community Theatre","id":"a6g7yvflp859","geo_precision":"city","state":"WI"},"type":"Feature","geometry":{"type":"Point","coordinates":[-91.132072,43.85456]}},{"properties":{"city":"Hayward","zip":"54871","add":"13346 Trepania Road","geo_score":0.816,"venue":"Lac Courte Oreilles Ojibwe Community College","id":"a6g7yvaip5ws","geo_precision":"city","state":"WI"},"type":"Feature","geometry":{"type":"Point","coordinates":[-88.088159,44.543603]}},{"properties":{"city":"Hartland","zip":"53029","add":"221 E. Capitol Dr.","geo_score":0.857,"venue":"Lake Country Playhouse","id":"a6g7yv7yn9ro","geo_precision":"city","state":"WI"},"type":"Feature","geometry":{"type":"Point","coordinates":[-88.336087,43.123679]}},{"properties":{"city":"Washburn","zip":"54891","add":"PO Box 455","geo_score":0.857,"venue":"Lake Superior Big Top Chautauqua","id":"a6g7yv85eyp9","geo_precision":"city","state":"WI"},"type":"Feature","geometry":{"type":"Point","coordinates":[-90.904151,46.697289]}},{"properties":{"city":"Sheboygan","zip":"53081","add":"2820 Union Avenue","geo_score":0.857,"venue":"Leslie W. Johnson Theatre - Horace Mann Middle School","id":"a6g7yv53sc2u","geo_precision":"city","state":"WI"},"type":"Feature","geometry":{"type":"Point","coordinates":[-87.856793,43.722489]}},{"properties":{"city":"Stevens Point","zip":"54481","add":"1519 Water St.","geo_score":0.821,"venue":"Lincoln Center","id":"a6g7yvg55cxi","geo_precision":"city","state":"WI"},"type":"Feature","geometry":{"type":"Point","coordinates":[-91.171532,44.036351]}},{"properties":{"city":"Milwaukee","zip":"53202","add":"820 E. Knapp St.","geo_score":0.857,"venue":"Lincoln Center for the Arts (at Lincoln High School)","id":"a6g7yv6s2mna","geo_precision":"city","state":"WI"},"type":"Feature","geometry":{"type":"Point","coordinates":[-87.906474,43.038903]}},{"properties":{"city":"Solon Springs","zip":"54873","add":"P.O. Box 295","geo_score":0.75,"venue":"Lucius Woods Performing Arts Center","id":"a6g7yvbyvyss","geo_precision":"city","state":"WI"},"type":"Feature","geometry":{"type":"Point","coordinates":[-92.352969,45.122187]}},{"properties":{"city":"Menomonie","zip":"54751","add":"205 Main St. - P.O. Box 250","geo_score":0.857,"venue":"Mabel Tainter Center for the Arts","id":"a6g7yvejouea","geo_precision":"city","state":"WI"},"type":"Feature","geometry":{"type":"Point","coordinates":[-91.943198,44.867809]}},{"properties":{"city":"Madison","zip":"53703","add":"115 King St.","geo_score":0.857,"venue":"Majestic Theatre","id":"a6g7yv9z3hjz","geo_precision":"city","state":"WI"},"type":"Feature","geometry":{"type":"Point","coordinates":[-89.40123,43.073052]}},{"properties":{"city":"Burlington","zip":"53105","add":"109 N. Main St.","geo_score":0.857,"venue":"Malt House Theater","id":"a6g7yv25x6fl","geo_precision":"city","state":"WI"},"type":"Feature","geometry":{"type":"Point","coordinates":[-88.228793,42.692103]}},{"properties":{"city":"Milwaukee","zip":"53202-3122","add":"929 N. Water St.","geo_score":0.857,"venue":"Marcus Center for The Performing Arts - Uihlein Hall","id":"a6g7yv1745xa","geo_precision":"city","state":"WI"},"type":"Feature","geometry":{"type":"Point","coordinates":[-87.906474,43.038903]}},{"properties":{"city":"Milwaukee","zip":"53202","add":"123 E. State St.","geo_score":0.857,"venue":"Marcus Center for the Performing Arts - Vogel Hall","id":"a6g7yv8w6g6g","geo_precision":"city","state":"WI"},"type":"Feature","geometry":{"type":"Point","coordinates":[-87.906474,43.038903]}},{"properties":{"city":"Brookfield","zip":"53186","add":"770 N. Springdale Road","geo_score":0.857,"venue":"Marcus Majestic Theater","id":"a6g7yv7qaup7","geo_precision":"city","state":"WI"},"type":"Feature","geometry":{"type":"Point","coordinates":[-88.105906,43.062707]}},{"properties":{"city":"Mequon","zip":"53092","add":"11700 N. Port Washington Rd.","geo_score":0.857,"venue":"Marcus Northshore Cinema","id":"a6g7yv6qbmgz","geo_precision":"city","state":"WI"},"type":"Feature","geometry":{"type":"Point","coordinates":[-87.984534,43.236396]}},{"properties":{"city":"Waukesha","zip":"53186","add":"264 W. Main St.","geo_score":0.857,"venue":"Margaret Brate Bryant Civic Theatre","id":"a6g7yv8a1zm4","geo_precision":"city","state":"WI"},"type":"Feature","geometry":{"type":"Point","coordinates":[-88.217715,42.987835]}},{"properties":{"city":"Madison","zip":"53706","add":"1050 University Avenue","geo_score":0.857,"venue":"Margaret H'Doubler Performance Space - Lathrop Hall","id":"a6g7yv126mvh","geo_precision":"city","state":"WI"},"type":"Feature","geometry":{"type":"Point","coordinates":[-89.40123,43.073052]}},{"properties":{"city":"St. Francis","zip":"53207-3050","add":"3195 S. Superior Street","geo_score":0.73,"venue":"Marian Center Theatre","id":"a6g7yv4iqkk4","geo_precision":"city","state":"WI"},"type":"Feature","geometry":{"type":"Point","coordinates":[-88.786223,44.216648]}},{"properties":{"city":"Madison","zip":null,"add":"Odana Rd and Yellowstone Dr","geo_score":0.857,"venue":"Market Square Theater","id":"a6g7yve8jzhp","geo_precision":"city","state":"WI"},"type":"Feature","geometry":{"type":"Point","coordinates":[-89.40123,43.073052]}},{"properties":{"city":"Milwaukee","zip":"53201","add":"1442 W. Wisconsin","geo_score":0.857,"venue":"Marquette University - Helfaer Theatre","id":"a6g7yvfkqcys","geo_precision":"city","state":"WI"},"type":"Feature","geometry":{"type":"Point","coordinates":[-87.906474,43.038903]}},{"properties":{"city":"Mazomanie","zip":null,"add":"9 Brodhead Street","geo_score":0.857,"venue":"Mazomanie Community Building","id":"a6g7yvabya5s","geo_precision":"city","state":"WI"},"type":"Feature","geometry":{"type":"Point","coordinates":[-89.729261,43.190983]}},{"properties":{"city":"Wautoma","zip":"54982","add":"514 S. Cambridge St.","geo_score":0.857,"venue":"McComb-Bruchs Performing Arts Center","id":"a6g7yv7dmcbc","geo_precision":"city","state":"WI"},"type":"Feature","geometry":{"type":"Point","coordinates":[-89.271177,44.075321]}},{"properties":{"city":"Menomonee Falls","zip":"53051","add":"N88 W16750 Garfield Drive","geo_score":0.735,"venue":"Menomonee Falls Middle School Auditorium","id":"a6g7yv99a8hk","geo_precision":"city","state":"WI"},"type":"Feature","geometry":{"type":"Point","coordinates":[-89.234838,43.089719]}},{"properties":{"city":"Madison","zip":"53704","add":"930 Fair Oaks Ave","geo_score":0.857,"venue":"Mercury Players Theatre Lab","id":"a6g7yv4c3t3o","geo_precision":"city","state":"WI"},"type":"Feature","geometry":{"type":"Point","coordinates":[-89.40123,43.073052]}},{"properties":{"city":"Green Bay","zip":"54301","add":"117 S. Washington St.","geo_score":0.857,"venue":"Meyer Theatre","id":"a6g7yvbyii3t","geo_precision":"city","state":"WI"},"type":"Feature","geometry":{"type":"Point","coordinates":[-88.019826,44.519159]}},{"properties":{"city":"Shawano","zip":"54166","add":"Airport Rd and Lake Dr","geo_score":0.857,"venue":"Mielke Arts Center","id":"a6g7yv6hwo66","geo_precision":"city","state":"WI"},"type":"Feature","geometry":{"type":"Point","coordinates":[-88.664156,44.745058]}},{"properties":{"city":"Milwaukee","zip":"53233","add":"800 W. Wells St.","geo_score":0.857,"venue":"Milwaukee Public Museum - Humphrey IMAX Dome Theater","id":"a6g7yv7isz4b","geo_precision":"city","state":"WI"},"type":"Feature","geometry":{"type":"Point","coordinates":[-87.906474,43.038903]}},{"properties":{"city":"Milwaukee","zip":"53202","add":"108 E. Wells St.","geo_score":0.857,"venue":"Milwaukee Repertory Theater","id":"a6g7yv5us02n","geo_precision":"city","state":"WI"},"type":"Feature","geometry":{"type":"Point","coordinates":[-87.906474,43.038903]}},{"properties":{"city":"Milwaukee","zip":"53203","add":"500 W. Kilbourn Ave.","geo_score":0.857,"venue":"Milwaukee Theatre","id":"a6g7yv3i7233","geo_precision":"city","state":"WI"},"type":"Feature","geometry":{"type":"Point","coordinates":[-87.906474,43.038903]}},{"properties":{"city":"Ladysmith","zip":"54848","add":"116 E. Miner Ave.","geo_score":0.857,"venue":"Miner Theatre","id":"a6g7yv4sbp18","geo_precision":"city","state":"WI"},"type":"Feature","geometry":{"type":"Point","coordinates":[-91.0943,45.490835]}},{"properties":{"city":"Mineral Point","zip":"53565","add":"139 High St.","geo_score":0.857,"venue":"Mineral Point Opera House","id":"a6g7yv1x8pjg","geo_precision":"city","state":"WI"},"type":"Feature","geometry":{"type":"Point","coordinates":[-90.152558,42.989701]}},{"properties":{"city":"Milwaukee","zip":"53211","add":"2844 N. Oakland Ave.","geo_score":0.857,"venue":"Miramar Theatre","id":"a6g7yv8azwuq","geo_precision":"city","state":"WI"},"type":"Feature","geometry":{"type":"Point","coordinates":[-87.906474,43.038903]}},{"properties":{"city":"Madison","zip":"53704","add":"3550 Anderson St. - MATC Truax Campus","geo_score":0.857,"venue":"Mitby Theater","id":"a6g7yv35opkp","geo_precision":"city","state":"WI"},"type":"Feature","geometry":{"type":"Point","coordinates":[-89.40123,43.073052]}},{"properties":{"city":"Monroe","zip":"53566","add":"1315 11th St. - P.O. Box 472","geo_score":0.857,"venue":"Monroe Arts Center","id":"a6g7yvbqkas8","geo_precision":"city","state":"WI"},"type":"Feature","geometry":{"type":"Point","coordinates":[-89.656994,42.612966]}},{"properties":{"city":"Monroe","zip":"53566-3631","add":"1600 26th Street","geo_score":0.857,"venue":"Monroe High School Performing Arts Center","id":"a6g7yv9br48u","geo_precision":"city","state":"WI"},"type":"Feature","geometry":{"type":"Point","coordinates":[-89.656994,42.612966]}},{"properties":{"city":"Milwaukee","zip":"53202","add":"342 N. Water St.","geo_score":0.857,"venue":"Next Act Theatre / Off-Broadway Theatre","id":"a6g7yv66uull","geo_precision":"city","state":"WI"},"type":"Feature","geometry":{"type":"Point","coordinates":[-87.906474,43.038903]}},{"properties":{"city":"Rhinelander","zip":"54501","add":"Hwy. G","geo_score":0.857,"venue":"Nicolet College Theatre","id":"a6g7yvd1rruz","geo_precision":"city","state":"WI"},"type":"Feature","geometry":{"type":"Point","coordinates":[-89.386562,45.704474]}},{"properties":{"city":"Rice Lake","zip":"54868","add":"104 S Main St","geo_score":0.732,"venue":"Northern Star Center for the Arts","id":"a6g7yv9e82wj","geo_precision":"city","state":"WI"},"type":"Feature","geometry":{"type":"Point","coordinates":[-90.753187,43.541085]}},{"properties":{"city":"Madison","zip":"53705","add":"6201 Mineral Point Rd.","geo_score":0.857,"venue":"Oakwood Village West Auditorium","id":"a6g7yv80grw0","geo_precision":"city","state":"WI"},"type":"Feature","geometry":{"type":"Point","coordinates":[-89.40123,43.073052]}},{"properties":{"city":"Oconomowoc","zip":"53066","add":"4668 Lake Club Circle","geo_score":0.816,"venue":"Oconomowoc Lake Club","id":"a6g7yv6p8u2l","geo_precision":"city","state":"WI"},"type":"Feature","geometry":{"type":"Point","coordinates":[-88.459265,43.104451]}},{"properties":{"city":"Milwaukee","zip":null,"add":"342 N. Water St.","geo_score":0.857,"venue":"Off-Broadway Theatre, Milwaukee","id":"a6g7yvcyywh0","geo_precision":"city","state":"WI"},"type":"Feature","geometry":{"type":"Point","coordinates":[-87.906474,43.038903]}},{"properties":{"city":"New Richmond","zip":"54017","add":"116 S. Knowles Ave.","geo_score":0.818,"venue":"Old Gem Theater","id":"a6g7yv1k8dca","geo_precision":"city","state":"WI"},"type":"Feature","geometry":{"type":"Point","coordinates":[-88.749273,42.714734]}},{"properties":{"city":"Milwaukee","zip":"53202","add":"2230 N. Farwell Ave.","geo_score":0.857,"venue":"Oriental Landmark Theatre","id":"a6g7yvazliik","geo_precision":"city","state":"WI"},"type":"Feature","geometry":{"type":"Point","coordinates":[-87.906474,43.038903]}},{"properties":{"city":"Madison","zip":null,"add":"216 State St.","geo_score":0.857,"venue":"Orpheum Theatre","id":"a6g7yv68ga0d","geo_precision":"city","state":"WI"},"type":"Feature","geometry":{"type":"Point","coordinates":[-89.40123,43.073052]}},{"properties":{"city":"Madison","zip":"53703-2214","add":"201 State St.","geo_score":0.857,"venue":"Overture Center for the Arts","id":"a6g7yv75qai1","geo_precision":"city","state":"WI"},"type":"Feature","geometry":{"type":"Point","coordinates":[-89.40123,43.073052]}},{"properties":{"city":"Milwaukee","zip":"53202","add":"144 E. Wells St.","geo_score":0.857,"venue":"Pabst Theater","id":"a6g7yv6rkm1i","geo_precision":"city","state":"WI"},"type":"Feature","geometry":{"type":"Point","coordinates":[-87.906474,43.038903]}},{"properties":{"city":"Denmark","zip":"54208","add":"10025 Reifs Mills Road","geo_score":0.857,"venue":"Palace Dinner Theatre","id":"a6g7yvcnk0mt","geo_precision":"city","state":"WI"},"type":"Feature","geometry":{"type":"Point","coordinates":[-87.885734,44.459153]}},{"properties":{"city":"Sheboygan","zip":"53081","add":"1202 N. 8th Street","geo_score":0.857,"venue":"Paradigm Music and Coffee","id":"a6g7yvaksz6d","geo_precision":"city","state":"WI"},"type":"Feature","geometry":{"type":"Point","coordinates":[-87.856793,43.722489]}},{"properties":{"city":"Hayward","zip":"54843","add":"Highway 63","geo_score":0.816,"venue":"Park Theater Cable Hayward Arts Council Center for the Performing Arts","id":"a6g7yvbrii7t","geo_precision":"city","state":"WI"},"type":"Feature","geometry":{"type":"Point","coordinates":[-88.088159,44.543603]}},{"properties":{"city":"Fish Creek","zip":"54212","add":"W4351 Peninsula Players Rd.","geo_score":0.81,"venue":"Peninsula Players Theatre","id":"a6g7yv5spgbk","geo_precision":"city","state":"WI"},"type":"Feature","geometry":{"type":"Point","coordinates":[-92.345472,45.483568]}},{"properties":{"city":"Wisconsin Rapids","zip":"54494","add":"1801 Sixteenth St. South","geo_score":0.798,"venue":"Performing Arts Center of Wisconsin Rapids","id":"a6g7yv0qphfh","geo_precision":"city","state":"WI"},"type":"Feature","geometry":{"type":"Point","coordinates":[-88.911228,45.656073]}},{"properties":{"city":"Pittsville","zip":"54466","add":"5407 First Ave.","geo_score":0.857,"venue":"Performing Arts Center, Pittsville","id":"a6g7yvfkp50j","geo_precision":"city","state":"WI"},"type":"Feature","geometry":{"type":"Point","coordinates":[-90.190911,44.408897]}},{"properties":{"city":"Neenah","zip":"54956","add":"1275 Tullar Rd.","geo_score":0.786,"venue":"Pickard Civic Auditorium","id":"a6g7yvb5qy04","geo_precision":"city","state":"WI"},"type":"Feature","geometry":{"type":"Point","coordinates":[-88.391487,43.446109]}},{"properties":{"city":"Harshaw","zip":"54529","add":"4660 Lakewood Rd.","geo_score":0.857,"venue":"Pinewood Country Club","id":"a6g7yvb5h5md","geo_precision":"city","state":"WI"},"type":"Feature","geometry":{"type":"Point","coordinates":[-89.663974,45.690115]}},{"properties":{"city":"Platteville","zip":"53818","add":"75 N. Bonson","geo_score":0.857,"venue":"Platteville Municipal Auditorium","id":"a6g7yv5qxq66","geo_precision":"city","state":"WI"},"type":"Feature","geometry":{"type":"Point","coordinates":[-90.644975,42.795971]}},{"properties":{"city":"Franklin","zip":"53132","add":"6941 South 68th Street","geo_score":0.857,"venue":"Polish Community Center","id":"a6g7yv86qfm9","geo_precision":"city","state":"WI"},"type":"Feature","geometry":{"type":"Point","coordinates":[-87.90148,43.83555]}},{"properties":{"city":"Milwaukee","zip":"53233","add":"1721 W. Canal Street","geo_score":0.857,"venue":"Potawatomi Casino's Northern Lights Theater","id":"a6g7yvc2uaag","geo_precision":"city","state":"WI"},"type":"Feature","geometry":{"type":"Point","coordinates":[-87.906474,43.038903]}},{"properties":{"city":"Milwaukee","zip":"53233","add":"1721 Canal Street","geo_score":0.857,"venue":"Potowatomi Casino","id":"a6g7yv2hiw9i","geo_precision":"city","state":"WI"},"type":"Feature","geometry":{"type":"Point","coordinates":[-87.906474,43.038903]}},{"properties":{"city":"Madison","zip":"53711","add":"5445 East Cheryl Parkway","geo_score":0.857,"venue":"Promega Biopharmaceutical Technology Center","id":"a6g7yvfbqnih","geo_precision":"city","state":"WI"},"type":"Feature","geometry":{"type":"Point","coordinates":[-89.40123,43.073052]}},{"properties":{"city":"Racine","zip":"53404","add":"2519 Northwestern Ave.","geo_score":0.857,"venue":"Racine Theatre Guild","id":"a6g7yv35uogv","geo_precision":"city","state":"WI"},"type":"Feature","geometry":{"type":"Point","coordinates":[-87.675979,42.727153]}},{"properties":{"city":"Random Lake","zip":"53075","add":"605 Random Lake Rd.","geo_score":0.857,"venue":"Random Lake High School District Theatre","id":"a6g7yv0eq8z7","geo_precision":"city","state":"WI"},"type":"Feature","geometry":{"type":"Point","coordinates":[-88.000555,43.582924]}},{"properties":{"city":"Oshkosh","zip":"54901","add":"445 N. Main St.","geo_score":0.857,"venue":"Rebel Alliance Theatre","id":"a6g7yv9xyi5a","geo_precision":"city","state":"WI"},"type":"Feature","geometry":{"type":"Point","coordinates":[-88.55756,44.005661]}},{"properties":{"city":"Rice Lake","zip":"54868","add":"Junction of Hwy 48 &amp; County Rd. M","geo_score":0.732,"venue":"Red Barn Theatre","id":"a6g7yv7xvbl4","geo_precision":"city","state":"WI"},"type":"Feature","geometry":{"type":"Point","coordinates":[-90.753187,43.541085]}},{"properties":{"city":"Lake Mills","zip":"53551","add":"412 W. Madison","geo_score":0.857,"venue":"Renaissance Dinner Theatre","id":"a6g7yvdab0az","geo_precision":"city","state":"WI"},"type":"Feature","geometry":{"type":"Point","coordinates":[-88.913251,43.080902]}},{"properties":{"city":"Kenosha","zip":"53140-3702","add":"514 56th St.","geo_score":0.796,"venue":"Rhode Opera House / Rhode Center for the Arts","id":"a6g7yv5jynaq","geo_precision":"city","state":"WI"},"type":"Feature","geometry":{"type":"Point","coordinates":[-88.190381,44.615548]}},{"properties":{"city":"Sister Bay","zip":"54234","add":"Highway 42","geo_score":0.857,"venue":"Richard Mueller Gallery","id":"a6g7yvcg0lyu","geo_precision":"city","state":"WI"},"type":"Feature","geometry":{"type":"Point","coordinates":[-87.101748,45.178293]}},{"properties":{"city":"Richland Center","zip":null,"add":"182 N. Central Ave.","geo_score":0.765,"venue":"Richland Center City Auditorium","id":"a6g7yvdpp3n4","geo_precision":"city","state":"WI"},"type":"Feature","geometry":{"type":"Point","coordinates":[-87.705365,44.313051]}},{"properties":{"city":"Blanchardville","zip":"53516","add":"204 South Main Street","geo_score":0.857,"venue":"River Valley Trading Co.","id":"a6g7yv116awn","geo_precision":"city","state":"WI"},"type":"Feature","geometry":{"type":"Point","coordinates":[-90.104765,42.693258]}},{"properties":{"city":"Green Bay","zip":"54302","add":"1560 Main Street","geo_score":0.857,"venue":"Riverside Ballroom","id":"a6g7yvfh8qnd","geo_precision":"city","state":"WI"},"type":"Feature","geometry":{"type":"Point","coordinates":[-88.019826,44.519159]}},{"properties":{"city":"Nekoosa","zip":"54457","add":"Riverside Park","geo_score":0.857,"venue":"Riverside Park, Nekoosa","id":"a6g7yv2x8it1","geo_precision":"city","state":"WI"},"type":"Feature","geometry":{"type":"Point","coordinates":[-89.920843,44.299968]}},{"properties":{"city":"Milwaukee","zip":"53203","add":"116 W. Wisconsin Ave.","geo_score":0.857,"venue":"Riverside Theater","id":"a6g7yv9jya9f","geo_precision":"city","state":"WI"},"type":"Feature","geometry":{"type":"Point","coordinates":[-87.906474,43.038903]}},{"properties":{"city":"Green Bay","zip":null,"add":"122 N. Chestnut Ave.","geo_score":0.857,"venue":"Robert Lee Brault Playhouse","id":"a6g7yv2qv2si","geo_precision":"city","state":"WI"},"type":"Feature","geometry":{"type":"Point","coordinates":[-88.019826,44.519159]}},{"properties":{"city":"De Pere","zip":"54115","add":"1250 Mid-Valley Rd. - P.O. Box 5937","geo_score":0.786,"venue":"SC Grand Dinner Theatre","id":"a6g7yv8zre4c","geo_precision":"city","state":"WI"},"type":"Feature","geometry":{"type":"Point","coordinates":[-89.243446,44.569975]}},{"properties":{"city":"Hartford","zip":"53027","add":"147 N. Rural St.","geo_score":0.857,"venue":"Schauer Arts and Activities Center, Inc.","id":"a6g7yv9s7oqv","geo_precision":"city","state":"WI"},"type":"Feature","geometry":{"type":"Point","coordinates":[-88.319032,43.357616]}},{"properties":{"city":"Stevens Point","zip":"54481","add":"1800 N. Point Dr.","geo_score":0.821,"venue":"Sentry Theater","id":"a6g7yv7vdym0","geo_precision":"city","state":"WI"},"type":"Feature","geometry":{"type":"Point","coordinates":[-91.171532,44.036351]}},{"properties":{"city":"Milwaukee","zip":"53202","add":"1434 N. Farwell Ave.","geo_score":0.857,"venue":"Shank Hall","id":"a6g7yv24hbyg","geo_precision":"city","state":"WI"},"type":"Feature","geometry":{"type":"Point","coordinates":[-87.906474,43.038903]}},{"properties":{"city":"Racine","zip":"53403","add":"318 Sixth Street","geo_score":0.857,"venue":"Sixth Street Theatre","id":"a6g7yvgimu9q","geo_precision":"city","state":"WI"},"type":"Feature","geometry":{"type":"Point","coordinates":[-87.675979,42.727153]}},{"properties":{"city":"Fish Creek","zip":null,"add":"Hwy 42","geo_score":0.81,"venue":"Skyway Outdoor Theatre","id":"a6g7yv306chd","geo_precision":"city","state":"WI"},"type":"Feature","geometry":{"type":"Point","coordinates":[-92.345472,45.483568]}},{"properties":{"city":"South Milwaukee","zip":"53172","add":"801 Fifteenth Ave.","geo_score":0.806,"venue":"South Milwaukee Performing Arts Center","id":"a6g7yvetp4uq","geo_precision":"city","state":"WI"},"type":"Feature","geometry":{"type":"Point","coordinates":[-87.906474,43.038903]}},{"properties":{"city":"Janesville","zip":"53545","add":"20 S. Main St. #22","geo_score":0.857,"venue":"SpotLight On Kids Studio","id":"a6g7yva1f5yr","geo_precision":"city","state":"WI"},"type":"Feature","geometry":{"type":"Point","coordinates":[-89.112201,42.710981]}},{"properties":{"city":"Elkhorn","zip":"53121","add":"15 W. Walworth Ave. - PO Box 234","geo_score":0.779,"venue":"Sprague Theatre","id":"a6g7yv35yge9","geo_precision":"city","state":"WI"},"type":"Feature","geometry":{"type":"Point","coordinates":[-87.9915,43.827363]}},{"properties":{"city":"Spring Valley","zip":null,"add":"N 8715 250th St.","geo_score":0.786,"venue":"Spring Valley Theater","id":"a6g7yv5ck8zb","geo_precision":"city","state":"WI"},"type":"Feature","geometry":{"type":"Point","coordinates":[-90.541797,43.641639]}},{"properties":{"city":"Hudson","zip":"54016","add":"1616 Crestview Dr.","geo_score":0.857,"venue":"St. Croix Off Broadway Dinner Theatre","id":"a6g7yveb7qnk","geo_precision":"city","state":"WI"},"type":"Feature","geometry":{"type":"Point","coordinates":[-92.481156,44.971853]}},{"properties":{"city":"De Pere","zip":"54115-2099","add":"100 Grant St.","geo_score":0.786,"venue":"St. Norbert College - Abbot Pennings Hall of Fine Arts","id":"a6g7yv9c0c4u","geo_precision":"city","state":"WI"},"type":"Feature","geometry":{"type":"Point","coordinates":[-89.243446,44.569975]}},{"properties":{"city":"Washburn","zip":"54891","add":"123 W. Omaha Street","geo_score":0.857,"venue":"StageNorth Community Theater","id":"a6g7yv3u2c3k","geo_precision":"city","state":"WI"},"type":"Feature","geometry":{"type":"Point","coordinates":[-90.904151,46.697289]}},{"properties":{"city":"Stoughton","zip":"53589","add":"515 East Main Street","geo_score":0.857,"venue":"StageWorks Projects, Inc.","id":"a6g7yvacrebw","geo_precision":"city","state":"WI"},"type":"Feature","geometry":{"type":"Point","coordinates":[-89.168354,42.931289]}},{"properties":{"city":"Sheboygan","zip":"53081","add":"826 N. Eighth St.","geo_score":0.857,"venue":"Stefanie H. Weill Center for the Performing Arts / Sheboygan Theatre","id":"a6g7yvdaabis","geo_precision":"city","state":"WI"},"type":"Feature","geometry":{"type":"Point","coordinates":[-87.856793,43.722489]}},{"properties":{"city":"Stockholm","zip":null,"add":"Great River Road and Spring Street","geo_score":0.857,"venue":"Stockholm Opera Hall","id":"a6g7yvagda63","geo_precision":"city","state":"WI"},"type":"Feature","geometry":{"type":"Point","coordinates":[-92.232594,44.508365]}},{"properties":{"city":"Stoughton","zip":"53589-4868","add":"600 Lincoln Ave.","geo_score":0.857,"venue":"Stoughton High School Auditorium","id":"a6g7yv528e86","geo_precision":"city","state":"WI"},"type":"Feature","geometry":{"type":"Point","coordinates":[-89.168354,42.931289]}},{"properties":{"city":"Stoughton","zip":"53589","add":"Stoughton City Hall - 381 E. Main St.","geo_score":0.857,"venue":"Stoughton Opera House","id":"a6g7yv71ge13","geo_precision":"city","state":"WI"},"type":"Feature","geometry":{"type":"Point","coordinates":[-89.168354,42.931289]}},{"properties":{"city":"Stoughton","zip":null,"add":"245 W. Main","geo_score":0.857,"venue":"Stoughton Senior Center","id":"a6g7yvawpb2d","geo_precision":"city","state":"WI"},"type":"Feature","geometry":{"type":"Point","coordinates":[-89.168354,42.931289]}},{"properties":{"city":"Stoughton","zip":"53589","add":"255 E. Main St.","geo_score":0.857,"venue":"Stoughton Village Players Theater","id":"a6g7yv6028lw","geo_precision":"city","state":"WI"},"type":"Feature","geometry":{"type":"Point","coordinates":[-89.168354,42.931289]}},{"properties":{"city":"Whitewater","zip":"53190","add":"121 W. Center St","geo_score":0.857,"venue":"Studio 84","id":"a6g7yv8jmw1s","geo_precision":"city","state":"WI"},"type":"Feature","geometry":{"type":"Point","coordinates":[-88.592559,42.784255]}},{"properties":{"city":"Madison","zip":"53705","add":"Hilldale Mall, 430 N. Midvale Blvd.","geo_score":0.857,"venue":"Sundance Cinemas Madison","id":"a6g7yv88kl2b","geo_precision":"city","state":"WI"},"type":"Feature","geometry":{"type":"Point","coordinates":[-89.40123,43.073052]}},{"properties":{"city":"Elm Grove","zip":"53122-2533","add":"800 N. Elm Grove Road","geo_score":0.857,"venue":"Sunset Playhouse","id":"a6g7yv4truxi","geo_precision":"city","state":"WI"},"type":"Feature","geometry":{"type":"Point","coordinates":[-88.087888,43.048211]}},{"properties":{"city":"Madison","zip":"53704","add":"1957 Winnebago St.","geo_score":0.857,"venue":"TAPIT/new works Studio Theater","id":"a6g7yv9w7wrr","geo_precision":"city","state":"WI"},"type":"Feature","geometry":{"type":"Point","coordinates":[-89.40123,43.073052]}},{"properties":{"city":"Viroqua","zip":"54665","add":"116 S. Main St.","geo_score":0.735,"venue":"Temple Theatre","id":"a6g7yv6irn32","geo_precision":"city","state":"WI"},"type":"Feature","geometry":{"type":"Point","coordinates":[-90.957351,43.455808]}},{"properties":{"city":"Milwaukee","zip":"53233","add":"628 N. Tenth St.","geo_score":0.857,"venue":"Tenth Street Theatre","id":"a6g7yv1wdsq6","geo_precision":"city","state":"WI"},"type":"Feature","geometry":{"type":"Point","coordinates":[-87.906474,43.038903]}},{"properties":{"city":"Burlington","zip":"53105","add":"125 E. State St.","geo_score":0.857,"venue":"The CATHE Center","id":"a6g7yv6f9m8x","geo_precision":"city","state":"WI"},"type":"Feature","geometry":{"type":"Point","coordinates":[-88.228793,42.692103]}},{"properties":{"city":"Mukwonago","zip":"53149","add":"1545 Main St.","geo_score":0.857,"venue":"The Elegant Farmer","id":"a6g7yv3ato2y","geo_precision":"city","state":"WI"},"type":"Feature","geometry":{"type":"Point","coordinates":[-88.329731,42.97594]}},{"properties":{"city":"Madison","zip":"53703","add":"121 W. Main St.","geo_score":0.857,"venue":"The Frequency","id":"a6g7yv3l5itm","geo_precision":"city","state":"WI"},"type":"Feature","geometry":{"type":"Point","coordinates":[-89.40123,43.073052]}},{"properties":{"city":"Eau Claire","zip":"54703","add":"1814 North Oxford Avenue","geo_score":0.857,"venue":"The Oxford","id":"a6g7yvc0fpzq","geo_precision":"city","state":"WI"},"type":"Feature","geometry":{"type":"Point","coordinates":[-91.473097,44.75653]}},{"properties":{"city":"Washington Island","zip":"54246","add":"South Shore Dr.","geo_score":0.75,"venue":"The Red Barn, Washington Island","id":"a6g7yv20srxv","geo_precision":"city","state":"WI"},"type":"Feature","geometry":{"type":"Point","coordinates":[-91.369045,45.318852]}},{"properties":{"city":"New Richmond","zip":"54017","add":"156 High Street","geo_score":0.818,"venue":"The SPACE","id":"a6g7yv6ufnti","geo_precision":"city","state":"WI"},"type":"Feature","geometry":{"type":"Point","coordinates":[-88.749273,42.714734]}},{"properties":{"city":"Milwaukee","zip":"53202","add":"158 N. Broadway","geo_score":0.857,"venue":"The Skylight","id":"a6g7yv5ntqrv","geo_precision":"city","state":"WI"},"type":"Feature","geometry":{"type":"Point","coordinates":[-87.906474,43.038903]}},{"properties":{"city":"Milwaukee","zip":"53204","add":"818 S. Water St.","geo_score":0.857,"venue":"The Wherehouse","id":"a6g7yv1f99sr","geo_precision":"city","state":"WI"},"type":"Feature","geometry":{"type":"Point","coordinates":[-87.906474,43.038903]}},{"properties":{"city":"Stevens Point","zip":"54481","add":"1800 N. Point Dr.","geo_score":0.821,"venue":"Theater @1800","id":"a6g7yv6kqczx","geo_precision":"city","state":"WI"},"type":"Feature","geometry":{"type":"Point","coordinates":[-91.171532,44.036351]}},{"properties":{"city":"Sturgeon Bay","zip":"54235","add":"PO Box 843 - 239 N. Third Ave.","geo_score":0.857,"venue":"Third Avenue Playhouse","id":"a6g7yvcdt6vi","geo_precision":"city","state":"WI"},"type":"Feature","geometry":{"type":"Point","coordinates":[-87.384142,44.945314]}},{"properties":{"city":"Green Lake","zip":"54941","add":"506 Mill St.","geo_score":0.73,"venue":"Thrasher Opera House","id":"a6g7yv4n9g2i","geo_precision":"city","state":"WI"},"type":"Feature","geometry":{"type":"Point","coordinates":[-87.745645,44.356106]}},{"properties":{"city":"Oshkosh","zip":"54901","add":"445 N Main St","geo_score":0.857,"venue":"Time Theater","id":"a6g7yvdbptki","geo_precision":"city","state":"WI"},"type":"Feature","geometry":{"type":"Point","coordinates":[-88.55756,44.005661]}},{"properties":{"city":"Milwaukee","zip":"53208","add":"5906 W. Vliet St.","geo_score":0.857,"venue":"Times Cinema","id":"a6g7yv4icek2","geo_precision":"city","state":"WI"},"type":"Feature","geometry":{"type":"Point","coordinates":[-87.906474,43.038903]}},{"properties":{"city":"De Forest","zip":"53532","add":"4037 State Highway 19","geo_score":0.821,"venue":"Token Creek Festival Barn","id":"a6g7yvggz82c","geo_precision":"city","state":"WI"},"type":"Feature","geometry":{"type":"Point","coordinates":[-92.259633,45.13663]}},{"properties":{"city":"Richland Center","zip":"53581","add":"345 S. Cairns Ave.","geo_score":0.765,"venue":"Town &amp; Country Presbyterian Church","id":"a6g7yv72du9x","geo_precision":"city","state":"WI"},"type":"Feature","geometry":{"type":"Point","coordinates":[-87.705365,44.313051]}},{"properties":{"city":"Washington Island","zip":"54246","add":"Main Rd. - P.O. Box 136","geo_score":0.75,"venue":"Trueblood Performing Arts Center","id":"a6g7yv7txvc3","geo_precision":"city","state":"WI"},"type":"Feature","geometry":{"type":"Point","coordinates":[-91.369045,45.318852]}},{"properties":{"city":"Milwaukee","zip":"53202","add":"1032 N 4th Street","geo_score":0.857,"venue":"Turner Hall Ballroom","id":"a6g7yvbl7rvg","geo_precision":"city","state":"WI"},"type":"Feature","geometry":{"type":"Point","coordinates":[-87.906474,43.038903]}},{"properties":{"city":"Oshkosh","zip":"54901","add":"Algoma Blvd. and Woodland Ave.","geo_score":0.857,"venue":"UW Oshkosh - Experimental Theatre","id":"a6g7yv17y2s3","geo_precision":"city","state":"WI"},"type":"Feature","geometry":{"type":"Point","coordinates":[-88.55756,44.005661]}},{"properties":{"city":"Oshkosh","zip":"54901","add":"Algoma Blvd. and Woodland Ave.","geo_score":0.857,"venue":"UW Oshkosh - Fredric March Theatre","id":"a6g7yvbty3x3","geo_precision":"city","state":"WI"},"type":"Feature","geometry":{"type":"Point","coordinates":[-88.55756,44.005661]}},{"properties":{"city":"Oshkosh","zip":"54901","add":"Corner of Vine and Elmwood","geo_score":0.857,"venue":"UW Oshkosh - Music Hall","id":"a6g7yv0rpf4g","geo_precision":"city","state":"WI"},"type":"Feature","geometry":{"type":"Point","coordinates":[-88.55756,44.005661]}},{"properties":{"city":"Oshkosh","zip":"54901","add":"748 Algoma Blvd.","geo_score":0.857,"venue":"UW Oshkosh - Reeve Memorial Union","id":"a6g7yv1ghzaa","geo_precision":"city","state":"WI"},"type":"Feature","geometry":{"type":"Point","coordinates":[-88.55756,44.005661]}},{"properties":{"city":"Eau Claire","zip":"54701","add":"Park Ave.","geo_score":0.857,"venue":"UW-Eau Claire - Kjer Theatre","id":"a6g7yva468gv","geo_precision":"city","state":"WI"},"type":"Feature","geometry":{"type":"Point","coordinates":[-91.473097,44.75653]}},{"properties":{"city":"Fond du Lac","zip":"54935","add":"400 University Dr.","geo_score":0.857,"venue":"UW-Fond du Lac - Prairie Theater","id":"a6g7yve2rzle","geo_precision":"city","state":"WI"},"type":"Feature","geometry":{"type":"Point","coordinates":[-88.523176,43.734724]}},{"properties":{"city":"Menasha","zip":"54952","add":"1478 Midway Rd.","geo_score":0.857,"venue":"UW-Fox Valley Theatre","id":"a6g7yv34ougp","geo_precision":"city","state":"WI"},"type":"Feature","geometry":{"type":"Point","coordinates":[-88.446497,44.202208]}},{"properties":{"city":"Green Bay","zip":"54311-7001","add":"2420 Nicolet Dr.","geo_score":0.857,"venue":"UW-Green Bay - University Theatre","id":"a6g7yvbpnslu","geo_precision":"city","state":"WI"},"type":"Feature","geometry":{"type":"Point","coordinates":[-88.019826,44.519159]}},{"properties":{"city":"Madison","zip":"53706","add":"821 University Ave.","geo_score":0.857,"venue":"UW-Madison - Cinematheque - Vilas Hall, Room 4070","id":"a6g7yv9674lr","geo_precision":"city","state":"WI"},"type":"Feature","geometry":{"type":"Point","coordinates":[-89.40123,43.073052]}},{"properties":{"city":"Madison","zip":"53706","add":"821 University Ave.","geo_score":0.857,"venue":"UW-Madison - Hemsley Theatre","id":"a6g7yv2h1duj","geo_precision":"city","state":"WI"},"type":"Feature","geometry":{"type":"Point","coordinates":[-89.40123,43.073052]}},{"properties":{"city":"Madison","zip":"53706","add":"455 N. Park St. - Humanities Building","geo_score":0.857,"venue":"UW-Madison - Mills Concert Hall","id":"a6g7yvecq6to","geo_precision":"city","state":"WI"},"type":"Feature","geometry":{"type":"Point","coordinates":[-89.40123,43.073052]}},{"properties":{"city":"Madison","zip":"53706","add":"821 University Ave.","geo_score":0.857,"venue":"UW-Madison - Mitchell Theater","id":"a6g7yv7nweny","geo_precision":"city","state":"WI"},"type":"Feature","geometry":{"type":"Point","coordinates":[-89.40123,43.073052]}},{"properties":{"city":"Madison","zip":"53706","add":"455 N. Park St. - Humanities Building","geo_score":0.857,"venue":"UW-Madison - Morphy Hall","id":"a6g7yv6hli54","geo_precision":"city","state":"WI"},"type":"Feature","geometry":{"type":"Point","coordinates":[-89.40123,43.073052]}},{"properties":{"city":"Madison","zip":"53706","add":"925 Bascom Mall","geo_score":0.857,"venue":"UW-Madison - Music Hall","id":"a6g7yve7hsvr","geo_precision":"city","state":"WI"},"type":"Feature","geometry":{"type":"Point","coordinates":[-89.40123,43.073052]}},{"properties":{"city":"Manitowoc","zip":"54220-6699","add":"705 Viebahn St.","geo_score":0.8,"venue":"UW-Manitowoc - University Theatre","id":"a6g7yv00n8q8","geo_precision":"city","state":"WI"},"type":"Feature","geometry":{"type":"Point","coordinates":[-87.700919,44.099161]}},{"properties":{"city":"Marinette","zip":"54143","add":"750 W. Bay Shore St.","geo_score":0.857,"venue":"UW-Marinette - Herbert L. Williams Theatre / Theatre on the Bay","id":"a6g7yv7h7o9v","geo_precision":"city","state":"WI"},"type":"Feature","geometry":{"type":"Point","coordinates":[-87.716311,45.086805]}},{"properties":{"city":"Milwaukee","zip":"53211-3363","add":"2400 E. Kenwood Blvd.","geo_score":0.857,"venue":"UW-Milwaukee Mainstage Theatre / Studio Theatre","id":"a6g7yv9gbh4o","geo_precision":"city","state":"WI"},"type":"Feature","geometry":{"type":"Point","coordinates":[-87.906474,43.038903]}},{"properties":{"city":"Milwaukee","zip":"53211","add":"2400 E. Kenwood Blvd.","geo_score":0.857,"venue":"UW-Milwaukee Peck School of the Arts, Recital Hall","id":"a6g7yvcgtuc3","geo_precision":"city","state":"WI"},"type":"Feature","geometry":{"type":"Point","coordinates":[-87.906474,43.038903]}},{"properties":{"city":"Milwaukee","zip":"53211","add":"2200 E Kenwood Blvd","geo_score":0.857,"venue":"UW-Milwaukee Union Theater","id":"a6g7yv69a3yk","geo_precision":"city","state":"WI"},"type":"Feature","geometry":{"type":"Point","coordinates":[-87.906474,43.038903]}},{"properties":{"city":"Milwaukee","zip":"53203","add":"161 W. Wisconsin Ave., Suite 6000","geo_score":0.857,"venue":"UW-Milwaukee at Grand Ave.","id":"a6g7yvakwe4g","geo_precision":"city","state":"WI"},"type":"Feature","geometry":{"type":"Point","coordinates":[-87.906474,43.038903]}},{"properties":{"city":"Milwaukee","zip":"53201","add":"2419 E. Kenwood Blvd.","geo_score":0.857,"venue":"UW-Milwaukee, Helene Zelazo Center for the Performing Arts","id":"a6g7yvdj0a3k","geo_precision":"city","state":"WI"},"type":"Feature","geometry":{"type":"Point","coordinates":[-87.906474,43.038903]}},{"properties":{"city":"Platteville","zip":"53818","add":"1 University Plaza","geo_score":0.857,"venue":"UW-Platteville - Center for the Arts","id":"a6g7yv9ynz3u","geo_precision":"city","state":"WI"},"type":"Feature","geometry":{"type":"Point","coordinates":[-90.644975,42.795971]}},{"properties":{"city":"River Falls","zip":"54022","add":"500 Wild Rose Ave.","geo_score":0.757,"venue":"UW-River Falls - Kinnickinnic River Theater","id":"a6g7yv7zv188","geo_precision":"city","state":"WI"},"type":"Feature","geometry":{"type":"Point","coordinates":[-89.234838,43.089719]}},{"properties":{"city":"River Falls","zip":"54022","add":"E. Cascade Avenue and S. 4th Street","geo_score":0.757,"venue":"UW-River Falls - Kleinpell Fine Arts Building, Blanche Davis Theatre","id":"a6g7yv0ky1pd","geo_precision":"city","state":"WI"},"type":"Feature","geometry":{"type":"Point","coordinates":[-89.234838,43.089719]}},{"properties":{"city":"River Falls","zip":"54022","add":"E. Cascade Avenue and S. 4th Street","geo_score":0.757,"venue":"UW-River Falls - Kleinpell Fine Arts Building, Syse Theatre","id":"a6g7yv4y0hx6","geo_precision":"city","state":"WI"},"type":"Feature","geometry":{"type":"Point","coordinates":[-89.234838,43.089719]}},{"properties":{"city":"River Falls","zip":"54022","add":"410 S. Third St.","geo_score":0.757,"venue":"UW-River Falls - Melvin Wall Amphitheater","id":"a6g7yvc8msdl","geo_precision":"city","state":"WI"},"type":"Feature","geometry":{"type":"Point","coordinates":[-89.234838,43.089719]}},{"properties":{"city":"Janesville","zip":"53546","add":"2909 Kellogg Ave.","geo_score":0.857,"venue":"UW-Rock County, Kirk Denmark Theater","id":"a6g7yv7w1zql","geo_precision":"city","state":"WI"},"type":"Feature","geometry":{"type":"Point","coordinates":[-89.112201,42.710981]}},{"properties":{"city":"Sheboygan","zip":"53081","add":"1 University Dr.","geo_score":0.857,"venue":"UW-Sheboygan - University Theatre","id":"a6g7yv7rxw37","geo_precision":"city","state":"WI"},"type":"Feature","geometry":{"type":"Point","coordinates":[-87.856793,43.722489]}},{"properties":{"city":"Menomonie","zip":"54751","add":"Third Street","geo_score":0.857,"venue":"UW-Stout-Harvey Hall","id":"a6g7yv53588g","geo_precision":"city","state":"WI"},"type":"Feature","geometry":{"type":"Point","coordinates":[-91.943198,44.867809]}},{"properties":{"city":"Whitewater","zip":"53190","add":"800 W. Main St., Greenhill Center of the Arts","geo_score":0.857,"venue":"UW-Whitewater, Barnett Theatre","id":"a6g7yvce4haq","geo_precision":"city","state":"WI"},"type":"Feature","geometry":{"type":"Point","coordinates":[-88.592559,42.784255]}},{"properties":{"city":"Whitewater","zip":"53190","add":"800 W. Main St., Greenhill Center of the Arts","geo_score":0.857,"venue":"UW-Whitewater, Hicklin Studio Theatre","id":"a6g7yv3mx909","geo_precision":"city","state":"WI"},"type":"Feature","geometry":{"type":"Point","coordinates":[-88.592559,42.784255]}},{"properties":{"city":"Whitewater","zip":"53190-1790","add":"930 W. Main St.","geo_score":0.857,"venue":"UW-Whitewater, Irvin L. Young Auditorium","id":"a6g7yvemwm7y","geo_precision":"city","state":"WI"},"type":"Feature","geometry":{"type":"Point","coordinates":[-88.592559,42.784255]}},{"properties":{"city":"Black River Falls","zip":"54615","add":"100 N. Fourth St.","geo_score":0.743,"venue":"United Methodist Church","id":"a6g7yve4ugaf","geo_precision":"city","state":"WI"},"type":"Feature","geometry":{"type":"Point","coordinates":[-89.234838,43.089719]}},{"properties":{"city":"La Crosse","zip":"54601","add":"Morris Hall, 16th and State Streets","geo_score":0.857,"venue":"University of Wisconsin-La Crosse--Frederick Theatre","id":"a6g7yv3qy5lt","geo_precision":"city","state":"WI"},"type":"Feature","geometry":{"type":"Point","coordinates":[-91.132072,43.85456]}},{"properties":{"city":"La Crosse","zip":"54601","add":"15th and Vine Streets","geo_score":0.857,"venue":"University of Wisconsin-La Crosse--Toland Theatre","id":"a6g7yv91pnio","geo_precision":"city","state":"WI"},"type":"Feature","geometry":{"type":"Point","coordinates":[-91.132072,43.85456]}},{"properties":{"city":"Marinette","zip":"54143","add":"750 W. Bay Shore St.","geo_score":0.857,"venue":"University of Wisconsin-Marinette Art Gallery","id":"a6g7yv5pqm4m","geo_precision":"city","state":"WI"},"type":"Feature","geometry":{"type":"Point","coordinates":[-87.716311,45.086805]}},{"properties":{"city":"De Pere","zip":"54115","add":"123 Main Ave.","geo_score":0.786,"venue":"Venture Theatre","id":"a6g7yvbkoipo","geo_precision":"city","state":"WI"},"type":"Feature","geometry":{"type":"Point","coordinates":[-89.243446,44.569975]}},{"properties":{"city":"Verona","zip":"53593","add":"300 Richard St.","geo_score":0.857,"venue":"Verona Area High School Performing Arts Center","id":"a6g7yv3xxyol","geo_precision":"city","state":"WI"},"type":"Feature","geometry":{"type":"Point","coordinates":[-89.566512,42.995697]}},{"properties":{"city":"Milwaukee","zip":null,"add":"130 E. Juneau","geo_score":0.857,"venue":"Village Church Arts","id":"a6g7yv92wfct","geo_precision":"city","state":"WI"},"type":"Feature","geometry":{"type":"Point","coordinates":[-87.906474,43.038903]}},{"properties":{"city":"La Crosse","zip":"54601","add":"929 Jackson St.","geo_score":0.857,"venue":"Viterbo University - Fine Arts Center","id":"a6g7yv3pm4d1","geo_precision":"city","state":"WI"},"type":"Feature","geometry":{"type":"Point","coordinates":[-91.132072,43.85456]}},{"properties":{"city":"La Crosse","zip":"54601","add":"Corner of Jackson St. &amp; Viterbo Dr./Ninth St.","geo_score":0.857,"venue":"Viterbo University - La Croix Black Box Theatre","id":"a6g7yv268c1d","geo_precision":"city","state":"WI"},"type":"Feature","geometry":{"type":"Point","coordinates":[-91.132072,43.85456]}},{"properties":{"city":"La Crosse","zip":"54601","add":"929 Jackson St.","geo_score":0.857,"venue":"Viterbo University - Main Theatre","id":"a6g7yv4y1bxk","geo_precision":"city","state":"WI"},"type":"Feature","geometry":{"type":"Point","coordinates":[-91.132072,43.85456]}},{"properties":{"city":"Green Bay","zip":"54301","add":"115 S. Jefferson St.","geo_score":0.857,"venue":"WBAY Auditorium","id":"a6g7yv6ulnm7","geo_precision":"city","state":"WI"},"type":"Feature","geometry":{"type":"Point","coordinates":[-88.019826,44.519159]}},{"properties":{"city":"Madison","zip":"53704","add":"1625 Northport Drive","geo_score":0.857,"venue":"Warner Park Community Center","id":"a6g7yv1z17lp","geo_precision":"city","state":"WI"},"type":"Feature","geometry":{"type":"Point","coordinates":[-89.40123,43.073052]}},{"properties":{"city":"Waukesha","zip":"53186","add":"264 W. Main St.","geo_score":0.857,"venue":"Waukesha Civic Theatre","id":"a6g7yvf031r1","geo_precision":"city","state":"WI"},"type":"Feature","geometry":{"type":"Point","coordinates":[-88.217715,42.987835]}},{"properties":{"city":"Waupun","zip":"53063","add":"201 E. Main Street","geo_score":0.857,"venue":"Waupun City Hall Auditorium","id":"a6g7yvb2ey9g","geo_precision":"city","state":"WI"},"type":"Feature","geometry":{"type":"Point","coordinates":[-88.754483,43.459309]}},{"properties":{"city":"Green Bay","zip":"54311","add":"2420 Nicolet Dr.","geo_score":0.857,"venue":"Weidner Center for the Performing Arts","id":"a6g7yv1d8tji","geo_precision":"city","state":"WI"},"type":"Feature","geometry":{"type":"Point","coordinates":[-88.019826,44.519159]}},{"properties":{"city":"New Glarus","zip":null,"add":"County Highway W","geo_score":0.857,"venue":"Wilhelm Tell Grounds","id":"a6g7yv5zy10p","geo_precision":"city","state":"WI"},"type":"Feature","geometry":{"type":"Point","coordinates":[-89.651287,42.816273]}},{"properties":{"city":"Madison","zip":"53704","add":"3606 Corben Court","geo_score":0.857,"venue":"Wisconsin Aviation","id":"a6g7yv46tg4n","geo_precision":"city","state":"WI"},"type":"Feature","geometry":{"type":"Point","coordinates":[-89.40123,43.073052]}},{"properties":{"city":"Milwaukee","zip":"53226","add":"8815 W. Wisconsin Ave.","geo_score":0.857,"venue":"Wisconsin Lutheran College - Black Box Studio Theatre","id":"a6g7yv1pk98j","geo_precision":"city","state":"WI"},"type":"Feature","geometry":{"type":"Point","coordinates":[-87.906474,43.038903]}},{"properties":{"city":"Wisconsin Rapids","zip":"54495","add":"P.O. Box 1174","geo_score":0.798,"venue":"Wisconsin Rapids Community Theatre, Inc.","id":"a6g7yvfxre8l","geo_precision":"city","state":"WI"},"type":"Feature","geometry":{"type":"Point","coordinates":[-88.911228,45.656073]}},{"properties":{"city":"Madison","zip":"53706","add":"800 Langdon St.","geo_score":0.857,"venue":"Wisconsin Union Theater","id":"a6g7yv11a925","geo_precision":"city","state":"WI"},"type":"Feature","geometry":{"type":"Point","coordinates":[-89.40123,43.073052]}},{"properties":{"city":"New London","zip":"54961","add":"225 W. North Water St.","geo_score":0.778,"venue":"Wolf River Community Theatre","id":"a6g7yv5fvvqb","geo_precision":"city","state":"WI"},"type":"Feature","geometry":{"type":"Point","coordinates":[-88.501766,42.534462]}},{"properties":{"city":"Appleton","zip":null,"add":"1600 W. Prospect Ave.","geo_score":0.857,"venue":"Xavier Fine Arts Center","id":"a6g7yv9cs2jp","geo_precision":"city","state":"WI"},"type":"Feature","geometry":{"type":"Point","coordinates":[-88.370856,44.275702]}},{"properties":{"city":"Madison","zip":null,"add":"1806 W. Lawn Ave.","geo_score":0.857,"venue":"Young Shakespeare Players Playhouse","id":"a6g7yv3ei7lb","geo_precision":"city","state":"WI"},"type":"Feature","geometry":{"type":"Point","coordinates":[-89.40123,43.073052]}}],"is_temporal":false,"author":{"url":"","metadata":"","contact_name":"","contact_address":"","source":"","contact_phone":""},"source":"","pagination":{"sort":null,"start":0,"total":267,"limit":1000000},"state":"complete","tags":"","published":"2014-08-10T15:23:59-04:00","id":63014}