{"type":"FeatureCollection","data_type":"Dataset","url_type":null,"permissions":[{"permissions":{"download":true,"view":true},"group_id":"everyone"}],"classification":null,"title":"Prop19CaliforniaSupportDonations copy","count":185,"stream_id":63363,"contributor":{"url":"http://geocommons.com/users/15859","name":"jessicalum"},"data_attributes":null,"calculation_params":null,"icon_link":null,"link":"http://geocommons.com/overlays/63363.json","extent":[-122.921,32.7228,-116.514,40.7159],"geometry_types":["point"],"unique_name":null,"name":"Prop19CaliforniaSupportDonations copy","feature_count":185,"description":"","next_feature":null,"is_raster":false,"short_classification":"Y","stats":{"amount":{"max":1386810.65,"mean":8500.54508108108,"variance":10391754622.939,"stdev":101939.955968889,"min":25.0,"median":200.0}},"features":[{"properties":{"city":"ACAMPO","zip code":"95220","amount":260.24,"id":"a6649wq4om1b","donor":"Donor"},"type":"Feature","geometry":{"type":"Point","coordinates":[-121.278559,38.17464]}},{"properties":{"city":"AGOURA HILLS","zip code":"91367","amount":109.0,"id":"a6649wf8ms02","donor":"Donor"},"type":"Feature","geometry":{"type":"Point","coordinates":[-118.761676,34.15334]}},{"properties":{"city":"ALAMEDA","zip code":"94501","amount":347.0,"id":"a6649wqztov7","donor":"Donor"},"type":"Feature","geometry":{"type":"Point","coordinates":[-122.241635,37.765207]}},{"properties":{"city":"ALISO VIEJO","zip code":"92656","amount":150.0,"id":"a6649wglo6jo","donor":"Donor"},"type":"Feature","geometry":{"type":"Point","coordinates":[-117.725556,33.575]}},{"properties":{"city":"ANAHEIM","zip code":"92807","amount":275.0,"id":"a6649wejaxcb","donor":"Donor"},"type":"Feature","geometry":{"type":"Point","coordinates":[-117.914504,33.835293]}},{"properties":{"city":"ANTELOPE","zip code":"95843","amount":159.24,"id":"a6649ws88gdh","donor":"Donor"},"type":"Feature","geometry":{"type":"Point","coordinates":[-121.359881,38.714907]}},{"properties":{"city":"ARTESIA","zip code":"90701","amount":100.0,"id":"a6649wn57uf1","donor":"Donor"},"type":"Feature","geometry":{"type":"Point","coordinates":[-118.080078,33.86483]}},{"properties":{"city":"BAKERSFIELD","zip code":"93311","amount":100.0,"id":"a6649wmpijkg","donor":"Donor"},"type":"Feature","geometry":{"type":"Point","coordinates":[-119.185578,35.126851]}},{"properties":{"city":"BELLA VISTA","zip code":"96008","amount":277.27,"id":"a6649wqh4h5d","donor":"Donor"},"type":"Feature","geometry":{"type":"Point","coordinates":[-122.120301,40.715941]}},{"properties":{"city":"BELMONT","zip code":"94002","amount":770.84,"id":"a6649wsm1oap","donor":"Donor"},"type":"Feature","geometry":{"type":"Point","coordinates":[-122.305082,37.506281]}},{"properties":{"city":"BENICIA","zip code":"94510","amount":100.0,"id":"a6649wkoe2gh","donor":"Donor"},"type":"Feature","geometry":{"type":"Point","coordinates":[-122.117826,38.102383]}},{"properties":{"city":"BERKELEY","zip code":"94707","amount":21285.28,"id":"a6649wdszs3u","donor":"Donor"},"type":"Feature","geometry":{"type":"Point","coordinates":[-122.279567,37.898367]}},{"properties":{"city":"BEVERLY HILLS","zip code":"90211","amount":225.0,"id":"a6649whd8fq2","donor":"Donor"},"type":"Feature","geometry":{"type":"Point","coordinates":[-118.384178,34.066107]}},{"properties":{"city":"BREA","zip code":"92821","amount":125.0,"id":"a6649wqw4qgl","donor":"Donor"},"type":"Feature","geometry":{"type":"Point","coordinates":[-117.866307,33.925097]}},{"properties":{"city":"BRENTWOOD","zip code":"94513","amount":224.52,"id":"a6649wlg5euc","donor":"Donor"},"type":"Feature","geometry":{"type":"Point","coordinates":[-121.695786,37.931868]}},{"properties":{"city":"CAMARILLO","zip code":"93010","amount":125.0,"id":"a6649wndp57y","donor":"Donor"},"type":"Feature","geometry":{"type":"Point","coordinates":[-119.080901,34.233091]}},{"properties":{"city":"CARLSBAD","zip code":"92009","amount":100.0,"id":"a6649wnzz29r","donor":"Donor"},"type":"Feature","geometry":{"type":"Point","coordinates":[-117.238216,33.098212]}},{"properties":{"city":"CONCORD","zip code":"94520","amount":2233.0,"id":"a6649wnzpki7","donor":"Donor"},"type":"Feature","geometry":{"type":"Point","coordinates":[-122.049652,37.989907]}},{"properties":{"city":"COSTA MESA","zip code":"92627","amount":50.0,"id":"a6649wdqd5uc","donor":"Donor"},"type":"Feature","geometry":{"type":"Point","coordinates":[-117.919042,33.649625]}},{"properties":{"city":"DANVILLE","zip code":"94526","amount":125.0,"id":"a6649wjqa0nx","donor":"Donor"},"type":"Feature","geometry":{"type":"Point","coordinates":[-121.981435,37.800695]}},{"properties":{"city":"DUBLIN","zip code":"94568","amount":360.24,"id":"a6649wig3hxx","donor":"Donor"},"type":"Feature","geometry":{"type":"Point","coordinates":[-121.907486,37.713038]}},{"properties":{"city":"EL CAJON","zip code":"92020","amount":125.0,"id":"a6649wggi073","donor":"Donor"},"type":"Feature","geometry":{"type":"Point","coordinates":[-116.967581,32.796322]}},{"properties":{"city":"EL CERRITO","zip code":"94530","amount":104.2,"id":"a6649wow1sc6","donor":"Donor"},"type":"Feature","geometry":{"type":"Point","coordinates":[-122.293743,37.920206]}},{"properties":{"city":"EL DORADO","zip code":"95623","amount":125.0,"id":"a6649wqc7drc","donor":"Donor"},"type":"Feature","geometry":{"type":"Point","coordinates":[-120.861378,38.610078]}},{"properties":{"city":"EL SOBRANTE","zip code":"94803","amount":210.86,"id":"a6649wsyzu36","donor":"Donor"},"type":"Feature","geometry":{"type":"Point","coordinates":[-122.276731,37.958725]}},{"properties":{"city":"ENCINO","zip code":"91436","amount":1420.0,"id":"a6649wqoq8li","donor":"Donor"},"type":"Feature","geometry":{"type":"Point","coordinates":[-118.492235,34.154005]}},{"properties":{"city":"ESCONDIDO","zip code":"92025","amount":150.0,"id":"a6649wicpj2c","donor":"Donor"},"type":"Feature","geometry":{"type":"Point","coordinates":[-117.044101,33.086449]}},{"properties":{"city":"FAIRFIELD","zip code":"94534","amount":1000.0,"id":"a6649wsquos0","donor":"Donor"},"type":"Feature","geometry":{"type":"Point","coordinates":[-122.106467,38.267263]}},{"properties":{"city":"FELTON","zip code":"95108","amount":255.0,"id":"a6649wt6xffu","donor":"Donor"},"type":"Feature","geometry":{"type":"Point","coordinates":[-121.89,37.34]}},{"properties":{"city":"FREMONT","zip code":"94538","amount":20500.0,"id":"a6649wm97z3v","donor":"Donor"},"type":"Feature","geometry":{"type":"Point","coordinates":[-121.958687,37.501143]}},{"properties":{"city":"FRESNO","zip code":"93705","amount":256.98,"id":"a6649wt2zlp0","donor":"Donor"},"type":"Feature","geometry":{"type":"Point","coordinates":[-119.829443,36.789028]}},{"properties":{"city":"GARDEN GROVE","zip code":"92845","amount":100.0,"id":"a6649wqkbtap","donor":"Donor"},"type":"Feature","geometry":{"type":"Point","coordinates":[-118.027391,33.785268]}},{"properties":{"city":"GILROY","zip code":"95020","amount":160.24,"id":"a6649wpwljpk","donor":"Donor"},"type":"Feature","geometry":{"type":"Point","coordinates":[-121.399899,37.040456]}},{"properties":{"city":"HAYWARD","zip code":"94542","amount":560.0,"id":"a6649wq4aeuz","donor":"Donor"},"type":"Feature","geometry":{"type":"Point","coordinates":[-122.021234,37.649984]}},{"properties":{"city":"HERCULES","zip code":"94547","amount":2500.0,"id":"a6649ws2giqu","donor":"Donor"},"type":"Feature","geometry":{"type":"Point","coordinates":[-122.262553,38.008249]}},{"properties":{"city":"HERMOSA BEACH","zip code":"90254","amount":100.0,"id":"a6649wokj5ey","donor":"Donor"},"type":"Feature","geometry":{"type":"Point","coordinates":[-118.395863,33.863364]}},{"properties":{"city":"HOLLISTER","zip code":"95023","amount":300.0,"id":"a6649wpkni5x","donor":"Donor"},"type":"Feature","geometry":{"type":"Point","coordinates":[-121.401602,36.852455]}},{"properties":{"city":"HUNTINGTON BEACH","zip code":"92648","amount":1700.0,"id":"a6649wkfbkpc","donor":"Donor"},"type":"Feature","geometry":{"type":"Point","coordinates":[-118.012753,33.678196]}},{"properties":{"city":"IRVINE","zip code":"92618","amount":225.0,"id":"a6649wkqt34q","donor":"Donor"},"type":"Feature","geometry":{"type":"Point","coordinates":[-117.725608,33.670933]}},{"properties":{"city":"LA CRESCENTA","zip code":"91214","amount":100.0,"id":"a6649wdwnqs8","donor":"Donor"},"type":"Feature","geometry":{"type":"Point","coordinates":[-118.240967,34.242634]}},{"properties":{"city":"LA MESA","zip code":"91941","amount":396.0,"id":"a6649wm0kzoc","donor":"Donor"},"type":"Feature","geometry":{"type":"Point","coordinates":[-116.979355,32.762226]}},{"properties":{"city":"LAFAYETTE","zip code":"94549","amount":20099.0,"id":"a6649whn98vh","donor":"Donor"},"type":"Feature","geometry":{"type":"Point","coordinates":[-122.117826,37.892946]}},{"properties":{"city":"LAGUNA WOODS","zip code":"92637","amount":155.0,"id":"a6649wdx5kqw","donor":"Donor"},"type":"Feature","geometry":{"type":"Point","coordinates":[-117.728541,33.610868]}},{"properties":{"city":"LAKE FOREST","zip code":"92630","amount":125.0,"id":"a6649wea16o1","donor":"Donor"},"type":"Feature","geometry":{"type":"Point","coordinates":[-117.684551,33.644752]}},{"properties":{"city":"LAKEPORT","zip code":"95453","amount":100.0,"id":"a6649wr7rdh1","donor":"Donor"},"type":"Feature","geometry":{"type":"Point","coordinates":[-122.921226,39.066956]}},{"properties":{"city":"LANDERS","zip code":"92285","amount":649.0,"id":"a6649wpztdlf","donor":"Donor"},"type":"Feature","geometry":{"type":"Point","coordinates":[-116.513796,34.361173]}},{"properties":{"city":"LOMPOC","zip code":"93436","amount":100.0,"id":"a6649whjxv73","donor":"Donor"},"type":"Feature","geometry":{"type":"Point","coordinates":[-120.389665,34.562191]}},{"properties":{"city":"LONG BEACH","zip code":"90814","amount":545.0,"id":"a6649wpubmxf","donor":"Donor"},"type":"Feature","geometry":{"type":"Point","coordinates":[-118.142989,33.770905]}},{"properties":{"city":"LOS ALTOS","zip code":"94022","amount":349.0,"id":"a6649wewy7zl","donor":"Donor"},"type":"Feature","geometry":{"type":"Point","coordinates":[-122.140541,37.369401]}},{"properties":{"city":"LOS ANGELES","zip code":"90010","amount":175.0,"id":"a6649webf84e","donor":"Donor"},"type":"Feature","geometry":{"type":"Point","coordinates":[-118.308934,34.062545]}},{"properties":{"city":"LOS ANGELES","zip code":"90005","amount":125.0,"id":"a6649wmokeat","donor":"Donor"},"type":"Feature","geometry":{"type":"Point","coordinates":[-118.309665,34.057881]}},{"properties":{"city":"LOS ANGELES","zip code":"90027","amount":100.0,"id":"a6649wit52te","donor":"Donor"},"type":"Feature","geometry":{"type":"Point","coordinates":[-118.293589,34.122055]}},{"properties":{"city":"LOS ANGELES","zip code":"90035","amount":420.0,"id":"a6649wsxokbv","donor":"Donor"},"type":"Feature","geometry":{"type":"Point","coordinates":[-118.384178,34.050751]}},{"properties":{"city":"LOS ANGELES","zip code":"90039","amount":500.0,"id":"a6649wnzkeuf","donor":"Donor"},"type":"Feature","geometry":{"type":"Point","coordinates":[-118.25851,34.110341]}},{"properties":{"city":"LOS ANGELES","zip code":"90045","amount":50.0,"id":"a6649wl53tml","donor":"Donor"},"type":"Feature","geometry":{"type":"Point","coordinates":[-118.404626,33.956003]}},{"properties":{"city":"LOS ANGELES","zip code":"90048","amount":15376.0,"id":"a6649wdod1s3","donor":"Donor"},"type":"Feature","geometry":{"type":"Point","coordinates":[-118.372491,34.074155]}},{"properties":{"city":"LOS ANGELES","zip code":"90064","amount":2350.0,"id":"a6649wfaz1ux","donor":"Donor"},"type":"Feature","geometry":{"type":"Point","coordinates":[-118.422152,34.038666]}},{"properties":{"city":"LOS ANGELES","zip code":"90066","amount":100.0,"id":"a6649wl2fji7","donor":"Donor"},"type":"Feature","geometry":{"type":"Point","coordinates":[-118.433834,34.005017]}},{"properties":{"city":"LOS ANGELES","zip code":"90068","amount":500.0,"id":"a6649wpy8ios","donor":"Donor"},"type":"Feature","geometry":{"type":"Point","coordinates":[-118.328661,34.123516]}},{"properties":{"city":"LOS ANGELES","zip code":"90077","amount":100.0,"id":"a6649wifqc5o","donor":"Donor"},"type":"Feature","geometry":{"type":"Point","coordinates":[-118.457197,34.101486]}},{"properties":{"city":"MARTINEZ","zip code":"94553","amount":478.72,"id":"a6649wf2c2nr","donor":"Donor"},"type":"Feature","geometry":{"type":"Point","coordinates":[-122.151897,37.987359]}},{"properties":{"city":"MENIFEE","zip code":"92584","amount":124.0,"id":"a6649wovy9sk","donor":"Donor"},"type":"Feature","geometry":{"type":"Point","coordinates":[-117.185294,33.655739]}},{"properties":{"city":"MENLO PARK","zip code":"94025","amount":100.0,"id":"a6649wtc2jc7","donor":"Donor"},"type":"Feature","geometry":{"type":"Point","coordinates":[-122.180281,37.448491]}},{"properties":{"city":"MILL VALLEY","zip code":"94941","amount":105.0,"id":"a6649wiktvxi","donor":"Donor"},"type":"Feature","geometry":{"type":"Point","coordinates":[-122.542931,37.891055]}},{"properties":{"city":"MILLBRAE","zip code":"94030","amount":159.24,"id":"a6649wsxxri3","donor":"Donor"},"type":"Feature","geometry":{"type":"Point","coordinates":[-122.407083,37.599372]}},{"properties":{"city":"MODESTO","zip code":"95355","amount":318.48,"id":"a6649wq3g3md","donor":"Donor"},"type":"Feature","geometry":{"type":"Point","coordinates":[-120.93026,37.67045]}},{"properties":{"city":"MONTEREY","zip code":"93940","amount":200.0,"id":"a6649wfezh4j","donor":"Donor"},"type":"Feature","geometry":{"type":"Point","coordinates":[-121.822098,36.576041]}},{"properties":{"city":"MONTEREY PARK","zip code":"91754","amount":193.0,"id":"a6649wmdezlb","donor":"Donor"},"type":"Feature","geometry":{"type":"Point","coordinates":[-118.141526,34.047232]}},{"properties":{"city":"MOORPARK","zip code":"93021","amount":100.0,"id":"a6649wpkas2z","donor":"Donor"},"type":"Feature","geometry":{"type":"Point","coordinates":[-118.882982,34.294277]}},{"properties":{"city":"MORRO BAY","zip code":"93442","amount":318.48,"id":"a6649wh91mnc","donor":"Donor"},"type":"Feature","geometry":{"type":"Point","coordinates":[-120.780968,35.39295]}},{"properties":{"city":"MOUNTAIN VIEW","zip code":"94040","amount":2224.0,"id":"a6649wkhvcn0","donor":"Donor"},"type":"Feature","geometry":{"type":"Point","coordinates":[-122.086585,37.378535]}},{"properties":{"city":"MOUNTAIN VIEW","zip code":"94041","amount":199.0,"id":"a6649wp17ise","donor":"Donor"},"type":"Feature","geometry":{"type":"Point","coordinates":[-122.075222,37.386773]}},{"properties":{"city":"MOUNTAIN VIEW","zip code":"94043","amount":273.0,"id":"a6649wfal1jo","donor":"Donor"},"type":"Feature","geometry":{"type":"Point","coordinates":[-122.072382,37.428434]}},{"properties":{"city":"NEWARK","zip code":"94560","amount":240.36,"id":"a6649wnczl6x","donor":"Donor"},"type":"Feature","geometry":{"type":"Point","coordinates":[-122.04024,37.529659]}},{"properties":{"city":"NIPOMO","zip code":"93444","amount":200.0,"id":"a6649wi5i3bd","donor":"Donor"},"type":"Feature","geometry":{"type":"Point","coordinates":[-120.458806,35.044361]}},{"properties":{"city":"OAKLAND","zip code":"94111","amount":204.0,"id":"a6649wne228t","donor":"Donor"},"type":"Feature","geometry":{"type":"Point","coordinates":[-122.400003,37.798318]}},{"properties":{"city":"OAKLAND","zip code":"94602","amount":544.79,"id":"a6649wgmux8i","donor":"Donor"},"type":"Feature","geometry":{"type":"Point","coordinates":[-122.211495,37.804802]}},{"properties":{"city":"OAKLAND","zip code":"94605","amount":198.0,"id":"a6649wonu6dd","donor":"Donor"},"type":"Feature","geometry":{"type":"Point","coordinates":[-122.134863,37.758945]}},{"properties":{"city":"OAKLAND","zip code":"94606","amount":497.61,"id":"a6649wm1e0q9","donor":"Donor"},"type":"Feature","geometry":{"type":"Point","coordinates":[-122.245536,37.794409]}},{"properties":{"city":"OAKLAND","zip code":"94607","amount":200.0,"id":"a6649wfzknzo","donor":"Donor"},"type":"Feature","geometry":{"type":"Point","coordinates":[-122.290908,37.809143]}},{"properties":{"city":"OAKLAND","zip code":"94608","amount":125.0,"id":"a6649wgxxnao","donor":"Donor"},"type":"Feature","geometry":{"type":"Point","coordinates":[-122.282402,37.837959]}},{"properties":{"city":"OAKLAND","zip code":"94609","amount":480.0,"id":"a6649wgn0rmg","donor":"Donor"},"type":"Feature","geometry":{"type":"Point","coordinates":[-122.262553,37.832117]}},{"properties":{"city":"OAKLAND","zip code":"94610","amount":1433.97,"id":"a6649wfulz89","donor":"Donor"},"type":"Feature","geometry":{"type":"Point","coordinates":[-122.239864,37.810449]}},{"properties":{"city":"OAKLAND","zip code":"94611","amount":470.1,"id":"a6649we6oduh","donor":"Donor"},"type":"Feature","geometry":{"type":"Point","coordinates":[-122.202983,37.833628]}},{"properties":{"city":"OAKLAND","zip code":"94612","amount":11377.85,"id":"a6649wr7cupj","donor":"Donor"},"type":"Feature","geometry":{"type":"Point","coordinates":[-122.268224,37.811316]}},{"properties":{"city":"OAKLAND","zip code":"94618","amount":105.43,"id":"a6649wfedpq3","donor":"Donor"},"type":"Feature","geometry":{"type":"Point","coordinates":[-122.237027,37.842303]}},{"properties":{"city":"OAKLAND","zip code":"94619","amount":200.0,"id":"a6649wq7o5xj","donor":"Donor"},"type":"Feature","geometry":{"type":"Point","coordinates":[-122.146219,37.793681]}},{"properties":{"city":"OCEANSIDE","zip code":"92056","amount":125.0,"id":"a6649wju0uc4","donor":"Donor"},"type":"Feature","geometry":{"type":"Point","coordinates":[-117.297003,33.198755]}},{"properties":{"city":"OJAI","zip code":"93023","amount":100.0,"id":"a6649ws0cml4","donor":"Donor"},"type":"Feature","geometry":{"type":"Point","coordinates":[-118.906279,34.633751]}},{"properties":{"city":"ORANGE","zip code":"92868","amount":180.0,"id":"a6649wi0d7hh","donor":"Donor"},"type":"Feature","geometry":{"type":"Point","coordinates":[-117.875098,33.78659]}},{"properties":{"city":"ORINDA","zip code":"94563","amount":100.0,"id":"a6649wisdzac","donor":"Donor"},"type":"Feature","geometry":{"type":"Point","coordinates":[-122.185957,37.891253]}},{"properties":{"city":"PACIFIC PALISADES","zip code":"90272","amount":1000.0,"id":"a6649wo45rw6","donor":"Donor"},"type":"Feature","geometry":{"type":"Point","coordinates":[-118.544779,34.084525]}},{"properties":{"city":"PACIFICA","zip code":"94044","amount":100.0,"id":"a6649wl4imd0","donor":"Donor"},"type":"Feature","geometry":{"type":"Point","coordinates":[-122.458047,37.598045]}},{"properties":{"city":"PALO ALTO","zip code":"94301","amount":675.0,"id":"a6649wtsuyap","donor":"Donor"},"type":"Feature","geometry":{"type":"Point","coordinates":[-122.157574,37.445797]}},{"properties":{"city":"PALO ALTO","zip code":"94303","amount":186.0,"id":"a6649wt1ghwc","donor":"Donor"},"type":"Feature","geometry":{"type":"Point","coordinates":[-122.123505,37.45613]}},{"properties":{"city":"PASADENA","zip code":"91104","amount":269.0,"id":"a6649wj4oz5a","donor":"Donor"},"type":"Feature","geometry":{"type":"Point","coordinates":[-118.11812,34.165771]}},{"properties":{"city":"PASADENA","zip code":"91106","amount":159.24,"id":"a6649wn8od98","donor":"Donor"},"type":"Feature","geometry":{"type":"Point","coordinates":[-118.126898,34.140543]}},{"properties":{"city":"PEBBLE BEACH","zip code":"93953","amount":349.0,"id":"a6649wipywf2","donor":"Donor"},"type":"Feature","geometry":{"type":"Point","coordinates":[-121.941623,36.584194]}},{"properties":{"city":"PENN VALLEY","zip code":"95946","amount":50.0,"id":"a6649wgfwszi","donor":"Donor"},"type":"Feature","geometry":{"type":"Point","coordinates":[-121.205396,39.228051]}},{"properties":{"city":"PENNGROVE","zip code":"94951","amount":125.0,"id":"a6649wh59nb2","donor":"Donor"},"type":"Feature","geometry":{"type":"Point","coordinates":[-122.6447,38.323659]}},{"properties":{"city":"PETALUMA","zip code":"94955","amount":232.98,"id":"a6649ws368td","donor":"Donor"},"type":"Feature","geometry":{"type":"Point","coordinates":[-122.64,38.23]}},{"properties":{"city":"PLEASANT HILL","zip code":"94523","amount":100.0,"id":"a6649wozl4o4","donor":"Donor"},"type":"Feature","geometry":{"type":"Point","coordinates":[-122.072382,37.944892]}},{"properties":{"city":"PLEASANTON","zip code":"94588","amount":545.0,"id":"a6649whneqnd","donor":"Donor"},"type":"Feature","geometry":{"type":"Point","coordinates":[-121.913176,37.687391]}},{"properties":{"city":"PLYMOUTH","zip code":"95669","amount":125.0,"id":"a6649wsj559s","donor":"Donor"},"type":"Feature","geometry":{"type":"Point","coordinates":[-120.872861,38.482902]}},{"properties":{"city":"PORTOLA VALLEY","zip code":"94028","amount":500.0,"id":"a6649wdqqfzo","donor":"Donor"},"type":"Feature","geometry":{"type":"Point","coordinates":[-122.208658,37.387118]}},{"properties":{"city":"RANCHO CUCAMONGA","zip code":"91701","amount":50.0,"id":"a6649wodyj12","donor":"Donor"},"type":"Feature","geometry":{"type":"Point","coordinates":[-117.614146,34.135667]}},{"properties":{"city":"RANCHO MURIETA","zip code":"95683","amount":102.0,"id":"a6649wgvqa6q","donor":"Donor"},"type":"Feature","geometry":{"type":"Point","coordinates":[-121.102294,38.491989]}},{"properties":{"city":"REDDING","zip code":"96003","amount":211.99,"id":"a6649wnxv0r3","donor":"Donor"},"type":"Feature","geometry":{"type":"Point","coordinates":[-122.289072,40.70998]}},{"properties":{"city":"REDWOOD CITY","zip code":"94062","amount":350.0,"id":"a6649wq90vy5","donor":"Donor"},"type":"Feature","geometry":{"type":"Point","coordinates":[-122.288073,37.410893]}},{"properties":{"city":"SACRAMENTO","zip code":"95816","amount":100.0,"id":"a6649wfc1sf9","donor":"Donor"},"type":"Feature","geometry":{"type":"Point","coordinates":[-121.462758,38.570535]}},{"properties":{"city":"SAN BRUNO","zip code":"94066","amount":318.48,"id":"a6649wtqldq2","donor":"Donor"},"type":"Feature","geometry":{"type":"Point","coordinates":[-122.429737,37.62107]}},{"properties":{"city":"SAN CARLOS","zip code":"94070","amount":50.0,"id":"a6649wehsi3w","donor":"Donor"},"type":"Feature","geometry":{"type":"Point","coordinates":[-122.27106,37.497517]}},{"properties":{"city":"SAN DIEGO","zip code":"92104","amount":100.0,"id":"a6649wfjavev","donor":"Donor"},"type":"Feature","geometry":{"type":"Point","coordinates":[-117.132358,32.747575]}},{"properties":{"city":"SAN DIEGO","zip code":"92106","amount":200.0,"id":"a6649wfdnqgy","donor":"Donor"},"type":"Feature","geometry":{"type":"Point","coordinates":[-117.238216,32.722844]}},{"properties":{"city":"SAN DIEGO","zip code":"92109","amount":125.0,"id":"a6649whebf7r","donor":"Donor"},"type":"Feature","geometry":{"type":"Point","coordinates":[-117.249975,32.803617]}},{"properties":{"city":"SAN DIEGO","zip code":"92116","amount":125.0,"id":"a6649wf2ueeu","donor":"Donor"},"type":"Feature","geometry":{"type":"Point","coordinates":[-117.123534,32.762693]}},{"properties":{"city":"SAN DIEGO","zip code":"92117","amount":419.24,"id":"a6649wkkvykg","donor":"Donor"},"type":"Feature","geometry":{"type":"Point","coordinates":[-117.202936,32.825077]}},{"properties":{"city":"SAN DIEGO","zip code":"92119","amount":124.0,"id":"a6649wlu0zb0","donor":"Donor"},"type":"Feature","geometry":{"type":"Point","coordinates":[-117.038216,32.811287]}},{"properties":{"city":"SAN DIEGO","zip code":"92121","amount":100.0,"id":"a6649wr91kvi","donor":"Donor"},"type":"Feature","geometry":{"type":"Point","coordinates":[-117.202936,32.898114]}},{"properties":{"city":"SAN DIEGO","zip code":"92123","amount":100.0,"id":"a6649wji3wfb","donor":"Donor"},"type":"Feature","geometry":{"type":"Point","coordinates":[-117.132358,32.810253]}},{"properties":{"city":"SAN DIEGO","zip code":"92126","amount":50.0,"id":"a6649wrzmeqq","donor":"Donor"},"type":"Feature","geometry":{"type":"Point","coordinates":[-117.13824,32.918476]}},{"properties":{"city":"SAN DIEGO","zip code":"92127","amount":100.0,"id":"a6649wqhj644","donor":"Donor"},"type":"Feature","geometry":{"type":"Point","coordinates":[-117.114709,33.028256]}},{"properties":{"city":"SAN DIEGO","zip code":"92129","amount":500.0,"id":"a6649we7q3jq","donor":"Donor"},"type":"Feature","geometry":{"type":"Point","coordinates":[-117.13824,32.960197]}},{"properties":{"city":"SAN FRANCISCO","zip code":"91134","amount":500.0,"id":"a6649wndjcjf","donor":"Donor"},"type":"Feature","geometry":{"type":"Point","coordinates":[-122.39771,37.793477]}},{"properties":{"city":"SAN FRANCISCO","zip code":"91403","amount":1150.0,"id":"a6649wsw6vhi","donor":"Donor"},"type":"Feature","geometry":{"type":"Point","coordinates":[-122.39771,37.793477]}},{"properties":{"city":"SAN FRANCISCO","zip code":"94105","amount":1449.97,"id":"a6649wkujk72","donor":"Donor"},"type":"Feature","geometry":{"type":"Point","coordinates":[-122.394339,37.79053]}},{"properties":{"city":"SAN FRANCISCO","zip code":"94107","amount":1100.0,"id":"a6649wgnrst0","donor":"Donor"},"type":"Feature","geometry":{"type":"Point","coordinates":[-122.398587,37.761824]}},{"properties":{"city":"SAN FRANCISCO","zip code":"94108","amount":125.0,"id":"a6649wtpi0u8","donor":"Donor"},"type":"Feature","geometry":{"type":"Point","coordinates":[-122.408499,37.790943]}},{"properties":{"city":"SAN FRANCISCO","zip code":"94109","amount":300.0,"id":"a6649wjdyzxu","donor":"Donor"},"type":"Feature","geometry":{"type":"Point","coordinates":[-122.421242,37.792979]}},{"properties":{"city":"SAN FRANCISCO","zip code":"94110","amount":20975.0,"id":"a6649wl54cax","donor":"Donor"},"type":"Feature","geometry":{"type":"Point","coordinates":[-122.418411,37.748582]}},{"properties":{"city":"SAN FRANCISCO","zip code":"94114","amount":1524.0,"id":"a6649wqwbi0l","donor":"Donor"},"type":"Feature","geometry":{"type":"Point","coordinates":[-122.432568,37.756144]}},{"properties":{"city":"SAN FRANCISCO","zip code":"94115","amount":40.0,"id":"a6649wm47m2w","donor":"Donor"},"type":"Feature","geometry":{"type":"Point","coordinates":[-122.438231,37.787752]}},{"properties":{"city":"SAN FRANCISCO","zip code":"94117","amount":3525.0,"id":"a6649wdsqpev","donor":"Donor"},"type":"Feature","geometry":{"type":"Point","coordinates":[-122.443893,37.771719]}},{"properties":{"city":"SAN FRANCISCO","zip code":"94122","amount":105.43,"id":"a6649wnltlit","donor":"Donor"},"type":"Feature","geometry":{"type":"Point","coordinates":[-122.475029,37.759748]}},{"properties":{"city":"SAN FRANCISCO","zip code":"94123","amount":1000.0,"id":"a6649wqe0xai","donor":"Donor"},"type":"Feature","geometry":{"type":"Point","coordinates":[-122.438231,37.802041]}},{"properties":{"city":"SAN FRANCISCO","zip code":"94127","amount":159.24,"id":"a6649wqxaiu6","donor":"Donor"},"type":"Feature","geometry":{"type":"Point","coordinates":[-122.463708,37.734646]}},{"properties":{"city":"SAN FRANCISCO","zip code":"94131","amount":25.0,"id":"a6649ws5xxql","donor":"Donor"},"type":"Feature","geometry":{"type":"Point","coordinates":[-122.438231,37.740104]}},{"properties":{"city":"SAN FRANCISCO","zip code":"94133","amount":125.0,"id":"a6649wprwfwd","donor":"Donor"},"type":"Feature","geometry":{"type":"Point","coordinates":[-122.409915,37.801226]}},{"properties":{"city":"SAN FRANCISCO","zip code":"94960","amount":1000.0,"id":"a6649wpp1249","donor":"Donor"},"type":"Feature","geometry":{"type":"Point","coordinates":[-122.565555,37.988536]}},{"properties":{"city":"SAN GERONIMO","zip code":"94963","amount":1316.29,"id":"a6649wfv6eqf","donor":"Donor"},"type":"Feature","geometry":{"type":"Point","coordinates":[-122.667302,37.994899]}},{"properties":{"city":"SAN JOSE","zip code":"95117","amount":420.0,"id":"a6649wsv6niy","donor":"Donor"},"type":"Feature","geometry":{"type":"Point","coordinates":[-121.961531,37.310524]}},{"properties":{"city":"SAN JOSE","zip code":"95121","amount":279.2,"id":"a6649wdsk6fy","donor":"Donor"},"type":"Feature","geometry":{"type":"Point","coordinates":[-121.805012,37.302108]}},{"properties":{"city":"SAN JOSE","zip code":"95123","amount":125.0,"id":"a6649wn1y5bu","donor":"Donor"},"type":"Feature","geometry":{"type":"Point","coordinates":[-121.827792,37.237485]}},{"properties":{"city":"SAN JOSE","zip code":"95128","amount":100.0,"id":"a6649wicnmn4","donor":"Donor"},"type":"Feature","geometry":{"type":"Point","coordinates":[-121.930245,37.312713]}},{"properties":{"city":"SAN JOSE","zip code":"95134","amount":100.0,"id":"a6649wi0g8h3","donor":"Donor"},"type":"Feature","geometry":{"type":"Point","coordinates":[-121.952999,37.43085]}},{"properties":{"city":"SAN JOSE","zip code":"95139","amount":130.56,"id":"a6649wk7lgpg","donor":"Donor"},"type":"Feature","geometry":{"type":"Point","coordinates":[-121.762287,37.225711]}},{"properties":{"city":"SAN LUIS OBISPO","zip code":"93401","amount":100.0,"id":"a6649wiejc9h","donor":"Donor"},"type":"Feature","geometry":{"type":"Point","coordinates":[-120.642999,35.232662]}},{"properties":{"city":"SAN MATEO","zip code":"94402","amount":200.0,"id":"a6649wl50qio","donor":"Donor"},"type":"Feature","geometry":{"type":"Point","coordinates":[-122.339094,37.524597]}},{"properties":{"city":"SANTA ANA","zip code":"92707","amount":125.0,"id":"a6649wsv47sk","donor":"Donor"},"type":"Feature","geometry":{"type":"Point","coordinates":[-117.872168,33.702309]}},{"properties":{"city":"SANTA BARBARA","zip code":"93105","amount":200.0,"id":"a6649wtu9psb","donor":"Donor"},"type":"Feature","geometry":{"type":"Point","coordinates":[-119.812079,34.010912]}},{"properties":{"city":"SANTA CLARA","zip code":"95050","amount":250.0,"id":"a6649wiugsa2","donor":"Donor"},"type":"Feature","geometry":{"type":"Point","coordinates":[-121.952999,37.353966]}},{"properties":{"city":"SANTA CLARA","zip code":"95054","amount":553.0,"id":"a6649wtap6nm","donor":"Donor"},"type":"Feature","geometry":{"type":"Point","coordinates":[-121.964374,37.398604]}},{"properties":{"city":"SANTA CRUZ","zip code":"95060","amount":983.24,"id":"a6649wj0ndik","donor":"Donor"},"type":"Feature","geometry":{"type":"Point","coordinates":[-122.117826,37.010531]}},{"properties":{"city":"SANTA MONICA","zip code":"90404","amount":5545.0,"id":"a6649wnal5it","donor":"Donor"},"type":"Feature","geometry":{"type":"Point","coordinates":[-118.468878,34.026926]}},{"properties":{"city":"SANTA ROSA","zip code":"95404","amount":477.72,"id":"a6649wlrjwix","donor":"Donor"},"type":"Feature","geometry":{"type":"Point","coordinates":[-122.695547,38.538688]}},{"properties":{"city":"SEBASTOPOL","zip code":"95472","amount":107.48,"id":"a6649wkhpeh2","donor":"Donor"},"type":"Feature","geometry":{"type":"Point","coordinates":[-122.876131,38.369075]}},{"properties":{"city":"SHERMAN OAKS","zip code":"91423","amount":100.0,"id":"a6649wr83fh6","donor":"Donor"},"type":"Feature","geometry":{"type":"Point","coordinates":[-118.433834,34.148269]}},{"properties":{"city":"SOLVANG","zip code":"93463","amount":550.0,"id":"a6649whjzm0v","donor":"Donor"},"type":"Feature","geometry":{"type":"Point","coordinates":[-120.147383,34.63834]}},{"properties":{"city":"STINSON BEACH","zip code":"94970","amount":519.0,"id":"a6649wrbp2p4","donor":"Donor"},"type":"Feature","geometry":{"type":"Point","coordinates":[-122.633397,37.910531]}},{"properties":{"city":"STOCKTON Total","zip code":"95207","amount":473.11,"id":"a6649wrzt856","donor":"Donor"},"type":"Feature","geometry":{"type":"Point","coordinates":[-121.319849,37.998375]}},{"properties":{"city":"STUDIO CITY","zip code":"91604","amount":295.0,"id":"a6649wtk6n44","donor":"Donor"},"type":"Feature","geometry":{"type":"Point","coordinates":[-118.387099,34.13956]}},{"properties":{"city":"SUMMERLAND","zip code":"93067","amount":100.0,"id":"a6649wqr1jxb","donor":"Donor"},"type":"Feature","geometry":{"type":"Point","coordinates":[-119.601376,34.420919]}},{"properties":{"city":"SUNNYVALE","zip code":"94087","amount":1015.0,"id":"a6649wn3oz2o","donor":"Donor"},"type":"Feature","geometry":{"type":"Point","coordinates":[-122.032602,37.34921]}},{"properties":{"city":"TEHACHAPI","zip code":"93561","amount":125.0,"id":"a6649wh69iag","donor":"Donor"},"type":"Feature","geometry":{"type":"Point","coordinates":[-118.533104,35.134675]}},{"properties":{"city":"THOUSAND OAKS","zip code":"91360","amount":100.0,"id":"a6649wtocgbx","donor":"Donor"},"type":"Feature","geometry":{"type":"Point","coordinates":[-118.894631,34.219999]}},{"properties":{"city":"TOPANGA","zip code":"90290","amount":100.0,"id":"a6649wtjejmk","donor":"Donor"},"type":"Feature","geometry":{"type":"Point","coordinates":[-118.61481,34.107698]}},{"properties":{"city":"TORRANCE","zip code":"90504","amount":100.0,"id":"a6649wt2rzav","donor":"Donor"},"type":"Feature","geometry":{"type":"Point","coordinates":[-118.328661,33.867327]}},{"properties":{"city":"TUJUNGA","zip code":"91042","amount":200.0,"id":"a6649wn4d9wg","donor":"Donor"},"type":"Feature","geometry":{"type":"Point","coordinates":[-118.229271,34.296676]}},{"properties":{"city":"VACAVILLE","zip code":"95687","amount":99.0,"id":"a6649wk4lv7j","donor":"Donor"},"type":"Feature","geometry":{"type":"Point","coordinates":[-121.913176,38.316541]}},{"properties":{"city":"VACAVILLE","zip code":"95688","amount":212.98,"id":"a6649whxiq2r","donor":"Donor"},"type":"Feature","geometry":{"type":"Point","coordinates":[-122.015549,38.408701]}},{"properties":{"city":"VALLEY CENTER","zip code":"92082","amount":100.0,"id":"a6649wofrxa1","donor":"Donor"},"type":"Feature","geometry":{"type":"Point","coordinates":[-117.008788,33.230094]}},{"properties":{"city":"VAN NUYS","zip code":"91406","amount":75.0,"id":"a6649wkza1ug","donor":"Donor"},"type":"Feature","geometry":{"type":"Point","coordinates":[-118.498074,34.198512]}},{"properties":{"city":"VENICE","zip code":"90291","amount":100.0,"id":"a6649wk8c6wy","donor":"Donor"},"type":"Feature","geometry":{"type":"Point","coordinates":[-118.468878,33.996214]}},{"properties":{"city":"VISALIA","zip code":"93291","amount":100.0,"id":"a6649wdwh1ft","donor":"Donor"},"type":"Feature","geometry":{"type":"Point","coordinates":[-119.348265,36.382084]}},{"properties":{"city":"WALNUT CREEK","zip code":"94595","amount":780.1,"id":"a6649wh54zw4","donor":"Donor"},"type":"Feature","geometry":{"type":"Point","coordinates":[-122.0667,37.875107]}},{"properties":{"city":"WALNUT CREEK","zip code":"94596","amount":350.0,"id":"a6649wrph5zb","donor":"Donor"},"type":"Feature","geometry":{"type":"Point","coordinates":[-122.032602,37.885453]}},{"properties":{"city":"WEST COVINA","zip code":"91791","amount":420.0,"id":"a6649wi74nli","donor":"Donor"},"type":"Feature","geometry":{"type":"Point","coordinates":[-117.895606,34.056638]}},{"properties":{"city":"WEST HILLS","zip code":"91307","amount":200.0,"id":"a6649wioittx","donor":"Donor"},"type":"Feature","geometry":{"type":"Point","coordinates":[-118.684811,34.212444]}},{"properties":{"city":"WEST HOLLYWOOD","zip code":"90069","amount":100.0,"id":"a6649wln5pqm","donor":"Donor"},"type":"Feature","geometry":{"type":"Point","coordinates":[-118.378335,34.09316]}},{"properties":{"city":"WHITTIER","zip code":"90605","amount":535.0,"id":"a6649wrqqeim","donor":"Donor"},"type":"Feature","geometry":{"type":"Point","coordinates":[-118.027391,33.954885]}},{"properties":{"city":"WOODLAND HILLS","zip code":"91367","amount":100.0,"id":"a6649wt5p6iw","donor":"Donor"},"type":"Feature","geometry":{"type":"Point","coordinates":[-118.597305,34.178526]}},{"properties":{"city":"WRIGHTWOOD","zip code":"92397","amount":500.0,"id":"a6649wt6ixbo","donor":"Donor"},"type":"Feature","geometry":{"type":"Point","coordinates":[-117.637617,34.376262]}},{"properties":{"city":"YUBA CITY","zip code":"95993","amount":500.0,"id":"a6649wn2rwm7","donor":"Donor"},"type":"Feature","geometry":{"type":"Point","coordinates":[-121.696744,39.071509]}},{"properties":{"city":"SHERMAN OAKS","zip code":"91403","amount":5000.0,"id":"a6649wke1o5u","donor":"Donor"},"type":"Feature","geometry":{"type":"Point","coordinates":[-118.457197,34.14239]}},{"properties":{"city":"Oakland","zip code":"94612","amount":1386810.65,"id":"a6649wo9zaew","donor":"S.K. Seymour LLC, Oaksterdam University and affiliated entities"},"type":"Feature","geometry":{"type":"Point","coordinates":[-122.269679,37.805985]}}],"is_temporal":false,"author":{"url":"","metadata":"","contact_name":"","contact_address":"","source":"","contact_phone":""},"source":"","pagination":{"sort":null,"start":0,"total":185,"limit":1000000},"state":"complete","tags":"","published":"2014-08-10T15:49:18-04:00","id":63363}