{"type":"FeatureCollection","data_type":"Dataset","url_type":null,"permissions":[{"permissions":{"download":true,"view":true},"group_id":"everyone"}],"classification":null,"title":"Top Community College Enrollers","count":25,"stream_id":63565,"contributor":{"url":"http://geocommons.com/users/15970","name":"rehorton"},"data_attributes":null,"calculation_params":null,"icon_link":null,"link":"http://geocommons.com/overlays/63565.json","extent":[-122.45,25.87,-73.6,47.82],"geometry_types":["point"],"unique_name":null,"name":"Top Community College Enrollers","feature_count":25,"description":"","next_feature":null,"is_raster":false,"short_classification":"Y","stats":{"latitude":{"max":47.82,"mean":37.0952,"variance":33.7563593333333,"stdev":5.81002231779993,"min":25.87,"median":37.32},"enrollment":{"max":67085,"mean":27756.32,"variance":266904318.81,"stdev":16337.2065791554,"min":9314,"median":23800},"rank":{"max":25,"mean":13.0,"variance":54.1666666666667,"stdev":7.35980072193987,"min":1,"median":13},"students":{"max":5580,"mean":1530.44,"variance":1055559.67333333,"stdev":1027.4043378015,"min":763,"median":1201},"longitude":{"max":-73.6,"mean":-107.5924,"variance":335.327352333333,"stdev":18.3119456184572,"min":-122.45,"median":-118.29}},"features":[{"properties":{"city":"Houston","latitude":29.72,"institution":"Houston Community College System","enrollment":61396,"rank":1,"students":5580,"longitude":-95.45,"id":"a629a5i3elvc","state":"TX"},"type":"Feature","geometry":{"type":"Point","coordinates":[-95.45,29.72]}},{"properties":{"city":"San Francisco","latitude":37.73,"institution":"City College of San Francisco","enrollment":67085,"rank":10,"students":1253,"longitude":-122.45,"id":"a629a5cpqrmv","state":"CA"},"type":"Feature","geometry":{"type":"Point","coordinates":[-122.45,37.73]}},{"properties":{"city":"Los Altos Hills","latitude":37.36,"institution":"Foothill College","enrollment":16793,"rank":11,"students":1236,"longitude":-122.13,"id":"a629a5d6bjxg","state":"CA"},"type":"Feature","geometry":{"type":"Point","coordinates":[-122.13,37.36]}},{"properties":{"city":"Miami","latitude":25.87,"institution":"Miami-Dade College","enrollment":61274,"rank":12,"students":1217,"longitude":-80.32,"id":"a629a5b66ytl","state":"FL"},"type":"Feature","geometry":{"type":"Point","coordinates":[-80.32,25.87]}},{"properties":{"city":"Seattle","latitude":47.62,"institution":"Seattle Central Community College","enrollment":10235,"rank":13,"students":1201,"longitude":-122.32,"id":"a629a5l3e1ml","state":"WA"},"type":"Feature","geometry":{"type":"Point","coordinates":[-122.32,47.62]}},{"properties":{"city":"Garden City","latitude":40.73,"institution":"Nassau Community College","enrollment":22199,"rank":14,"students":1168,"longitude":-73.6,"id":"a629a5gj973z","state":"NY"},"type":"Feature","geometry":{"type":"Point","coordinates":[-73.6,40.73]}},{"properties":{"city":"Pasadena","latitude":34.14,"institution":"Pasadena City College","enrollment":29857,"rank":15,"students":1164,"longitude":-118.12,"id":"a629a5iz004z","state":"CA"},"type":"Feature","geometry":{"type":"Point","coordinates":[-118.12,34.14]}},{"properties":{"city":"Irving","latitude":32.88,"institution":"North Lake College","enrollment":9314,"rank":16,"students":1082,"longitude":-96.97,"id":"a629a5dn9u83","state":"TX"},"type":"Feature","geometry":{"type":"Point","coordinates":[-96.97,32.88]}},{"properties":{"city":"Auburn","latitude":47.31,"institution":"Green River Community College","enrollment":9739,"rank":17,"students":1077,"longitude":-122.18,"id":"a629a5awmik3","state":"WA"},"type":"Feature","geometry":{"type":"Point","coordinates":[-122.18,47.31]}},{"properties":{"city":"Santa Barbara","latitude":34.41,"institution":"Santa Barbara City College","enrollment":20000,"rank":18,"students":1020,"longitude":-119.7,"id":"a629a5kvfx2f","state":"CA"},"type":"Feature","geometry":{"type":"Point","coordinates":[-119.7,34.41]}},{"properties":{"city":"Lynnwood","latitude":47.82,"institution":"Edmonds Community College","enrollment":12243,"rank":19,"students":999,"longitude":-122.33,"id":"a629a5kyhzn3","state":"WA"},"type":"Feature","geometry":{"type":"Point","coordinates":[-122.33,47.82]}},{"properties":{"city":"Santa Monica","latitude":34.02,"institution":"Santa Monica College","enrollment":31000,"rank":2,"students":3147,"longitude":-118.47,"id":"a629a5cd0oo9","state":"CA"},"type":"Feature","geometry":{"type":"Point","coordinates":[-118.47,34.02]}},{"properties":{"city":"Bellevue","latitude":47.64,"institution":"Bellevue Community College","enrollment":18742,"rank":20,"students":972,"longitude":-122.2,"id":"a629a5kqhvm7","state":"WA"},"type":"Feature","geometry":{"type":"Point","coordinates":[-122.2,47.64]}},{"properties":{"city":"Los Angeles","latitude":34.09,"institution":"Los Angeles City College","enrollment":18933,"rank":21,"students":930,"longitude":-118.29,"id":"a629a5d64v4y","state":"CA"},"type":"Feature","geometry":{"type":"Point","coordinates":[-118.29,34.09]}},{"properties":{"city":"Torrance","latitude":33.88,"institution":"El Camino College","enrollment":26000,"rank":22,"students":915,"longitude":-118.33,"id":"a629a5owo8gd","state":"CA"},"type":"Feature","geometry":{"type":"Point","coordinates":[-118.33,33.88]}},{"properties":{"city":"Costa Mesa","latitude":33.67,"institution":"Orange Coast College","enrollment":23800,"rank":23,"students":871,"longitude":-117.91,"id":"a629a5kr28xb","state":"CA"},"type":"Feature","geometry":{"type":"Point","coordinates":[-117.91,33.67]}},{"properties":{"city":"Oakland","latitude":37.79,"institution":"Peralta Community College District","enrollment":29530,"rank":24,"students":833,"longitude":-122.26,"id":"a629a5ltfezm","state":"CA"},"type":"Feature","geometry":{"type":"Point","coordinates":[-122.26,37.79]}},{"properties":{"city":"Tempe","latitude":33.43,"institution":"Rio Salado Community College","enrollment":26602,"rank":25,"students":763,"longitude":-111.92,"id":"a629a5ica6kn","state":"AZ"},"type":"Feature","geometry":{"type":"Point","coordinates":[-111.92,33.43]}},{"properties":{"city":"Cupertino","latitude":37.32,"institution":"De Anza College","enrollment":26000,"rank":3,"students":2595,"longitude":-122.05,"id":"a629a5e6uc88","state":"CA"},"type":"Feature","geometry":{"type":"Point","coordinates":[-122.05,37.32]}},{"properties":{"city":"Rockville","latitude":39.1,"institution":"Montgomery College","enrollment":24452,"rank":4,"students":2248,"longitude":-77.16,"id":"a629a5bhx3gp","state":"MD"},"type":"Feature","geometry":{"type":"Point","coordinates":[-77.16,39.1]}},{"properties":{"city":"The Woodlands","latitude":30.21,"institution":"Lone Star College System","enrollment":49786,"rank":5,"students":2174,"longitude":-95.45,"id":"a629a5ofommj","state":"TX"},"type":"Feature","geometry":{"type":"Point","coordinates":[-95.45,30.21]}},{"properties":{"city":"Annandale","latitude":39.03,"institution":"Northern Virginia Community College","enrollment":42663,"rank":6,"students":1663,"longitude":-77.39,"id":"a629a5fymytn","state":"VA"},"type":"Feature","geometry":{"type":"Point","coordinates":[-77.39,39.03]}},{"properties":{"city":"New York","latitude":40.72,"institution":"CUNY Borough of Manhattan Community College","enrollment":18259,"rank":7,"students":1503,"longitude":-74.01,"id":"a629a5czyev4","state":"NY"},"type":"Feature","geometry":{"type":"Point","coordinates":[-74.01,40.72]}},{"properties":{"city":"Pleasant Hill","latitude":37.97,"institution":"Diablo Valley College","enrollment":22006,"rank":8,"students":1392,"longitude":-122.07,"id":"a629a5d7twys","state":"CA"},"type":"Feature","geometry":{"type":"Point","coordinates":[-122.07,37.97]}},{"properties":{"city":"Dallas","latitude":32.92,"institution":"Richland College","enrollment":16000,"rank":9,"students":1258,"longitude":-96.73,"id":"a629a58huqd0","state":"TX"},"type":"Feature","geometry":{"type":"Point","coordinates":[-96.73,32.92]}}],"is_temporal":false,"author":{"url":"http://opendoors.iienetwork.org/page/155892/","metadata":"","contact_name":"","contact_address":"","source":"Open Doors 2009 Report on International Educational Exchange","contact_phone":""},"source":"http://opendoors.iienetwork.org/page/155892/","pagination":{"sort":null,"start":0,"total":25,"limit":1000000},"state":"complete","tags":"college,community,international,students","published":"2009-01-01T17:00:00Z","id":63565}