{"type":"FeatureCollection","data_type":"Dataset","url_type":null,"permissions":[{"permissions":{"download":true,"view":true},"group_id":"everyone"}],"classification":null,"title":"Large Yard Sign Locations","count":100,"stream_id":63710,"contributor":{"url":"http://geocommons.com/users/16008","name":"dktprc"},"data_attributes":null,"calculation_params":null,"icon_link":null,"link":"http://geocommons.com/overlays/63710.json","extent":[-84.7456,40.48,-81.0948,41.6693],"geometry_types":["point"],"unique_name":null,"name":"Large Yard Sign Locations","feature_count":100,"description":"Large yard sign route","next_feature":null,"is_raster":false,"short_classification":"Y","stats":{"geo_score":{"max":0.857,"mean":0.652359999999999,"variance":0.028507263030303,"stdev":0.168840940030263,"min":0.0,"median":0.714}},"features":[{"properties":{"city":"cuyahoga Falls","geo_score":0.857,"id":"a6aw5gen1eyn","address":"1015, Howe Ave","geo_precision":"street","state":"Ohio"},"type":"Feature","geometry":{"type":"Point","coordinates":[-81.484675,41.119277]}},{"properties":{"city":"Akron","geo_score":0.714,"id":"a6aw5gcsci0o","address":"103, S Portage Path","geo_precision":"street","state":"Ohio"},"type":"Feature","geometry":{"type":"Point","coordinates":[-81.544939,41.095676]}},{"properties":{"city":"Akron","geo_score":0.586,"id":"a6aw5g48527x","address":"1039, Orlando Rd","geo_precision":"street","state":"Ohio"},"type":"Feature","geometry":{"type":"Point","coordinates":[-81.568153,41.098199]}},{"properties":{"city":"Bath","geo_score":0.8,"id":"a6aw5garcikn","address":"1057, Ghent Rd","geo_precision":"city","state":"Ohio"},"type":"Feature","geometry":{"type":"Point","coordinates":[-83.411875,41.638104]}},{"properties":{"city":"Akron","geo_score":0.357,"id":"a6aw5gb3b1j0","address":"116, S. Rose Blvd.","geo_precision":"street","state":"Ohio"},"type":"Feature","geometry":{"type":"Point","coordinates":[-81.56212,41.106224]}},{"properties":{"city":"Cuyahoga Falls","geo_score":0.714,"id":"a6aw5gdz8pmv","address":"1221, Chestnut St","geo_precision":"street","state":"Ohio"},"type":"Feature","geometry":{"type":"Point","coordinates":[-81.485399,41.127884]}},{"properties":{"city":"Akron","geo_score":0.619,"id":"a6aw5gi6l8vb","address":"1350, West Market","geo_precision":"street","state":"Ohio"},"type":"Feature","geometry":{"type":"Point","coordinates":[-81.520747,41.086675]}},{"properties":{"city":"Copley","geo_score":0.818,"id":"a6aw5g4lph5q","address":"1404, Hametown Rd","geo_precision":"street","state":"Ohio"},"type":"Feature","geometry":{"type":"Point","coordinates":[-81.667701,41.135954]}},{"properties":{"city":"Akron","geo_score":0.333,"id":"a6aw5g8xeaex","address":"1426, W. Market St","geo_precision":"street","state":"Ohio"},"type":"Feature","geometry":{"type":"Point","coordinates":[-81.520747,41.086675]}},{"properties":{"city":"Akron","geo_score":0.714,"id":"a6aw5gib4azn","address":"1457, Bryden Dr.","geo_precision":"street","state":"Ohio"},"type":"Feature","geometry":{"type":"Point","coordinates":[-81.565204,41.113368]}},{"properties":{"city":"Tallmadge","geo_score":0.49,"id":"a6aw5gbn4ice","address":"146, W. Howe Rd.","geo_precision":"street","state":"Ohio"},"type":"Feature","geometry":{"type":"Point","coordinates":[-81.4403,41.118445]}},{"properties":{"city":"Copley","geo_score":0.714,"id":"a6aw5g4ktxgm","address":"1521, Collier Rd","geo_precision":"street","state":"Ohio"},"type":"Feature","geometry":{"type":"Point","coordinates":[-81.588347,41.083458]}},{"properties":{"city":"Akron","geo_score":0.554,"id":"a6aw5gaz1yq6","address":"1564, Delia St.","geo_precision":"street","state":"Ohio"},"type":"Feature","geometry":{"type":"Point","coordinates":[-81.546628,41.092287]}},{"properties":{"city":"Akron","geo_score":0.857,"id":"a6aw5gedpfbz","address":"1695, Diagnal Rd.","geo_precision":"city","state":"Ohio"},"type":"Feature","geometry":{"type":"Point","coordinates":[-81.519005,41.081445]}},{"properties":{"city":"Akron","geo_score":0.714,"id":"a6aw5g65ul0j","address":"1707, Triplett Blvd","geo_precision":"street","state":"Ohio"},"type":"Feature","geometry":{"type":"Point","coordinates":[-81.50407,41.041391]}},{"properties":{"city":"Akron","geo_score":0.714,"id":"a6aw5gcmoela","address":"188, Sand Run Rd","geo_precision":"street","state":"Ohio"},"type":"Feature","geometry":{"type":"Point","coordinates":[-81.587685,41.117567]}},{"properties":{"city":"Akron","geo_score":0.714,"id":"a6aw5g6o52z3","address":"1881, Baker Ave.","geo_precision":"street","state":"Ohio"},"type":"Feature","geometry":{"type":"Point","coordinates":[-81.461781,41.048894]}},{"properties":{"city":"Cuyahoga Falls","geo_score":0.857,"id":"a6aw5gg53a8d","address":"1918, Broad Blvd","geo_precision":"street","state":"Ohio"},"type":"Feature","geometry":{"type":"Point","coordinates":[-81.48386,41.134018]}},{"properties":{"city":"Akron","geo_score":0.714,"id":"a6aw5g7ukuko","address":"2020, East Market St","geo_precision":"street","state":"Ohio"},"type":"Feature","geometry":{"type":"Point","coordinates":[-81.516798,41.085127]}},{"properties":{"city":"Akron","geo_score":0.333,"id":"a6aw5g3xwblo","address":"2033, W. Market St.","geo_precision":"street","state":"Ohio"},"type":"Feature","geometry":{"type":"Point","coordinates":[-81.520747,41.086675]}},{"properties":{"city":"Akron","geo_score":0.714,"id":"a6aw5g42sv6c","address":"2038, Goodyear Blvd","geo_precision":"street","state":"Ohio"},"type":"Feature","geometry":{"type":"Point","coordinates":[-81.483815,41.066866]}},{"properties":{"city":"Cuyahoga Falls","geo_score":0.714,"id":"a6aw5g7jl8pw","address":"2055, Forest Edge Dr.","geo_precision":"street","state":"Ohio"},"type":"Feature","geometry":{"type":"Point","coordinates":[-81.521164,41.157806]}},{"properties":{"city":"Akron","geo_score":0.714,"id":"a6aw5gbc32ue","address":"2121, Brookshire Rd","geo_precision":"street","state":"Ohio"},"type":"Feature","geometry":{"type":"Point","coordinates":[-81.57862,41.125167]}},{"properties":{"city":"Akron","geo_score":0.714,"id":"a6aw5ga7jp0l","address":"224 &amp; Springside Drive","geo_precision":"street","state":"Ohio"},"type":"Feature","geometry":{"type":"Point","coordinates":[-81.64504,41.13592]}},{"properties":{"city":"Akron","geo_score":0.714,"id":"a6aw5g74o060","address":"2280, Canton Rd","geo_precision":"street","state":"Ohio"},"type":"Feature","geometry":{"type":"Point","coordinates":[-81.439281,41.06267]}},{"properties":{"city":"Munroe Falls","geo_score":0.571,"id":"a6aw5gcnvwin","address":"2375, Plymouth Lane","geo_precision":"street","state":"Ohio"},"type":"Feature","geometry":{"type":"Point","coordinates":[-81.094782,40.479974]}},{"properties":{"city":"Akron","geo_score":0.714,"id":"a6aw5gink0t8","address":"248, Merriman Rd","geo_precision":"street","state":"Ohio"},"type":"Feature","geometry":{"type":"Point","coordinates":[-81.536127,41.094243]}},{"properties":{"city":"Akron","geo_score":0.714,"id":"a6aw5gjb0fsg","address":"2500, Ridgewood Rd","geo_precision":"street","state":"Ohio"},"type":"Feature","geometry":{"type":"Point","coordinates":[-81.591689,41.118576]}},{"properties":{"city":"Akron","geo_score":0.714,"id":"a6aw5g5cafga","address":"2630, Addyston Rd","geo_precision":"street","state":"Ohio"},"type":"Feature","geometry":{"type":"Point","coordinates":[-81.605443,41.11618]}},{"properties":{"city":"Akron","geo_score":0.714,"id":"a6aw5g3ntmzu","address":"2650, S Main St.","geo_precision":"street","state":"Ohio"},"type":"Feature","geometry":{"type":"Point","coordinates":[-81.517873,41.082629]}},{"properties":{"city":"Akron","geo_score":0.333,"id":"a6aw5ghr0ipd","address":"272, W. Market","geo_precision":"street","state":"Ohio"},"type":"Feature","geometry":{"type":"Point","coordinates":[-81.520747,41.086675]}},{"properties":{"city":"Cuyahoga falls","geo_score":0.857,"id":"a6aw5ginyp6g","address":"275, Graham Rd","geo_precision":"street","state":"Ohio"},"type":"Feature","geometry":{"type":"Point","coordinates":[-81.4937,41.157878]}},{"properties":{"city":"Cuyahoga Falls","geo_score":0.857,"id":"a6aw5gffc4iv","address":"275, Graham Rd.","geo_precision":"street","state":"Ohio"},"type":"Feature","geometry":{"type":"Point","coordinates":[-81.4937,41.157878]}},{"properties":{"city":"Tallmadge","geo_score":0.857,"id":"a6aw5g8uzw3y","address":"29, Heritage Dr","geo_precision":"street","state":"Ohio"},"type":"Feature","geometry":{"type":"Point","coordinates":[-81.440507,41.111705]}},{"properties":{"city":"Akron","geo_score":0.661,"id":"a6aw5ggh2cjy","address":"2925, Pikes Ave","geo_precision":"street","state":"Ohio"},"type":"Feature","geometry":{"type":"Point","coordinates":[-81.561275,41.028011]}},{"properties":{"city":"Akron","geo_score":0.714,"id":"a6aw5gdyrxml","address":"3061, Albrecht Ave","geo_precision":"street","state":"Ohio"},"type":"Feature","geometry":{"type":"Point","coordinates":[-81.444279,41.045632]}},{"properties":{"city":"Richfield","geo_score":0.619,"id":"a6aw5gbu5kdk","address":"3105, Farnham Rd","geo_precision":"street","state":"Ohio"},"type":"Feature","geometry":{"type":"Point","coordinates":[-84.7456,41.451921]}},{"properties":{"city":"Cuyahoga Falls","geo_score":0.75,"id":"a6aw5ggdukae","address":"324, Franklin Blvd","geo_precision":"street","state":"Ohio"},"type":"Feature","geometry":{"type":"Point","coordinates":[-81.480795,41.154968]}},{"properties":{"city":"Akron","geo_score":0.714,"id":"a6aw5geu4tz3","address":"326, Schocalog Rd","geo_precision":"street","state":"Ohio"},"type":"Feature","geometry":{"type":"Point","coordinates":[-81.600715,41.119197]}},{"properties":{"city":"Akron","geo_score":0.714,"id":"a6aw5g6vkx1g","address":"333, E Caston Road","geo_precision":"street","state":"Ohio"},"type":"Feature","geometry":{"type":"Point","coordinates":[-81.530817,40.95722]}},{"properties":{"city":"Akron","geo_score":0.714,"id":"a6aw5gbthis5","address":"333, S Main St","geo_precision":"street","state":"Ohio"},"type":"Feature","geometry":{"type":"Point","coordinates":[-81.517873,41.082629]}},{"properties":{"city":null,"geo_score":0.0,"id":"a6aw5g4o5564","address":"3490, Ridgewood Rd","geo_precision":"unmatched","state":"Ohio"},"type":"Feature","geometry":null},{"properties":{"city":"Akron","geo_score":0.639,"id":"a6aw5geha6ah","address":"355, E Cuyahoga Falls","geo_precision":"street","state":"Ohio"},"type":"Feature","geometry":{"type":"Point","coordinates":[-81.514963,41.104634]}},{"properties":{"city":"Copley","geo_score":0.857,"id":"a6aw5g9syckt","address":"3584, Ridgewood Rd","geo_precision":"street","state":"Ohio"},"type":"Feature","geometry":{"type":"Point","coordinates":[-81.643857,41.111459]}},{"properties":{"city":"Akron","geo_score":0.636,"id":"a6aw5gh4h852","address":"37, N Broadway","geo_precision":"street","state":"Ohio"},"type":"Feature","geometry":{"type":"Point","coordinates":[-81.513395,41.08694]}},{"properties":{"city":"Akron","geo_score":0.714,"id":"a6aw5gj1z2ht","address":"371, Merriman Rd","geo_precision":"street","state":"Ohio"},"type":"Feature","geometry":{"type":"Point","coordinates":[-81.536127,41.094243]}},{"properties":{"city":"Cuyahoga Falls","geo_score":0.714,"id":"a6aw5gh8krpb","address":"388, W Bath Rd","geo_precision":"street","state":"Ohio"},"type":"Feature","geometry":{"type":"Point","coordinates":[-81.513436,41.158533]}},{"properties":{"city":"Tallmadge","geo_score":0.857,"id":"a6aw5g7ykfbd","address":"389, Commerce St","geo_precision":"street","state":"Ohio"},"type":"Feature","geometry":{"type":"Point","coordinates":[-81.45572,41.099742]}},{"properties":{"city":"Akron","geo_score":0.714,"id":"a6aw5gbvloir","address":"391, Mull Ave","geo_precision":"street","state":"Ohio"},"type":"Feature","geometry":{"type":"Point","coordinates":[-81.552894,41.09963]}},{"properties":{"city":"Stow","geo_score":0.735,"id":"a6aw5gcprqu7","address":"3925, Baird St","geo_precision":"street","state":"Ohio"},"type":"Feature","geometry":{"type":"Point","coordinates":[-81.417417,41.158225]}},{"properties":{"city":"Akron","geo_score":0.636,"id":"a6aw5gjosn0s","address":"419, Arlington","geo_precision":"street","state":"Ohio"},"type":"Feature","geometry":{"type":"Point","coordinates":[-81.491933,41.068135]}},{"properties":{"city":"Akron","geo_score":0.714,"id":"a6aw5g65l7qk","address":"420, Kenmore blvd","geo_precision":"street","state":"Ohio"},"type":"Feature","geometry":{"type":"Point","coordinates":[-81.538506,41.052113]}},{"properties":{"city":"Akron","geo_score":0.714,"id":"a6aw5g6ob8me","address":"474, Eastland Ave","geo_precision":"street","state":"Ohio"},"type":"Feature","geometry":{"type":"Point","coordinates":[-81.482863,41.073308]}},{"properties":{"city":"Akron","geo_score":0.714,"id":"a6aw5gj2c2fr","address":"474, Hampshire Rd","geo_precision":"street","state":"Ohio"},"type":"Feature","geometry":{"type":"Point","coordinates":[-81.589002,41.118171]}},{"properties":{"city":"Akron","geo_score":0.714,"id":"a6aw5g8qwumj","address":"4851, Massillon Rd","geo_precision":"street","state":"Ohio"},"type":"Feature","geometry":{"type":"Point","coordinates":[-81.462645,41.061153]}},{"properties":{"city":"Akron","geo_score":0.629,"id":"a6aw5gi2aywd","address":"487, Aqueduct Rd","geo_precision":"street","state":"Ohio"},"type":"Feature","geometry":{"type":"Point","coordinates":[-81.530317,41.091014]}},{"properties":{"city":"Cuyahoga Falls","geo_score":0.514,"id":"a6aw5gcvo2ob","address":"4th &amp; Broad Blvd","geo_precision":"street","state":"Ohio"},"type":"Feature","geometry":{"type":"Point","coordinates":[-81.488529,41.129042]}},{"properties":{"city":"Green","geo_score":0.714,"id":"a6aw5gdjxkg0","address":"5091, Massillon Road","geo_precision":"street","state":"Ohio"},"type":"Feature","geometry":{"type":"Point","coordinates":[-81.909478,40.562944]}},{"properties":{"city":"Akron","geo_score":0.714,"id":"a6aw5gcnw1g1","address":"513, N Portage Path","geo_precision":"street","state":"Ohio"},"type":"Feature","geometry":{"type":"Point","coordinates":[-81.545504,41.09775]}},{"properties":{"city":"Akron","geo_score":0.619,"id":"a6aw5gewzhip","address":"521, Herbert","geo_precision":"street","state":"Ohio"},"type":"Feature","geometry":{"type":"Point","coordinates":[-81.451837,41.050607]}},{"properties":{"city":"Akron","geo_score":0.714,"id":"a6aw5gg57l45","address":"525, Dan St","geo_precision":"street","state":"Ohio"},"type":"Feature","geometry":{"type":"Point","coordinates":[-81.493102,41.087863]}},{"properties":{"city":"Cuyahoga Falls","geo_score":0.857,"id":"a6aw5gijhvxn","address":"536, Grove Avenue","geo_precision":"street","state":"Ohio"},"type":"Feature","geometry":{"type":"Point","coordinates":[-81.480708,41.151581]}},{"properties":{"city":"Akron","geo_score":0.714,"id":"a6aw5g8en6j4","address":"585, Massillon Rd.","geo_precision":"street","state":"Ohio"},"type":"Feature","geometry":{"type":"Point","coordinates":[-81.462645,41.061153]}},{"properties":{"city":"Clinton","geo_score":0.5,"id":"a6aw5gbr7gw8","address":"5964, S. Main St.","geo_precision":"street","state":"Ohio"},"type":"Feature","geometry":{"type":"Point","coordinates":[-81.63214,40.928235]}},{"properties":{"city":"Cuyahoga Falls","geo_score":0.857,"id":"a6aw5gckkhc9","address":"614, Graham Rd.","geo_precision":"street","state":"Ohio"},"type":"Feature","geometry":{"type":"Point","coordinates":[-81.4937,41.157878]}},{"properties":{"city":"Cuyahoga Falls","geo_score":0.857,"id":"a6aw5gcbut6r","address":"614, Graham Rd.","geo_precision":"street","state":"Ohio"},"type":"Feature","geometry":{"type":"Point","coordinates":[-81.4937,41.157878]}},{"properties":{"city":"Cuyahoga Falls","geo_score":0.857,"id":"a6aw5getbk5y","address":"614, Graham Rd.","geo_precision":"street","state":"Ohio"},"type":"Feature","geometry":{"type":"Point","coordinates":[-81.4937,41.157878]}},{"properties":{"city":"Akron","geo_score":0.714,"id":"a6aw5ga6b8di","address":"618, Copley Rd.","geo_precision":"street","state":"Ohio"},"type":"Feature","geometry":{"type":"Point","coordinates":[-81.542256,41.084571]}},{"properties":{"city":"Akron","geo_score":0.636,"id":"a6aw5gddxkmz","address":"67, N Pershing St","geo_precision":"street","state":"Ohio"},"type":"Feature","geometry":{"type":"Point","coordinates":[-81.506239,41.072904]}},{"properties":{"city":"Akron","geo_score":0.607,"id":"a6aw5g6m74g9","address":"67, South Maple","geo_precision":"street","state":"Ohio"},"type":"Feature","geometry":{"type":"Point","coordinates":[-81.523996,41.087271]}},{"properties":{"city":"Akron","geo_score":0.714,"id":"a6aw5gievn51","address":"674, N Main St","geo_precision":"street","state":"Ohio"},"type":"Feature","geometry":{"type":"Point","coordinates":[-81.512543,41.095838]}},{"properties":{"city":"Bath","geo_score":0.714,"id":"a6aw5g4mpgiz","address":"675, Springwater DR.","geo_precision":"street","state":"Ohio"},"type":"Feature","geometry":{"type":"Point","coordinates":[-83.71694,41.669337]}},{"properties":{"city":"Akron","geo_score":0.446,"id":"a6aw5g7y25xb","address":"686, North St","geo_precision":"street","state":"Ohio"},"type":"Feature","geometry":{"type":"Point","coordinates":[-81.518039,41.091112]}},{"properties":{"city":"Akron","geo_score":0.714,"id":"a6aw5gd13ubz","address":"697, W Market Street","geo_precision":"street","state":"Ohio"},"type":"Feature","geometry":{"type":"Point","coordinates":[-81.520747,41.086675]}},{"properties":{"city":"Akron","geo_score":0.714,"id":"a6aw5g9hwnwp","address":"720, Wolf Ledges","geo_precision":"street","state":"Ohio"},"type":"Feature","geometry":{"type":"Point","coordinates":[-81.515816,41.077788]}},{"properties":{"city":"Akron","geo_score":0.714,"id":"a6aw5g7d47xx","address":"727, Grant St","geo_precision":"street","state":"Ohio"},"type":"Feature","geometry":{"type":"Point","coordinates":[-81.517091,41.071785]}},{"properties":{"city":"Akron","geo_score":0.333,"id":"a6aw5g9pzh99","address":"730, W. Market","geo_precision":"street","state":"Ohio"},"type":"Feature","geometry":{"type":"Point","coordinates":[-81.520747,41.086675]}},{"properties":{"city":"Akron","geo_score":0.667,"id":"a6aw5g9mxgcs","address":"789, Market St","geo_precision":"street","state":"Ohio"},"type":"Feature","geometry":{"type":"Point","coordinates":[-81.515607,41.084826]}},{"properties":{"city":"Akron","geo_score":0.325,"id":"a6aw5gbuy1ld","address":"800, S. Hawkins Rd","geo_precision":"street","state":"Ohio"},"type":"Feature","geometry":{"type":"Point","coordinates":[-81.569235,41.109559]}},{"properties":{"city":"Akron","geo_score":0.321,"id":"a6aw5giqbl1o","address":"831, N. Portage Path","geo_precision":"street","state":"Ohio"},"type":"Feature","geometry":{"type":"Point","coordinates":[-81.545504,41.09775]}},{"properties":{"city":"Tallmadge","geo_score":0.673,"id":"a6aw5g5m92qg","address":"835, South East Ave","geo_precision":"street","state":"Ohio"},"type":"Feature","geometry":{"type":"Point","coordinates":[-81.440305,41.101406]}},{"properties":{"city":"Copley","geo_score":0.857,"id":"a6aw5g72l1i6","address":"842, South Hametown Rd","geo_precision":"street","state":"Ohio"},"type":"Feature","geometry":{"type":"Point","coordinates":[-81.667701,41.135954]}},{"properties":{"city":"akron","geo_score":0.714,"id":"a6aw5gglym84","address":"906, Delia Ave","geo_precision":"street","state":"Ohio"},"type":"Feature","geometry":{"type":"Point","coordinates":[-81.546628,41.092287]}},{"properties":{"city":"Akron","geo_score":0.714,"id":"a6aw5ghxn3q9","address":"961, White Pond Dr","geo_precision":"street","state":"Ohio"},"type":"Feature","geometry":{"type":"Point","coordinates":[-81.58476,41.112381]}},{"properties":{"city":"Akron","geo_score":0.714,"id":"a6aw5g3kkngw","address":"971, Merriman Rd","geo_precision":"street","state":"Ohio"},"type":"Feature","geometry":{"type":"Point","coordinates":[-81.536127,41.094243]}},{"properties":{"city":"Akron","geo_score":0.714,"id":"a6aw5g7fiqfz","address":"996, Newport Road","geo_precision":"street","state":"Ohio"},"type":"Feature","geometry":{"type":"Point","coordinates":[-81.545023,41.119761]}},{"properties":{"city":"Cuyahoga Falls","geo_score":0.0,"id":"a6aw5ga7pgz6","address":"Bailey and Hudson Dr.","geo_precision":"unmatched","state":null},"type":"Feature","geometry":null},{"properties":{"city":"Akron","geo_score":0.607,"id":"a6aw5gc7xtjd","address":"Copley &amp; Briarwood","geo_precision":"street","state":"Ohio"},"type":"Feature","geometry":{"type":"Point","coordinates":[-81.542256,41.084571]}},{"properties":{"city":"Akron","geo_score":0.434,"id":"a6aw5g6s3104","address":"Corner of Diagonal and Madison","geo_precision":"street","state":"Ohio"},"type":"Feature","geometry":{"type":"Point","coordinates":[-81.542256,41.084571]}},{"properties":{"city":"Akron","geo_score":0.325,"id":"a6aw5gez1no4","address":"Corner of Superior and V. Odom","geo_precision":"street","state":"Ohio"},"type":"Feature","geometry":{"type":"Point","coordinates":[-81.559238,41.070071]}},{"properties":{"city":"Akron","geo_score":0.714,"id":"a6aw5gjwpixw","address":"E Market St","geo_precision":"street","state":"Ohio"},"type":"Feature","geometry":{"type":"Point","coordinates":[-81.516798,41.085127]}},{"properties":{"city":"Akron","geo_score":0.714,"id":"a6aw5g6bebpy","address":"Grant Street","geo_precision":"street","state":"Ohio"},"type":"Feature","geometry":{"type":"Point","coordinates":[-81.517091,41.071785]}},{"properties":{"city":"Akron","geo_score":0.339,"id":"a6aw5gequxy9","address":"N.E. corner of Howard &amp; Glenwood","geo_precision":"street","state":"Ohio"},"type":"Feature","geometry":{"type":"Point","coordinates":[-81.44514,41.004866]}},{"properties":{"city":"Akron","geo_score":0.607,"id":"a6aw5g7n0kj9","address":"Newton &amp; Darrow","geo_precision":"street","state":"Ohio"},"type":"Feature","geometry":{"type":"Point","coordinates":[-81.482863,41.073308]}},{"properties":{"city":"Akron","geo_score":0.481,"id":"a6aw5gazle2r","address":"Ohio Savings???","geo_precision":"street","state":"Ohio"},"type":"Feature","geometry":{"type":"Point","coordinates":[-81.502592,41.083327]}},{"properties":{"city":"Akron","geo_score":0.714,"id":"a6aw5g8e1mwf","address":"Sand Run Rd.","geo_precision":"street","state":"Ohio"},"type":"Feature","geometry":{"type":"Point","coordinates":[-81.587685,41.117567]}},{"properties":{"city":"Akron","geo_score":0.714,"id":"a6aw5g4yford","address":"W Market Street","geo_precision":"street","state":"Ohio"},"type":"Feature","geometry":{"type":"Point","coordinates":[-81.520747,41.086675]}},{"properties":{"city":"Akron","geo_score":0.636,"id":"a6aw5g9adqmb","address":"White Pond","geo_precision":"street","state":"Ohio"},"type":"Feature","geometry":{"type":"Point","coordinates":[-81.58476,41.112381]}},{"properties":{"city":"Akron","geo_score":0.648,"id":"a6aw5gcdaefm","address":"Yellow Creek. Right off Sand Run","geo_precision":"street","state":"Ohio"},"type":"Feature","geometry":{"type":"Point","coordinates":[-81.581459,41.161972]}},{"properties":{"city":"Akron","geo_score":0.434,"id":"a6aw5g3xhjsq","address":"corner of thornton and Lacrois","geo_precision":"street","state":"Ohio"},"type":"Feature","geometry":{"type":"Point","coordinates":[-81.526224,41.065973]}}],"is_temporal":false,"author":{"url":"","metadata":"","contact_name":"","contact_address":"","source":"","contact_phone":""},"source":"","pagination":{"sort":null,"start":0,"total":100,"limit":1000000},"state":"complete","tags":"","published":"2010-09-15T16:00:00Z","id":63710}