{"type":"FeatureCollection","data_type":"Dataset","url_type":null,"permissions":[{"permissions":{"download":true,"view":true},"group_id":"everyone"}],"classification":null,"title":"Scores 99-90 94124 ","count":80,"stream_id":64475,"contributor":{"url":"http://geocommons.com/users/16252","name":"lollymr"},"data_attributes":null,"calculation_params":null,"icon_link":null,"link":"http://geocommons.com/overlays/64475.json","extent":[-122.419,37.7129,-122.377,37.7749],"geometry_types":["point"],"unique_name":null,"name":"Scores 99-90 94124 ","feature_count":80,"description":"","next_feature":null,"is_raster":false,"short_classification":"Y","stats":{"inspection score":{"max":98,"mean":94.975,"variance":6.30316455696204,"stdev":2.51061039529475,"min":90,"median":96}},"features":[{"properties":{"restaurant":"7-ELEVEN, STORE 2366-21389F","inspection date":"12/30/09","id":"a64ec1nwdo2l","address":"2200 BAYSHORE BLVD","inspection score":96},"type":"Feature","geometry":{"type":"Point","coordinates":[-122.4067991,37.7404689]}},{"properties":{"restaurant":"B &amp; J QUARTER POUNDER BURGERS","inspection date":"2/4/10","id":"a64ec1ufumyz","address":"6202 03RD ST","inspection score":90},"type":"Feature","geometry":{"type":"Point","coordinates":[-122.4194155,37.7749295]}},{"properties":{"restaurant":"BAKERY SAN MARCOS","inspection date":"5/20/10","id":"a64ec1udj6sh","address":"4524 03RD ST","inspection score":90},"type":"Feature","geometry":{"type":"Point","coordinates":[-122.4194155,37.7749295]}},{"properties":{"restaurant":"BAYVIEW LIQUORS","inspection date":"2/3/10","id":"a64ec1my75dv","address":"4700 03RD ST","inspection score":94},"type":"Feature","geometry":{"type":"Point","coordinates":[-122.4194155,37.7749295]}},{"properties":{"restaurant":"BBC CAFE","inspection date":"11/5/09","id":"a64ec1x01znu","address":"1485 BAYSHORE BLVD","inspection score":96},"type":"Feature","geometry":{"type":"Point","coordinates":[-122.4045816,37.7328654]}},{"properties":{"restaurant":"BURGER KING #5830","inspection date":"11/4/09","id":"a64ec1mrb0u1","address":"245 BAYSHORE BLVD","inspection score":90},"type":"Feature","geometry":{"type":"Point","coordinates":[-122.404157,37.743907]}},{"properties":{"restaurant":"CONSTANS GROCERY","inspection date":"12/14/09","id":"a64ec1k1nsby","address":"4124 03RD ST","inspection score":92},"type":"Feature","geometry":{"type":"Point","coordinates":[-122.4194155,37.7749295]}},{"properties":{"restaurant":"CP - BEER CARTS","inspection date":"11/8/09","id":"a64ec1r6c01f","address":"CANDLESTICK PK UL, SEC. 53-55","inspection score":96},"type":"Feature","geometry":{"type":"Point","coordinates":[-122.4194155,37.7749295]}},{"properties":{"restaurant":"CP - BEER CARTS , L34","inspection date":"11/8/09","id":"a64ec1p74zao","address":"CANDLESTICK PARK,  L34","inspection score":98},"type":"Feature","geometry":{"type":"Point","coordinates":[-122.3865494,37.7136681]}},{"properties":{"restaurant":"CP - BEER CARTS , UL 35-37","inspection date":"11/8/09","id":"a64ec1khwlzk","address":"CANDLESTICK PARK, UL  35-37","inspection score":98},"type":"Feature","geometry":{"type":"Point","coordinates":[-122.3865494,37.7136681]}},{"properties":{"restaurant":"CP - BEER CARTS, MN LV, SEC.43-45","inspection date":"11/8/09","id":"a64ec1mgfdxh","address":"CANDLESTICK PARK","inspection score":98},"type":"Feature","geometry":{"type":"Point","coordinates":[-122.3851332,37.7129103]}},{"properties":{"restaurant":"CP - GRILL CART #1, (L PAD)","inspection date":"12/14/09","id":"a64ec1qdzlt9","address":"CANDLESTICK PARK, L19-21","inspection score":94},"type":"Feature","geometry":{"type":"Point","coordinates":[-122.3865494,37.7136681]}},{"properties":{"restaurant":"CP - GRILL CART #2, (PC 43)","inspection date":"12/14/09","id":"a64ec1wgchv9","address":"CANDLESTICK PARK, L43-45","inspection score":92},"type":"Feature","geometry":{"type":"Point","coordinates":[-122.3865494,37.7136681]}},{"properties":{"restaurant":"CP - GRILL CART #3, (PC 37)","inspection date":"11/8/09","id":"a64ec1t2c9ky","address":"CANDLESTICK PARK, UL 37-39","inspection score":94},"type":"Feature","geometry":{"type":"Point","coordinates":[-122.4194155,37.7749295]}},{"properties":{"restaurant":"CP - GRILL CART #4, (PC 42)","inspection date":"12/14/09","id":"a64ec1qituk3","address":"CANDLESTICK PARK, UL 42-44","inspection score":98},"type":"Feature","geometry":{"type":"Point","coordinates":[-122.3865494,37.7136681]}},{"properties":{"restaurant":"CP - GRILL CART #5, (PC 55)","inspection date":"11/8/09","id":"a64ec1q97lw9","address":"CANDLESTICK PARK, UL 53-55","inspection score":96},"type":"Feature","geometry":{"type":"Point","coordinates":[-122.3865494,37.7136681]}},{"properties":{"restaurant":"CP - HOFBRAU, MEZZ LV","inspection date":"12/14/09","id":"a64ec1wx5zbh","address":"CANDLESTICK PARK","inspection score":98},"type":"Feature","geometry":{"type":"Point","coordinates":[-122.3851332,37.7129103]}},{"properties":{"restaurant":"CP - ROOM 302","inspection date":"12/14/09","id":"a64ec1nm8u8g","address":"CANDLESTICK PARK  302","inspection score":98},"type":"Feature","geometry":{"type":"Point","coordinates":[-122.3865494,37.7136681]}},{"properties":{"restaurant":"CP - ROOM 307","inspection date":"12/14/09","id":"a64ec1hoo8wo","address":"CANDLESTICK PARK  307","inspection score":94},"type":"Feature","geometry":{"type":"Point","coordinates":[-122.3865494,37.7136681]}},{"properties":{"restaurant":"CP - ROOM 317","inspection date":"12/14/09","id":"a64ec1smn4ks","address":"CANDLESTICK PARK  317","inspection score":98},"type":"Feature","geometry":{"type":"Point","coordinates":[-122.3865494,37.7136681]}},{"properties":{"restaurant":"CP - ROOM 318","inspection date":"12/14/09","id":"a64ec1wgky97","address":"CANDLESTICK PARK  318","inspection score":92},"type":"Feature","geometry":{"type":"Point","coordinates":[-122.3865494,37.7136681]}},{"properties":{"restaurant":"CP - ROOM 323","inspection date":"12/14/09","id":"a64ec1qiomt7","address":"CANDLESTICK PARK  323","inspection score":98},"type":"Feature","geometry":{"type":"Point","coordinates":[-122.3865494,37.7136681]}},{"properties":{"restaurant":"CP - ROOM 324","inspection date":"12/14/09","id":"a64ec1svvgcr","address":"CANDLESTICK PARK  324","inspection score":96},"type":"Feature","geometry":{"type":"Point","coordinates":[-122.3865494,37.7136681]}},{"properties":{"restaurant":"CP - ROOM 325","inspection date":"12/14/09","id":"a64ec1tbyyvm","address":"CANDLESTICK PARK  325","inspection score":92},"type":"Feature","geometry":{"type":"Point","coordinates":[-122.3865494,37.7136681]}},{"properties":{"restaurant":"CP - ROOM 335","inspection date":"12/14/09","id":"a64ec1ucfo84","address":"CANDLESTICK PARK  335","inspection score":92},"type":"Feature","geometry":{"type":"Point","coordinates":[-122.3865494,37.7136681]}},{"properties":{"restaurant":"CP - ROOM 346-H","inspection date":"12/14/09","id":"a64ec1s5at3w","address":"CANDLESTICK PARK  346H","inspection score":96},"type":"Feature","geometry":{"type":"Point","coordinates":[-122.3865494,37.7136681]}},{"properties":{"restaurant":"CP - ROOM 360 SPECIALTY STAND","inspection date":"12/14/09","id":"a64ec1rx42br","address":"CANDLESTICK PARK  360","inspection score":93},"type":"Feature","geometry":{"type":"Point","coordinates":[-122.3865494,37.7136681]}},{"properties":{"restaurant":"CP - ROOM 501","inspection date":"12/14/09","id":"a64ec1s30r3n","address":"CANDLESTICK PARK  501","inspection score":98},"type":"Feature","geometry":{"type":"Point","coordinates":[-122.3865494,37.7136681]}},{"properties":{"restaurant":"CP - ROOM 509","inspection date":"12/14/09","id":"a64ec1xhbeju","address":"CANDLESTICK PK","inspection score":96},"type":"Feature","geometry":{"type":"Point","coordinates":[-122.3851332,37.7129103]}},{"properties":{"restaurant":"CP - ROOM 513","inspection date":"12/14/09","id":"a64ec1jsqt23","address":"CANDLESTICK PK","inspection score":98},"type":"Feature","geometry":{"type":"Point","coordinates":[-122.3851332,37.7129103]}},{"properties":{"restaurant":"CP - ROOM 514","inspection date":"12/14/09","id":"a64ec1mfnygd","address":"CANDLESTICK PARK  514","inspection score":96},"type":"Feature","geometry":{"type":"Point","coordinates":[-122.3865494,37.7136681]}},{"properties":{"restaurant":"CP - ROOM 517","inspection date":"12/14/09","id":"a64ec1nwhkwa","address":"CANDLESTICK PARK  517","inspection score":94},"type":"Feature","geometry":{"type":"Point","coordinates":[-122.3865494,37.7136681]}},{"properties":{"restaurant":"CP - ROOM 528","inspection date":"12/14/09","id":"a64ec1jb15l3","address":"CANDLESTICK PARK  528","inspection score":96},"type":"Feature","geometry":{"type":"Point","coordinates":[-122.3865494,37.7136681]}},{"properties":{"restaurant":"CP - ROOM 530","inspection date":"12/14/09","id":"a64ec1lbchkf","address":"CANDLESTICK PARK  530","inspection score":98},"type":"Feature","geometry":{"type":"Point","coordinates":[-122.3865494,37.7136681]}},{"properties":{"restaurant":"CP - ROOM A1 SPECIALTY STAND","inspection date":"12/14/09","id":"a64ec1ji6j2g","address":"CANDLESTICK PK","inspection score":98},"type":"Feature","geometry":{"type":"Point","coordinates":[-122.3851332,37.7129103]}},{"properties":{"restaurant":"CP - ROOM C1 SPECIALTY STAND","inspection date":"12/14/09","id":"a64ec1tfguou","address":"CANDLESTICK PARK  C1","inspection score":94},"type":"Feature","geometry":{"type":"Point","coordinates":[-122.3865494,37.7136681]}},{"properties":{"restaurant":"CP - ROOM C3 SPECIALTY STAND","inspection date":"12/14/09","id":"a64ec1hnftqd","address":"CANDLESTICK PARK  C3","inspection score":98},"type":"Feature","geometry":{"type":"Point","coordinates":[-122.3865494,37.7136681]}},{"properties":{"restaurant":"CP - ROOM C40","inspection date":"12/14/09","id":"a64ec1kigp1b","address":"CANDLESTICK PARK  C40","inspection score":94},"type":"Feature","geometry":{"type":"Point","coordinates":[-122.3865494,37.7136681]}},{"properties":{"restaurant":"CP - ROOM D1-D2, STINKING ROSE","inspection date":"12/14/09","id":"a64ec1r4uet7","address":"CANDLESTICK PARK  D1-2","inspection score":96},"type":"Feature","geometry":{"type":"Point","coordinates":[-122.3865494,37.7136681]}},{"properties":{"restaurant":"CP - ROOM D16","inspection date":"12/14/09","id":"a64ec1lmifm5","address":"CANDLESTICK PARK  D16","inspection score":90},"type":"Feature","geometry":{"type":"Point","coordinates":[-122.3865494,37.7136681]}},{"properties":{"restaurant":"CP - ROOM D20 COMMISSARY","inspection date":"11/8/09","id":"a64ec1vv8o1v","address":"CANDLESTICK PARK  D20","inspection score":98},"type":"Feature","geometry":{"type":"Point","coordinates":[-122.3865494,37.7136681]}},{"properties":{"restaurant":"CP - ROOM D3","inspection date":"12/14/09","id":"a64ec1s2j2dk","address":"CANDLESTICK PARK  D3","inspection score":96},"type":"Feature","geometry":{"type":"Point","coordinates":[-122.3865494,37.7136681]}},{"properties":{"restaurant":"CP - ROOM E12","inspection date":"12/14/09","id":"a64ec1hjsln4","address":"CANDLESTICK PARK  E12","inspection score":98},"type":"Feature","geometry":{"type":"Point","coordinates":[-122.3865494,37.7136681]}},{"properties":{"restaurant":"CP - ROOM E16","inspection date":"12/14/09","id":"a64ec1pmp80o","address":"CANDLESTICK PARK  E16","inspection score":96},"type":"Feature","geometry":{"type":"Point","coordinates":[-122.3865494,37.7136681]}},{"properties":{"restaurant":"CP - ROOM E20","inspection date":"12/14/09","id":"a64ec1p1jmbp","address":"CANDLESTICK PARK  E20","inspection score":92},"type":"Feature","geometry":{"type":"Point","coordinates":[-122.3865494,37.7136681]}},{"properties":{"restaurant":"CP - ROOM E28","inspection date":"12/14/09","id":"a64ec1n5yfbf","address":"CANDLESTICK PARK  E28","inspection score":94},"type":"Feature","geometry":{"type":"Point","coordinates":[-122.3865494,37.7136681]}},{"properties":{"restaurant":"CP - THE STADIUM CLUB","inspection date":"12/14/09","id":"a64ec1vb7634","address":"CANDLESTICK PARK","inspection score":96},"type":"Feature","geometry":{"type":"Point","coordinates":[-122.3851332,37.7129103]}},{"properties":{"restaurant":"CP - TULLY'S COFFEE, L19","inspection date":"12/14/09","id":"a64ec1vqdf8x","address":"CANDLESTICK PARK  L19","inspection score":96},"type":"Feature","geometry":{"type":"Point","coordinates":[-122.3865494,37.7136681]}},{"properties":{"restaurant":"DINING IN, LLC","inspection date":"11/20/09","id":"a64ec1rh032e","address":"425 BARNEVELD AVE","inspection score":92},"type":"Feature","geometry":{"type":"Point","coordinates":[-122.403799,37.740771]}},{"properties":{"restaurant":"DOMINO'S PIZZA","inspection date":"3/16/10","id":"a64ec1mepq01","address":"320 BAYSHORE BLVD #B","inspection score":94},"type":"Feature","geometry":{"type":"Point","coordinates":[-122.4056457,37.7426846]}},{"properties":{"restaurant":"DOUBLE ROCK GROCERY","inspection date":"5/14/10","id":"a64ec1ll55xy","address":"2830 INGALLS ST","inspection score":96},"type":"Feature","geometry":{"type":"Point","coordinates":[-122.391493,37.7210932]}},{"properties":{"restaurant":"DREW ELEMENTARY SCHOOL","inspection date":"4/6/10","id":"a64ec1q2hnkm","address":"50 POMONA AVE","inspection score":96},"type":"Feature","geometry":{"type":"Point","coordinates":[-122.3935715,37.7318472]}},{"properties":{"restaurant":"ECLECTIC COOKERY, INC.","inspection date":"3/10/10","id":"a64ec1ll7wse","address":"HUNTER'S POINT BLDG 110","inspection score":92},"type":"Feature","geometry":{"type":"Point","coordinates":[-122.3810959,37.736036]}},{"properties":{"restaurant":"FRESH &amp; NATURAL 75 LLC","inspection date":"12/29/09","id":"a64ec1t9i4eb","address":"1300 EVANS AVE","inspection score":94},"type":"Feature","geometry":{"type":"Point","coordinates":[-122.3827973,37.7399331]}},{"properties":{"restaurant":"GOLDEN CITY INN","inspection date":"12/24/09","id":"a64ec1ii1yvs","address":"5131 03RD ST","inspection score":94},"type":"Feature","geometry":{"type":"Point","coordinates":[-122.4194155,37.7749295]}},{"properties":{"restaurant":"GRAND 7 LIQUOR &amp; DELI","inspection date":"12/10/09","id":"a64ec1h2pw1m","address":"1740A CESAR CHAVEZ ST","inspection score":90},"type":"Feature","geometry":{"type":"Point","coordinates":[-122.3939535,37.7499478]}},{"properties":{"restaurant":"HAPPY DONUTS","inspection date":"3/23/10","id":"a64ec1pyfm31","address":"2600 BAYSHORE BLVD","inspection score":96},"type":"Feature","geometry":{"type":"Point","coordinates":[-122.4067991,37.7404689]}},{"properties":{"restaurant":"HOL N JAM LEMONADE STAND #1","inspection date":"12/14/09","id":"a64ec1h7bn6d","address":"CANDLESTICK PK MAIN LEVEL, SEC. 11-13","inspection score":94},"type":"Feature","geometry":{"type":"Point","coordinates":[-122.4194155,37.7749295]}},{"properties":{"restaurant":"ICHI CATERING","inspection date":"3/5/10","id":"a64ec1mbfz71","address":"5919 03RD ST","inspection score":98},"type":"Feature","geometry":{"type":"Point","coordinates":[-122.4194155,37.7749295]}},{"properties":{"restaurant":"JACK IN THE BOX #556","inspection date":"3/16/10","id":"a64ec1qtfgrc","address":"366 BAYSHORE BLVD","inspection score":98},"type":"Feature","geometry":{"type":"Point","coordinates":[-122.4064819,37.7415328]}},{"properties":{"restaurant":"JAVALENCIA CAFE","inspection date":"12/10/09","id":"a64ec1s25dsy","address":"3900 03RD ST","inspection score":98},"type":"Feature","geometry":{"type":"Point","coordinates":[-122.4194155,37.7749295]}},{"properties":{"restaurant":"JR. SEAFOOD LLC","inspection date":"8/6/10","id":"a64ec1ov06d7","address":"310 BAYSHORE BLVD","inspection score":94},"type":"Feature","geometry":{"type":"Point","coordinates":[-122.405785,37.742856]}},{"properties":{"restaurant":"KENNEDY'S MARKET &amp; DELI","inspection date":"1/21/10","id":"a64ec1l6gbis","address":"4600 03RD ST","inspection score":90},"type":"Feature","geometry":{"type":"Point","coordinates":[-122.4194155,37.7749295]}},{"properties":{"restaurant":"KENTUCKY FRIED CHICKEN","inspection date":"5/6/10","id":"a64ec1n55l2h","address":"1610 JERROLD AVE","inspection score":94},"type":"Feature","geometry":{"type":"Point","coordinates":[-122.389501,37.739228]}},{"properties":{"restaurant":"LA MICHOACANA TAQUERIA","inspection date":"7/22/10","id":"a64ec1wuihnl","address":"300A BAYSHORE BLVD","inspection score":96},"type":"Feature","geometry":{"type":"Point","coordinates":[-122.4053281,37.7431204]}},{"properties":{"restaurant":"LAS ISLETAS","inspection date":"5/20/10","id":"a64ec1w7dv9m","address":"4508 03RD ST","inspection score":94},"type":"Feature","geometry":{"type":"Point","coordinates":[-122.4194155,37.7749295]}},{"properties":{"restaurant":"MAMA PIZZA &amp; PAKISTAN INDIA FOOD","inspection date":"2/19/10","id":"a64ec1ws1acg","address":"5155 03RD ST","inspection score":94},"type":"Feature","geometry":{"type":"Point","coordinates":[-122.4194155,37.7749295]}},{"properties":{"restaurant":"MCDONALDS","inspection date":"2/4/10","id":"a64ec1tn287n","address":"5411 03RD ST","inspection score":91},"type":"Feature","geometry":{"type":"Point","coordinates":[-122.4194155,37.7749295]}},{"properties":{"restaurant":"MIKE MARKET","inspection date":"4/8/10","id":"a64ec1muro61","address":"2200 SILVER AVE","inspection score":98},"type":"Feature","geometry":{"type":"Point","coordinates":[-122.3985503,37.7364273]}},{"properties":{"restaurant":"OLD CLAM HOUSE, THE","inspection date":"11/5/09","id":"a64ec1jiezb7","address":"299 BAYSHORE BLVD","inspection score":90},"type":"Feature","geometry":{"type":"Point","coordinates":[-122.404851,37.743062]}},{"properties":{"restaurant":"PICCOLO PETES","inspection date":"4/22/10","id":"a64ec1wsitcd","address":"2155 BAYSHORE BLVD","inspection score":96},"type":"Feature","geometry":{"type":"Point","coordinates":[-122.4045816,37.7328654]}},{"properties":{"restaurant":"PITTMAN'S BAR B QUE #2","inspection date":"2/17/10","id":"a64ec1htofjs","address":"5130 03RD ST","inspection score":94},"type":"Feature","geometry":{"type":"Point","coordinates":[-122.4194155,37.7749295]}},{"properties":{"restaurant":"SPEAKEASY ALES &amp; LAGERS","inspection date":"9/2/10","id":"a64ec1jl84xz","address":"1195 EVANS AVE","inspection score":96},"type":"Feature","geometry":{"type":"Point","coordinates":[-122.380943,37.7386577]}},{"properties":{"restaurant":"STAR MARKET","inspection date":"1/14/10","id":"a64ec1kcwut0","address":"4400 03RD ST","inspection score":92},"type":"Feature","geometry":{"type":"Point","coordinates":[-122.4194155,37.7749295]}},{"properties":{"restaurant":"SUGAR BOWL RESTAURANT","inspection date":"11/20/09","id":"a64ec1np6hfq","address":"480 TOLAND ST","inspection score":96},"type":"Feature","geometry":{"type":"Point","coordinates":[-122.3986283,37.7444499]}},{"properties":{"restaurant":"TACOS EL PRIMO CATERING TRUCK","inspection date":"5/14/10","id":"a64ec1stpl3o","address":"2225  JENNINGS ST","inspection score":96},"type":"Feature","geometry":{"type":"Point","coordinates":[-122.3893629,37.72625]}},{"properties":{"restaurant":"THE PLANT CAFE ORGANIC","inspection date":"1/28/10","id":"a64ec1wmsskv","address":"PIER 3  SUITE 108","inspection score":98},"type":"Feature","geometry":{"type":"Point","coordinates":[-122.376801,37.740306]}},{"properties":{"restaurant":"TOP'S CAFETERIA","inspection date":"11/20/09","id":"a64ec1mrbykj","address":"66 DORMAN AVE","inspection score":94},"type":"Feature","geometry":{"type":"Point","coordinates":[-122.4036736,37.7394633]}},{"properties":{"restaurant":"TORINO MARKET","inspection date":"2/3/10","id":"a64ec1ndsfka","address":"4830 03RD ST","inspection score":96},"type":"Feature","geometry":{"type":"Point","coordinates":[-122.4194155,37.7749295]}},{"properties":{"restaurant":"TWO JACKS SEAFOOD #2","inspection date":"5/11/10","id":"a64ec1vy7lfq","address":"984 GILMAN AVE","inspection score":96},"type":"Feature","geometry":{"type":"Point","coordinates":[-122.3876909,37.7180029]}}],"is_temporal":false,"author":{"url":"http://sf.everyblock.com","metadata":"","contact_name":"","contact_address":"","source":"EveryBlock","contact_phone":""},"source":"http://sf.everyblock.com","pagination":{"sort":null,"start":0,"total":80,"limit":1000000},"state":"complete","tags":"94124,restaurant inspections,san francisco","published":"2010-09-26T16:00:00Z","id":64475}