{"type":"FeatureCollection","data_type":"Dataset","url_type":null,"permissions":[{"permissions":{"download":true,"view":true},"group_id":"everyone"}],"classification":null,"title":"xerox locations for demo 9-2010","count":34,"stream_id":64992,"contributor":{"url":"http://geocommons.com/users/15932","name":"Hbools"},"data_attributes":null,"calculation_params":null,"icon_link":null,"link":"http://geocommons.com/overlays/64992.json","extent":[-117.015,25.7741,-80.039,46.4169],"geometry_types":["point"],"unique_name":null,"name":"xerox locations for demo 9-2010","feature_count":34,"description":"","next_feature":null,"is_raster":false,"short_classification":"Y","stats":{"geo_score":{"max":0.902,"mean":0.531911764705882,"variance":0.0521988707664884,"stdev":0.228470721902148,"min":0.0,"median":0.488}},"features":[{"properties":{"name":"Affordable Digital Systems, Inc.","city":"Miami","zipcode":"33137","country":"US","geo_score":0.805,"phonenumber":"(305) 572-1022","id":"a65ku3vcv7z3","address":"3510 Biscayne Blvd.","geo_precision":"range","state":"FL"},"type":"Feature","geometry":{"type":"Point","coordinates":[-80.189494,25.809577]}},{"properties":{"name":"American Digital Imaging - Boise","city":"Boise","zipcode":"83705","country":"US","geo_score":0.805,"phonenumber":"(208) 344-4825","id":"a65ku3s6ykkk","address":"1618 Columbus Street","geo_precision":"range","state":"ID"},"type":"Feature","geometry":{"type":"Point","coordinates":[-116.208635,43.588917]}},{"properties":{"name":"Astoria Document Systems","city":"Davie","zipcode":"33314","country":"US","geo_score":0.347,"phonenumber":"(954) 791-1919","id":"a65ku3us9zix","address":"5051 S. State Rd #7, Suite 503","geo_precision":"street","state":"FL"},"type":"Feature","geometry":{"type":"Point","coordinates":[-80.291099,26.197103]}},{"properties":{"name":"Benchmark Business Systems","city":"Idaho Falls","zipcode":"83402","country":"US","geo_score":0.429,"phonenumber":"(208) 524-3232","id":"a65ku3xxco8r","address":"2275 West Broadway, Suite E","geo_precision":"street","state":"ID"},"type":"Feature","geometry":{"type":"Point","coordinates":[-111.95571,43.59381]}},{"properties":{"name":"Biztech Copiers, Inc.","city":"Doral","zipcode":"33166","country":"US","geo_score":0.0,"phonenumber":"(305) 418-4600","id":"a65ku3w4tmkp","address":"8401 NW 53rd Terrace, Suite 100","geo_precision":"unmatched","state":"FL"},"type":"Feature","geometry":null},{"properties":{"name":"Chicago Office Technology Group","city":"Tinley Park, IL 60477","zipcode":"60477","country":"US","geo_score":0.488,"phonenumber":"(630) 771-8700","id":"a65ku3xb4xb7","address":"18401 Maple Creek Drive","geo_precision":"street","state":"IL"},"type":"Feature","geometry":{"type":"Point","coordinates":[-89.29316,38.41955]}},{"properties":{"name":"Chicago Office Technology Group","city":"Bolingbrook, IL 60440","zipcode":"60440","country":"US","geo_score":0.429,"phonenumber":"(630) 771-2600","id":"a65ku4486qsa","address":"4 Territorial Court, Suite M","geo_precision":"street","state":"IL"},"type":"Feature","geometry":{"type":"Point","coordinates":[-87.731622,41.422539]}},{"properties":{"name":"Chicago Office Technology Group","city":"Chicago, IL 60610","zipcode":"60610","country":"US","geo_score":0.581,"phonenumber":"(630) 771-8500","id":"a65ku3pv7wly","address":"One East Wacker Drive, #1300","geo_precision":"street","state":"IL"},"type":"Feature","geometry":{"type":"Point","coordinates":[-87.614149,41.8878]}},{"properties":{"name":"DocumenTechnologies","city":"Deerfield Beach","zipcode":"33442","country":"US","geo_score":0.429,"phonenumber":"(239) 254-4444","id":"a65ku3zog6oh","address":"296 S. Military Trail","geo_precision":"street","state":"FL"},"type":"Feature","geometry":{"type":"Point","coordinates":[-80.128348,26.320415]}},{"properties":{"name":"DocumenTechnologies Of Palm Beach","city":"Deerfield Beach","zipcode":"33442","country":"US","geo_score":0.878,"phonenumber":"(954) 418-5454","id":"a65ku4187zva","address":"296 Military Trail","geo_precision":"range","state":"FL"},"type":"Feature","geometry":{"type":"Point","coordinates":[-80.128347,26.320399]}},{"properties":{"name":"Document Creations, Inc.","city":"Chicago","zipcode":"60619","country":"US","geo_score":0.339,"phonenumber":"(773) 994-4922","id":"a65ku3xi86vn","address":"9101 S. Cottage Grove Ave.","geo_precision":"street","state":"IL"},"type":"Feature","geometry":{"type":"Point","coordinates":[-87.656089,41.84425]}},{"properties":{"name":"Global Imaging Systems","city":"Tampa, FL 33624","zipcode":"33624","country":"US","geo_score":0.381,"phonenumber":"(813) 960-5508","id":"a65ku3ywo3x3","address":"3820 Northdale Blvd., Suite 200A","geo_precision":"street","state":"FL"},"type":"Feature","geometry":{"type":"Point","coordinates":[-82.565156,28.029888]}},{"properties":{"name":"Mbc Digital Office Products, II","city":"Schaumburg","zipcode":"60173","country":"US","geo_score":0.624,"phonenumber":"(847) 755-1073","id":"a65ku3x83kn1","address":"1107 Tower Road","geo_precision":"street","state":"IL"},"type":"Feature","geometry":{"type":"Point","coordinates":[-88.14926,42.009436]}},{"properties":{"name":"Northwest Office Solutions","city":"Lewiston","zipcode":"83501","country":"US","geo_score":0.5,"phonenumber":"(208) 743-2473","id":"a65ku3sziqtu","address":"1625 G. Street","geo_precision":"street","state":"ID"},"type":"Feature","geometry":{"type":"Point","coordinates":[-117.014787,46.416903]}},{"properties":{"name":"Peterson's Fax &amp; Copy Shop","city":"Burley","zipcode":"83318","country":"US","geo_score":0.902,"phonenumber":"(208) 878-3548","id":"a65ku3qr3mbs","address":"2450 Overland Ave.","geo_precision":"range","state":"ID"},"type":"Feature","geometry":{"type":"Point","coordinates":[-113.793238,42.522535]}},{"properties":{"name":"Pixel Technology Consultants","city":"Tampa","zipcode":"33637","country":"US","geo_score":0.766,"phonenumber":"(813) 774-6764","id":"a65ku4263zfr","address":"8875 Hidden River Parkway","geo_precision":"range","state":"FL"},"type":"Feature","geometry":{"type":"Point","coordinates":[-82.359545,28.069858]}},{"properties":{"name":"Priority Computer Services, Inc.","city":"Westmont","zipcode":"60559","country":"US","geo_score":0.902,"phonenumber":"(630) 413-9838","id":"a65ku41xgbd0","address":"700 East Ogden Avenue","geo_precision":"range","state":"IL"},"type":"Feature","geometry":{"type":"Point","coordinates":[-87.954642,41.810495]}},{"properties":{"name":"Sarasota Office Solutions","city":"North Venice","zipcode":"34275","country":"US","geo_score":0.688,"phonenumber":"(941) 328-8070","id":"a65ku3uyd78y","address":"3449 Technology Drive Suite 109","geo_precision":"range","state":"FL"},"type":"Feature","geometry":{"type":"Point","coordinates":[-82.404051,27.142845]}},{"properties":{"name":"Saxon Business Systems","city":"Miami Lakes, FL 33014","zipcode":"33014","country":"US","geo_score":0.545,"phonenumber":"(305) 362-0100","id":"a65ku3p3392l","address":"14025 NW 60TH AVENUE","geo_precision":"street","state":"FL"},"type":"Feature","geometry":{"type":"Point","coordinates":[-80.295272,25.811674]}},{"properties":{"name":"Tampa Bay Office Solutions, Inc.","city":"Tampa","zipcode":"33607","country":"US","geo_score":0.333,"phonenumber":"(813) 749-9012","id":"a65ku3s6tnmn","address":"5005 W. Laurel St. Suite 208","geo_precision":"street","state":"FL"},"type":"Feature","geometry":{"type":"Point","coordinates":[-82.461975,27.955]}},{"properties":{"name":"Tec Imaging Systems, Inc","city":"Miami","zipcode":"33137","country":"US","geo_score":0.805,"phonenumber":"(305) 572-1022","id":"a65ku3w41p2n","address":"3510 Biscayne Blvd.","geo_precision":"range","state":"FL"},"type":"Feature","geometry":{"type":"Point","coordinates":[-80.189494,25.809577]}},{"properties":{"name":"The CDI Agency","city":"Chicago","zipcode":"60610","country":"US","geo_score":0.629,"phonenumber":"(312) 670-1600","id":"a65ku3tje4oq","address":"9 W Hubbard, Suite 301","geo_precision":"street","state":"IL"},"type":"Feature","geometry":{"type":"Point","coordinates":[-87.631081,41.890021]}},{"properties":{"name":"Ticomix Inc - Illinois","city":"Loves Park","zipcode":"61111","country":"US","geo_score":0.5,"phonenumber":"(815) 636-1499","id":"a65ku407qdqj","address":"5642 No. Second Street","geo_precision":"street","state":"IL"},"type":"Feature","geometry":{"type":"Point","coordinates":[-89.059063,42.294254]}},{"properties":{"name":"World Technology Solutions, Inc.","city":"Olympia Fields","zipcode":"60461","country":"US","geo_score":0.344,"phonenumber":"(708) 753-7962","id":"a65ku4047eke","address":"20280 S. Governor's Hwy #204","geo_precision":"street","state":"IL"},"type":"Feature","geometry":{"type":"Point","coordinates":[-89.371598,38.627959]}},{"properties":{"name":"Xerographic Solutions, Inc.","city":"Naperville","zipcode":"60563","country":"US","geo_score":0.402,"phonenumber":"(630) 961-1236","id":"a65ku3rsys1s","address":"800 West Fifth Avenue Suite 100G","geo_precision":"street","state":"IL"},"type":"Feature","geometry":{"type":"Point","coordinates":[-88.629953,41.649811]}},{"properties":{"name":"Xerox Audio Visual Solutions, Inc.","city":"Tampa, FL 33619","zipcode":"33619","country":"US","geo_score":0.429,"phonenumber":"(813) 241-3947","id":"a65ku3re8fbw","address":"9942 Currie Davis Drive, Suite B","geo_precision":"street","state":"FL"},"type":"Feature","geometry":{"type":"Point","coordinates":[-82.458056,28.017114]}},{"properties":{"name":"Xerox Audio Visual Solutions, Inc.","city":"Davie, FL 33317","zipcode":"33317","country":"US","geo_score":0.805,"phonenumber":"(954) 472-3009","id":"a65ku3r37t0b","address":"2501 Davie Road","geo_precision":"range","state":"FL"},"type":"Feature","geometry":{"type":"Point","coordinates":[-80.228606,26.087177]}},{"properties":{"name":"Xerox Sales Office","city":"West Palm Beach","zipcode":"USA","country":"US","geo_score":0.456,"phonenumber":"(800) 275-9376","id":"a65ku3qweua0","address":"Greater West Palm Beach Area","geo_precision":"street","state":"FL"},"type":"Feature","geometry":{"type":"Point","coordinates":[-80.038977,26.782127]}},{"properties":{"name":"Xerox Sales Office","city":"St Petersburg","zipcode":"33716","country":"US","geo_score":0.0,"phonenumber":"(727) 556-2219","id":"a65ku41tomot","address":"800 Carillon Parkway","geo_precision":"unmatched","state":"FL"},"type":"Feature","geometry":null},{"properties":{"name":"Xerox Sales Office","city":"Boise","zipcode":"83706","country":"US","geo_score":0.805,"phonenumber":"(208) 344-9000","id":"a65ku3y2csg0","address":"5405 Kendall Street","geo_precision":"range","state":"ID"},"type":"Feature","geometry":{"type":"Point","coordinates":[-116.249413,43.617529]}},{"properties":{"name":"Xerox Sales Office","city":"Chicago","zipcode":"60606","country":"US","geo_score":0.333,"phonenumber":"(312) 429-0330","id":"a65ku3ytz6ce","address":"123 North Wacker Dr, Suite 1000","geo_precision":"street","state":"IL"},"type":"Feature","geometry":{"type":"Point","coordinates":[-87.636749,41.881264]}},{"properties":{"name":"Xerox Sales Office","city":"Tampa","zipcode":"USA","country":"US","geo_score":0.446,"phonenumber":"(800) 275-9376","id":"a65ku40ts1es","address":"Greater Tampa Area","geo_precision":"street","state":"FL"},"type":"Feature","geometry":{"type":"Point","coordinates":[-82.508152,27.9107]}},{"properties":{"name":"Xerox Sales Office","city":"Naples","zipcode":"USA","country":"US","geo_score":0.487,"phonenumber":"(800) 275-9376","id":"a65ku3srbsg9","address":"Greater Naples Area","geo_precision":"street","state":"FL"},"type":"Feature","geometry":{"type":"Point","coordinates":[-81.565378,26.528511]}},{"properties":{"name":"Xerox Sales Office","city":"Miami","zipcode":"USA","country":"US","geo_score":0.473,"phonenumber":"(800) 275-9376","id":"a65ku40ltnid","address":"Greater Miami Area","geo_precision":"street","state":"FL"},"type":"Feature","geometry":{"type":"Point","coordinates":[-80.193623,25.774134]}}],"is_temporal":false,"author":{"url":"","metadata":"","contact_name":"","contact_address":"","source":"","contact_phone":""},"source":"","pagination":{"sort":null,"start":0,"total":34,"limit":1000000},"state":"complete","tags":"","published":"2014-08-10T18:00:56-04:00","id":64992}