{"type":"FeatureCollection","data_type":"Dataset","url_type":null,"permissions":[{"permissions":{"download":true,"view":true},"group_id":"everyone"}],"classification":null,"title":"Scores = 99-90 94123 ","count":56,"stream_id":65158,"contributor":{"url":"http://geocommons.com/users/16252","name":"lollymr"},"data_attributes":null,"calculation_params":null,"icon_link":null,"link":"http://geocommons.com/overlays/65158.json","extent":[-122.448,37.7958,-122.424,37.8041],"geometry_types":["point"],"unique_name":null,"name":"Scores = 99-90 94123 ","feature_count":56,"description":"","next_feature":null,"is_raster":false,"short_classification":"Y","stats":{"inspection score":{"max":98,"mean":93.4107142857143,"variance":8.97370129870129,"stdev":2.99561367647788,"min":90,"median":94}},"features":[{"properties":{"restaurant":"ABIGAIL PASTRY &amp; FINE FOODS","inspection date":"3/25/10","id":"a67fatuqgp3b","address":"2120 GREENWICH ST","inspection score":91},"type":"Feature","geometry":{"type":"Point","coordinates":[-122.434489,37.799118]}},{"properties":{"restaurant":"ALL STAR DONUTS","inspection date":"4/9/10","id":"a67fatxg7jxr","address":"2095 CHESTNUT ST","inspection score":90},"type":"Feature","geometry":{"type":"Point","coordinates":[-122.437721,37.800616]}},{"properties":{"restaurant":"AMERICAN CUPCAKE","inspection date":"8/31/10","id":"a67fauadg08w","address":"1919 UNION ST","inspection score":91},"type":"Feature","geometry":{"type":"Point","coordinates":[-122.430819,37.797674]}},{"properties":{"restaurant":"ASA SUSHI","inspection date":"5/21/10","id":"a67faturzv7w","address":"2365 CHESTNUT ST","inspection score":94},"type":"Feature","geometry":{"type":"Point","coordinates":[-122.442038,37.800051]}},{"properties":{"restaurant":"BALBOA CAFE","inspection date":"5/5/10","id":"a67fau2487iz","address":"3199 FILLMORE ST","inspection score":98},"type":"Feature","geometry":{"type":"Point","coordinates":[-122.435866,37.798952]}},{"properties":{"restaurant":"BARNEY'S GOURMET BURGER","inspection date":"8/5/10","id":"a67fau0yljn9","address":"3344 STEINER ST","inspection score":98},"type":"Feature","geometry":{"type":"Point","coordinates":[-122.437763,37.800072]}},{"properties":{"restaurant":"BAY WATCH","inspection date":"9/28/09","id":"a67fau8ajefn","address":"2150 LOMBARD ST","inspection score":98},"type":"Feature","geometry":{"type":"Point","coordinates":[-122.436748,37.799798]}},{"properties":{"restaurant":"BISTRO AIX","inspection date":"5/24/10","id":"a67fau05gw1g","address":"3340 STEINER ST","inspection score":94},"type":"Feature","geometry":{"type":"Point","coordinates":[-122.437757,37.800032]}},{"properties":{"restaurant":"BLUE BARN GOURMET","inspection date":"10/14/09","id":"a67fau9ifoit","address":"2105 CHESTNUT ST","inspection score":91},"type":"Feature","geometry":{"type":"Point","coordinates":[-122.437941,37.800601]}},{"properties":{"restaurant":"BRAZEN HEAD RESTAURANT","inspection date":"4/8/10","id":"a67fatxclu31","address":"3166 BUCHANAN ST","inspection score":90},"type":"Feature","geometry":{"type":"Point","coordinates":[-122.432512,37.79906]}},{"properties":{"restaurant":"CAFE EXPLORATORIUM","inspection date":"10/9/09","id":"a67fau437mj3","address":"3601 LYON ST","inspection score":98},"type":"Feature","geometry":{"type":"Point","coordinates":[-122.448179,37.80408]}},{"properties":{"restaurant":"CAFE GOLO","inspection date":"10/1/09","id":"a67fau719bu5","address":"1602 LOMBARD ST","inspection score":94},"type":"Feature","geometry":{"type":"Point","coordinates":[-122.42785,37.800898]}},{"properties":{"restaurant":"CAFE UNION","inspection date":"9/23/09","id":"a67fau6c9ncb","address":"1830 UNION ST","inspection score":94},"type":"Feature","geometry":{"type":"Point","coordinates":[-122.429311,37.797861]}},{"properties":{"restaurant":"CALIFORNIA WINE MERCHANT","inspection date":"4/7/10","id":"a67fau6a66se","address":"2113 CHESTNUT ST","inspection score":98},"type":"Feature","geometry":{"type":"Point","coordinates":[-122.438045,37.800584]}},{"properties":{"restaurant":"CAPANNINA","inspection date":"10/28/09","id":"a67fatxgv5b9","address":"1809 UNION ST","inspection score":90},"type":"Feature","geometry":{"type":"Point","coordinates":[-122.429019,37.797908]}},{"properties":{"restaurant":"COCOA BELLA CHOCOLATE","inspection date":"4/5/10","id":"a67fau6vwfwf","address":"2102 UNION ST","inspection score":94},"type":"Feature","geometry":{"type":"Point","coordinates":[-122.433873,37.797294]}},{"properties":{"restaurant":"CULTIVE FROZEN YOGURT","inspection date":"1/21/10","id":"a67fau8b8vek","address":"1998 UNION ST","inspection score":94},"type":"Feature","geometry":{"type":"Point","coordinates":[-122.432204,37.797506]}},{"properties":{"restaurant":"DRAGON WELL","inspection date":"6/4/10","id":"a67fau5gzn10","address":"2142 CHESTNUT ST","inspection score":90},"type":"Feature","geometry":{"type":"Point","coordinates":[-122.438371,37.800531]}},{"properties":{"restaurant":"HERITAGE, THE","inspection date":"12/8/09","id":"a67fauaauniq","address":"3400 LAGUNA ST","inspection score":96},"type":"Feature","geometry":{"type":"Point","coordinates":[-122.431498,37.802375]}},{"properties":{"restaurant":"JAMBA JUICE","inspection date":"3/23/10","id":"a67fau2bg6ef","address":"2066 CHESTNUT ST","inspection score":90},"type":"Feature","geometry":{"type":"Point","coordinates":[-122.437444,37.800661]}},{"properties":{"restaurant":"KASA INDIAN EATERY","inspection date":"3/25/10","id":"a67fau58mplb","address":"3115 FILLMORE ST","inspection score":98},"type":"Feature","geometry":{"type":"Point","coordinates":[-122.435713,37.798238]}},{"properties":{"restaurant":"KENTUCKY FRIED CHICKEN","inspection date":"3/2/10","id":"a67fau9gfm4k","address":"2101 LOMBARD ST","inspection score":94},"type":"Feature","geometry":{"type":"Point","coordinates":[-122.436046,37.799842]}},{"properties":{"restaurant":"LILLY'S YOGURT","inspection date":"8/20/10","id":"a67fau2rj2kz","address":"2760 OCTAVIA ST","inspection score":90},"type":"Feature","geometry":{"type":"Point","coordinates":[-122.428816,37.797563]}},{"properties":{"restaurant":"LOS HERMANOS","inspection date":"5/12/10","id":"a67fau3lamy9","address":"2026 CHESTNUT ST","inspection score":93},"type":"Feature","geometry":{"type":"Point","coordinates":[-122.436732,37.80074]}},{"properties":{"restaurant":"LUCKY DOGS","inspection date":"12/2/09","id":"a67fatx2mxzq","address":"2211 FILBERT","inspection score":94},"type":"Feature","geometry":{"type":"Point","coordinates":[-122.435811,37.797999]}},{"properties":{"restaurant":"MAMACITA","inspection date":"10/9/09","id":"a67fatzzbft9","address":"2317 CHESTNUT ST","inspection score":91},"type":"Feature","geometry":{"type":"Point","coordinates":[-122.441392,37.800155]}},{"properties":{"restaurant":"MARENGO ON UNION","inspection date":"6/30/10","id":"a67fau4k2fcj","address":"1980 UNION ST UPPER STREET LEVEL","inspection score":92},"type":"Feature","geometry":{"type":"Point","coordinates":[-122.431806,37.797544]}},{"properties":{"restaurant":"MARINA DELI","inspection date":"8/10/10","id":"a67fau4r147x","address":"2299 CHESTNUT ST","inspection score":92},"type":"Feature","geometry":{"type":"Point","coordinates":[-122.441177,37.80019]}},{"properties":{"restaurant":"MARINA GREEN KIOSK","inspection date":"7/23/10","id":"a67fau3q5qlj","address":"110 YACHT RD","inspection score":96},"type":"Feature","geometry":{"type":"Point","coordinates":[-122.435732,37.79967]}},{"properties":{"restaurant":"MARINA PIZZA &amp; CAFFE","inspection date":"3/2/10","id":"a67fatymxlyb","address":"2139 LOMBARD ST","inspection score":90},"type":"Feature","geometry":{"type":"Point","coordinates":[-122.436559,37.7997]}},{"properties":{"restaurant":"MARINA SUBMARINE","inspection date":"4/5/10","id":"a67fatyvah9p","address":"2299 UNION ST","inspection score":94},"type":"Feature","geometry":{"type":"Point","coordinates":[-122.437138,37.796879]}},{"properties":{"restaurant":"MARINA SUPER","inspection date":"5/21/10","id":"a67fau41xa80","address":"2323 CHESTNUT ST","inspection score":90},"type":"Feature","geometry":{"type":"Point","coordinates":[-122.441473,37.800142]}},{"properties":{"restaurant":"MATRIX FILLMORE","inspection date":"12/2/09","id":"a67faty8ejpx","address":"3138 FILLMORE ST","inspection score":98},"type":"Feature","geometry":{"type":"Point","coordinates":[-122.435737,37.79839]}},{"properties":{"restaurant":"NETTI'E CRAB SHACK","inspection date":"10/26/09","id":"a67fau38hg62","address":"2032 UNION ST","inspection score":94},"type":"Feature","geometry":{"type":"Point","coordinates":[-122.432628,37.797438]}},{"properties":{"restaurant":"NOAH'S BAGELS","inspection date":"4/9/10","id":"a67fau3c8v56","address":"2075 CHESTNUT ST","inspection score":91},"type":"Feature","geometry":{"type":"Point","coordinates":[-122.437499,37.800652]}},{"properties":{"restaurant":"PACIFIC CATCH","inspection date":"5/19/10","id":"a67fau9w38r1","address":"2027 CHESTNUT ST","inspection score":96},"type":"Feature","geometry":{"type":"Point","coordinates":[-122.436664,37.800751]}},{"properties":{"restaurant":"PACIFIC PUFFS","inspection date":"11/13/09","id":"a67fau3emom5","address":"2201 UNION ST","inspection score":98},"type":"Feature","geometry":{"type":"Point","coordinates":[-122.43549,37.797089]}},{"properties":{"restaurant":"PANE E VINO TRATTORIA","inspection date":"10/28/09","id":"a67fau3mlhdk","address":"1715 UNION ST","inspection score":91},"type":"Feature","geometry":{"type":"Point","coordinates":[-122.427455,37.798104]}},{"properties":{"restaurant":"PATXI'S CHICAGO PIZZA","inspection date":"12/2/09","id":"a67fau3wk7er","address":"3318 FILLMORE ST","inspection score":93},"type":"Feature","geometry":{"type":"Point","coordinates":[-122.436075,37.800022]}},{"properties":{"restaurant":"PIZZA ORGASMICA","inspection date":"5/5/10","id":"a67fau3esya9","address":"3157 FILLMORE ST","inspection score":96},"type":"Feature","geometry":{"type":"Point","coordinates":[-122.435799,37.798656]}},{"properties":{"restaurant":"PIZZERIA AVELLINO","inspection date":"7/23/10","id":"a67fatui06ve","address":"2769 LOMBARD ST","inspection score":90},"type":"Feature","geometry":{"type":"Point","coordinates":[-122.446703,37.79851]}},{"properties":{"restaurant":"PRESIDIO THEATRE","inspection date":"10/20/09","id":"a67fau6tcy22","address":"2340 CHESTNUT ST","inspection score":92},"type":"Feature","geometry":{"type":"Point","coordinates":[-122.441715,37.800103]}},{"properties":{"restaurant":"ROAM ARTISAN BURGERS","inspection date":"7/22/10","id":"a67fau04k0rk","address":"1785 UNION ST","inspection score":90},"type":"Feature","geometry":{"type":"Point","coordinates":[-122.428382,37.797955]}},{"properties":{"restaurant":"ROUND TABLE PIZZA","inspection date":"6/10/10","id":"a67fatwd5x52","address":"1503 NORTHPOINT ST","inspection score":93},"type":"Feature","geometry":{"type":"Point","coordinates":[-122.435732,37.79967]}},{"properties":{"restaurant":"RUTILY'S MARKET","inspection date":"11/9/09","id":"a67fau2vjoaj","address":"1700 FILBERT ST","inspection score":90},"type":"Feature","geometry":{"type":"Point","coordinates":[-122.427457,37.799067]}},{"properties":{"restaurant":"SHANGRILA CAFE &amp; GRILL","inspection date":"3/29/10","id":"a67fau8a20vs","address":"2420 LOMBARD ST","inspection score":94},"type":"Feature","geometry":{"type":"Point","coordinates":[-122.441271,37.799222]}},{"properties":{"restaurant":"SHERMAN MARKET","inspection date":"9/30/09","id":"a67fau2lzzk5","address":"2606 FRANKLIN ST","inspection score":92},"type":"Feature","geometry":{"type":"Point","coordinates":[-122.425635,37.798401]}},{"properties":{"restaurant":"ST VINCENT DE PAUL","inspection date":"3/24/10","id":"a67fatzawy9m","address":"2356 GREEN ST","inspection score":98},"type":"Feature","geometry":{"type":"Point","coordinates":[-122.437691,37.79583]}},{"properties":{"restaurant":"THE BLACK HORSE LONDON DELI","inspection date":"10/4/09","id":"a67fau1pzewy","address":"1514 UNION ST","inspection score":90},"type":"Feature","geometry":{"type":"Point","coordinates":[-122.424168,37.798522]}},{"properties":{"restaurant":"THE BRICK YARD","inspection date":"8/20/10","id":"a67fau5y3zqr","address":"1787 UNION ST","inspection score":90},"type":"Feature","geometry":{"type":"Point","coordinates":[-122.428409,37.797951]}},{"properties":{"restaurant":"THE DRY DOCK","inspection date":"5/5/10","id":"a67fau1odonu","address":"2118 GREENWICH ST","inspection score":98},"type":"Feature","geometry":{"type":"Point","coordinates":[-122.434462,37.799123]}},{"properties":{"restaurant":"THE GROVE","inspection date":"5/13/10","id":"a67fatwxkn1l","address":"2250 CHESTNUT ST","inspection score":90},"type":"Feature","geometry":{"type":"Point","coordinates":[-122.44031,37.800301]}},{"properties":{"restaurant":"THE PLANT CAFE","inspection date":"8/5/10","id":"a67fau582ja2","address":"3352 STEINER ST","inspection score":96},"type":"Feature","geometry":{"type":"Point","coordinates":[-122.437776,37.800151]}},{"properties":{"restaurant":"THE SANDWICH SPOT","inspection date":"2/11/10","id":"a67fau5j9fzy","address":"3213 PIERCE ST","inspection score":96},"type":"Feature","geometry":{"type":"Point","coordinates":[-122.439356,37.799545]}},{"properties":{"restaurant":"UPTON CATERING","inspection date":"10/15/09","id":"a67fatwf2fry","address":"2435 LOMBARD ST","inspection score":90},"type":"Feature","geometry":{"type":"Point","coordinates":[-122.441445,37.79909]}},{"properties":{"restaurant":"YUKOL PLACE THAI CUISINE","inspection date":"8/12/10","id":"a67fatxd4l56","address":"2380 LOMBARD ST","inspection score":98},"type":"Feature","geometry":{"type":"Point","coordinates":[-122.440447,37.799314]}}],"is_temporal":false,"author":{"url":"http://sf.everyblock.com","metadata":"","contact_name":"","contact_address":"","source":"EveryBlock","contact_phone":""},"source":"http://sf.everyblock.com","pagination":{"sort":null,"start":0,"total":56,"limit":1000000},"state":"complete","tags":"94123","published":"2014-08-10T18:10:25-04:00","id":65158}