{"type":"FeatureCollection","data_type":"Dataset","url_type":null,"permissions":[{"permissions":{"download":true,"view":true},"group_id":"everyone"}],"classification":null,"title":"Apartment Home Rentals","count":40,"stream_id":65385,"contributor":{"url":"http://geocommons.com/users/16553","name":"hairsalondivas"},"data_attributes":null,"calculation_params":null,"icon_link":null,"link":"http://geocommons.com/overlays/65385.json","extent":[-122.676,25.7743,-71.0598,47.6062],"geometry_types":["point"],"unique_name":null,"name":"Apartment Home Rentals","feature_count":40,"description":"Apartment Home Rentals rent, rentals, rental, home, homes, houses, apartments, apartment, condos, condo, studio","next_feature":null,"is_raster":false,"short_classification":"Y","stats":{"geo_score":{"max":0.857,"mean":0.847775,"variance":0.000627101923076923,"stdev":0.0250420031762022,"min":0.746,"median":0.857}},"features":[{"properties":{"city":"New York","title":"Apartment and Home Rentals","street1":"60 Reade St","zipcode":"10007","street2":null,"country":"USA","geo_score":0.857,"website":"http://rentnewyorkny.info","description":"Finding the Perfect Rental. Search rental homes, condos, apartments and more.","id":"a66p524qdip0","phone number":"(646) 583-3502","geo_precision":"city","state":"NY"},"type":"Feature","geometry":{"type":"Point","coordinates":[-74.005973,40.714269]}},{"properties":{"city":"Austin","title":"Rentals Austin","street1":"10 West 4th Street","zipcode":"78701","street2":null,"country":"USA","geo_score":0.857,"website":"http://rentaustintx.info","description":"Finding the Perfect Rental. Search rental homes, condos, apartments and more.","id":"a66p52cesr7p","phone number":"(512) 943-6422","geo_precision":"city","state":"TX"},"type":"Feature","geometry":{"type":"Point","coordinates":[-97.743061,30.267153]}},{"properties":{"city":"Baltimore","title":"Rentals Baltimore","street1":"3 North Calvert Street","zipcode":"21202","street2":null,"country":"USA","geo_score":0.857,"website":"http://rentbaltimoremd.info","description":"Finding the Perfect Rental. Search rental homes, condos, apartments and more.","id":"a66p52bqkw5x","phone number":"(443) 832-3226","geo_precision":"city","state":"MD"},"type":"Feature","geometry":{"type":"Point","coordinates":[-76.612189,39.290385]}},{"properties":{"city":"Boca Raton","title":"Rentals Boca Raton","street1":"220 NE 6th Ct","zipcode":"33432","street2":null,"country":"USA","geo_score":0.786,"website":"http://rentbocaratonfl.info","description":"Finding the Perfect Rental. Search rental homes, condos, apartments and more.","id":"a66p52hdoww5","phone number":"(561) 463-3998","geo_precision":"city","state":"FL"},"type":"Feature","geometry":{"type":"Point","coordinates":[-81.331733,28.828325]}},{"properties":{"city":"Boston","title":"Rentals Boston","street1":"252 Washington Street","zipcode":"02201","street2":null,"country":"USA","geo_score":0.857,"website":"http://rentbostonma.info","description":"Finding the Perfect Rental. Search rental homes, condos, apartments and more.","id":"a66p52cm32bf","phone number":"(617) 446-3065","geo_precision":"city","state":"MA"},"type":"Feature","geometry":{"type":"Point","coordinates":[-71.059773,42.358431]}},{"properties":{"city":"Charlotte","title":"Rentals Charlotte","street1":"204 North Tryon Street","zipcode":"28202","street2":null,"country":"USA","geo_score":0.857,"website":"http://rentcharlottenc.info","description":"Finding the Perfect Rental. Search rental homes, condos, apartments and more.","id":"a66p52jk8dmg","phone number":"(704) 266-6989","geo_precision":"city","state":"NC"},"type":"Feature","geometry":{"type":"Point","coordinates":[-80.843127,35.227087]}},{"properties":{"city":"Chicago","title":"Rentals Chicago","street1":"2020 S Carpenter St","zipcode":"60608","street2":null,"country":"USA","geo_score":0.857,"website":"http://rentchicagoil.info","description":"Finding the Perfect Rental. Search rental homes, condos, apartments and more.","id":"a66p529m6u4c","phone number":"(773) 280-8750","geo_precision":"city","state":"IL"},"type":"Feature","geometry":{"type":"Point","coordinates":[-87.650052,41.850033]}},{"properties":{"city":"Chicago","title":"Rentals Chicago","street1":"2020 S Carpenter St","zipcode":"60608","street2":null,"country":"USA","geo_score":0.857,"website":"http://rentchicagoil.info","description":"Finding the Perfect Rental. Search rental homes, condos, apartments and more.","id":"a66p52g427xl","phone number":"(773) 280-8750","geo_precision":"city","state":"IL"},"type":"Feature","geometry":{"type":"Point","coordinates":[-87.650052,41.850033]}},{"properties":{"city":"Columbus","title":"Rentals Columbus","street1":"60 East State Street","zipcode":"43215","street2":null,"country":"USA","geo_score":0.776,"website":"http://rentcolumbusoh.info","description":"Finding the Perfect Rental. Search rental homes, condos, apartments and more.","id":"a66p527n4knq","phone number":"(614) 385-0548","geo_precision":"city","state":"OH"},"type":"Feature","geometry":{"type":"Point","coordinates":[-82.695724,39.998397]}},{"properties":{"city":"Dallas","title":"Rentals Dallas","street1":"1151 North Collett Avenue","zipcode":"75214","street2":null,"country":"USA","geo_score":0.857,"website":"http://rentdallastx.info","description":"Finding the Perfect Rental. Search rental homes, condos, apartments and more.","id":"a66p52cvfmxe","phone number":"(214) 447-7049","geo_precision":"city","state":"TX"},"type":"Feature","geometry":{"type":"Point","coordinates":[-96.806667,32.783056]}},{"properties":{"city":"Denver","title":"Rentals Denver","street1":"103 West Colfax Avenue","zipcode":"80203","street2":null,"country":"USA","geo_score":0.857,"website":"http://rentdenverco.info","description":"Finding the Perfect Rental. Search rental homes, condos, apartments and more.","id":"a66p52cfn7zh","phone number":"(303) 720-7572","geo_precision":"city","state":"CO"},"type":"Feature","geometry":{"type":"Point","coordinates":[-104.984703,39.739154]}},{"properties":{"city":"Fort Worth","title":"Rentals Fort Worth","street1":"882 East Baltimore Street","zipcode":"76104","street2":null,"country":"USA","geo_score":0.746,"website":"http://rentfortworthtx.info","description":"Finding the Perfect Rental. Search rental homes, condos, apartments and more.","id":"a66p52gx7sfi","phone number":"(817) 259-4008","geo_precision":"city","state":"TX"},"type":"Feature","geometry":{"type":"Point","coordinates":[-95.262161,31.108239]}},{"properties":{"city":"Houston","title":"Rentals Houston","street1":"2110 N Memorial Way","zipcode":"77007","street2":null,"country":"USA","geo_score":0.816,"website":"http://renthoustontx.info","description":"Finding the Perfect Rental. Search rental homes, condos, apartments and more.","id":"a66p52e21fj4","phone number":"(713) 929-2268","geo_precision":"city","state":"TX"},"type":"Feature","geometry":{"type":"Point","coordinates":[-96.919704,29.845783]}},{"properties":{"city":"Houston","title":"Rentals Houston","street1":"2110 N Memorial Way","zipcode":"77007","street2":null,"country":"USA","geo_score":0.816,"website":"http://renthoustontx.info","description":"Finding the Perfect Rental. Search rental homes, condos, apartments and more.","id":"a66p52ayf41p","phone number":"(713) 929-2268","geo_precision":"city","state":"TX"},"type":"Feature","geometry":{"type":"Point","coordinates":[-96.919704,29.845783]}},{"properties":{"city":"Indianapolis","title":"Rentals Indianapolis","street1":"111 Monument Circle","zipcode":"46204","street2":null,"country":"USA","geo_score":0.857,"website":"http://rentindianapolisin.info","description":"Finding the Perfect Rental. Search rental homes, condos, apartments and more.","id":"a66p528kr626","phone number":"(317) 412-9609","geo_precision":"city","state":"IN"},"type":"Feature","geometry":{"type":"Point","coordinates":[-86.158042,39.768377]}},{"properties":{"city":"Jacksonville","title":"Rentals Jacksonville","street1":"21 East Beaver Street","zipcode":"32202","street2":null,"country":"USA","geo_score":0.857,"website":"http://rentjacksonvillefl.info","description":"Finding the Perfect Rental. Search rental homes, condos, apartments and more.","id":"a66p52cevnz5","phone number":"(904) 446-8392","geo_precision":"city","state":"FL"},"type":"Feature","geometry":{"type":"Point","coordinates":[-81.655651,30.332184]}},{"properties":{"city":"Las Vegas","title":"Rentals Las Vegas","street1":"3 Las Vegas Boulevard South","zipcode":"89109","street2":null,"country":"USA","geo_score":0.857,"website":"http://rentlasvegasnv.info","description":"Finding the Perfect Rental. Search rental homes, condos, apartments and more.","id":"a66p52i49e4z","phone number":"(702) 509-6834","geo_precision":"city","state":"NV"},"type":"Feature","geometry":{"type":"Point","coordinates":[-115.137223,36.174971]}},{"properties":{"city":"Los Angeles","title":"Rentals Los Angeles","street1":"13 W 1st St","zipcode":"90012","street2":null,"country":"USA","geo_score":0.857,"website":"http://rentlosangelesca.info","description":"Finding the Perfect Rental. Search rental homes, condos, apartments and more.","id":"a66p52bfm833","phone number":"(213) 260-4953","geo_precision":"city","state":"CA"},"type":"Feature","geometry":{"type":"Point","coordinates":[-118.243685,34.052234]}},{"properties":{"city":"Los Angeles","title":"Rentals Los Angeles","street1":"13 W 1st St","zipcode":"90012","street2":null,"country":"USA","geo_score":0.857,"website":"http://rentlosangelesca.info","description":"Finding the Perfect Rental. Search rental homes, condos, apartments and more.","id":"a66p528wulck","phone number":"(213) 260-4953","geo_precision":"city","state":"CA"},"type":"Feature","geometry":{"type":"Point","coordinates":[-118.243685,34.052234]}},{"properties":{"city":"Louisville","title":"Rentals Louisville","street1":"422 South 4th Street","zipcode":"40202","street2":null,"country":"USA","geo_score":0.857,"website":"http://rentlouisvilleky.info","description":"Finding the Perfect Rental. Search rental homes, condos, apartments and more.","id":"a66p52e2i34l","phone number":"(502) 230-1514","geo_precision":"city","state":"KY"},"type":"Feature","geometry":{"type":"Point","coordinates":[-85.759407,38.254238]}},{"properties":{"city":"Memphis","title":"Rentals Memphis","street1":"202 North 2nd Street","zipcode":"38105","street2":null,"country":"USA","geo_score":0.857,"website":"http://rentmemphistn.info","description":"Finding the Perfect Rental. Search rental homes, condos, apartments and more.","id":"a66p528teufx","phone number":"(901) 231-9912","geo_precision":"city","state":"TN"},"type":"Feature","geometry":{"type":"Point","coordinates":[-90.04898,35.149534]}},{"properties":{"city":"Miami","title":"Rentals Miami","street1":"1810 NW 15th St","zipcode":"33125","street2":null,"country":"USA","geo_score":0.857,"website":"http://rentmiamifl.info","description":"Finding the Perfect Rental. Search rental homes, condos, apartments and more.","id":"a66p52b2qj7w","phone number":"(305) 831-4023","geo_precision":"city","state":"FL"},"type":"Feature","geometry":{"type":"Point","coordinates":[-80.193659,25.774266]}},{"properties":{"city":"Miami","title":"Rentals Miami","street1":"1810 NW 15th St","zipcode":"33125","street2":null,"country":"USA","geo_score":0.857,"website":"http://rentmiamifl.info","description":"Finding the Perfect Rental. Search rental homes, condos, apartments and more.","id":"a66p52d7g0or","phone number":"(305) 831-4023","geo_precision":"city","state":"FL"},"type":"Feature","geometry":{"type":"Point","coordinates":[-80.193659,25.774266]}},{"properties":{"city":"Milwaukee","title":"Rentals Milwaukee","street1":"325 East Wisconsin Avenue","zipcode":"53202","street2":null,"country":"USA","geo_score":0.857,"website":"http://rentmilwaukeewi.info","description":"Finding the Perfect Rental. Search rental homes, condos, apartments and more.","id":"a66p52el6ev7","phone number":"(414) 540-8360","geo_precision":"city","state":"WI"},"type":"Feature","geometry":{"type":"Point","coordinates":[-87.906474,43.038903]}},{"properties":{"city":"Nashville","title":"Rentals Nashville","street1":"503 Deaderick Street","zipcode":"37243","street2":null,"country":"USA","geo_score":0.857,"website":"http://rentnashvilletn.info","description":"Finding the Perfect Rental. Search rental homes, condos, apartments and more.","id":"a66p529x3jko","phone number":"(615) 285-9677","geo_precision":"city","state":"TN"},"type":"Feature","geometry":{"type":"Point","coordinates":[-86.784443,36.16589]}},{"properties":{"city":"New York","title":"Rentals New York","street1":"60 Reade St","zipcode":"10007","street2":null,"country":"USA","geo_score":0.857,"website":"http://rentnewyorkny.info","description":"Finding the Perfect Rental. Search rental homes, condos, apartments and more.","id":"a66p52krtkoq","phone number":"(646) 583-3502","geo_precision":"city","state":"NY"},"type":"Feature","geometry":{"type":"Point","coordinates":[-74.005973,40.714269]}},{"properties":{"city":"Oklahoma City","title":"Rentals Oklahoma City","street1":"125 Park Avenue","zipcode":"73102","street2":null,"country":"USA","geo_score":0.857,"website":"http://rentoklahomacityok.info","description":"Finding the Perfect Rental. Search rental homes, condos, apartments and more.","id":"a66p527vrluh","phone number":"(405) 308-4317","geo_precision":"city","state":"OK"},"type":"Feature","geometry":{"type":"Point","coordinates":[-97.516428,35.46756]}},{"properties":{"city":"Philadelphia","title":"Rentals Philadelphia","street1":"50 S 15th St","zipcode":"19102","street2":null,"country":"USA","geo_score":0.857,"website":"http://rentphiladelphiapa.info","description":"Finding the Perfect Rental. Search rental homes, condos, apartments and more.","id":"a66p52jfejvt","phone number":"(215) 987-5926","geo_precision":"city","state":"PA"},"type":"Feature","geometry":{"type":"Point","coordinates":[-75.163789,39.952335]}},{"properties":{"city":"Philadelphia","title":"Rentals Philadelphia","street1":"50 S 15th St","zipcode":"19102","street2":null,"country":"USA","geo_score":0.857,"website":"http://rentphiladelphiapa.info","description":"Finding the Perfect Rental. Search rental homes, condos, apartments and more.","id":"a66p526vy26p","phone number":"(215) 987-5926","geo_precision":"city","state":"PA"},"type":"Feature","geometry":{"type":"Point","coordinates":[-75.163789,39.952335]}},{"properties":{"city":"Phoenix","title":"Rentals Phoenix","street1":"56 S Central Ave","zipcode":"85004","street2":null,"country":"USA","geo_score":0.857,"website":"http://rentphoenixaz.info","description":"Finding the Perfect Rental. Search rental homes, condos, apartments and more.","id":"a66p52je0ocw","phone number":"(520) 226-4233","geo_precision":"city","state":"AZ"},"type":"Feature","geometry":{"type":"Point","coordinates":[-112.074037,33.448377]}},{"properties":{"city":"Phoenix","title":"Rentals Phoenix","street1":"56 S Central Ave","zipcode":"85004","street2":null,"country":"USA","geo_score":0.857,"website":"http://rentphoenixaz.info","description":"Finding the Perfect Rental. Search rental homes, condos, apartments and more.","id":"a66p528qtye9","phone number":"(520) 226-4233","geo_precision":"city","state":"AZ"},"type":"Feature","geometry":{"type":"Point","coordinates":[-112.074037,33.448377]}},{"properties":{"city":"Portland","title":"Rentals Portland","street1":"604 NW Couch St","zipcode":"97209","street2":null,"country":"USA","geo_score":0.857,"website":"http://rentportlandor.info","description":"Finding the Perfect Rental. Search rental homes, condos, apartments and more.","id":"a66p525z6cdq","phone number":"(503) 446-1130","geo_precision":"city","state":"OR"},"type":"Feature","geometry":{"type":"Point","coordinates":[-122.676207,45.523452]}},{"properties":{"city":"San Antonio","title":"Rentals San Antonio","street1":"110 S Flores St","zipcode":"78205","street2":null,"country":"USA","geo_score":0.857,"website":"http://rentsanantoniotx.info","description":"Finding the Perfect Rental. Search rental homes, condos, apartments and more.","id":"a66p52c1dzvu","phone number":"(210) 429-9150","geo_precision":"city","state":"TX"},"type":"Feature","geometry":{"type":"Point","coordinates":[-98.493628,29.424122]}},{"properties":{"city":"San Antonio","title":"Rentals San Antonio","street1":"110 S Flores St","zipcode":"78205","street2":null,"country":"USA","geo_score":0.857,"website":"http://rentsanantoniotx.info","description":"Finding the Perfect Rental. Search rental homes, condos, apartments and more.","id":"a66p52jzz3ti","phone number":"(210) 429-9150","geo_precision":"city","state":"TX"},"type":"Feature","geometry":{"type":"Point","coordinates":[-98.493628,29.424122]}},{"properties":{"city":"San Diego","title":"Rentals San Diego","street1":"880 8th Ave","zipcode":"92101","street2":null,"country":"USA","geo_score":0.857,"website":"http://rentsandiegoca.info","description":"Finding the Perfect Rental. Search rental homes, condos, apartments and more.","id":"a66p52ghu5ba","phone number":"(619) 327-9281","geo_precision":"city","state":"CA"},"type":"Feature","geometry":{"type":"Point","coordinates":[-117.157255,32.715329]}},{"properties":{"city":"San Francisco","title":"Rentals San Francisco","street1":"153 Fell Street","zipcode":"94102","street2":null,"country":"USA","geo_score":0.857,"website":"http://rentsanfranciscoca.info","description":"Finding the Perfect Rental. Search rental homes, condos, apartments and more.","id":"a66p52fh7z6r","phone number":"(415) 878-3560","geo_precision":"city","state":"CA"},"type":"Feature","geometry":{"type":"Point","coordinates":[-122.419416,37.77493]}},{"properties":{"city":"San Jose","title":"Rentals San Jose","street1":"113 N Market St","zipcode":"95101","street2":null,"country":"USA","geo_score":0.857,"website":"http://rentsanjose.info","description":"Finding the Perfect Rental. Search rental homes, condos, apartments and more.","id":"a66p52h0kmlu","phone number":"(408) 641-6024","geo_precision":"city","state":"CA"},"type":"Feature","geometry":{"type":"Point","coordinates":[-121.894956,37.339386]}},{"properties":{"city":"Seattle","title":"Rentals Seattle","street1":"464 Madison Street","zipcode":"98164","street2":null,"country":"USA","geo_score":0.857,"website":"http://rentseattlewa.info","description":"Finding the Perfect Rental. Search rental homes, condos, apartments and more.","id":"a66p525eh4nv","phone number":"(206) 745-0997","geo_precision":"city","state":"WA"},"type":"Feature","geometry":{"type":"Point","coordinates":[-122.332071,47.60621]}},{"properties":{"city":"Tucson","title":"Rentals Tucson","street1":"3123 East Broadway Boulevard","zipcode":"85716","street2":null,"country":"USA","geo_score":0.857,"website":"http://renttucsonaz.info","description":"Finding the Perfect Rental. Search rental homes, condos, apartments and more.","id":"a66p52b1vj2s","phone number":"(801) 432-0903","geo_precision":"city","state":"AZ"},"type":"Feature","geometry":{"type":"Point","coordinates":[-110.926479,32.221743]}},{"properties":{"city":"Washington DC","title":"Rentals Washington DC","street1":"324 14th Street Northwest","zipcode":"20004","street2":null,"country":"USA","geo_score":0.833,"website":"http://rentwashingtondc.info","description":"Finding the Perfect Rental. Search rental homes, condos, apartments and more.","id":"a66p52hxvqmb","phone number":"(202) 618-9131","geo_precision":"city","state":"DC"},"type":"Feature","geometry":{"type":"Point","coordinates":[-77.036366,38.895112]}}],"is_temporal":false,"author":{"url":"","metadata":"","contact_name":"","contact_address":"","source":"","contact_phone":""},"source":"","pagination":{"sort":null,"start":0,"total":40,"limit":1000000},"state":"complete","tags":"apartment,apartments,condo,condos,home,homes,houses,rent,rental,rentals,studio","published":"2010-10-01T21:05:11Z","id":65385}