{"type":"FeatureCollection","data_type":"Dataset","url_type":null,"permissions":[{"permissions":{"download":true,"view":true},"group_id":"everyone"}],"classification":null,"title":"Prop19CaliforniaSupportDonationsUPDATED10/04","count":203,"stream_id":65908,"contributor":{"url":"http://geocommons.com/users/15859","name":"jessicalum"},"data_attributes":null,"calculation_params":null,"icon_link":null,"link":"http://geocommons.com/overlays/65908.json","extent":[-122.921,32.7228,-116.514,40.7159],"geometry_types":["point"],"unique_name":null,"name":"Prop19CaliforniaSupportDonationsUPDATED10/04","feature_count":203,"description":"Donations made in support of California Proposition 19, which could legalize marijuana.","next_feature":null,"is_raster":false,"short_classification":"Y","stats":{"amount":{"max":1403376.6,"mean":8263.62477832512,"variance":9720093921.09788,"stdev":98590.536671112,"min":25.0,"median":200.0}},"features":[{"properties":{"city":"BERKELEY","zip code":"94705","amount":2000.0,"id":"a674txcgioyb","donor":"ABRAHAM EPTON ($1000), NAOMI PITCAIRN ($1000)"},"type":"Feature","geometry":{"type":"Point","coordinates":[-122.237027,37.861366]}},{"properties":{"city":"BELMONT","zip code":"94002","amount":770.84,"id":"a674txmy5ani","donor":"ADAM GLICKMAN ($239.36), CARLEEN FAYBUSOVICH ($150), CHARLES STONE ($124), STEPHEN MOORE ($107.48), VAL FAYBUSOVICH ($150)"},"type":"Feature","geometry":{"type":"Point","coordinates":[-122.305082,37.506281]}},{"properties":{"city":"SAN FRANCISCO","zip code":"94110","amount":70975.0,"id":"a674txgrunt8","donor":"ADAM HUPP ($500), DUSTIN MOSKOVITZ ($70,000), JAMES UPCHURCH ($100), JUSTIN ROSENSTEIN ($275), MARK HUNTER ($100)"},"type":"Feature","geometry":{"type":"Point","coordinates":[-122.418411,37.748582]}},{"properties":{"city":"SAN FRANCISCO","zip code":"94107","amount":4100.0,"id":"a674txj2e1x3","donor":"ADAM WIGGINS ($4000), GIL SHAFIR ($100)"},"type":"Feature","geometry":{"type":"Point","coordinates":[-122.398587,37.761824]}},{"properties":{"city":"TEHACHAPI","zip code":"93561","amount":125.0,"id":"a674txiv5qp3","donor":"ADRIAN MOORE"},"type":"Feature","geometry":{"type":"Point","coordinates":[-118.533104,35.134675]}},{"properties":{"city":"SAN FRANCISCO","zip code":"94114","amount":1524.0,"id":"a674txk1uy9f","donor":"ADRIENNE SMITH ($119), C STEVEN SHORT ($155), DAVID C. GOLDMAN ($100), DAVID GARNER ($800), JOHN STAHL ($250), MAX MEIER ($100)"},"type":"Feature","geometry":{"type":"Point","coordinates":[-122.432568,37.756144]}},{"properties":{"city":"STOCKTON","zip code":"95207","amount":473.11,"id":"a674txh14ew2","donor":"ALAN CHANDLER"},"type":"Feature","geometry":{"type":"Point","coordinates":[-121.319849,37.998375]}},{"properties":{"city":"MOUNTAIN VIEW","zip code":"94043","amount":273.0,"id":"a674txbmo0ij","donor":"ALAN FENG ($124), DANIEL WAYLONIS ($149)"},"type":"Feature","geometry":{"type":"Point","coordinates":[-122.072382,37.428434]}},{"properties":{"city":"SAN MATEO","zip code":"94402","amount":200.0,"id":"a674txhyr92p","donor":"ALAN RATHBURN"},"type":"Feature","geometry":{"type":"Point","coordinates":[-122.339094,37.524597]}},{"properties":{"city":"MILL VALLEY","zip code":"94941","amount":105.0,"id":"a674txlf316v","donor":"ALAN SCOTT ($100), BARRY LYNN ($5)"},"type":"Feature","geometry":{"type":"Point","coordinates":[-122.542931,37.891055]}},{"properties":{"city":"STINSON BEACH","zip code":"94970","amount":519.0,"id":"a674txhdilt3","donor":"ALBERT COLES"},"type":"Feature","geometry":{"type":"Point","coordinates":[-122.633397,37.910531]}},{"properties":{"city":"HOLLISTER","zip code":"95023","amount":300.0,"id":"a674txdk5ak7","donor":"ALEX LEIJA ($150), DEREK STONE ($150)"},"type":"Feature","geometry":{"type":"Point","coordinates":[-121.401602,36.852455]}},{"properties":{"city":"WEST COVINA","zip code":"91791","amount":420.0,"id":"a674tx7zqzz7","donor":"ALEX SMALL"},"type":"Feature","geometry":{"type":"Point","coordinates":[-117.895606,34.056638]}},{"properties":{"city":"LOS ANGELES","zip code":"90048","amount":15376.0,"id":"a674txk3clrh","donor":"ALEXANDER CAMPBELL ($7365), ODAM COLLECTIVE ($8011)"},"type":"Feature","geometry":{"type":"Point","coordinates":[-118.372491,34.074155]}},{"properties":{"city":"SAN FRANCISCO","zip code":"94109","amount":300.0,"id":"a674txa5t735","donor":"ALEXANDER KUTIK ($250), GREG GRIMALA ($50)"},"type":"Feature","geometry":{"type":"Point","coordinates":[-122.421242,37.792979]}},{"properties":{"city":"LOS ANGELES","zip code":"90068","amount":1500.0,"id":"a674txn6ondi","donor":"ALEXANDER ROUSMANIERE"},"type":"Feature","geometry":{"type":"Point","coordinates":[-118.328661,34.123516]}},{"properties":{"city":"SAN DIEGO","zip code":"92127","amount":100.0,"id":"a674txics3a6","donor":"ANDREW GOOD"},"type":"Feature","geometry":{"type":"Point","coordinates":[-117.114709,33.028256]}},{"properties":{"city":"SANTA MONICA","zip code":"90405","amount":5000.0,"id":"a674txdskxa2","donor":"ANDREW LAHDE"},"type":"Feature","geometry":{"type":"Point","coordinates":[-118.465958,34.009746]}},{"properties":{"city":"SANTA MONICA","zip code":"90403","amount":420.0,"id":"a674txn7u5js","donor":"ANTHONY CITRANO"},"type":"Feature","geometry":{"type":"Point","coordinates":[-118.495155,34.02799]}},{"properties":{"city":"MODESTO","zip code":"95355","amount":318.48,"id":"a674txbjjuy3","donor":"ANTHONY VERRUSO ($159.24), JOHN KUNKEL ($159.24)"},"type":"Feature","geometry":{"type":"Point","coordinates":[-120.93026,37.67045]}},{"properties":{"city":"ONTARIO","zip code":"91764","amount":200.0,"id":"a674txmvnypn","donor":"ANTHONY WICHER"},"type":"Feature","geometry":{"type":"Point","coordinates":[-117.614146,34.073987]}},{"properties":{"city":"CONCORD","zip code":"94520","amount":2233.0,"id":"a674txlsj7u6","donor":"ANTONIO VARGAS ($453), LARRY RICHARDS ($1030), RAY SMITH ($150), TIMOTHY SHERWOOD ($500)"},"type":"Feature","geometry":{"type":"Point","coordinates":[-122.049652,37.989907]}},{"properties":{"city":"BERKELEY","zip code":"94702","amount":6799.0,"id":"a674txd2klfj","donor":"BERKELEY PATIENTS GROUP, INC. ($5000), DONALD RAMSEY ($200), ETIENNE FONTAN ($1599)"},"type":"Feature","geometry":{"type":"Point","coordinates":[-122.285237,37.868058]}},{"properties":{"city":"PALO ALTO","zip code":"94301","amount":675.0,"id":"a674txleze3z","donor":"BETSY CURRIE ($500), BRIAN ANDERSON ($175)"},"type":"Feature","geometry":{"type":"Point","coordinates":[-122.157574,37.445797]}},{"properties":{"city":"VALLEY CENTER","zip code":"92082","amount":100.0,"id":"a674ty39skbc","donor":"BRETT JACKSON"},"type":"Feature","geometry":{"type":"Point","coordinates":[-117.008788,33.230094]}},{"properties":{"city":"GARDEN GROVE","zip code":"92845","amount":100.0,"id":"a674txsoewad","donor":"BRIAN ALLAN"},"type":"Feature","geometry":{"type":"Point","coordinates":[-118.027391,33.785268]}},{"properties":{"city":"REDWOOD CITY","zip code":"94062","amount":350.0,"id":"a674txy6rrs8","donor":"BRIAN ESCOBAR ($100), MARC JACOBS ($250)"},"type":"Feature","geometry":{"type":"Point","coordinates":[-122.288073,37.410893]}},{"properties":{"city":"PORTOLA VALLEY","zip code":"94028","amount":500.0,"id":"a674txu8xpz7","donor":"BRIAN MCCLENDON"},"type":"Feature","geometry":{"type":"Point","coordinates":[-122.208658,37.387118]}},{"properties":{"city":"ALAMEDA","zip code":"94501","amount":347.0,"id":"a674txns3ec7","donor":"BRIANNA LENGEL-BAIL ($198), KELSEY TILANDER ($149)"},"type":"Feature","geometry":{"type":"Point","coordinates":[-122.241635,37.765207]}},{"properties":{"city":"BREA","zip code":"92821","amount":125.0,"id":"a674ty1960oz","donor":"BRUCE RUBIN"},"type":"Feature","geometry":{"type":"Point","coordinates":[-117.866307,33.925097]}},{"properties":{"city":"SANTA CLARA","zip code":"95054","amount":553.0,"id":"a674txnmtm11","donor":"BRYAN BOOT"},"type":"Feature","geometry":{"type":"Point","coordinates":[-121.964374,37.398604]}},{"properties":{"city":"WALNUT CREEK","zip code":"94596","amount":350.0,"id":"a674ty21nmvg","donor":"BRYAN HYMAN ($150), COMPLEMENTARY ALTERNATIVE MEDICINE CORPORATION($200)"},"type":"Feature","geometry":{"type":"Point","coordinates":[-122.032602,37.885453]}},{"properties":{"city":"OAKLAND","zip code":"94612","amount":11377.85,"id":"a674ty38fj99","donor":"CALIFORNIA CAPITAL GROUP ($250), JAMES WHEATON ATTORNEY AT LAW ($200), JEFFREY JONES ($3450), JIM SEKOCH ($159.24), LINDA JACKSON ($150), MINNIE WATSON ($5000), OLIVER SCOTT ($159.24), PAT SPEESE ($1959.37), REBECCA SCHNEIDER ($50)"},"type":"Feature","geometry":{"type":"Point","coordinates":[-122.268224,37.811316]}},{"properties":{"city":"OAKLAND","zip code":"94611","amount":469.24,"id":"a674txsc0kdz","donor":"CARISON STOKES ($160.24), GREG COVER ($309)"},"type":"Feature","geometry":{"type":"Point","coordinates":[-122.202983,37.833628]}},{"properties":{"city":"SAN FRANCISCO","zip code":"94103","amount":50.0,"id":"a674txoa6nuq","donor":"CAROL RUTH SILVER"},"type":"Feature","geometry":{"type":"Point","coordinates":[-122.409915,37.77264]}},{"properties":{"city":"CONCORD","zip code":"94518","amount":100.0,"id":"a674txnwv9fy","donor":"CHERRI YOUNG"},"type":"Feature","geometry":{"type":"Point","coordinates":[-122.021234,37.946121]}},{"properties":{"city":"GILROY","zip code":"95020","amount":160.24,"id":"a674txykkk4w","donor":"CHRIS CUEVAS"},"type":"Feature","geometry":{"type":"Point","coordinates":[-121.399899,37.040456]}},{"properties":{"city":"LOS ANGELES","zip code":"90046","amount":1000.0,"id":"a674txqexzfm","donor":"CHRIS IOVENKO"},"type":"Feature","geometry":{"type":"Point","coordinates":[-118.363726,34.114731]}},{"properties":{"city":"OAKLAND","zip code":"94602","amount":544.79,"id":"a674txoi0mxj","donor":"CHRISTIAN SMITHERUM ($139.36), LINDA CARLTON ($105.43), SCOTT MACPHERSON ($100)"},"type":"Feature","geometry":{"type":"Point","coordinates":[-122.211495,37.804802]}},{"properties":{"city":"WEST HILLS","zip code":"91307","amount":200.0,"id":"a674txnq1ln4","donor":"CLAUDE WALDBAUM"},"type":"Feature","geometry":{"type":"Point","coordinates":[-118.684811,34.212444]}},{"properties":{"city":"CAMARILLO","zip code":"93010","amount":125.0,"id":"a674txybngj8","donor":"CLAYTON FOWLER"},"type":"Feature","geometry":{"type":"Point","coordinates":[-119.080901,34.233091]}},{"properties":{"city":"SAN FRANCISCO","zip code":"94127","amount":159.24,"id":"a674txuyr3l5","donor":"CODY PHIPPS"},"type":"Feature","geometry":{"type":"Point","coordinates":[-122.463708,37.734646]}},{"properties":{"city":"SAN CARLOS","zip code":"94070","amount":50.0,"id":"a674ty0bem7i","donor":"CONNIE DESAUTELS"},"type":"Feature","geometry":{"type":"Point","coordinates":[-122.27106,37.497517]}},{"properties":{"city":"SAN FRANCISCO","zip code":"94105","amount":1449.97,"id":"a674txpgedl1","donor":"CREDO VICTORY FUND - YES WE CANNABIS"},"type":"Feature","geometry":{"type":"Point","coordinates":[-122.394339,37.79053]}},{"properties":{"city":"OAKLAND","zip code":"94609","amount":580.0,"id":"a674txq7yzhf","donor":"DAN RUSH ($100), JOHN WAGERS ($130), RONIN PUBLISHING INC. ($100), SEAN LUSE ($250)"},"type":"Feature","geometry":{"type":"Point","coordinates":[-122.262553,37.832117]}},{"properties":{"city":"MOUNTAIN VIEW","zip code":"94040","amount":2224.0,"id":"a674txy1u3mw","donor":"DANIEL IGNATOFF ($224), NATHAN GAYLINN ($2000)"},"type":"Feature","geometry":{"type":"Point","coordinates":[-122.086585,37.378535]}},{"properties":{"city":"PASADENA","zip code":"91106","amount":159.24,"id":"a674txpdsr0i","donor":"DANIEL MONTANES"},"type":"Feature","geometry":{"type":"Point","coordinates":[-118.126898,34.140543]}},{"properties":{"city":"SAN DIEGO","zip code":"92104","amount":100.0,"id":"a674txp6j2t3","donor":"DANNY CRAIG"},"type":"Feature","geometry":{"type":"Point","coordinates":[-117.132358,32.747575]}},{"properties":{"city":"ORANGE","zip code":"92868","amount":180.0,"id":"a674ty3p8c59","donor":"DARIN BROWN"},"type":"Feature","geometry":{"type":"Point","coordinates":[-117.875098,33.78659]}},{"properties":{"city":"PLEASANTON","zip code":"94566","amount":420.0,"id":"a674txprcwpc","donor":"DARRELL CLARIDGE"},"type":"Feature","geometry":{"type":"Point","coordinates":[-121.867646,37.64362]}},{"properties":{"city":"SANTA MONICA","zip code":"90404","amount":125.0,"id":"a674txx72ubk","donor":"DARREN SCHULTZ"},"type":"Feature","geometry":{"type":"Point","coordinates":[-118.468878,34.026926]}},{"properties":{"city":"OAKLAND","zip code":"94606","amount":497.61,"id":"a674txonnoic","donor":"DAVID ABERNATHY"},"type":"Feature","geometry":{"type":"Point","coordinates":[-122.245536,37.794409]}},{"properties":{"city":"RANCHO CUCAMONGA","zip code":"91701","amount":50.0,"id":"a674txti3h5r","donor":"DAVID ALDRICH"},"type":"Feature","geometry":{"type":"Point","coordinates":[-117.614146,34.135667]}},{"properties":{"city":"SANTA BARBARA","zip code":"93140","amount":1000.0,"id":"a674txux6tpf","donor":"DAVID GIBBS"},"type":"Feature","geometry":{"type":"Point","coordinates":[-119.68,34.42]}},{"properties":{"city":"PEBBLE BEACH","zip code":"93953","amount":349.0,"id":"a674txwgkj9i","donor":"DAVID SPILKER"},"type":"Feature","geometry":{"type":"Point","coordinates":[-121.941623,36.584194]}},{"properties":{"city":"HAYWARD","zip code":"94541","amount":310.0,"id":"a674ty30x1fj","donor":"DENISE MARTELLACCI"},"type":"Feature","geometry":{"type":"Point","coordinates":[-122.100787,37.673724]}},{"properties":{"city":"OCEANSIDE","zip code":"92056","amount":125.0,"id":"a674ty0x8ac3","donor":"DION MARKGRAAFF"},"type":"Feature","geometry":{"type":"Point","coordinates":[-117.297003,33.198755]}},{"properties":{"city":"HUNTINGTON BEACH","zip code":"92646","amount":500.0,"id":"a674txvy198h","donor":"DOUGLAS CABLE"},"type":"Feature","geometry":{"type":"Point","coordinates":[-117.965904,33.66908]}},{"properties":{"city":"BERKELEY","zip code":"94704","amount":12986.28,"id":"a674ty0fmjax","donor":"DR. DALE GIERINGER ($12689.28), JOHN BETHENCOURT ($297)"},"type":"Feature","geometry":{"type":"Point","coordinates":[-122.268224,37.863738]}},{"properties":{"city":"LOS ANGELES","zip code":"90005","amount":125.0,"id":"a674txq83tnt","donor":"DUSTIN PARSONS"},"type":"Feature","geometry":{"type":"Point","coordinates":[-118.309665,34.057881]}},{"properties":{"city":"LAKEPORT","zip code":"95453","amount":100.0,"id":"a674txpg33am","donor":"EDWARD FAYLE"},"type":"Feature","geometry":{"type":"Point","coordinates":[-122.921226,39.066956]}},{"properties":{"city":"SANTA BARBARA","zip code":"93105","amount":2200.0,"id":"a674txsxim62","donor":"ELAINE GIBSON ($100), PEG JARROTT ($100), LEN JARROTT ($2000)"},"type":"Feature","geometry":{"type":"Point","coordinates":[-119.812079,34.010912]}},{"properties":{"city":"VENICE","zip code":"90291","amount":100.0,"id":"a674ty096sjz","donor":"ELISABETH LAFFERTY"},"type":"Feature","geometry":{"type":"Point","coordinates":[-118.468878,33.996214]}},{"properties":{"city":"ALISO VIEJO","zip code":"92656","amount":150.0,"id":"a674ty1qc06p","donor":"ELIZABETH JAEGER"},"type":"Feature","geometry":{"type":"Point","coordinates":[-117.725556,33.575]}},{"properties":{"city":"SAN BRUNO","zip code":"94066","amount":318.48,"id":"a674txs47zvb","donor":"ELIZABETH SWEETMAN"},"type":"Feature","geometry":{"type":"Point","coordinates":[-122.429737,37.62107]}},{"properties":{"city":"EL CAJON","zip code":"92020","amount":125.0,"id":"a674txsw9bdr","donor":"ERIC ISAACSON"},"type":"Feature","geometry":{"type":"Point","coordinates":[-116.967581,32.796322]}},{"properties":{"city":"SAN DIEGO","zip code":"92106","amount":200.0,"id":"a674txprkqkp","donor":"ERIC KAUFMAN"},"type":"Feature","geometry":{"type":"Point","coordinates":[-117.238216,32.722844]}},{"properties":{"city":"SANTA CRUZ","zip code":"95060","amount":983.24,"id":"a674txt4fkdr","donor":"ETHAN WEISS ($824), JASALAH LEVERETTE ($159.24)"},"type":"Feature","geometry":{"type":"Point","coordinates":[-122.117826,37.010531]}},{"properties":{"city":"ANAHEIM","zip code":"92807","amount":125.0,"id":"a674ty0y5mqu","donor":"FAYEZ GENADRY"},"type":"Feature","geometry":{"type":"Point","coordinates":[-117.914504,33.835293]}},{"properties":{"city":"OAKLAND","zip code":"94619","amount":200.0,"id":"a674txooy2tv","donor":"FELICIA SHAW"},"type":"Feature","geometry":{"type":"Point","coordinates":[-122.146219,37.793681]}},{"properties":{"city":"WHITTIER","zip code":"90601","amount":100.0,"id":"a674txtdvaf0","donor":"FRANCISCO SANCHEZ"},"type":"Feature","geometry":{"type":"Point","coordinates":[-118.030319,34.008068]}},{"properties":{"city":"LOS ANGELES","zip code":"90035","amount":420.0,"id":"a674txvmz20l","donor":"FRANKLYN ADAMS"},"type":"Feature","geometry":{"type":"Point","coordinates":[-118.384178,34.050751]}},{"properties":{"city":"TOPANGA","zip code":"90290","amount":100.0,"id":"a674txy20p17","donor":"FRED DELISIO"},"type":"Feature","geometry":{"type":"Point","coordinates":[-118.61481,34.107698]}},{"properties":{"city":"HUNTINGTON BEACH","zip code":"92648","amount":1200.0,"id":"a674txs4lq50","donor":"GARY SCAPELLATI"},"type":"Feature","geometry":{"type":"Point","coordinates":[-118.012753,33.678196]}},{"properties":{"city":"SAN LUIS OBISPO","zip code":"93401","amount":100.0,"id":"a674txy7yx6f","donor":"GENE COURTER"},"type":"Feature","geometry":{"type":"Point","coordinates":[-120.642999,35.232662]}},{"properties":{"city":"PENN VALLEY","zip code":"95946","amount":50.0,"id":"a674txrqwsj7","donor":"GENE WEST"},"type":"Feature","geometry":{"type":"Point","coordinates":[-121.205396,39.228051]}},{"properties":{"city":"SAN FRANCISCO","zip code":"94131","amount":25.0,"id":"a674txthva4p","donor":"GEORGE REY"},"type":"Feature","geometry":{"type":"Point","coordinates":[-122.438231,37.740104]}},{"properties":{"city":"OAKLAND","zip code":"94605","amount":198.0,"id":"a674ty2cb8pa","donor":"GEORGE ROSEN"},"type":"Feature","geometry":{"type":"Point","coordinates":[-122.134863,37.758945]}},{"properties":{"city":"BAKERSFIELD","zip code":"93311","amount":100.0,"id":"a674txw1a29z","donor":"GEORGE WILLIAMS"},"type":"Feature","geometry":{"type":"Point","coordinates":[-119.185578,35.126851]}},{"properties":{"city":"FREMONT","zip code":"94538","amount":20500.0,"id":"a674txyorz7v","donor":"GEORGE ZIMMER"},"type":"Feature","geometry":{"type":"Point","coordinates":[-121.958687,37.501143]}},{"properties":{"city":"OAKLAND","zip code":"94111","amount":204.0,"id":"a674ty1b1miu","donor":"GERALD CARROLL"},"type":"Feature","geometry":{"type":"Point","coordinates":[-122.400003,37.798318]}},{"properties":{"city":"STUDIO CITY","zip code":"91604","amount":295.0,"id":"a674txtoostf","donor":"GLEN WHITMAN ($200), JEAN FLEMING ($95)"},"type":"Feature","geometry":{"type":"Point","coordinates":[-118.387099,34.13956]}},{"properties":{"city":"FRESNO","zip code":"93705","amount":256.98,"id":"a674txwhjtd1","donor":"GREGG EDWARDS"},"type":"Feature","geometry":{"type":"Point","coordinates":[-119.829443,36.789028]}},{"properties":{"city":"PENNGROVE","zip code":"94951","amount":125.0,"id":"a674txnhn2ul","donor":"H.R. DOWNS"},"type":"Feature","geometry":{"type":"Point","coordinates":[-122.6447,38.323659]}},{"properties":{"city":"WOODLAND HILLS","zip code":"91367","amount":100.0,"id":"a674txtu4no1","donor":"HARRY FISHER"},"type":"Feature","geometry":{"type":"Point","coordinates":[-118.597305,34.178526]}},{"properties":{"city":"BERKELEY","zip code":"94707","amount":350.0,"id":"a674txswe0aq","donor":"HAYNES ALEX"},"type":"Feature","geometry":{"type":"Point","coordinates":[-122.279567,37.898367]}},{"properties":{"city":"SANTA CLARA","zip code":"95050","amount":250.0,"id":"a674txsu8125","donor":"HEDLEY RAINNIE ($150), THE INTERNATIONAL CANNABIS &amp; HEMP EXPO ($100)"},"type":"Feature","geometry":{"type":"Point","coordinates":[-121.952999,37.353966]}},{"properties":{"city":"EL CERRITO","zip code":"94530","amount":104.2,"id":"a674txvwgqir","donor":"HILARY CROSBY"},"type":"Feature","geometry":{"type":"Point","coordinates":[-122.293743,37.920206]}},{"properties":{"city":"SAN DIEGO","zip code":"92117","amount":419.24,"id":"a674txz2u9sp","donor":"HOWARD KNUDSEN ($135), JASON GRESCHLER ($125), MARGARET KETNER ($159.24)"},"type":"Feature","geometry":{"type":"Point","coordinates":[-117.202936,32.825077]}},{"properties":{"city":"LOS ANGELES","zip code":"90066","amount":100.0,"id":"a674txujpc7n","donor":"HOWARD PARIS"},"type":"Feature","geometry":{"type":"Point","coordinates":[-118.433834,34.005017]}},{"properties":{"city":"SANTA ANA","zip code":"92707","amount":125.0,"id":"a674ty38puks","donor":"IAN KOSKELA"},"type":"Feature","geometry":{"type":"Point","coordinates":[-117.872168,33.702309]}},{"properties":{"city":"SANTA ROSA","zip code":"95404","amount":477.72,"id":"a674txotm4g2","donor":"ISAAC HAUGEN"},"type":"Feature","geometry":{"type":"Point","coordinates":[-122.695547,38.538688]}},{"properties":{"city":"SAN JOSE","zip code":"95128","amount":100.0,"id":"a674ty3kiedf","donor":"JACK SHANNON"},"type":"Feature","geometry":{"type":"Point","coordinates":[-121.930245,37.312713]}},{"properties":{"city":"VACAVILLE","zip code":"95688","amount":212.98,"id":"a674ty1hi5uk","donor":"JACKIE SHIPLEY"},"type":"Feature","geometry":{"type":"Point","coordinates":[-122.015549,38.408701]}},{"properties":{"city":"MORRO BAY","zip code":"93442","amount":318.48,"id":"a674ty1kvp93","donor":"JACOB WITORT ($159.24), MICHAEL WITORT ($159.24)"},"type":"Feature","geometry":{"type":"Point","coordinates":[-120.780968,35.39295]}},{"properties":{"city":"SAN FRANCISCO","zip code":"94117","amount":3525.0,"id":"a674txo4wjod","donor":"JACQUELINE PRITZKER ($1000), LATANYA LINZIE ($400), MARK STONER ($125), JOHN GILMORE ($2000)"},"type":"Feature","geometry":{"type":"Point","coordinates":[-122.443893,37.771719]}},{"properties":{"city":"MENLO PARK","zip code":"94025","amount":100.0,"id":"a674ty09phlv","donor":"JAMES FADIMAN"},"type":"Feature","geometry":{"type":"Point","coordinates":[-122.180281,37.448491]}},{"properties":{"city":"OAKLAND","zip code":"94610","amount":1433.97,"id":"a674txqevowa","donor":"JAMES SILVA ($916.49), JC ALVORD ($317.49), JOEL GILBERTSON-WHITE ($199)"},"type":"Feature","geometry":{"type":"Point","coordinates":[-122.239864,37.810449]}},{"properties":{"city":"IRVINE","zip code":"92606","amount":100.0,"id":"a674txqds6xo","donor":"JAMES YAMADA"},"type":"Feature","geometry":{"type":"Point","coordinates":[-117.725608,33.670933]}},{"properties":{"city":"SAN FRANCISCO","zip code":"94108","amount":125.0,"id":"a674txqctyha","donor":"JAYNE GOLDSTEIN"},"type":"Feature","geometry":{"type":"Point","coordinates":[-122.408499,37.790943]}},{"properties":{"city":"LAFAYETTE","zip code":"94549","amount":40099.0,"id":"a674ty15e1hr","donor":"JEFF WILCOX ($30099), WILCOX EMBARCADERO ASSOCIATES LLC ($10000)"},"type":"Feature","geometry":{"type":"Point","coordinates":[-122.117826,37.892946]}},{"properties":{"city":"SAN JOSE","zip code":"95139","amount":130.56,"id":"a674ty1d6v3w","donor":"JEFFREY SWANSON"},"type":"Feature","geometry":{"type":"Point","coordinates":[-121.762287,37.225711]}},{"properties":{"city":"WHITTIER","zip code":"90605","amount":435.0,"id":"a674txzaecy5","donor":"JENNIFER GAYNOR"},"type":"Feature","geometry":{"type":"Point","coordinates":[-118.027391,33.954885]}},{"properties":{"city":"SAN FRANCISCO","zip code":"94115","amount":40.0,"id":"a674txr0u78l","donor":"JENNIFER PHILLIPS"},"type":"Feature","geometry":{"type":"Point","coordinates":[-122.438231,37.787752]}},{"properties":{"city":"SAN FRANCISCO","zip code":"94122","amount":105.43,"id":"a674txos2fe1","donor":"JENNY OH"},"type":"Feature","geometry":{"type":"Point","coordinates":[-122.475029,37.759748]}},{"properties":{"city":"MOORPARK","zip code":"93021","amount":100.0,"id":"a674txyhejd7","donor":"JIM CEKLARZ"},"type":"Feature","geometry":{"type":"Point","coordinates":[-118.882982,34.294277]}},{"properties":{"city":"PETALUMA","zip code":"94955","amount":232.98,"id":"a674txq5xi9j","donor":"JIM MCCAFFREY"},"type":"Feature","geometry":{"type":"Point","coordinates":[-122.64,38.23]}},{"properties":{"city":"CARLSBAD","zip code":"92009","amount":100.0,"id":"a674txupebf5","donor":"JOHN ABRAMS"},"type":"Feature","geometry":{"type":"Point","coordinates":[-117.238216,33.098212]}},{"properties":{"city":"SAN JOSE","zip code":"95117","amount":420.0,"id":"a674ty0u9tpk","donor":"JOHN ROPER"},"type":"Feature","geometry":{"type":"Point","coordinates":[-121.961531,37.310524]}},{"properties":{"city":"PLEASANTON","zip code":"94588","amount":125.0,"id":"a674txyoc9pu","donor":"JON TAYLOR"},"type":"Feature","geometry":{"type":"Point","coordinates":[-121.913176,37.687391]}},{"properties":{"city":"LOS ANGELES","zip code":"90027","amount":100.0,"id":"a674txu0axf2","donor":"JOSHUA ORANSKY"},"type":"Feature","geometry":{"type":"Point","coordinates":[-118.293589,34.122055]}},{"properties":{"city":"BELLA VISTA","zip code":"96008","amount":277.27,"id":"a674ty0rk5vx","donor":"JUANITA PENDERGAST"},"type":"Feature","geometry":{"type":"Point","coordinates":[-122.120301,40.715941]}},{"properties":{"city":"OAKLAND","zip code":"94607","amount":200.0,"id":"a674txo5bk5y","donor":"K.L. FRY"},"type":"Feature","geometry":{"type":"Point","coordinates":[-122.290908,37.809143]}},{"properties":{"city":"SOLVANG","zip code":"93463","amount":550.0,"id":"a674txox49qc","donor":"KAI HALLAUER ($500), RUDI VAN ENOO, DPM ($50)"},"type":"Feature","geometry":{"type":"Point","coordinates":[-120.147383,34.63834]}},{"properties":{"city":"YUBA CITY","zip code":"95993","amount":500.0,"id":"a674ty3553xn","donor":"KARM BAINES"},"type":"Feature","geometry":{"type":"Point","coordinates":[-121.696744,39.071509]}},{"properties":{"city":"SAN DIEGO","zip code":"92126","amount":50.0,"id":"a674txya3shw","donor":"KEVIN LINDGREN"},"type":"Feature","geometry":{"type":"Point","coordinates":[-117.13824,32.918476]}},{"properties":{"city":"SHERMAN OAKS","zip code":"91423","amount":100.0,"id":"a674txn9f3uu","donor":"KRISTINE STIEG"},"type":"Feature","geometry":{"type":"Point","coordinates":[-118.433834,34.148269]}},{"properties":{"city":"TORRANCE","zip code":"90504","amount":100.0,"id":"a674txxfbtjj","donor":"LARRY SNYDER"},"type":"Feature","geometry":{"type":"Point","coordinates":[-118.328661,33.867327]}},{"properties":{"city":"PLEASANT HILL","zip code":"94523","amount":100.0,"id":"a674ty08sntc","donor":"LAURA UNRUH"},"type":"Feature","geometry":{"type":"Point","coordinates":[-122.072382,37.944892]}},{"properties":{"city":"SAN DIEGO","zip code":"92120","amount":5000.0,"id":"a674txtcigjs","donor":"LAWRENCE E. HESS"},"type":"Feature","geometry":{"type":"Point","coordinates":[-117.073524,32.792626]}},{"properties":{"city":"FELTON","zip code":"95018","amount":255.0,"id":"a674ty33v8rx","donor":"LAWRENCE MANZO ($125), JAMES GEARY ($130)"},"type":"Feature","geometry":{"type":"Point","coordinates":[-122.073297,37.051337]}},{"properties":{"city":"ENCINO","zip code":"91316","amount":295.0,"id":"a674ty3qktx5","donor":"LISA SAWOYA"},"type":"Feature","geometry":{"type":"Point","coordinates":[-118.51559,34.16855]}},{"properties":{"city":"LA CRESCENTA","zip code":"91214","amount":100.0,"id":"a674txsv8bod","donor":"LORING GREENE"},"type":"Feature","geometry":{"type":"Point","coordinates":[-118.240967,34.242634]}},{"properties":{"city":"PACIFIC PALISADES","zip code":"90272","amount":1000.0,"id":"a674txpgyr4v","donor":"LUKE SINQUEFIELD"},"type":"Feature","geometry":{"type":"Point","coordinates":[-118.544779,34.084525]}},{"properties":{"city":"BRENTWOOD","zip code":"94513","amount":224.52,"id":"a674txskoe30","donor":"MARIO ABAD ($159.24), WILLIAM COOKSON ($65.28)"},"type":"Feature","geometry":{"type":"Point","coordinates":[-121.695786,37.931868]}},{"properties":{"city":"SEBASTOPOL","zip code":"95472","amount":107.48,"id":"a674ty1h91k6","donor":"MARK HANDLEY"},"type":"Feature","geometry":{"type":"Point","coordinates":[-122.876131,38.369075]}},{"properties":{"city":"LOS ANGELES","zip code":"90039","amount":500.0,"id":"a674txvjiy6u","donor":"MARK KULKIS"},"type":"Feature","geometry":{"type":"Point","coordinates":[-118.25851,34.110341]}},{"properties":{"city":"IRVINE","zip code":"92618","amount":125.0,"id":"a674txsk5ou2","donor":"MARK WELLNER"},"type":"Feature","geometry":{"type":"Point","coordinates":[-117.725608,33.670933]}},{"properties":{"city":"BENICIA","zip code":"94510","amount":100.0,"id":"a674ty2yrzfe","donor":"MARNIX VAN AMMERS"},"type":"Feature","geometry":{"type":"Point","coordinates":[-122.117826,38.102383]}},{"properties":{"city":"SAN FRANCISCO","zip code":"94123","amount":1000.0,"id":"a674ty00xrzr","donor":"MARSHA ROSENBAUM"},"type":"Feature","geometry":{"type":"Point","coordinates":[-122.438231,37.802041]}},{"properties":{"city":"SAN FRANCISCO","zip code":"94960","amount":1000.0,"id":"a674txvrmw5i","donor":"MARTIN KAUFMAN"},"type":"Feature","geometry":{"type":"Point","coordinates":[-122.565555,37.988536]}},{"properties":{"city":"AGOURA HILLS","zip code":"91367","amount":109.0,"id":"a674ty1dt4en","donor":"MARY JANES"},"type":"Feature","geometry":{"type":"Point","coordinates":[-118.761676,34.15334]}},{"properties":{"city":"WRIGHTWOOD","zip code":"92397","amount":500.0,"id":"a674txv4og0j","donor":"MARY MELKONIAN"},"type":"Feature","geometry":{"type":"Point","coordinates":[-117.637617,34.376262]}},{"properties":{"city":"NIPOMO","zip code":"93444","amount":200.0,"id":"a674txwjzkaa","donor":"MARY STACKHOUSE"},"type":"Feature","geometry":{"type":"Point","coordinates":[-120.458806,35.044361]}},{"properties":{"city":"LOMPOC","zip code":"93436","amount":100.0,"id":"a674txtjds8g","donor":"MATHEW ANDRESEN"},"type":"Feature","geometry":{"type":"Point","coordinates":[-120.389665,34.562191]}},{"properties":{"city":"COSTA MESA","zip code":"92627","amount":50.0,"id":"a674txt00prc","donor":"MATT FENNELL"},"type":"Feature","geometry":{"type":"Point","coordinates":[-117.919042,33.649625]}},{"properties":{"city":"SAN DIEGO","zip code":"92121","amount":100.0,"id":"a674ty1seymd","donor":"MATT ZIMMERMAN"},"type":"Feature","geometry":{"type":"Point","coordinates":[-117.202936,32.898114]}},{"properties":{"city":"PALO ALTO","zip code":"94303","amount":186.0,"id":"a674ty1nem6v","donor":"MATTHEW LENNIG"},"type":"Feature","geometry":{"type":"Point","coordinates":[-122.123505,37.45613]}},{"properties":{"city":"BERKELEY","zip code":"94703","amount":100.0,"id":"a674txt79sm2","donor":"MAURICIO GARZON"},"type":"Feature","geometry":{"type":"Point","coordinates":[-122.273896,37.852474]}},{"properties":{"city":"DUBLIN","zip code":"94568","amount":360.24,"id":"a674txy2ssru","donor":"MAX HUNT ($160.24), ROBERT SIMCOCK ($200)"},"type":"Feature","geometry":{"type":"Point","coordinates":[-121.907486,37.713038]}},{"properties":{"city":"PLYMOUTH","zip code":"95669","amount":125.0,"id":"a674txvv5xmg","donor":"MICHAEL BALDINELLI"},"type":"Feature","geometry":{"type":"Point","coordinates":[-120.872861,38.482902]}},{"properties":{"city":"MONTEREY","zip code":"93940","amount":200.0,"id":"a674txyou3zf","donor":"MICHAEL HAM"},"type":"Feature","geometry":{"type":"Point","coordinates":[-121.822098,36.576041]}},{"properties":{"city":"VACAVILLE","zip code":"95687","amount":99.0,"id":"a674txvut2nu","donor":"MICHAEL KIM"},"type":"Feature","geometry":{"type":"Point","coordinates":[-121.913176,38.316541]}},{"properties":{"city":"SAN JOSE","zip code":"95134","amount":100.0,"id":"a674txp06fcc","donor":"MICHAEL LOPEZ"},"type":"Feature","geometry":{"type":"Point","coordinates":[-121.952999,37.43085]}},{"properties":{"city":"PACIFICA","zip code":"94044","amount":100.0,"id":"a674txz6x3qg","donor":"MICHAEL MARINACCI"},"type":"Feature","geometry":{"type":"Point","coordinates":[-122.458047,37.598045]}},{"properties":{"city":"HERCULES","zip code":"94547","amount":4500.0,"id":"a674txpwlh8a","donor":"MICHAEL NOLIN"},"type":"Feature","geometry":{"type":"Point","coordinates":[-122.262553,38.008249]}},{"properties":{"city":"HERMOSA BEACH","zip code":"90254","amount":100.0,"id":"a674ty23h6tn","donor":"MILES SATTELMEIER"},"type":"Feature","geometry":{"type":"Point","coordinates":[-118.395863,33.863364]}},{"properties":{"city":"SAN GERONIMO","zip code":"94963","amount":1316.29,"id":"a674txu6hiai","donor":"MR. GEORGE BIANCHINI"},"type":"Feature","geometry":{"type":"Point","coordinates":[-122.667302,37.994899]}},{"properties":{"city":"OAKLAND","zip code":"94608","amount":125.0,"id":"a674txsv5wcl","donor":"NANCY NADEL"},"type":"Feature","geometry":{"type":"Point","coordinates":[-122.282402,37.837959]}},{"properties":{"city":"LOS ANGELES","zip code":"90064","amount":2350.0,"id":"a674txovejed","donor":"NEAL DONNER ($1350), SKUNK RUNNER MEDIA LLC ($1000)"},"type":"Feature","geometry":{"type":"Point","coordinates":[-118.422152,34.038666]}},{"properties":{"city":"SAN FRANCISCO","zip code":"94133","amount":125.0,"id":"a674ty1cctky","donor":"NEDRA RUIZ"},"type":"Feature","geometry":{"type":"Point","coordinates":[-122.409915,37.801226]}},{"properties":{"city":"OJAI","zip code":"93023","amount":1100.0,"id":"a674ty0a04sk","donor":"PAT MCPHERSON ($100), RINALDO BRUTOCO ($1000)"},"type":"Feature","geometry":{"type":"Point","coordinates":[-118.906279,34.633751]}},{"properties":{"city":"EL SOBRANTE","zip code":"94803","amount":210.86,"id":"a674txyv9tgy","donor":"PATRICIA BACCHETTI"},"type":"Feature","geometry":{"type":"Point","coordinates":[-122.276731,37.958725]}},{"properties":{"city":"OAKLAND","zip code":"94618","amount":105.43,"id":"a674txz0p3v1","donor":"PATRICIA DEDEKIAN"},"type":"Feature","geometry":{"type":"Point","coordinates":[-122.237027,37.842303]}},{"properties":{"city":"LOS ANGELES","zip code":"90010","amount":175.0,"id":"a674txzhdk50","donor":"PATRICK MCGINN"},"type":"Feature","geometry":{"type":"Point","coordinates":[-118.308934,34.062545]}},{"properties":{"city":"REDDING","zip code":"96003","amount":211.99,"id":"a674txzbawci","donor":"PATTI T. SWAIM"},"type":"Feature","geometry":{"type":"Point","coordinates":[-122.289072,40.70998]}},{"properties":{"city":"ANTELOPE","zip code":"95843","amount":159.24,"id":"a674ty2s2cjx","donor":"PAUL SCHINDLER"},"type":"Feature","geometry":{"type":"Point","coordinates":[-121.359881,38.714907]}},{"properties":{"city":"WEST HOLLYWOOD","zip code":"90069","amount":100.0,"id":"a674txz2m210","donor":"PETER MALICK"},"type":"Feature","geometry":{"type":"Point","coordinates":[-118.378335,34.09316]}},{"properties":{"city":"SAN JOSE","zip code":"95123","amount":125.0,"id":"a674txym06p5","donor":"PETKO PETKOV"},"type":"Feature","geometry":{"type":"Point","coordinates":[-121.827792,37.237485]}},{"properties":{"city":"PASADENA","zip code":"91104","amount":269.0,"id":"a674txu86i6v","donor":"PHILLIP BLUM"},"type":"Feature","geometry":{"type":"Point","coordinates":[-118.11812,34.165771]}},{"properties":{"city":"ARTESIA","zip code":"90701","amount":100.0,"id":"a674ty3occlj","donor":"PHYSIS"},"type":"Feature","geometry":{"type":"Point","coordinates":[-118.080078,33.86483]}},{"properties":{"city":"SAN DIEGO","zip code":"92109","amount":125.0,"id":"a674txwzyszm","donor":"RA HALEVI"},"type":"Feature","geometry":{"type":"Point","coordinates":[-117.249975,32.803617]}},{"properties":{"city":"MILLBRAE","zip code":"94030","amount":159.24,"id":"a674txvyoctp","donor":"RICCI WYNNE"},"type":"Feature","geometry":{"type":"Point","coordinates":[-122.407083,37.599372]}},{"properties":{"city":"SUNNYVALE","zip code":"94087","amount":1015.0,"id":"a674txr90yg1","donor":"RICHARD GEIGER ($965), ROBERT WEISSMAN ($50)"},"type":"Feature","geometry":{"type":"Point","coordinates":[-122.032602,37.34921]}},{"properties":{"city":"SAN JOSE","zip code":"95121","amount":279.2,"id":"a674txo7pttl","donor":"RICHARD STEEB"},"type":"Feature","geometry":{"type":"Point","coordinates":[-121.805012,37.302108]}},{"properties":{"city":"SHERMAN OAKS","zip code":"91403","amount":7100.0,"id":"a674txxs36gs","donor":"RICHARD WOLFE ($2100), NORMAN B. GOLDBERG ($5000)"},"type":"Feature","geometry":{"type":"Point","coordinates":[-118.457197,34.14239]}},{"properties":{"city":"SAN DIEGO","zip code":"92123","amount":100.0,"id":"a674txzqxnk9","donor":"RICK ERICSON"},"type":"Feature","geometry":{"type":"Point","coordinates":[-117.132358,32.810253]}},{"properties":{"city":"LOS ANGELES","zip code":"90045","amount":50.0,"id":"a674txqovuv2","donor":"ROBBIE JAMES"},"type":"Feature","geometry":{"type":"Point","coordinates":[-118.404626,33.956003]}},{"properties":{"city":"ORINDA","zip code":"94563","amount":100.0,"id":"a674ty1y71y9","donor":"ROBERT BOYD"},"type":"Feature","geometry":{"type":"Point","coordinates":[-122.185957,37.891253]}},{"properties":{"city":"VAN NUYS","zip code":"91406","amount":75.0,"id":"a674ty2n7l7d","donor":"ROBERT BROOKS"},"type":"Feature","geometry":{"type":"Point","coordinates":[-118.498074,34.198512]}},{"properties":{"city":"SAN DIEGO","zip code":"92129","amount":500.0,"id":"a674ty3fc0qu","donor":"ROBERT GREENHALL"},"type":"Feature","geometry":{"type":"Point","coordinates":[-117.13824,32.960197]}},{"properties":{"city":"BEVERLY HILLS","zip code":"90211","amount":225.0,"id":"a674txrcr8nx","donor":"ROBERT KAMEN"},"type":"Feature","geometry":{"type":"Point","coordinates":[-118.384178,34.066107]}},{"properties":{"city":"TUJUNGA","zip code":"91042","amount":200.0,"id":"a674ty0d2ld2","donor":"ROBERT ORSBURN"},"type":"Feature","geometry":{"type":"Point","coordinates":[-118.229271,34.296676]}},{"properties":{"city":"LOS ANGELES","zip code":"90077","amount":100.0,"id":"a674txw24u2d","donor":"ROBERT SCHWARZ"},"type":"Feature","geometry":{"type":"Point","coordinates":[-118.457197,34.101486]}},{"properties":{"city":"SACRAMENTO","zip code":"95816","amount":100.0,"id":"a674txtgb3ib","donor":"ROBERT SULLIVAN, MD"},"type":"Feature","geometry":{"type":"Point","coordinates":[-121.462758,38.570535]}},{"properties":{"city":"SAN DIEGO","zip code":"92119","amount":124.0,"id":"a674ty0c0o0q","donor":"ROBERT W. HOLDENVENZON"},"type":"Feature","geometry":{"type":"Point","coordinates":[-117.038216,32.811287]}},{"properties":{"city":"EL DORADO","zip code":"95623","amount":125.0,"id":"a674ty0p96z1","donor":"ROD MILLER"},"type":"Feature","geometry":{"type":"Point","coordinates":[-120.861378,38.610078]}},{"properties":{"city":"ACAMPO","zip code":"95220","amount":260.24,"id":"a674ty2javsk","donor":"RONALD CUSSINS"},"type":"Feature","geometry":{"type":"Point","coordinates":[-121.278559,38.17464]}},{"properties":{"city":"ENCINO","zip code":"91436","amount":1125.0,"id":"a674txxa63vm","donor":"RUSSELL SCHMIDT($125), KEVIN BRIGHT ($1000)"},"type":"Feature","geometry":{"type":"Point","coordinates":[-118.492235,34.154005]}},{"properties":{"city":"Oakland","zip code":"94612","amount":1403376.6,"id":"a674txolfon8","donor":"S.K. Seymour LLC, Oaksterdam University and affiliated entities"},"type":"Feature","geometry":{"type":"Point","coordinates":[-122.269679,37.805985]}},{"properties":{"city":"SAN DIEGO","zip code":"92116","amount":125.0,"id":"a674txyz9qm8","donor":"SACHI WILSON"},"type":"Feature","geometry":{"type":"Point","coordinates":[-117.123534,32.762693]}},{"properties":{"city":"WALNUT CREEK","zip code":"94595","amount":780.0,"id":"a674txwvoskv","donor":"SALWA IBRAHIM"},"type":"Feature","geometry":{"type":"Point","coordinates":[-122.0667,37.875107]}},{"properties":{"city":"FAIRFIELD","zip code":"94534","amount":1000.0,"id":"a674txx39jz6","donor":"SANDRA MORIARTY"},"type":"Feature","geometry":{"type":"Point","coordinates":[-122.106467,38.267263]}},{"properties":{"city":"MONTEREY PARK","zip code":"91754","amount":193.0,"id":"a674txzwn9z0","donor":"SHANNON AHERN"},"type":"Feature","geometry":{"type":"Point","coordinates":[-118.141526,34.047232]}},{"properties":{"city":"LOS ALTOS","zip code":"94022","amount":349.0,"id":"a674txpplv67","donor":"SHANTHI MANIAN ($224), ZAKI MANIAN ($125)"},"type":"Feature","geometry":{"type":"Point","coordinates":[-122.140541,37.369401]}},{"properties":{"city":"SAN FRANCISCO","zip code":"91134","amount":500.0,"id":"a674ty0yuxmg","donor":"SIGN DISPLAY &amp; ALLIED CRAFTS LOCAL 510 PAC"},"type":"Feature","geometry":{"type":"Point","coordinates":[-122.39771,37.793477]}},{"properties":{"city":"LA MESA","zip code":"91941","amount":396.0,"id":"a674txt35h8j","donor":"STEVE WHITTINGTON"},"type":"Feature","geometry":{"type":"Point","coordinates":[-116.979355,32.762226]}},{"properties":{"city":"VISALIA","zip code":"93291","amount":100.0,"id":"a674txyaeh4h","donor":"STEVEN CANTRELL"},"type":"Feature","geometry":{"type":"Point","coordinates":[-119.348265,36.382084]}},{"properties":{"city":"SUMMERLAND","zip code":"93067","amount":100.0,"id":"a674ty1ro2cf","donor":"STEVEN LEVINE"},"type":"Feature","geometry":{"type":"Point","coordinates":[-119.601376,34.420919]}},{"properties":{"city":"THOUSAND OAKS","zip code":"91360","amount":100.0,"id":"a674txvt2q98","donor":"STEVEN WOODWARD"},"type":"Feature","geometry":{"type":"Point","coordinates":[-118.894631,34.219999]}},{"properties":{"city":"MOUNTAIN VIEW","zip code":"94041","amount":199.0,"id":"a674ty2wsq2q","donor":"SUE TEMPEY"},"type":"Feature","geometry":{"type":"Point","coordinates":[-122.075222,37.386773]}},{"properties":{"city":"LANDERS","zip code":"92285","amount":649.0,"id":"a674txnrgfx2","donor":"TERRY TURNER"},"type":"Feature","geometry":{"type":"Point","coordinates":[-116.513796,34.361173]}},{"properties":{"city":"ESCONDIDO","zip code":"92025","amount":150.0,"id":"a674txoz5sc0","donor":"THOMAS SHAPARD"},"type":"Feature","geometry":{"type":"Point","coordinates":[-117.044101,33.086449]}},{"properties":{"city":"MENIFEE","zip code":"92584","amount":124.0,"id":"a674txu05dgv","donor":"THOMAS SWICK"},"type":"Feature","geometry":{"type":"Point","coordinates":[-117.185294,33.655739]}},{"properties":{"city":"NEWARK","zip code":"94560","amount":240.36,"id":"a674ty0lgoab","donor":"TROY BURLEIGH"},"type":"Feature","geometry":{"type":"Point","coordinates":[-122.04024,37.529659]}},{"properties":{"city":"DANVILLE","zip code":"94526","amount":125.0,"id":"a674txnb3hny","donor":"VAUGHAN JOHNSON"},"type":"Feature","geometry":{"type":"Point","coordinates":[-121.981435,37.800695]}},{"properties":{"city":"LONG BEACH","zip code":"90814","amount":545.0,"id":"a674txps2781","donor":"VINCENT SCULLY"},"type":"Feature","geometry":{"type":"Point","coordinates":[-118.142989,33.770905]}},{"properties":{"city":"ANAHEIM","zip code":"92805","amount":150.0,"id":"a674txtcb1zy","donor":"WAHEED AYUBI"},"type":"Feature","geometry":{"type":"Point","coordinates":[-117.907324,33.827605]}},{"properties":{"city":"MARTINEZ","zip code":"94553","amount":478.72,"id":"a674ty1p57bw","donor":"WENDY SCHILLINGER"},"type":"Feature","geometry":{"type":"Point","coordinates":[-122.151897,37.987359]}},{"properties":{"city":"RANCHO MURIETA","zip code":"95683","amount":102.0,"id":"a674txrmf1e6","donor":"WILBUR HAINES"},"type":"Feature","geometry":{"type":"Point","coordinates":[-121.102294,38.491989]}},{"properties":{"city":"LAKE FOREST","zip code":"92630","amount":125.0,"id":"a674ty077vme","donor":"WILLIAM BARRETT"},"type":"Feature","geometry":{"type":"Point","coordinates":[-117.684551,33.644752]}},{"properties":{"city":"HAYWARD","zip code":"94542","amount":250.0,"id":"a674txqyuxir","donor":"WILLIAM QUIRK"},"type":"Feature","geometry":{"type":"Point","coordinates":[-122.021234,37.649984]}},{"properties":{"city":"LAGUNA WOODS","zip code":"92637","amount":155.0,"id":"a674txnpj3ou","donor":"WILLIAM SCHWIED"},"type":"Feature","geometry":{"type":"Point","coordinates":[-117.728541,33.610868]}}],"is_temporal":false,"author":{"url":"http://www.sos.ca.gov","metadata":"","contact_name":"","contact_address":"","source":"California Secretary of State Campaign Finance","contact_phone":""},"source":"http://www.sos.ca.gov","pagination":{"sort":null,"start":0,"total":203,"limit":1000000},"state":"complete","tags":"donation,marijuana,political","published":"2010-10-05T05:12:42Z","id":65908}