{"type":"FeatureCollection","data_type":"Dataset","url_type":null,"permissions":[{"permissions":{"download":true,"view":true},"group_id":"everyone"}],"classification":null,"title":"testtest","count":742,"stream_id":66908,"contributor":{"url":"http://geocommons.com/users/16938","name":"samuelboland"},"data_attributes":null,"calculation_params":null,"icon_link":null,"link":"http://geocommons.com/overlays/66908.json","extent":[-89.1657,41.1059,-88.6133,41.6199],"geometry_types":["point"],"unique_name":null,"name":"testtest","feature_count":742,"description":"","next_feature":null,"is_raster":false,"short_classification":"Y","stats":{},"features":[{"properties":{"name":"Aaron Rios","geo_score":0.837,"id":"a65aw3o9ujx6","address":"3381 E 14th Rd , Ottawa, IL 61350-9624","geo_precision":"range"},"type":"Feature","geometry":{"type":"Point","coordinates":[-88.893498,41.423155]}},{"properties":{"name":"Adam Oldaker","geo_score":0.921,"id":"a65aw3iok691","address":"626 E Superior St , Ottawa, IL 61350-2347","geo_precision":"range"},"type":"Feature","geometry":{"type":"Point","coordinates":[-88.834116,41.352199]}},{"properties":{"name":"Adrienne Pike","geo_score":0.921,"id":"a65aw3mtcdv1","address":"616 E Center St , Ottawa, IL 61350-3630","geo_precision":"range"},"type":"Feature","geometry":{"type":"Point","coordinates":[-88.833585,41.336903]}},{"properties":{"name":"Aimee Tercs","geo_score":1.0,"id":"a65aw3gjldy3","address":"1982 Amanda Dr , Sandwich, IL 60548-9331","geo_precision":"range"},"type":"Feature","geometry":{"type":"Point","coordinates":[-88.655762,41.614336]}},{"properties":{"name":"Alaina Rivers","geo_score":0.823,"id":"a65aw3km4nzp","address":"211 View St , Ottawa, IL 61350-4448","geo_precision":"range"},"type":"Feature","geometry":{"type":"Point","coordinates":[-88.841115,41.325302]}},{"properties":{"name":"Alan Clark","geo_score":0.854,"id":"a65aw3ri4hjf","address":"1601 West St , Peru, IL 61354-1858","geo_precision":"range"},"type":"Feature","geometry":{"type":"Point","coordinates":[-89.125255,41.334023]}},{"properties":{"name":"Alec Hueneburg","geo_score":1.0,"id":"a65aw3ldcy7d","address":"1122 Plain St , Peru, IL 61354-2741","geo_precision":"range"},"type":"Feature","geometry":{"type":"Point","coordinates":[-89.120908,41.330684]}},{"properties":{"name":"Alex Riva","geo_score":0.883,"id":"a65aw3rov7ml","address":"2515 2nd St , Peru, IL 61354-3103","geo_precision":"range"},"type":"Feature","geometry":{"type":"Point","coordinates":[-89.138458,41.325705]}},{"properties":{"name":"Alicia Cazadd","geo_score":0.883,"id":"a65aw3mouu4c","address":"1529 9th St , Peru, IL 61354-2314","geo_precision":"range"},"type":"Feature","geometry":{"type":"Point","coordinates":[-89.125576,41.332201]}},{"properties":{"name":"Alida Wirtz","geo_score":0.921,"id":"a65aw3semv2j","address":"400 Park Ave , Ottawa, IL 61350-3634","geo_precision":"range"},"type":"Feature","geometry":{"type":"Point","coordinates":[-88.831514,41.338514]}},{"properties":{"name":"Allan Patarozzi","geo_score":0.837,"id":"a65aw3lg5ftf","address":"3292 E 13th Rd , Ottawa, IL 61350-9756","geo_precision":"range"},"type":"Feature","geometry":{"type":"Point","coordinates":[-88.912819,41.409965]}},{"properties":{"name":"Allen Tonioni","geo_score":0.657,"id":"a65aw3mbiiyc","address":"1670 Creve Coeur St , La Salle, IL 61301-1370","geo_precision":"range"},"type":"Feature","geometry":{"type":"Point","coordinates":[-89.104676,41.345601]}},{"properties":{"name":"Amanda Kramer","geo_score":1.0,"id":"a65aw3fflf7r","address":"2521 Market St , Peru, IL 61354-3450","geo_precision":"range"},"type":"Feature","geometry":{"type":"Point","coordinates":[-89.13858,41.32246]}},{"properties":{"name":"Amanda Oconnor","geo_score":1.0,"id":"a65aw3rvx7v0","address":"1816 Rock St , Peru, IL 61354-1853","geo_precision":"range"},"type":"Feature","geometry":{"type":"Point","coordinates":[-89.122818,41.336556]}},{"properties":{"name":"Amanda Paterimos","geo_score":0.829,"id":"a65aw3k5oegn","address":"2898 E 24th Rd , Marseilles, IL 61341-9621","geo_precision":"range"},"type":"Feature","geometry":{"type":"Point","coordinates":[-88.705727,41.358006]}},{"properties":{"name":"Amanda Venturini","geo_score":0.921,"id":"a65aw3parhk8","address":"1038 State St , Ottawa, IL 61350-4441","geo_precision":"range"},"type":"Feature","geometry":{"type":"Point","coordinates":[-88.839857,41.329959]}},{"properties":{"name":"Amy Oscepinski","geo_score":1.0,"id":"a65aw3eryeef","address":"317 Green St , Peru, IL 61354-3420","geo_precision":"range"},"type":"Feature","geometry":{"type":"Point","coordinates":[-89.135747,41.322785]}},{"properties":{"name":"Andrew Suarez","geo_score":1.0,"id":"a65aw3k9x9m9","address":"1602 Pulaski St , Peru, IL 61354-1934","geo_precision":"range"},"type":"Feature","geometry":{"type":"Point","coordinates":[-89.113114,41.333738]}},{"properties":{"name":"Angela Ladzinski","geo_score":0.854,"id":"a65aw3ohvorp","address":"1308 West St , Peru, IL 61354-2319","geo_precision":"range"},"type":"Feature","geometry":{"type":"Point","coordinates":[-89.125221,41.332276]}},{"properties":{"name":"Angela Lamps","geo_score":0.902,"id":"a65aw3jj51dh","address":"1708 27th St , Peru, IL 61354-3901","geo_precision":"range"},"type":"Feature","geometry":{"type":"Point","coordinates":[-89.128045,41.345163]}},{"properties":{"name":"Angela Spelman","geo_score":1.0,"id":"a65aw3ouy6dr","address":"2612 Plum St , Peru, IL 61354-1338","geo_precision":"range"},"type":"Feature","geometry":{"type":"Point","coordinates":[-89.12409,41.344271]}},{"properties":{"name":"Anna Marini","geo_score":0.657,"id":"a65aw3ghbd7d","address":"1414 Creve Coeur St , La Salle, IL 61301-1517","geo_precision":"range"},"type":"Feature","geometry":{"type":"Point","coordinates":[-89.10464,41.342175]}},{"properties":{"name":"Anna Ridley","geo_score":1.0,"id":"a65aw3kbxnyj","address":"416 Pike St , Peru, IL 61354-3245","geo_precision":"range"},"type":"Feature","geometry":{"type":"Point","coordinates":[-89.133034,41.324104]}},{"properties":{"name":"Anna Williams","geo_score":0.837,"id":"a65aw3g7wmaq","address":"1380 N 27th Rd , Ottawa, IL 61350-9732","geo_precision":"range"},"type":"Feature","geometry":{"type":"Point","coordinates":[-88.897883,41.331738]}},{"properties":{"name":"Anne Daugherity","geo_score":0.921,"id":"a65aw3np6cfa","address":"632 E Van Buren St , Ottawa, IL 61350-3646","geo_precision":"range"},"type":"Feature","geometry":{"type":"Point","coordinates":[-88.8321,41.339012]}},{"properties":{"name":"Anne Winterrowd","geo_score":0.962,"id":"a65aw3s0w23g","address":"900 N Jackson St , Streator, IL 61364-1836","geo_precision":"range"},"type":"Feature","geometry":{"type":"Point","coordinates":[-88.820721,41.129985]}},{"properties":{"name":"Annette Kohn","geo_score":0.595,"id":"a65aw3qcfxng","address":"1489 N 3039th Rd , Ottawa, IL 61350-9033","geo_precision":"zip"},"type":"Feature","geometry":{"type":"Point","coordinates":[-88.83341,41.299201]}},{"properties":{"name":"Anthony Farias","geo_score":0.657,"id":"a65aw3pi7g8j","address":"1670 Creve Coeur St , La Salle, IL 61301-1370","geo_precision":"range"},"type":"Feature","geometry":{"type":"Point","coordinates":[-89.104676,41.345601]}},{"properties":{"name":"Anthony Harcharik","geo_score":0.745,"id":"a65aw3m6t6lm","address":"908 N Otter Creek Rd , Streator, IL 61364-1850","geo_precision":"street"},"type":"Feature","geometry":{"type":"Point","coordinates":[-88.816217,41.105881]}},{"properties":{"name":"Anthony Morelli","geo_score":0.921,"id":"a65aw3t8wxna","address":"507 Chapel St , Ottawa, IL 61350-3003","geo_precision":"range"},"type":"Feature","geometry":{"type":"Point","coordinates":[-88.834683,41.348435]}},{"properties":{"name":"Ashley Chavez","geo_score":0.825,"id":"a65aw3kck6vc","address":"2552 N 4645th Rd Apt A , Somonauk, IL 60552-9629","geo_precision":"range"},"type":"Feature","geometry":{"type":"Point","coordinates":[-88.690253,41.609711]}},{"properties":{"name":"Ashley Conrad","geo_score":0.595,"id":"a65aw3l6gisz","address":"2601 N 3669th Rd , Sheridan, IL 60551-9393","geo_precision":"zip"},"type":"Feature","geometry":{"type":"Point","coordinates":[-88.664518,41.465587]}},{"properties":{"name":"Ashley Heider","geo_score":0.962,"id":"a65aw3n1kq88","address":"1302 E Broadway St , Streator, IL 61364-2524","geo_precision":"range"},"type":"Feature","geometry":{"type":"Point","coordinates":[-88.817993,41.125967]}},{"properties":{"name":"Audrey Matson","geo_score":0.823,"id":"a65aw3h1o1cc","address":"415 5th Ave , Ottawa, IL 61350-3621","geo_precision":"range"},"type":"Feature","geometry":{"type":"Point","coordinates":[-88.832603,41.338368]}},{"properties":{"name":"Barbara Barden","geo_score":0.725,"id":"a65aw3j6u0sr","address":"304 Heritage Cir , Streator, IL 61364-9207","geo_precision":"range"},"type":"Feature","geometry":{"type":"Point","coordinates":[-89.074268,41.296518]}},{"properties":{"name":"Barbara Davis","geo_score":0.962,"id":"a65aw3hyi7j0","address":"210 N Colorado Ave , Streator, IL 61364-2441","geo_precision":"range"},"type":"Feature","geometry":{"type":"Point","coordinates":[-88.820655,41.122191]}},{"properties":{"name":"Barbara Hake","geo_score":0.927,"id":"a65aw3q7s2mf","address":"2640 N 4250th Rd , Sheridan, IL 60551-9699","geo_precision":"range"},"type":"Feature","geometry":{"type":"Point","coordinates":[-88.670502,41.552194]}},{"properties":{"name":"Barbara Malley","geo_score":0.962,"id":"a65aw3lfc1t7","address":"703 Iowa Ave , Streator, IL 61364-2430","geo_precision":"range"},"type":"Feature","geometry":{"type":"Point","coordinates":[-88.822014,41.12689]}},{"properties":{"name":"Barbara Thompson","geo_score":0.921,"id":"a65aw3rzr9mt","address":"404 E Main St , Ottawa, IL 61350-3116","geo_precision":"range"},"type":"Feature","geometry":{"type":"Point","coordinates":[-88.836311,41.345769]}},{"properties":{"name":"Barry Blythe","geo_score":0.921,"id":"a65aw3uge96t","address":"1115 Bergen Ave , Ottawa, IL 61350-4418","geo_precision":"range"},"type":"Feature","geometry":{"type":"Point","coordinates":[-88.842396,41.326742]}},{"properties":{"name":"Belinda Hughes","geo_score":0.912,"id":"a65aw3slu7q4","address":"2453 E 2350th Rd , Marseilles, IL 61341-9710","geo_precision":"range"},"type":"Feature","geometry":{"type":"Point","coordinates":[-88.713748,41.290116]}},{"properties":{"name":"Benjamin Jarigese Jr","geo_score":0.823,"id":"a65aw3qw8b8c","address":"426 3rd Ave , Ottawa, IL 61350-3614","geo_precision":"range"},"type":"Feature","geometry":{"type":"Point","coordinates":[-88.834906,41.338338]}},{"properties":{"name":"Berta Corral","geo_score":1.0,"id":"a65aw3jfqt1k","address":"1919 Laverne Dr , Sandwich, IL 60548-9335","geo_precision":"range"},"type":"Feature","geometry":{"type":"Point","coordinates":[-88.657174,41.615726]}},{"properties":{"name":"Bessie Helms","geo_score":0.915,"id":"a65aw3t33urb","address":"215 Lakeview Ct , Somonauk, IL 60552-9673","geo_precision":"range"},"type":"Feature","geometry":{"type":"Point","coordinates":[-88.688036,41.610653]}},{"properties":{"name":"Betsy Lavalle","geo_score":0.921,"id":"a65aw3qag2pl","address":"920 Congress St , Ottawa, IL 61350-3024","geo_precision":"range"},"type":"Feature","geometry":{"type":"Point","coordinates":[-88.826546,41.346712]}},{"properties":{"name":"Betty Brunton","geo_score":0.725,"id":"a65aw3s9h660","address":"302 Heritage Cir , Streator, IL 61364-9207","geo_precision":"range"},"type":"Feature","geometry":{"type":"Point","coordinates":[-89.074269,41.296498]}},{"properties":{"name":"Betty Murphy","geo_score":0.0,"id":"a65aw3k1vqle","address":"2552 N 4645th Apta , Somonauk, IL 60552-","geo_precision":"unmatched"},"type":"Feature","geometry":null},{"properties":{"name":"Betty Ranger","geo_score":0.962,"id":"a65aw3p5pzfy","address":"1525 E Main St , Streator, IL 61364-3162","geo_precision":"range"},"type":"Feature","geometry":{"type":"Point","coordinates":[-88.81219,41.121033]}},{"properties":{"name":"Betty Whitlock","geo_score":0.902,"id":"a65aw3qyk9uj","address":"1208 23rd St , Peru, IL 61354-1302","geo_precision":"range"},"type":"Feature","geometry":{"type":"Point","coordinates":[-89.121653,41.342088]}},{"properties":{"name":"Beverly Degroot","geo_score":0.902,"id":"a65aw3mtcmy5","address":"1303 14th St , Peru, IL 61354-1837","geo_precision":"range"},"type":"Feature","geometry":{"type":"Point","coordinates":[-89.122886,41.336515]}},{"properties":{"name":"Beverly Pisano","geo_score":0.902,"id":"a65aw3f06en5","address":"1711 26th St , Peru, IL 61354-1389","geo_precision":"range"},"type":"Feature","geometry":{"type":"Point","coordinates":[-89.12819,41.344258]}},{"properties":{"name":"Beverly Ruffner","geo_score":0.912,"id":"a65aw3lq0uep","address":"2657 E 2350th Rd , Marseilles, IL 61341-9766","geo_precision":"range"},"type":"Feature","geometry":{"type":"Point","coordinates":[-88.711168,41.318526]}},{"properties":{"name":"Bobbie Michels","geo_score":0.854,"id":"a65aw3fkmyz3","address":"1216 West St , Peru, IL 61354-2318","geo_precision":"range"},"type":"Feature","geometry":{"type":"Point","coordinates":[-89.125233,41.331443]}},{"properties":{"name":"Bonnie Smyth","geo_score":0.883,"id":"a65aw3q84ps0","address":"2503 3rd St , Peru, IL 61354-3154","geo_precision":"range"},"type":"Feature","geometry":{"type":"Point","coordinates":[-89.13835,41.326622]}},{"properties":{"name":"Brad Cottingham","geo_score":0.962,"id":"a65aw3of4q98","address":"1507 E Main St , Streator, IL 61364-3163","geo_precision":"range"},"type":"Feature","geometry":{"type":"Point","coordinates":[-88.812821,41.12103]}},{"properties":{"name":"Brady Hinkelman","geo_score":0.837,"id":"a65aw3rbc929","address":"1435 N 33rd Rd , Ottawa, IL 61350-9622","geo_precision":"range"},"type":"Feature","geometry":{"type":"Point","coordinates":[-88.887486,41.411438]}},{"properties":{"name":"Brandi Gage","geo_score":0.0,"id":"a65aw3una8m6","address":"3026 E 1622nd , Ottawa, IL 61350-","geo_precision":"unmatched"},"type":"Feature","geometry":null},{"properties":{"name":"Brenda Burkart","geo_score":0.902,"id":"a65aw3n8dqlf","address":"1209 23rd St , Peru, IL 61354-1301","geo_precision":"range"},"type":"Feature","geometry":{"type":"Point","coordinates":[-89.121653,41.342088]}},{"properties":{"name":"Brenda Killelea","geo_score":0.837,"id":"a65aw3qmn951","address":"3358 E 16th Rd , Ottawa, IL 61350-9635","geo_precision":"range"},"type":"Feature","geometry":{"type":"Point","coordinates":[-88.854816,41.420076]}},{"properties":{"name":"Brian Christmann","geo_score":0.0,"id":"a65aw3mlmrew","address":"1622 N 3005th , Ottawa, IL 61350-","geo_precision":"unmatched"},"type":"Feature","geometry":null},{"properties":{"name":"Brian Sellett","geo_score":0.595,"id":"a65aw3gy1tfi","address":"1454 N 3045th Rd , Ottawa, IL 61350-9453","geo_precision":"zip"},"type":"Feature","geometry":{"type":"Point","coordinates":[-88.83341,41.299201]}},{"properties":{"name":"Brian Wagner","geo_score":0.902,"id":"a65aw3ezn3fp","address":"1614 26th St , Peru, IL 61354-1383","geo_precision":"range"},"type":"Feature","geometry":{"type":"Point","coordinates":[-89.127131,41.344287]}},{"properties":{"name":"Brian Watt","geo_score":0.921,"id":"a65aw3grtmu2","address":"927 State St , Ottawa, IL 61350-3950","geo_precision":"range"},"type":"Feature","geometry":{"type":"Point","coordinates":[-88.839866,41.330462]}},{"properties":{"name":"Brittany Carson","geo_score":0.958,"id":"a65aw3rrp4ui","address":"803 Bluff Ct , Peru, IL 61354-3618","geo_precision":"range"},"type":"Feature","geometry":{"type":"Point","coordinates":[-89.114381,41.326557]}},{"properties":{"name":"Brittany Stumpenhorst","geo_score":1.0,"id":"a65aw3f9pvbk","address":"1874 Irene Rd , Sandwich, IL 60548-9385","geo_precision":"range"},"type":"Feature","geometry":{"type":"Point","coordinates":[-88.653707,41.616856]}},{"properties":{"name":"Brook Ebersohl","geo_score":0.915,"id":"a65aw3mmlk2u","address":"2534 N 4645th Rd , Somonauk, IL 60552-9629","geo_precision":"range"},"type":"Feature","geometry":{"type":"Point","coordinates":[-88.690245,41.608798]}},{"properties":{"name":"Bryan Park","geo_score":0.909,"id":"a65aw3kti5gs","address":"209 Ponderosa Dr , Streator, IL 61364-1048","geo_precision":"range"},"type":"Feature","geometry":{"type":"Point","coordinates":[-88.842037,41.150778]}},{"properties":{"name":"Candy Rabel","geo_score":0.93,"id":"a65aw3fp0r22","address":"208 Cherry St , Mendota, IL 61342-2333","geo_precision":"range"},"type":"Feature","geometry":{"type":"Point","coordinates":[-89.110151,41.538942]}},{"properties":{"name":"Carl Carpenter Jr","geo_score":0.921,"id":"a65aw3n7ac1o","address":"709 E Joliet St , Ottawa, IL 61350-2407","geo_precision":"range"},"type":"Feature","geometry":{"type":"Point","coordinates":[-88.831927,41.355324]}},{"properties":{"name":"Carlos Lopez","geo_score":0.962,"id":"a65aw3iw7ld1","address":"1106 E Elm St , Streator, IL 61364-2447","geo_precision":"range"},"type":"Feature","geometry":{"type":"Point","coordinates":[-88.820597,41.123093]}},{"properties":{"name":"Carol Boyle-Collins","geo_score":0.665,"id":"a65aw3i5oz7i","address":"1129 Bucklin St , La Salle, IL 61301-1532","geo_precision":"range"},"type":"Feature","geometry":{"type":"Point","coordinates":[-89.101194,41.338953]}},{"properties":{"name":"Carol Fesco","geo_score":0.657,"id":"a65aw3fkjmik","address":"1240 Creve Coeur St , La Salle, IL 61301-1513","geo_precision":"range"},"type":"Feature","geometry":{"type":"Point","coordinates":[-89.104618,41.340413]}},{"properties":{"name":"Carol Flaherty","geo_score":0.902,"id":"a65aw3kasbmt","address":"1507 27th St , Peru, IL 61354-1384","geo_precision":"range"},"type":"Feature","geometry":{"type":"Point","coordinates":[-89.125671,41.344955]}},{"properties":{"name":"Carol Hegland","geo_score":0.922,"id":"a65aw3obk517","address":"339 N Woodland Ave , Oglesby, IL 61348-1173","geo_precision":"range"},"type":"Feature","geometry":{"type":"Point","coordinates":[-89.062532,41.298366]}},{"properties":{"name":"Carol Herrington","geo_score":1.0,"id":"a65aw3hod5ug","address":"764 Cynthia Dr , Sandwich, IL 60548-9235","geo_precision":"range"},"type":"Feature","geometry":{"type":"Point","coordinates":[-88.674739,41.609138]}},{"properties":{"name":"Carol Schloeder","geo_score":1.0,"id":"a65aw3sfm74h","address":"318 Calhoun St , Peru, IL 61354-3403","geo_precision":"range"},"type":"Feature","geometry":{"type":"Point","coordinates":[-89.134813,41.323705]}},{"properties":{"name":"Carol Zasada","geo_score":0.921,"id":"a65aw3gyv33q","address":"1260 Illinois Ave , Ottawa, IL 61350-3312","geo_precision":"range"},"type":"Feature","geometry":{"type":"Point","coordinates":[-88.857363,41.343467]}},{"properties":{"name":"Carole Cain","geo_score":0.921,"id":"a65aw3o6xhdz","address":"1204 Bergen Ave , Ottawa, IL 61350-4421","geo_precision":"range"},"type":"Feature","geometry":{"type":"Point","coordinates":[-88.842387,41.326162]}},{"properties":{"name":"Carolyn Hadley","geo_score":0.912,"id":"a65aw3tbywpm","address":"3106 E 2382nd Rd , Marseilles, IL 61341-9493","geo_precision":"range"},"type":"Feature","geometry":{"type":"Point","coordinates":[-88.709187,41.383387]}},{"properties":{"name":"Carrie Perez","geo_score":0.921,"id":"a65aw3u5j99c","address":"910 Congress St , Ottawa, IL 61350-3024","geo_precision":"range"},"type":"Feature","geometry":{"type":"Point","coordinates":[-88.826621,41.346711]}},{"properties":{"name":"Carrie Reedy","geo_score":0.837,"id":"a65aw3jvigju","address":"2696 N 3853rd Rd Apt 2 , Sheridan, IL 60551-9570","geo_precision":"range"},"type":"Feature","geometry":{"type":"Point","coordinates":[-88.654208,41.494414]}},{"properties":{"name":"Carrie Strickland","geo_score":0.883,"id":"a65aw3p7g4wj","address":"2316 1st St , Peru, IL 61354-3241","geo_precision":"range"},"type":"Feature","geometry":{"type":"Point","coordinates":[-89.135845,41.324833]}},{"properties":{"name":"Carrie Woeltje","geo_score":0.927,"id":"a65aw3kjzzl7","address":"2644 N 3650th Rd , Sheridan, IL 60551-9553","geo_precision":"range"},"type":"Feature","geometry":{"type":"Point","coordinates":[-88.768189,41.463353]}},{"properties":{"name":"Cathy Elzer","geo_score":1.0,"id":"a65aw3euytad","address":"416 Schuyler St , Peru, IL 61354-3336","geo_precision":"range"},"type":"Feature","geometry":{"type":"Point","coordinates":[-89.131733,41.324684]}},{"properties":{"name":"Cathy Rath","geo_score":0.962,"id":"a65aw3ow4kj2","address":"211 Birmingham Ave , Streator, IL 61364-3111","geo_precision":"range"},"type":"Feature","geometry":{"type":"Point","coordinates":[-88.814976,41.11944]}},{"properties":{"name":"Chad Winterrowd","geo_score":0.962,"id":"a65aw3ez52mv","address":"900 N Jackson St , Streator, IL 61364-1836","geo_precision":"range"},"type":"Feature","geometry":{"type":"Point","coordinates":[-88.820721,41.129985]}},{"properties":{"name":"Charles Drosten","geo_score":0.897,"id":"a65aw3mmyxir","address":"2010 N Bloomington St APTB3 , Streator, IL 61364-1386","geo_precision":"range"},"type":"Feature","geometry":{"type":"Point","coordinates":[-88.835822,41.142882]}},{"properties":{"name":"Charles Olson III","geo_score":0.922,"id":"a65aw3g4kjnj","address":"620 S Columbia Ave , Oglesby, IL 61348-1467","geo_precision":"range"},"type":"Feature","geometry":{"type":"Point","coordinates":[-89.068074,41.288826]}},{"properties":{"name":"Charles Raley","geo_score":1.0,"id":"a65aw3lcno66","address":"1415 Pulaski St , Peru, IL 61354-2306","geo_precision":"range"},"type":"Feature","geometry":{"type":"Point","coordinates":[-89.11312,41.332128]}},{"properties":{"name":"Cherie Monterastelli","geo_score":0.921,"id":"a65aw3ojsctb","address":"731 E Main St , Ottawa, IL 61350-3121","geo_precision":"range"},"type":"Feature","geometry":{"type":"Point","coordinates":[-88.828604,41.345836]}},{"properties":{"name":"Cheryl Hooper","geo_score":0.883,"id":"a65aw3on0wkz","address":"2520 3rd St , Peru, IL 61354-3153","geo_precision":"range"},"type":"Feature","geometry":{"type":"Point","coordinates":[-89.138596,41.326619]}},{"properties":{"name":"Cheryl Johnson","geo_score":0.819,"id":"a65aw3sjxfuw","address":"2419 N 46th Rd , Leland, IL 60531-9720","geo_precision":"range"},"type":"Feature","geometry":{"type":"Point","coordinates":[-88.709576,41.601624]}},{"properties":{"name":"Cheryl Morrison","geo_score":0.902,"id":"a65aw3hrayaz","address":"616 10th St , Peru, IL 61354-2337","geo_precision":"range"},"type":"Feature","geometry":{"type":"Point","coordinates":[-89.113277,41.33366]}},{"properties":{"name":"Cheryl Popurella","geo_score":0.922,"id":"a65aw3ey37c8","address":"223 W Porter St , Oglesby, IL 61348-1153","geo_precision":"range"},"type":"Feature","geometry":{"type":"Point","coordinates":[-89.062583,41.297873]}},{"properties":{"name":"Chester Wasik","geo_score":1.0,"id":"a65aw3qnbsra","address":"2213 Market St , Peru, IL 61354-3444","geo_precision":"range"},"type":"Feature","geometry":{"type":"Point","coordinates":[-89.134572,41.322957]}},{"properties":{"name":"Chris Peterson","geo_score":0.962,"id":"a65aw3rjabtj","address":"2020 Eastwood Ave , Streator, IL 61364-1073","geo_precision":"range"},"type":"Feature","geometry":{"type":"Point","coordinates":[-88.850105,41.147355]}},{"properties":{"name":"Chris Roberts","geo_score":0.915,"id":"a65aw3lbdyrp","address":"94 Holiday Dr , Somonauk, IL 60552-9614","geo_precision":"range"},"type":"Feature","geometry":{"type":"Point","coordinates":[-88.688218,41.609072]}},{"properties":{"name":"Christian Jauch Jr","geo_score":0.883,"id":"a65aw3inka2d","address":"2422 3rd St , Peru, IL 61354-3155","geo_precision":"range"},"type":"Feature","geometry":{"type":"Point","coordinates":[-89.137304,41.32663]}},{"properties":{"name":"Christina Barnes","geo_score":0.824,"id":"a65aw3ry96bn","address":"451 W 2nd St , Oglesby, IL 61348-1407","geo_precision":"range"},"type":"Feature","geometry":{"type":"Point","coordinates":[-89.067882,41.292822]}},{"properties":{"name":"Christina Geheber","geo_score":0.962,"id":"a65aw3j7pr1l","address":"1313 E Broadway St , Streator, IL 61364-2523","geo_precision":"range"},"type":"Feature","geometry":{"type":"Point","coordinates":[-88.817862,41.12597]}},{"properties":{"name":"Christine Brown","geo_score":0.854,"id":"a65aw3p2lb13","address":"1803 West St , Peru, IL 61354-1860","geo_precision":"range"},"type":"Feature","geometry":{"type":"Point","coordinates":[-89.125328,41.336507]}},{"properties":{"name":"Christine Foster","geo_score":1.0,"id":"a65aw3gp9i0d","address":"704 Cross St , Peru, IL 61354-3226","geo_precision":"range"},"type":"Feature","geometry":{"type":"Point","coordinates":[-89.137018,41.32667]}},{"properties":{"name":"Christine Jensen","geo_score":0.823,"id":"a65aw3qk57gx","address":"521 3rd Ave , Ottawa, IL 61350-3615","geo_precision":"range"},"type":"Feature","geometry":{"type":"Point","coordinates":[-88.834869,41.336588]}},{"properties":{"name":"Christine Lynch","geo_score":0.883,"id":"a65aw3f6daj2","address":"2021 3rd St , Peru, IL 61354-3254","geo_precision":"range"},"type":"Feature","geometry":{"type":"Point","coordinates":[-89.132038,41.326682]}},{"properties":{"name":"Christopher Berger","geo_score":1.0,"id":"a65aw3gvhjqz","address":"2103 Main St , Peru, IL 61354-3425","geo_precision":"range"},"type":"Feature","geometry":{"type":"Point","coordinates":[-89.133151,41.323955]}},{"properties":{"name":"Christopher Clemens","geo_score":0.921,"id":"a65aw3tofh6z","address":"1401 Ottawa Ave , Ottawa, IL 61350-3415","geo_precision":"range"},"type":"Feature","geometry":{"type":"Point","coordinates":[-88.860172,41.341167]}},{"properties":{"name":"Christopher Conness","geo_score":0.921,"id":"a65aw3skyd4q","address":"1251 Illinois Ave , Ottawa, IL 61350-3311","geo_precision":"range"},"type":"Feature","geometry":{"type":"Point","coordinates":[-88.857183,41.343565]}},{"properties":{"name":"Christopher Halm","geo_score":0.823,"id":"a65aw3p9gwzq","address":"539 2nd Ave , Ottawa, IL 61350-3611","geo_precision":"range"},"type":"Feature","geometry":{"type":"Point","coordinates":[-88.836019,41.336303]}},{"properties":{"name":"Christopher Jennings","geo_score":0.73,"id":"a65aw3pec56w","address":"1206 Laharpe St , La Salle, IL 61301-1667","geo_precision":"range"},"type":"Feature","geometry":{"type":"Point","coordinates":[-89.090187,41.340124]}},{"properties":{"name":"Christopher Woeltje","geo_score":0.927,"id":"a65aw3hx59mu","address":"2644 N 3650th Rd , Sheridan, IL 60551-9553","geo_precision":"range"},"type":"Feature","geometry":{"type":"Point","coordinates":[-88.768189,41.463353]}},{"properties":{"name":"Cindee Ebert","geo_score":0.916,"id":"a65aw3u8ehrg","address":"3953 E 22nd Rd , Serena, IL 60549-9722","geo_precision":"range"},"type":"Feature","geometry":{"type":"Point","coordinates":[-88.748163,41.507428]}},{"properties":{"name":"Cindy Callahan","geo_score":0.837,"id":"a65aw3ljzb6k","address":"3153 E 15th Rd , Ottawa, IL 61350-9618","geo_precision":"range"},"type":"Feature","geometry":{"type":"Point","coordinates":[-88.874281,41.390157]}},{"properties":{"name":"Cindy Christmann","geo_score":0.0,"id":"a65aw3f8ph0v","address":"1622 N 3005th , Ottawa, IL 61350-","geo_precision":"unmatched"},"type":"Feature","geometry":null},{"properties":{"name":"Claudette Magnoni","geo_score":0.922,"id":"a65aw3nuqkv0","address":"401 W Porter St , Oglesby, IL 61348-1128","geo_precision":"range"},"type":"Feature","geometry":{"type":"Point","coordinates":[-89.067481,41.297933]}},{"properties":{"name":"Colette Bohnstengel","geo_score":0.596,"id":"a65aw3u8j6w3","address":"3614 E 1759th Rd , Ottawa, IL 61350-9067","geo_precision":"street"},"type":"Feature","geometry":{"type":"Point","coordinates":[-88.825314,41.36501]}},{"properties":{"name":"Colleen Maney","geo_score":0.921,"id":"a65aw3rhpvzo","address":"1 Oaklane Dr , Ottawa, IL 61350-1134","geo_precision":"range"},"type":"Feature","geometry":{"type":"Point","coordinates":[-88.849772,41.368125]}},{"properties":{"name":"Collin Stuart","geo_score":1.0,"id":"a65aw3gbyawv","address":"1718 Walnut St , Peru, IL 61354-1944","geo_precision":"range"},"type":"Feature","geometry":{"type":"Point","coordinates":[-89.111916,41.334665]}},{"properties":{"name":"Connie Larson","geo_score":0.921,"id":"a65aw3q1nzum","address":"1513 Pleasant Pl , Ottawa, IL 61350-3422","geo_precision":"range"},"type":"Feature","geometry":{"type":"Point","coordinates":[-88.862057,41.338175]}},{"properties":{"name":"Connie Lorden","geo_score":0.883,"id":"a65aw3h7cvf3","address":"1727 1st St , Peru, IL 61354-3326","geo_precision":"range"},"type":"Feature","geometry":{"type":"Point","coordinates":[-89.12813,41.324901]}},{"properties":{"name":"Connie Schwingle","geo_score":1.0,"id":"a65aw3ml6r8w","address":"1604 Walnut St , Peru, IL 61354-1942","geo_precision":"range"},"type":"Feature","geometry":{"type":"Point","coordinates":[-89.111913,41.333774]}},{"properties":{"name":"Constance Marini","geo_score":1.0,"id":"a65aw3s7hveu","address":"2201 Meadow Lawn Ln , Peru, IL 61354-1213","geo_precision":"range"},"type":"Feature","geometry":{"type":"Point","coordinates":[-89.128413,41.34071]}},{"properties":{"name":"Constance Temple","geo_score":0.927,"id":"a65aw3m5k1vb","address":"3780 E 2702nd Rd , Sheridan, IL 60551-9751","geo_precision":"range"},"type":"Feature","geometry":{"type":"Point","coordinates":[-88.65323,41.484799]}},{"properties":{"name":"Craig Loechner","geo_score":0.883,"id":"a65aw3orr5ey","address":"627 9th St , Peru, IL 61354-2384","geo_precision":"range"},"type":"Feature","geometry":{"type":"Point","coordinates":[-89.114094,41.331921]}},{"properties":{"name":"Crystal Loughran","geo_score":0.958,"id":"a65aw3ruquti","address":"803 Bluff Ct , Peru, IL 61354-3618","geo_precision":"range"},"type":"Feature","geometry":{"type":"Point","coordinates":[-89.114381,41.326557]}},{"properties":{"name":"Csaba Tercs","geo_score":1.0,"id":"a65aw3fvs23j","address":"1982 Amanda Dr , Sandwich, IL 60548-9331","geo_precision":"range"},"type":"Feature","geometry":{"type":"Point","coordinates":[-88.655762,41.614336]}},{"properties":{"name":"Cynthia Anderson","geo_score":0.829,"id":"a65aw3n2e01e","address":"2556 E 22nd Rd , Marseilles, IL 61341-9702","geo_precision":"range"},"type":"Feature","geometry":{"type":"Point","coordinates":[-88.725796,41.302866]}},{"properties":{"name":"Dale Smith","geo_score":0.921,"id":"a65aw3rdp1r9","address":"415 Thompson St , Ottawa, IL 61350-4335","geo_precision":"range"},"type":"Feature","geometry":{"type":"Point","coordinates":[-88.845179,41.32624]}},{"properties":{"name":"Dan Biba","geo_score":0.912,"id":"a65aw3lqt3z0","address":"2351 N 2453rd Rd , Marseilles, IL 61341-9705","geo_precision":"range"},"type":"Feature","geometry":{"type":"Point","coordinates":[-88.719288,41.287507]}},{"properties":{"name":"Dana Morrow","geo_score":1.0,"id":"a65aw3q42kxx","address":"2407 Pearl St , Peru, IL 61354-3457","geo_precision":"range"},"type":"Feature","geometry":{"type":"Point","coordinates":[-89.137018,41.321695]}},{"properties":{"name":"Daniel Brummel","geo_score":0.921,"id":"a65aw3rovwmt","address":"702 E Joliet St , Ottawa, IL 61350-2408","geo_precision":"range"},"type":"Feature","geometry":{"type":"Point","coordinates":[-88.831994,41.355323]}},{"properties":{"name":"Daniel Dresbach","geo_score":0.665,"id":"a65aw3kptjga","address":"1579 Bucklin St , La Salle, IL 61301-1311","geo_precision":"range"},"type":"Feature","geometry":{"type":"Point","coordinates":[-89.102031,41.344558]}},{"properties":{"name":"Daniel Farrell","geo_score":0.0,"id":"a65aw3ng0rvn","address":"3019 E 1622nd , Ottawa, IL 61350-","geo_precision":"unmatched"},"type":"Feature","geometry":null},{"properties":{"name":"Daniel Michels","geo_score":0.854,"id":"a65aw3ux7c8o","address":"1216 West St , Peru, IL 61354-2318","geo_precision":"range"},"type":"Feature","geometry":{"type":"Point","coordinates":[-89.125233,41.331443]}},{"properties":{"name":"Daniel Roeling","geo_score":0.921,"id":"a65aw3pgkyrq","address":"315 E Michigan St , Ottawa, IL 61350-2227","geo_precision":"range"},"type":"Feature","geometry":{"type":"Point","coordinates":[-88.838131,41.353695]}},{"properties":{"name":"Danielle Stachowiak","geo_score":0.883,"id":"a65aw3lxz0fo","address":"2325 3rd St , Peru, IL 61354-3249","geo_precision":"range"},"type":"Feature","geometry":{"type":"Point","coordinates":[-89.136018,41.32664]}},{"properties":{"name":"Darren Nawa","geo_score":0.902,"id":"a65aw3hznf9h","address":"1514 27th St , Peru, IL 61354-1394","geo_precision":"range"},"type":"Feature","geometry":{"type":"Point","coordinates":[-89.125672,41.345051]}},{"properties":{"name":"Dave Stuart","geo_score":1.0,"id":"a65aw3hbfn1p","address":"1422 Plain St , Peru, IL 61354-2378","geo_precision":"range"},"type":"Feature","geometry":{"type":"Point","coordinates":[-89.120936,41.333492]}},{"properties":{"name":"David Bayley","geo_score":0.921,"id":"a65aw3qofu98","address":"111 Leland Ln , Ottawa, IL 61350-3438","geo_precision":"range"},"type":"Feature","geometry":{"type":"Point","coordinates":[-88.855123,41.341834]}},{"properties":{"name":"David Degroot","geo_score":0.902,"id":"a65aw3rfd8zz","address":"1303 14th St , Peru, IL 61354-1837","geo_precision":"range"},"type":"Feature","geometry":{"type":"Point","coordinates":[-89.122886,41.336515]}},{"properties":{"name":"David Foulker","geo_score":0.962,"id":"a65aw3tne57p","address":"6 Old Orchard Ln , Streator, IL 61364-1065","geo_precision":"range"},"type":"Feature","geometry":{"type":"Point","coordinates":[-88.850003,41.147822]}},{"properties":{"name":"David Ingallinera","geo_score":0.921,"id":"a65aw3tgqw44","address":"744 E Main St , Ottawa, IL 61350-3146","geo_precision":"range"},"type":"Feature","geometry":{"type":"Point","coordinates":[-88.829919,41.345819]}},{"properties":{"name":"David Kauzlarich","geo_score":0.772,"id":"a65aw3fuf88q","address":"1837 May Rd Apt 3 , Peru, IL 61354-9305","geo_precision":"range"},"type":"Feature","geometry":{"type":"Point","coordinates":[-89.137468,41.367272]}},{"properties":{"name":"David Leamy","geo_score":0.902,"id":"a65aw3o0vxhb","address":"1214 24th St , Peru, IL 61354-1308","geo_precision":"range"},"type":"Feature","geometry":{"type":"Point","coordinates":[-89.121951,41.342795]}},{"properties":{"name":"David Rasmussen","geo_score":1.0,"id":"a65aw3sn7usk","address":"2146 Meridian Rd , Peru, IL 61354-9402","geo_precision":"range"},"type":"Feature","geometry":{"type":"Point","coordinates":[-89.162898,41.243051]}},{"properties":{"name":"David Reese","geo_score":0.883,"id":"a65aw3gbm3dw","address":"2328 1st St , Peru, IL 61354-3241","geo_precision":"range"},"type":"Feature","geometry":{"type":"Point","coordinates":[-89.13603,41.324831]}},{"properties":{"name":"David Shaw","geo_score":0.0,"id":"a65aw3flnhj3","address":"2538 N 4645th Aptb , Somonauk, IL 60552-","geo_precision":"unmatched"},"type":"Feature","geometry":null},{"properties":{"name":"David Twardowski","geo_score":0.827,"id":"a65aw3pxbkte","address":"1145 15th St , La Salle, IL 61301-1423","geo_precision":"range"},"type":"Feature","geometry":{"type":"Point","coordinates":[-89.091048,41.343103]}},{"properties":{"name":"Dawn Kolotka","geo_score":0.921,"id":"a65aw3toxot8","address":"907 E Center St , Ottawa, IL 61350-4126","geo_precision":"range"},"type":"Feature","geometry":{"type":"Point","coordinates":[-88.830335,41.336969]}},{"properties":{"name":"Dawn Rick","geo_score":0.921,"id":"a65aw3mqng9n","address":"725 Illinois Ave , Ottawa, IL 61350-3373","geo_precision":"range"},"type":"Feature","geometry":{"type":"Point","coordinates":[-88.850855,41.344147]}},{"properties":{"name":"Dean Anderson Sr","geo_score":0.921,"id":"a65aw3u6744f","address":"605 E Joliet St , Ottawa, IL 61350-2301","geo_precision":"range"},"type":"Feature","geometry":{"type":"Point","coordinates":[-88.833362,41.355302]}},{"properties":{"name":"Dean Walsh","geo_score":0.843,"id":"a65aw3nyq4ag","address":"2384 N 41st Rd , Sheridan, IL 60551-9460","geo_precision":"range"},"type":"Feature","geometry":{"type":"Point","coordinates":[-88.714172,41.528806]}},{"properties":{"name":"Deanna Wiltgen","geo_score":1.0,"id":"a65aw3h7h7fr","address":"1759 Laverne Dr , Sandwich, IL 60548-9391","geo_precision":"range"},"type":"Feature","geometry":{"type":"Point","coordinates":[-88.656188,41.619461]}},{"properties":{"name":"Deborah Harris","geo_score":0.883,"id":"a65aw3mc0ucy","address":"2120 Crescent Dr , Peru, IL 61354-1224","geo_precision":"range"},"type":"Feature","geometry":{"type":"Point","coordinates":[-89.127003,41.339876]}},{"properties":{"name":"Deborah Jones","geo_score":0.927,"id":"a65aw3kbjed7","address":"2688 N 3909th Rd , Sheridan, IL 60551-9759","geo_precision":"range"},"type":"Feature","geometry":{"type":"Point","coordinates":[-88.675611,41.500503]}},{"properties":{"name":"Deborah Reilly","geo_score":0.921,"id":"a65aw3ovuls3","address":"1516 Birchlawn Pl , Ottawa, IL 61350-3460","geo_precision":"range"},"type":"Feature","geometry":{"type":"Point","coordinates":[-88.862622,41.338965]}},{"properties":{"name":"Debra Erlenborn","geo_score":1.0,"id":"a65aw3ninvho","address":"2 Sunset Ct , Peru, IL 61354-1215","geo_precision":"range"},"type":"Feature","geometry":{"type":"Point","coordinates":[-89.12728,41.341485]}},{"properties":{"name":"Debra Lambert","geo_score":0.883,"id":"a65aw3iljsrv","address":"1509 8th St , Peru, IL 61354-2312","geo_precision":"range"},"type":"Feature","geometry":{"type":"Point","coordinates":[-89.125315,41.331294]}},{"properties":{"name":"Debra Ragusa","geo_score":0.962,"id":"a65aw3p0kui4","address":"1007 Painter St , Streator, IL 61364-1857","geo_precision":"range"},"type":"Feature","geometry":{"type":"Point","coordinates":[-88.817981,41.13131]}},{"properties":{"name":"Debra Reynolds","geo_score":1.0,"id":"a65aw3m84dpf","address":"125 Cross St , Peru, IL 61354-3411","geo_precision":"range"},"type":"Feature","geometry":{"type":"Point","coordinates":[-89.136941,41.321201]}},{"properties":{"name":"Debra Tucker","geo_score":0.921,"id":"a65aw3rjszqw","address":"1242 Ottawa Ave , Ottawa, IL 61350-3412","geo_precision":"range"},"type":"Feature","geometry":{"type":"Point","coordinates":[-88.857254,41.342358]}},{"properties":{"name":"Denise Kline","geo_score":0.0,"id":"a65aw3mz4o4v","address":"783 E Ill18 , Streator, IL 61364-","geo_precision":"unmatched"},"type":"Feature","geometry":null},{"properties":{"name":"Denise Lenert","geo_score":0.927,"id":"a65aw3lq3npm","address":"2661 N 3853rd Rd , Sheridan, IL 60551-9676","geo_precision":"range"},"type":"Feature","geometry":{"type":"Point","coordinates":[-88.663088,41.495919]}},{"properties":{"name":"Denise Mall","geo_score":1.0,"id":"a65aw3sukvzm","address":"1987 Rosemary Cir , Sandwich, IL 60548-9382","geo_precision":"range"},"type":"Feature","geometry":{"type":"Point","coordinates":[-88.658442,41.614275]}},{"properties":{"name":"Dennis Brown Jr","geo_score":0.805,"id":"a65aw3sa21hx","address":"2765 N 3650th Rd , Sheridan, IL 60551-9552","geo_precision":"range"},"type":"Feature","geometry":{"type":"Point","coordinates":[-88.766673,41.463349]}},{"properties":{"name":"Dennis Nowatka","geo_score":1.0,"id":"a65aw3sg8otr","address":"410 Pike St , Peru, IL 61354-3245","geo_precision":"range"},"type":"Feature","geometry":{"type":"Point","coordinates":[-89.133034,41.324049]}},{"properties":{"name":"Dennis Rodriquez","geo_score":0.921,"id":"a65aw3kj0837","address":"1018 University Ave , Ottawa, IL 61350-4338","geo_precision":"range"},"type":"Feature","geometry":{"type":"Point","coordinates":[-88.843634,41.328052]}},{"properties":{"name":"Dennis Siebert","geo_score":1.0,"id":"a65aw3juule8","address":"1824 Main St , Peru, IL 61354-3531","geo_precision":"range"},"type":"Feature","geometry":{"type":"Point","coordinates":[-89.130291,41.323982]}},{"properties":{"name":"Dennis Summers","geo_score":0.854,"id":"a65aw3iprk39","address":"1320 West St , Peru, IL 61354-2319","geo_precision":"range"},"type":"Feature","geometry":{"type":"Point","coordinates":[-89.125224,41.332386]}},{"properties":{"name":"Derek Dickson","geo_score":1.0,"id":"a65aw3rn6jzz","address":"1987 Rosemary Cir , Sandwich, IL 60548-9382","geo_precision":"range"},"type":"Feature","geometry":{"type":"Point","coordinates":[-88.658442,41.614275]}},{"properties":{"name":"Diana Brown","geo_score":0.921,"id":"a65aw3orlh32","address":"1239 W Main St , Ottawa, IL 61350-2516","geo_precision":"range"},"type":"Feature","geometry":{"type":"Point","coordinates":[-88.857497,41.345534]}},{"properties":{"name":"Diana Julian","geo_score":0.902,"id":"a65aw3hwh8n5","address":"1516 11th St , Peru, IL 61354-2311","geo_precision":"range"},"type":"Feature","geometry":{"type":"Point","coordinates":[-89.125493,41.334021]}},{"properties":{"name":"Diane Odonnell","geo_score":0.837,"id":"a65aw3j2sm0t","address":"3599 E 14th Rd , Ottawa, IL 61350-9515","geo_precision":"range"},"type":"Feature","geometry":{"type":"Point","coordinates":[-88.89354,41.455028]}},{"properties":{"name":"Diane Ralph","geo_score":0.921,"id":"a65aw3qc8yxi","address":"417 Pearl St , Ottawa, IL 61350-3041","geo_precision":"range"},"type":"Feature","geometry":{"type":"Point","coordinates":[-88.836176,41.347577]}},{"properties":{"name":"Diane Rosales","geo_score":0.843,"id":"a65aw3kuc4vi","address":"3676 E 25th Rd , Sheridan, IL 60551-9300","geo_precision":"range"},"type":"Feature","geometry":{"type":"Point","coordinates":[-88.691948,41.467492]}},{"properties":{"name":"Dolores Duffy","geo_score":0.927,"id":"a65aw3h33v0f","address":"2088 N 4071st Rd , Sheridan, IL 60551-9452","geo_precision":"range"},"type":"Feature","geometry":{"type":"Point","coordinates":[-88.770063,41.525576]}},{"properties":{"name":"Dolores Valtierra","geo_score":0.921,"id":"a65aw3mi672i","address":"832 E Michigan St , Ottawa, IL 61350-2414","geo_precision":"range"},"type":"Feature","geometry":{"type":"Point","coordinates":[-88.829456,41.353699]}},{"properties":{"name":"Donald Brants","geo_score":0.883,"id":"a65aw3spm6e6","address":"1914 3rd St , Peru, IL 61354-3338","geo_precision":"range"},"type":"Feature","geometry":{"type":"Point","coordinates":[-89.130596,41.326694]}},{"properties":{"name":"Donald Miller Jr","geo_score":0.84,"id":"a65aw3ns49ls","address":"816 N 17th Rd , Tonica, IL 61370-9560","geo_precision":"range"},"type":"Feature","geometry":{"type":"Point","coordinates":[-89.007022,41.177735]}},{"properties":{"name":"Donald Ribolzi","geo_score":0.922,"id":"a65aw3prk98d","address":"112 Cedar Creek Ln , Oglesby, IL 61348-9699","geo_precision":"range"},"type":"Feature","geometry":{"type":"Point","coordinates":[-89.10454,41.294779]}},{"properties":{"name":"Donald Robb","geo_score":0.93,"id":"a65aw3nepmnx","address":"404 Cherry St , Mendota, IL 61342-2240","geo_precision":"range"},"type":"Feature","geometry":{"type":"Point","coordinates":[-89.113024,41.538977]}},{"properties":{"name":"Donna Anderson","geo_score":0.831,"id":"a65aw3roogfc","address":"2423 N 47th Rd , Somonauk, IL 60552-9583","geo_precision":"range"},"type":"Feature","geometry":{"type":"Point","coordinates":[-88.70946,41.616138]}},{"properties":{"name":"Donna Miller","geo_score":0.823,"id":"a65aw3t4i9w3","address":"527 7th Ave , Ottawa, IL 61350-4113","geo_precision":"range"},"type":"Feature","geometry":{"type":"Point","coordinates":[-88.829161,41.33679]}},{"properties":{"name":"Donna Moline","geo_score":0.921,"id":"a65aw3jj3g1c","address":"1511 Birchlawn Pl , Ottawa, IL 61350-3459","geo_precision":"range"},"type":"Feature","geometry":{"type":"Point","coordinates":[-88.862385,41.33901]}},{"properties":{"name":"Donna Sarles","geo_score":0.921,"id":"a65aw3j7jja4","address":"2120 Fox Hill Ln , Ottawa, IL 61350-1674","geo_precision":"range"},"type":"Feature","geometry":{"type":"Point","coordinates":[-88.835728,41.362973]}},{"properties":{"name":"Dorothy Haun","geo_score":1.0,"id":"a65aw3ouxken","address":"1816 Rock St , Peru, IL 61354-1853","geo_precision":"range"},"type":"Feature","geometry":{"type":"Point","coordinates":[-89.122818,41.336556]}},{"properties":{"name":"Douglas Butts","geo_score":0.902,"id":"a65aw3rmvyal","address":"732 11th St , Peru, IL 61354-2302","geo_precision":"range"},"type":"Feature","geometry":{"type":"Point","coordinates":[-89.115507,41.334316]}},{"properties":{"name":"Douglas Sale","geo_score":0.921,"id":"a65aw3ov5ag7","address":"738 E Main St , Ottawa, IL 61350-3122","geo_precision":"range"},"type":"Feature","geometry":{"type":"Point","coordinates":[-88.830011,41.345817]}},{"properties":{"name":"Douglas Swanson","geo_score":0.883,"id":"a65aw3qyo8uw","address":"1828 3rd St , Peru, IL 61354-3340","geo_precision":"range"},"type":"Feature","geometry":{"type":"Point","coordinates":[-89.129491,41.326704]}},{"properties":{"name":"Dustin Hansen","geo_score":0.862,"id":"a65aw3o95cjb","address":"2123 Fox Chase Dr , Ottawa, IL 61350-1277","geo_precision":"range"},"type":"Feature","geometry":{"type":"Point","coordinates":[-88.834652,41.362965]}},{"properties":{"name":"Dustin Siekierka","geo_score":0.665,"id":"a65aw3not18v","address":"1303 Bucklin St , La Salle, IL 61301-1536","geo_precision":"range"},"type":"Feature","geometry":{"type":"Point","coordinates":[-89.101484,41.340798]}},{"properties":{"name":"Edward Cech","geo_score":1.0,"id":"a65aw3pk2gd8","address":"2005 Rosemary Cir , Sandwich, IL 60548-9333","geo_precision":"range"},"type":"Feature","geometry":{"type":"Point","coordinates":[-88.657152,41.614316]}},{"properties":{"name":"Edward Degroot","geo_score":0.883,"id":"a65aw3rz4g0a","address":"2418 3rd St , Peru, IL 61354-3155","geo_precision":"range"},"type":"Feature","geometry":{"type":"Point","coordinates":[-89.137199,41.32663]}},{"properties":{"name":"Edward Denham","geo_score":0.921,"id":"a65aw3hhbklb","address":"428 E Marquette St , Ottawa, IL 61350-2305","geo_precision":"range"},"type":"Feature","geometry":{"type":"Point","coordinates":[-88.836434,41.354217]}},{"properties":{"name":"Edward Kolesar","geo_score":0.921,"id":"a65aw3tfzkey","address":"1049 State St , Ottawa, IL 61350-4461","geo_precision":"range"},"type":"Feature","geometry":{"type":"Point","coordinates":[-88.839828,41.328449]}},{"properties":{"name":"Edward Kuleck Jr","geo_score":0.921,"id":"a65aw3ns5xkw","address":"1460 Birchlawn Pl , Ottawa, IL 61350-3402","geo_precision":"range"},"type":"Feature","geometry":{"type":"Point","coordinates":[-88.860873,41.339583]}},{"properties":{"name":"Elinor Ahearn","geo_score":0.962,"id":"a65aw3ez4kdd","address":"2327 Eastwood Ave , Streator, IL 61364-9499","geo_precision":"range"},"type":"Feature","geometry":{"type":"Point","coordinates":[-88.850376,41.150955]}},{"properties":{"name":"Elizabeth Helgren","geo_score":0.921,"id":"a65aw3lp31zz","address":"709 Congress St , Ottawa, IL 61350-3019","geo_precision":"range"},"type":"Feature","geometry":{"type":"Point","coordinates":[-88.830577,41.34673]}},{"properties":{"name":"Ellen Dammann","geo_score":0.921,"id":"a65aw3olywmo","address":"525 E Superior St , Ottawa, IL 61350-2344","geo_precision":"range"},"type":"Feature","geometry":{"type":"Point","coordinates":[-88.83587,41.352184]}},{"properties":{"name":"Eloise Fike","geo_score":0.921,"id":"a65aw3kz594f","address":"3623 E 1769 Rd , Ottawa, IL 61350-9682","geo_precision":"range"},"type":"Feature","geometry":{"type":"Point","coordinates":[-88.821764,41.457496]}},{"properties":{"name":"Eric Weatherspoon Jr","geo_score":0.883,"id":"a65aw3eht3i1","address":"621 7th St , Peru, IL 61354-2803","geo_precision":"range"},"type":"Feature","geometry":{"type":"Point","coordinates":[-89.113359,41.330583]}},{"properties":{"name":"Erin Lavens","geo_score":0.922,"id":"a65aw3nr84x0","address":"257 N School Ave , Oglesby, IL 61348-1446","geo_precision":"range"},"type":"Feature","geometry":{"type":"Point","coordinates":[-89.063986,41.297335]}},{"properties":{"name":"Esther Hauppa","geo_score":0.823,"id":"a65aw3j49x2q","address":"309 View St , Ottawa, IL 61350-4343","geo_precision":"range"},"type":"Feature","geometry":{"type":"Point","coordinates":[-88.842296,41.325286]}},{"properties":{"name":"Evan Shields","geo_score":0.823,"id":"a65aw3o6cqim","address":"1205 Ottawa Ave , Ottawa, IL 61350-3411","geo_precision":"street"},"type":"Feature","geometry":{"type":"Point","coordinates":[-88.856025,41.342877]}},{"properties":{"name":"Evelyn Arnold","geo_score":0.883,"id":"a65aw3nnuhm9","address":"1327 7th St , Peru, IL 61354-2726","geo_precision":"range"},"type":"Feature","geometry":{"type":"Point","coordinates":[-89.122605,41.330435]}},{"properties":{"name":"Everett Engelhaupt","geo_score":0.665,"id":"a65aw3r2m8fn","address":"1353 Porter Ave , La Salle, IL 61301-1461","geo_precision":"range"},"type":"Feature","geometry":{"type":"Point","coordinates":[-89.088829,41.344231]}},{"properties":{"name":"Everett Friestad","geo_score":0.837,"id":"a65aw3hdtjzy","address":"3110 E 16th Rd , Ottawa, IL 61350-9637","geo_precision":"range"},"type":"Feature","geometry":{"type":"Point","coordinates":[-88.855197,41.384217]}},{"properties":{"name":"Faith Siebert","geo_score":1.0,"id":"a65aw3g1twp6","address":"1824 Main St , Peru, IL 61354-3531","geo_precision":"range"},"type":"Feature","geometry":{"type":"Point","coordinates":[-89.130291,41.323982]}},{"properties":{"name":"Farrell Brooks","geo_score":0.823,"id":"a65aw3pjgyrg","address":"424 5th Ave , Ottawa, IL 61350-3622","geo_precision":"range"},"type":"Feature","geometry":{"type":"Point","coordinates":[-88.832602,41.338285]}},{"properties":{"name":"Frances Graffis","geo_score":0.921,"id":"a65aw3kn7da2","address":"825 Chapel St , Ottawa, IL 61350-3009","geo_precision":"range"},"type":"Feature","geometry":{"type":"Point","coordinates":[-88.827415,41.348476]}},{"properties":{"name":"Frances Wiggett","geo_score":0.962,"id":"a65aw3tgsbq6","address":"1525 E Main St , Streator, IL 61364-3162","geo_precision":"range"},"type":"Feature","geometry":{"type":"Point","coordinates":[-88.81219,41.121033]}},{"properties":{"name":"Francesco Chiurato","geo_score":0.0,"id":"a65aw3inx9x3","address":"2506 Reynolds Dr , Ottawa, IL 61350-","geo_precision":"unmatched"},"type":"Feature","geometry":null},{"properties":{"name":"Francis Schuett","geo_score":0.921,"id":"a65aw3j53zea","address":"1121 Lincoln Ave , Ottawa, IL 61350-4430","geo_precision":"range"},"type":"Feature","geometry":{"type":"Point","coordinates":[-88.841132,41.327056]}},{"properties":{"name":"Francis Schweickert","geo_score":0.883,"id":"a65aw3qcgrql","address":"1616 2nd St , Peru, IL 61354-3504","geo_precision":"range"},"type":"Feature","geometry":{"type":"Point","coordinates":[-89.126655,41.325811]}},{"properties":{"name":"Frank Grigg","geo_score":0.837,"id":"a65aw3ktw11o","address":"1348 N 31st Rd , Ottawa, IL 61350-9759","geo_precision":"range"},"type":"Feature","geometry":{"type":"Point","coordinates":[-88.904591,41.382206]}},{"properties":{"name":"Frank Schloeder","geo_score":0.883,"id":"a65aw3t1ckjo","address":"2530 1st St , Peru, IL 61354-3140","geo_precision":"range"},"type":"Feature","geometry":{"type":"Point","coordinates":[-89.13867,41.324804]}},{"properties":{"name":"Frank Vaisvilas","geo_score":1.0,"id":"a65aw3o74zl3","address":"1221 Plain St , Peru, IL 61354-2365","geo_precision":"range"},"type":"Feature","geometry":{"type":"Point","coordinates":[-89.120919,41.331729]}},{"properties":{"name":"Fred Sell","geo_score":0.922,"id":"a65aw3tlp72b","address":"113 Claret Knoll Ave , Oglesby, IL 61348-9533","geo_precision":"range"},"type":"Feature","geometry":{"type":"Point","coordinates":[-89.103192,41.294495]}},{"properties":{"name":"Frederick Nicklin","geo_score":0.725,"id":"a65aw3i5onxk","address":"505 Heritage Cir , Streator, IL 61364-9212","geo_precision":"range"},"type":"Feature","geometry":{"type":"Point","coordinates":[-88.844349,41.32216]}},{"properties":{"name":"Garry Dibrito","geo_score":0.595,"id":"a65aw3qexuv4","address":"2375 N 4060th Rd , Sheridan, IL 60551-9382","geo_precision":"zip"},"type":"Feature","geometry":{"type":"Point","coordinates":[-88.664518,41.465587]}},{"properties":{"name":"Gary Siebert","geo_score":0.895,"id":"a65aw3oiu1fl","address":"705 Calhoun St Apt 5D , Peru, IL 61354-3200","geo_precision":"range"},"type":"Feature","geometry":{"type":"Point","coordinates":[-89.134397,41.326694]}},{"properties":{"name":"Gary White","geo_score":0.823,"id":"a65aw3r5m98r","address":"506 7th Ave , Ottawa, IL 61350-4114","geo_precision":"range"},"type":"Feature","geometry":{"type":"Point","coordinates":[-88.829163,41.336944]}},{"properties":{"name":"Gene Morrall","geo_score":0.912,"id":"a65aw3p89mlk","address":"2655 E 2350th Rd , Marseilles, IL 61341-9766","geo_precision":"range"},"type":"Feature","geometry":{"type":"Point","coordinates":[-88.711204,41.318195]}},{"properties":{"name":"Genevieve Highsmith","geo_score":0.712,"id":"a65aw3t8uapz","address":"1545 Campbell Ave , La Salle, IL 61301-1362","geo_precision":"range"},"type":"Feature","geometry":{"type":"Point","coordinates":[-89.100225,41.343799]}},{"properties":{"name":"Genevieve Knafelc","geo_score":0.665,"id":"a65aw3jvyoxx","address":"1437 Bucklin St , La Salle, IL 61301-1538","geo_precision":"range"},"type":"Feature","geometry":{"type":"Point","coordinates":[-89.101779,41.34268]}},{"properties":{"name":"Geoffrey Petriekis","geo_score":0.915,"id":"a65aw3krbm4z","address":"168 Holiday Dr , Somonauk, IL 60552-9620","geo_precision":"range"},"type":"Feature","geometry":{"type":"Point","coordinates":[-88.678777,41.605101]}},{"properties":{"name":"George Alaimo Jr","geo_score":0.921,"id":"a65aw3qfycv7","address":"1015 Guion St , Ottawa, IL 61350-2240","geo_precision":"range"},"type":"Feature","geometry":{"type":"Point","coordinates":[-88.83685,41.350152]}},{"properties":{"name":"George Barnes","geo_score":0.823,"id":"a65aw3fw7uel","address":"407 2nd Ave , Ottawa, IL 61350-3609","geo_precision":"range"},"type":"Feature","geometry":{"type":"Point","coordinates":[-88.836062,41.338727]}},{"properties":{"name":"George Hegland","geo_score":0.922,"id":"a65aw3u2usvn","address":"339 N Woodland Ave , Oglesby, IL 61348-1173","geo_precision":"range"},"type":"Feature","geometry":{"type":"Point","coordinates":[-89.062532,41.298366]}},{"properties":{"name":"George Mansour","geo_score":0.921,"id":"a65aw3uvx563","address":"620 Shabbona St , Ottawa, IL 61350-3132","geo_precision":"range"},"type":"Feature","geometry":{"type":"Point","coordinates":[-88.837745,41.346132]}},{"properties":{"name":"George Orr","geo_score":0.921,"id":"a65aw3h9rlf9","address":"941 State St , Ottawa, IL 61350-3950","geo_precision":"range"},"type":"Feature","geometry":{"type":"Point","coordinates":[-88.839857,41.32992]}},{"properties":{"name":"George Rodgers","geo_score":0.883,"id":"a65aw3r6f73t","address":"1806 3rd St , Peru, IL 61354-3340","geo_precision":"range"},"type":"Feature","geometry":{"type":"Point","coordinates":[-89.129205,41.326706]}},{"properties":{"name":"Georgia Kulis","geo_score":0.824,"id":"a65aw3m3ufwf","address":"440 W 2nd St , Oglesby, IL 61348-1408","geo_precision":"range"},"type":"Feature","geometry":{"type":"Point","coordinates":[-89.067085,41.292826]}},{"properties":{"name":"Gina Ajster","geo_score":1.0,"id":"a65aw3hnr1h0","address":"2216 Market St , Peru, IL 61354-3445","geo_precision":"range"},"type":"Feature","geometry":{"type":"Point","coordinates":[-89.134608,41.322939]}},{"properties":{"name":"Gina Cawley","geo_score":0.665,"id":"a65aw3i4r1by","address":"1401 Bucklin St , La Salle, IL 61301-1538","geo_precision":"range"},"type":"Feature","geometry":{"type":"Point","coordinates":[-89.101676,41.341999]}},{"properties":{"name":"Gina White","geo_score":0.922,"id":"a65aw3r384a9","address":"100 Cedar Creek Ln , Oglesby, IL 61348-9699","geo_precision":"range"},"type":"Feature","geometry":{"type":"Point","coordinates":[-89.104541,41.295145]}},{"properties":{"name":"Giovanni Dirosa","geo_score":1.0,"id":"a65aw3k0396c","address":"2519 Main St , Peru, IL 61354-3433","geo_precision":"range"},"type":"Feature","geometry":{"type":"Point","coordinates":[-89.138519,41.323894]}},{"properties":{"name":"Graciela Gomez","geo_score":0.712,"id":"a65aw3ssjhap","address":"1599 Lafayette St , La Salle, IL 61301-1313","geo_precision":"range"},"type":"Feature","geometry":{"type":"Point","coordinates":[-89.103246,41.34485]}},{"properties":{"name":"Greg Sondgeroth","geo_score":0.883,"id":"a65aw3uh8owg","address":"1607 2nd St , Peru, IL 61354-3503","geo_precision":"range"},"type":"Feature","geometry":{"type":"Point","coordinates":[-89.126555,41.325812]}},{"properties":{"name":"Gregory Satterfield","geo_score":0.912,"id":"a65aw3tv1yzx","address":"3109 E 2379th Rd , Marseilles, IL 61341-9498","geo_precision":"range"},"type":"Feature","geometry":{"type":"Point","coordinates":[-88.710676,41.384312]}},{"properties":{"name":"Harold Reihl","geo_score":0.962,"id":"a65aw3ixf5z6","address":"1525 E Main St , Streator, IL 61364-3162","geo_precision":"range"},"type":"Feature","geometry":{"type":"Point","coordinates":[-88.81219,41.121033]}},{"properties":{"name":"Harold Siebert","geo_score":1.0,"id":"a65aw3tneh86","address":"1824 Main St , Peru, IL 61354-3531","geo_precision":"range"},"type":"Feature","geometry":{"type":"Point","coordinates":[-89.130291,41.323982]}},{"properties":{"name":"Hazel Mekley","geo_score":0.921,"id":"a65aw3pevxik","address":"1338 Ottawa Ave , Ottawa, IL 61350-3471","geo_precision":"range"},"type":"Feature","geometry":{"type":"Point","coordinates":[-88.859276,41.341536]}},{"properties":{"name":"Heather Gerkitz","geo_score":0.921,"id":"a65aw3p2uqcc","address":"704 Pearl St , Ottawa, IL 61350-3048","geo_precision":"range"},"type":"Feature","geometry":{"type":"Point","coordinates":[-88.830647,41.347609]}},{"properties":{"name":"Heather Newton","geo_score":0.837,"id":"a65aw3laugh1","address":"1805 N 32nd Rd , Ottawa, IL 61350-9466","geo_precision":"range"},"type":"Feature","geometry":{"type":"Point","coordinates":[-88.816116,41.397977]}},{"properties":{"name":"Heather Pruitt","geo_score":0.922,"id":"a65aw3f71owx","address":"620 S Columbia Ave , Oglesby, IL 61348-1467","geo_precision":"range"},"type":"Feature","geometry":{"type":"Point","coordinates":[-89.068074,41.288826]}},{"properties":{"name":"Heather Simmons","geo_score":0.927,"id":"a65aw3n9zssz","address":"2622 N 3659th Rd , Sheridan, IL 60551-9594","geo_precision":"range"},"type":"Feature","geometry":{"type":"Point","coordinates":[-88.67055,41.464114]}},{"properties":{"name":"Helen Pleasant","geo_score":0.962,"id":"a65aw3tnzk29","address":"1529 E Main St , Streator, IL 61364-3104","geo_precision":"range"},"type":"Feature","geometry":{"type":"Point","coordinates":[-88.812089,41.121033]}},{"properties":{"name":"Henry Araujo","geo_score":0.962,"id":"a65aw3qj6ff5","address":"915 Painter St , Streator, IL 61364-1855","geo_precision":"range"},"type":"Feature","geometry":{"type":"Point","coordinates":[-88.817979,41.130161]}},{"properties":{"name":"Hermila Cruz","geo_score":0.73,"id":"a65aw3fqq61u","address":"1553 Laharpe St , La Salle, IL 61301-1431","geo_precision":"range"},"type":"Feature","geometry":{"type":"Point","coordinates":[-89.090223,41.344194]}},{"properties":{"name":"Holly Letherman","geo_score":0.834,"id":"a65aw3sv04t1","address":"1602 N 42nd Rd , Earlville, IL 60518-6169","geo_precision":"range"},"type":"Feature","geometry":{"type":"Point","coordinates":[-88.854442,41.543309]}},{"properties":{"name":"Howard Clemens","geo_score":0.921,"id":"a65aw3p0q5lh","address":"1401 Ottawa Ave , Ottawa, IL 61350-3415","geo_precision":"range"},"type":"Feature","geometry":{"type":"Point","coordinates":[-88.860172,41.341167]}},{"properties":{"name":"Ignacio Martinez","geo_score":0.921,"id":"a65aw3gf4uhr","address":"514 E Michigan St , Ottawa, IL 61350-2311","geo_precision":"range"},"type":"Feature","geometry":{"type":"Point","coordinates":[-88.835276,41.353626]}},{"properties":{"name":"Jack Neal","geo_score":0.921,"id":"a65aw3jri1vh","address":"1816 N 2753rd Rd , Ottawa, IL 61350-9702","geo_precision":"range"},"type":"Feature","geometry":{"type":"Point","coordinates":[-88.813907,41.349215]}},{"properties":{"name":"Jacqueline Clift","geo_score":0.921,"id":"a65aw3nmh5kq","address":"1215 Phelps St , Ottawa, IL 61350-3247","geo_precision":"range"},"type":"Feature","geometry":{"type":"Point","coordinates":[-88.856922,41.344894]}},{"properties":{"name":"Jade Korba","geo_score":0.921,"id":"a65aw3pcxnpw","address":"969 Bergen Ave , Ottawa, IL 61350-4414","geo_precision":"range"},"type":"Feature","geometry":{"type":"Point","coordinates":[-88.842434,41.329138]}},{"properties":{"name":"Jaerod Barta","geo_score":0.921,"id":"a65aw3jeuqga","address":"631 Pearl St , Ottawa, IL 61350-3045","geo_precision":"range"},"type":"Feature","geometry":{"type":"Point","coordinates":[-88.832162,41.347597]}},{"properties":{"name":"Jake Rathbun","geo_score":0.883,"id":"a65aw3jniv1w","address":"709 7th St , Peru, IL 61354-2805","geo_precision":"range"},"type":"Feature","geometry":{"type":"Point","coordinates":[-89.114396,41.330568]}},{"properties":{"name":"Jakob Kowalczyk","geo_score":0.883,"id":"a65aw3lqs1nq","address":"622 6th St , Peru, IL 61354-2825","geo_precision":"range"},"type":"Feature","geometry":{"type":"Point","coordinates":[-89.113356,41.329834]}},{"properties":{"name":"James Adams","geo_score":1.0,"id":"a65aw3n7fqi6","address":"1826 Dolly Ct , Sandwich, IL 60548-9367","geo_precision":"range"},"type":"Feature","geometry":{"type":"Point","coordinates":[-88.656809,41.616474]}},{"properties":{"name":"James Bartlett Jr","geo_score":1.0,"id":"a65aw3q9vd2d","address":"2121 State St , Peru, IL 61354-3463","geo_precision":"range"},"type":"Feature","geometry":{"type":"Point","coordinates":[-89.133241,41.322589]}},{"properties":{"name":"James Bice","geo_score":0.883,"id":"a65aw3tir9al","address":"1804 3rd St , Peru, IL 61354-3340","geo_precision":"range"},"type":"Feature","geometry":{"type":"Point","coordinates":[-89.129185,41.326707]}},{"properties":{"name":"James Cook","geo_score":0.883,"id":"a65aw3tk88n3","address":"1828 2nd St , Peru, IL 61354-3304","geo_precision":"range"},"type":"Feature","geometry":{"type":"Point","coordinates":[-89.129475,41.325795]}},{"properties":{"name":"James Gute","geo_score":0.921,"id":"a65aw3qqmhzb","address":"3752 E 1553rd Rd , Ottawa, IL 61350-9467","geo_precision":"range"},"type":"Feature","geometry":{"type":"Point","coordinates":[-88.842826,41.477611]}},{"properties":{"name":"James Happ","geo_score":0.902,"id":"a65aw3rznalt","address":"902 14th St , Peru, IL 61354-1812","geo_precision":"range"},"type":"Feature","geometry":{"type":"Point","coordinates":[-89.116829,41.336349]}},{"properties":{"name":"James Killelea","geo_score":0.837,"id":"a65aw3p8h37x","address":"3358 E 16th Rd , Ottawa, IL 61350-9635","geo_precision":"range"},"type":"Feature","geometry":{"type":"Point","coordinates":[-88.854816,41.420076]}},{"properties":{"name":"James Mickel","geo_score":1.0,"id":"a65aw3ejr1yt","address":"1208 Sunset Dr , Peru, IL 61354-1355","geo_precision":"range"},"type":"Feature","geometry":{"type":"Point","coordinates":[-89.121443,41.341378]}},{"properties":{"name":"James Pearson","geo_score":1.0,"id":"a65aw3ul4udo","address":"1121 Plain St , Peru, IL 61354-2740","geo_precision":"range"},"type":"Feature","geometry":{"type":"Point","coordinates":[-89.120908,41.330663]}},{"properties":{"name":"James Riordan","geo_score":0.962,"id":"a65aw3sdgefi","address":"305 Fuller Ave , Streator, IL 61364-2506","geo_precision":"range"},"type":"Feature","geometry":{"type":"Point","coordinates":[-88.809716,41.123685]}},{"properties":{"name":"James Smyth","geo_score":0.883,"id":"a65aw3ip85cb","address":"2503 3rd St , Peru, IL 61354-3154","geo_precision":"range"},"type":"Feature","geometry":{"type":"Point","coordinates":[-89.13835,41.326622]}},{"properties":{"name":"Jamie Ferguson","geo_score":0.921,"id":"a65aw3p6e50z","address":"315 E Prospect Ave , Ottawa, IL 61350-3635","geo_precision":"range"},"type":"Feature","geometry":{"type":"Point","coordinates":[-88.837126,41.339754]}},{"properties":{"name":"Jane Goetz","geo_score":0.921,"id":"a65aw3g0na06","address":"3614 E 1769 Rd , Ottawa, IL 61350-9681","geo_precision":"range"},"type":"Feature","geometry":{"type":"Point","coordinates":[-88.821785,41.457347]}},{"properties":{"name":"Jane Nuccio","geo_score":0.0,"id":"a65aw3sd9xwk","address":"2516 Reynolds Dr , Ottawa, IL 61350-","geo_precision":"unmatched"},"type":"Feature","geometry":null},{"properties":{"name":"Janelle Rios","geo_score":0.705,"id":"a65aw3lykhem","address":"1690 Crosat St , La Salle, IL 61301-1430","geo_precision":"range"},"type":"Feature","geometry":{"type":"Point","coordinates":[-89.091589,41.345414]}},{"properties":{"name":"Janet Gadus","geo_score":0.921,"id":"a65aw3twdlxp","address":"921 Chambers St , Ottawa, IL 61350-3957","geo_precision":"range"},"type":"Feature","geometry":{"type":"Point","coordinates":[-88.84235,41.329596]}},{"properties":{"name":"Janet Kotecki","geo_score":0.902,"id":"a65aw3omxqju","address":"1714 26th St , Peru, IL 61354-1390","geo_precision":"range"},"type":"Feature","geometry":{"type":"Point","coordinates":[-89.128234,41.344257]}},{"properties":{"name":"Janet Mitrenga","geo_score":0.915,"id":"a65aw3rpyg01","address":"266 Easy St , Somonauk, IL 60552-9605","geo_precision":"range"},"type":"Feature","geometry":{"type":"Point","coordinates":[-88.684465,41.613688]}},{"properties":{"name":"Janet Phillips","geo_score":0.705,"id":"a65aw3f5nnhk","address":"1323 Crosat St , La Salle, IL 61301-1651","geo_precision":"range"},"type":"Feature","geometry":{"type":"Point","coordinates":[-89.091558,41.341558]}},{"properties":{"name":"Janet Sisk-Schunke","geo_score":0.921,"id":"a65aw3poftmg","address":"504 York St , Ottawa, IL 61350-3058","geo_precision":"range"},"type":"Feature","geometry":{"type":"Point","coordinates":[-88.832723,41.345064]}},{"properties":{"name":"Janette Torres","geo_score":0.883,"id":"a65aw3q94j4u","address":"516 9th St , Peru, IL 61354-2330","geo_precision":"range"},"type":"Feature","geometry":{"type":"Point","coordinates":[-89.112056,41.332019]}},{"properties":{"name":"Janice Hill","geo_score":0.837,"id":"a65aw3s2p2o4","address":"1443 N 32nd Rd , Ottawa, IL 61350-9619","geo_precision":"range"},"type":"Feature","geometry":{"type":"Point","coordinates":[-88.88519,41.397016]}},{"properties":{"name":"Janice Lock","geo_score":0.962,"id":"a65aw3mc2gxo","address":"809 Oakley Ave , Streator, IL 61364-1024","geo_precision":"range"},"type":"Feature","geometry":{"type":"Point","coordinates":[-88.845147,41.15]}},{"properties":{"name":"Jared Crew","geo_score":0.602,"id":"a65aw3okq8xv","address":"149 Alicia Ct , Oglesby, IL 61348-9501","geo_precision":"zip"},"type":"Feature","geometry":{"type":"Point","coordinates":[-89.071471,41.311424]}},{"properties":{"name":"Jason Jensen","geo_score":0.921,"id":"a65aw3hn4cen","address":"402 E Van Buren St , Ottawa, IL 61350-3603","geo_precision":"range"},"type":"Feature","geometry":{"type":"Point","coordinates":[-88.836046,41.338848]}},{"properties":{"name":"Jason Pruitt","geo_score":0.922,"id":"a65aw3kt2xyt","address":"620 S Columbia Ave , Oglesby, IL 61348-1467","geo_precision":"range"},"type":"Feature","geometry":{"type":"Point","coordinates":[-89.068074,41.288826]}},{"properties":{"name":"Jay Bell","geo_score":1.0,"id":"a65aw3nj7at3","address":"2301 Market St , Peru, IL 61354-3446","geo_precision":"range"},"type":"Feature","geometry":{"type":"Point","coordinates":[-89.135651,41.322576]}},{"properties":{"name":"Jean Kosnick","geo_score":0.921,"id":"a65aw3r66vj2","address":"1037 Catherine St , Ottawa, IL 61350-4401","geo_precision":"range"},"type":"Feature","geometry":{"type":"Point","coordinates":[-88.838382,41.330106]}},{"properties":{"name":"Jeanne Kauzlarich","geo_score":0.772,"id":"a65aw3nvo6q6","address":"1837 May Rd Apt 3 , Peru, IL 61354-9305","geo_precision":"range"},"type":"Feature","geometry":{"type":"Point","coordinates":[-89.137468,41.367272]}},{"properties":{"name":"Jeff Highsmith","geo_score":0.962,"id":"a65aw3lssg0j","address":"1206 E Main St , Streator, IL 61364-3144","geo_precision":"range"},"type":"Feature","geometry":{"type":"Point","coordinates":[-88.819262,41.12103]}},{"properties":{"name":"Jeff Stillwell","geo_score":0.921,"id":"a65aw3i2ed20","address":"314 E Van Buren St , Ottawa, IL 61350-3663","geo_precision":"range"},"type":"Feature","geometry":{"type":"Point","coordinates":[-88.837108,41.33884]}},{"properties":{"name":"Jeffrey Brodbeck","geo_score":0.862,"id":"a65aw3r92hsf","address":"3640 E 2631st Rd , Sheridan, IL 60551-9320","geo_precision":"range"},"type":"Feature","geometry":{"type":"Point","coordinates":[-88.667374,41.462568]}},{"properties":{"name":"Jeffrey Fesperman","geo_score":0.921,"id":"a65aw3g6w26y","address":"527 Congress St , Ottawa, IL 61350-3015","geo_precision":"range"},"type":"Feature","geometry":{"type":"Point","coordinates":[-88.834254,41.346704]}},{"properties":{"name":"Jeffrey Krzyaniak","geo_score":0.902,"id":"a65aw3ie6rq6","address":"1413 24th St , Peru, IL 61354-1311","geo_precision":"range"},"type":"Feature","geometry":{"type":"Point","coordinates":[-89.124183,41.342765]}},{"properties":{"name":"Jeffrey White","geo_score":1.0,"id":"a65aw3pxyh3v","address":"1800 Glyn Dr , Sandwich, IL 60548-9336","geo_precision":"range"},"type":"Feature","geometry":{"type":"Point","coordinates":[-88.657738,41.618186]}},{"properties":{"name":"Jennie Rathbun","geo_score":0.942,"id":"a65aw3h9buuw","address":"12 Marilla Park Rd , Streator, IL 61364-9354","geo_precision":"range"},"type":"Feature","geometry":{"type":"Point","coordinates":[-88.827928,41.150061]}},{"properties":{"name":"Jennifer Harris","geo_score":0.902,"id":"a65aw3hyjtem","address":"1703 14th St , Peru, IL 61354-1721","geo_precision":"range"},"type":"Feature","geometry":{"type":"Point","coordinates":[-89.127913,41.33656]}},{"properties":{"name":"Jennifer Kennedy","geo_score":0.921,"id":"a65aw3tcwc6h","address":"638 Congress St , Ottawa, IL 61350-3018","geo_precision":"range"},"type":"Feature","geometry":{"type":"Point","coordinates":[-88.832031,41.346721]}},{"properties":{"name":"Jennifer Leigh","geo_score":0.595,"id":"a65aw3p9dopo","address":"1467 N 3045th Rd , Ottawa, IL 61350-9471","geo_precision":"zip"},"type":"Feature","geometry":{"type":"Point","coordinates":[-88.83341,41.299201]}},{"properties":{"name":"Jennifer Mansour","geo_score":0.921,"id":"a65aw3ep19gm","address":"620 Shabbona St , Ottawa, IL 61350-3132","geo_precision":"range"},"type":"Feature","geometry":{"type":"Point","coordinates":[-88.837745,41.346132]}},{"properties":{"name":"Jennifer Sellett","geo_score":0.595,"id":"a65aw3fj0cj6","address":"1454 N 3045th Rd , Ottawa, IL 61350-9453","geo_precision":"zip"},"type":"Feature","geometry":{"type":"Point","coordinates":[-88.83341,41.299201]}},{"properties":{"name":"Jennifer Zimmerman","geo_score":0.915,"id":"a65aw3s0isss","address":"164 Eleanor Ln , Somonauk, IL 60552-9623","geo_precision":"range"},"type":"Feature","geometry":{"type":"Point","coordinates":[-88.688807,41.605434]}},{"properties":{"name":"Jenny Luscombe","geo_score":0.962,"id":"a65aw3s1b4a9","address":"29 Larchwood Ln , Streator, IL 61364-1062","geo_precision":"range"},"type":"Feature","geometry":{"type":"Point","coordinates":[-88.849009,41.149159]}},{"properties":{"name":"Jeremiah Adams","geo_score":0.819,"id":"a65aw3i16za3","address":"4425 E 2750th Rd , Sandwich, IL 60548-9113","geo_precision":"street"},"type":"Feature","geometry":{"type":"Point","coordinates":[-88.648496,41.578714]}},{"properties":{"name":"Jeremiah Nagle","geo_score":0.837,"id":"a65aw3ji4oyy","address":"3103 E 13th Rd , Ottawa, IL 61350-9758","geo_precision":"range"},"type":"Feature","geometry":{"type":"Point","coordinates":[-88.912871,41.382282]}},{"properties":{"name":"Jeremy Ftacek","geo_score":0.865,"id":"a65aw3tla6f3","address":"1506 E Bridge St , Streator, IL 61364-3114","geo_precision":"range"},"type":"Feature","geometry":{"type":"Point","coordinates":[-88.812989,41.119969]}},{"properties":{"name":"Jeremy Zimmerman","geo_score":0.915,"id":"a65aw3te97e8","address":"164 Eleanor Ln , Somonauk, IL 60552-9623","geo_precision":"range"},"type":"Feature","geometry":{"type":"Point","coordinates":[-88.688807,41.605434]}},{"properties":{"name":"Jeri Dvorak","geo_score":0.921,"id":"a65aw3qysx9v","address":"907 Congress St , Ottawa, IL 61350-3023","geo_precision":"range"},"type":"Feature","geometry":{"type":"Point","coordinates":[-88.826652,41.346711]}},{"properties":{"name":"Jeri Gerding","geo_score":0.883,"id":"a65aw3lw12zy","address":"812 7th St , Peru, IL 61354-2807","geo_precision":"range"},"type":"Feature","geometry":{"type":"Point","coordinates":[-89.11565,41.330549]}},{"properties":{"name":"Jerrell White","geo_score":1.0,"id":"a65aw3s8cxof","address":"1216 Plain St , Peru, IL 61354-2366","geo_precision":"range"},"type":"Feature","geometry":{"type":"Point","coordinates":[-89.120921,41.331813]}},{"properties":{"name":"Jerry Dalton","geo_score":0.927,"id":"a65aw3kgaxr2","address":"2602 N 4251st Rd , Sheridan, IL 60551-9322","geo_precision":"range"},"type":"Feature","geometry":{"type":"Point","coordinates":[-88.675327,41.546191]}},{"properties":{"name":"Jerry Mahan","geo_score":0.962,"id":"a65aw3g2x9xz","address":"701 Iowa Ave , Streator, IL 61364-2430","geo_precision":"range"},"type":"Feature","geometry":{"type":"Point","coordinates":[-88.822014,41.126861]}},{"properties":{"name":"Jessica Aleksy","geo_score":0.921,"id":"a65aw3jcqk37","address":"400 Pearl St , Ottawa, IL 61350-3042","geo_precision":"range"},"type":"Feature","geometry":{"type":"Point","coordinates":[-88.836373,41.347576]}},{"properties":{"name":"Jessica Arias-Cooper","geo_score":1.0,"id":"a65aw3hrxery","address":"2425 Market St , Peru, IL 61354-3448","geo_precision":"range"},"type":"Feature","geometry":{"type":"Point","coordinates":[-89.137298,41.322493]}},{"properties":{"name":"Jessica Maggio","geo_score":0.902,"id":"a65aw3htb4t0","address":"1314 24th St , Peru, IL 61354-1310","geo_precision":"range"},"type":"Feature","geometry":{"type":"Point","coordinates":[-89.122915,41.34278]}},{"properties":{"name":"Jesus Moreno","geo_score":1.0,"id":"a65aw3hm2b4n","address":"604 Fulton St , Peru, IL 61354-3312","geo_precision":"range"},"type":"Feature","geometry":{"type":"Point","coordinates":[-89.13044,41.325827]}},{"properties":{"name":"Jill Andrews","geo_score":0.921,"id":"a65aw3iz421u","address":"721 Illinois Ave , Ottawa, IL 61350-3339","geo_precision":"range"},"type":"Feature","geometry":{"type":"Point","coordinates":[-88.850818,41.344147]}},{"properties":{"name":"Jill Vasquez","geo_score":0.665,"id":"a65aw3ef2i17","address":"1429 Bucklin St , La Salle, IL 61301-1538","geo_precision":"range"},"type":"Feature","geometry":{"type":"Point","coordinates":[-89.101761,41.34256]}},{"properties":{"name":"Jimmie Burrows","geo_score":0.921,"id":"a65aw3pijvfe","address":"315 E Prospect Ave , Ottawa, IL 61350-3635","geo_precision":"range"},"type":"Feature","geometry":{"type":"Point","coordinates":[-88.837126,41.339754]}},{"properties":{"name":"Jo West","geo_score":0.921,"id":"a65aw3rgm2yn","address":"1323 W Main St , Ottawa, IL 61350-2518","geo_precision":"range"},"type":"Feature","geometry":{"type":"Point","coordinates":[-88.85891,41.345516]}},{"properties":{"name":"Joan Derango","geo_score":1.0,"id":"a65aw3goxsyi","address":"2127 Meadow Lawn Ln , Peru, IL 61354-1211","geo_precision":"range"},"type":"Feature","geometry":{"type":"Point","coordinates":[-89.128108,41.340032]}},{"properties":{"name":"Joan Kotecki","geo_score":0.596,"id":"a65aw3es32ei","address":"2980 E 1520th Rd , Ottawa, IL 61350-9030","geo_precision":"street"},"type":"Feature","geometry":{"type":"Point","coordinates":[-88.870973,41.368168]}},{"properties":{"name":"Joan Matin","geo_score":0.705,"id":"a65aw3mmuaop","address":"1120 Crosat St , La Salle, IL 61301-1648","geo_precision":"range"},"type":"Feature","geometry":{"type":"Point","coordinates":[-89.091551,41.339241]}},{"properties":{"name":"Joanne Monterastelli","geo_score":1.0,"id":"a65aw3jpn6rm","address":"1609 Shooting Park Rd , Peru, IL 61354-1774","geo_precision":"range"},"type":"Feature","geometry":{"type":"Point","coordinates":[-89.126697,41.338402]}},{"properties":{"name":"Joanne Morlan","geo_score":0.973,"id":"a65aw3psrs8u","address":"2150 Wynnwood Ln , Peru, IL 61354-1223","geo_precision":"range"},"type":"Feature","geometry":{"type":"Point","coordinates":[-89.129057,41.339852]}},{"properties":{"name":"Jodeen Ploch","geo_score":0.902,"id":"a65aw3qnjxsk","address":"1627 27th St , Peru, IL 61354-1391","geo_precision":"range"},"type":"Feature","geometry":{"type":"Point","coordinates":[-89.127068,41.345188]}},{"properties":{"name":"Jodine Woods","geo_score":0.837,"id":"a65aw3f8ckmd","address":"1427 N 36th Rd , Ottawa, IL 61350-9514","geo_precision":"range"},"type":"Feature","geometry":{"type":"Point","coordinates":[-88.888906,41.455133]}},{"properties":{"name":"Joel Stumpenhorst","geo_score":1.0,"id":"a65aw3jcaoum","address":"1874 Irene Rd , Sandwich, IL 60548-9385","geo_precision":"range"},"type":"Feature","geometry":{"type":"Point","coordinates":[-88.653707,41.616856]}},{"properties":{"name":"John Bentley","geo_score":1.0,"id":"a65aw3l9y9uk","address":"3885 E 2050th Rd , Serena, IL 60549-9718","geo_precision":"range"},"type":"Feature","geometry":{"type":"Point","coordinates":[-88.776808,41.49761]}},{"properties":{"name":"John Brake","geo_score":0.0,"id":"a65aw3pd61ag","address":"1589 E Us52 , Ottawa, IL 61350-","geo_precision":"unmatched"},"type":"Feature","geometry":null},{"properties":{"name":"John Cooter","geo_score":0.921,"id":"a65aw3tbm5sd","address":"415 Clay St , Ottawa, IL 61350-2744","geo_precision":"range"},"type":"Feature","geometry":{"type":"Point","coordinates":[-88.850629,41.344285]}},{"properties":{"name":"John Duve","geo_score":0.0,"id":"a65aw3p6watg","address":"3701 N Ill71 , Sheridan, IL 60551-","geo_precision":"unmatched"},"type":"Feature","geometry":null},{"properties":{"name":"John Fletcher","geo_score":0.685,"id":"a65aw3h7zuz6","address":"426 Roosevelt Rd , La Salle, IL 61301-1337","geo_precision":"range"},"type":"Feature","geometry":{"type":"Point","coordinates":[-89.101574,41.344868]}},{"properties":{"name":"John Jenkins","geo_score":0.902,"id":"a65aw3htclr0","address":"1208 24th St , Peru, IL 61354-1308","geo_precision":"range"},"type":"Feature","geometry":{"type":"Point","coordinates":[-89.1219,41.342796]}},{"properties":{"name":"John Jones","geo_score":1.0,"id":"a65aw3qap4ws","address":"1809 Main St , Peru, IL 61354-3530","geo_precision":"range"},"type":"Feature","geometry":{"type":"Point","coordinates":[-89.129306,41.323992]}},{"properties":{"name":"John Kinnison","geo_score":0.921,"id":"a65aw3mb9d2x","address":"975 Lincoln Ave , Ottawa, IL 61350-4426","geo_precision":"range"},"type":"Feature","geometry":{"type":"Point","coordinates":[-88.841169,41.328964]}},{"properties":{"name":"John Logsdon","geo_score":0.829,"id":"a65aw3u9i5fh","address":"2569 E 22nd Rd , Marseilles, IL 61341-9702","geo_precision":"range"},"type":"Feature","geometry":{"type":"Point","coordinates":[-88.723962,41.304291]}},{"properties":{"name":"John Mason Jr","geo_score":1.0,"id":"a65aw3ra0n3s","address":"2411 Plum St , Peru, IL 61354-1333","geo_precision":"range"},"type":"Feature","geometry":{"type":"Point","coordinates":[-89.124079,41.34284]}},{"properties":{"name":"John Reynolds","geo_score":0.897,"id":"a65aw3sikkdr","address":"2010 N Bloomington St Apt D2 , Streator, IL 61364-1376","geo_precision":"range"},"type":"Feature","geometry":{"type":"Point","coordinates":[-88.835822,41.142882]}},{"properties":{"name":"John Smith II","geo_score":0.921,"id":"a65aw3i6z3jo","address":"720 E Superior St , Ottawa, IL 61350-2434","geo_precision":"range"},"type":"Feature","geometry":{"type":"Point","coordinates":[-88.832477,41.352216]}},{"properties":{"name":"John Tate","geo_score":0.829,"id":"a65aw3q0axvl","address":"2540 E 22nd Rd , Marseilles, IL 61341-9703","geo_precision":"range"},"type":"Feature","geometry":{"type":"Point","coordinates":[-88.729284,41.30204]}},{"properties":{"name":"John Thompson","geo_score":0.837,"id":"a65aw3ftwywk","address":"3511 E 16th Rd , Ottawa, IL 61350-9632","geo_precision":"range"},"type":"Feature","geometry":{"type":"Point","coordinates":[-88.854943,41.442106]}},{"properties":{"name":"Jon Maier","geo_score":0.921,"id":"a65aw3p697aa","address":"417 Catherine St , Ottawa, IL 61350-3653","geo_precision":"range"},"type":"Feature","geometry":{"type":"Point","coordinates":[-88.83854,41.338487]}},{"properties":{"name":"Jonathan Przybylski","geo_score":0.921,"id":"a65aw3knxe4f","address":"1048 State St , Ottawa, IL 61350-4462","geo_precision":"range"},"type":"Feature","geometry":{"type":"Point","coordinates":[-88.839845,41.329331]}},{"properties":{"name":"Joseph Ellerbrock","geo_score":1.0,"id":"a65aw3h5kr44","address":"2617 Market St , Peru, IL 61354-3452","geo_precision":"range"},"type":"Feature","geometry":{"type":"Point","coordinates":[-89.139951,41.322419]}},{"properties":{"name":"Joseph Fanchi","geo_score":1.0,"id":"a65aw3kcnp98","address":"1798 Glyn Dr , Sandwich, IL 60548-9336","geo_precision":"range"},"type":"Feature","geometry":{"type":"Point","coordinates":[-88.658794,41.616323]}},{"properties":{"name":"Joseph Garcia","geo_score":1.0,"id":"a65aw3q8aqx3","address":"3629 E 2075th Rd , Serena, IL 60549-9752","geo_precision":"range"},"type":"Feature","geometry":{"type":"Point","coordinates":[-88.771238,41.461428]}},{"properties":{"name":"Joseph Gerace","geo_score":0.691,"id":"a65aw3q6qsct","address":"405 Lindberg Rd , La Salle, IL 61301-1561","geo_precision":"range"},"type":"Feature","geometry":{"type":"Point","coordinates":[-89.101422,41.340635]}},{"properties":{"name":"Joseph Healy","geo_score":0.0,"id":"a65aw3tf1t72","address":"715 E Ill18 , Streator, IL 61364-","geo_precision":"unmatched"},"type":"Feature","geometry":null},{"properties":{"name":"Joseph Martin","geo_score":0.883,"id":"a65aw3nsj19u","address":"1710 3rd St , Peru, IL 61354-3341","geo_precision":"range"},"type":"Feature","geometry":{"type":"Point","coordinates":[-89.12793,41.326714]}},{"properties":{"name":"Joseph Perra","geo_score":1.0,"id":"a65aw3f2swlz","address":"2604 Main St , Peru, IL 61354-3436","geo_precision":"range"},"type":"Feature","geometry":{"type":"Point","coordinates":[-89.139635,41.323881]}},{"properties":{"name":"Joseph Siebert","geo_score":1.0,"id":"a65aw3pc3kzn","address":"1824 Main St , Peru, IL 61354-3531","geo_precision":"range"},"type":"Feature","geometry":{"type":"Point","coordinates":[-89.130291,41.323982]}},{"properties":{"name":"Josephine Guerrero","geo_score":0.921,"id":"a65aw3tszfc7","address":"617 E Center St , Ottawa, IL 61350-3629","geo_precision":"range"},"type":"Feature","geometry":{"type":"Point","coordinates":[-88.833585,41.336903]}},{"properties":{"name":"Josh Gaughan","geo_score":0.921,"id":"a65aw3f4s7ve","address":"1245 Phelps St , Ottawa, IL 61350-3247","geo_precision":"range"},"type":"Feature","geometry":{"type":"Point","coordinates":[-88.857101,41.344802]}},{"properties":{"name":"Juanita Rios","geo_score":1.0,"id":"a65aw3okwbdn","address":"2423 Rock St , Peru, IL 61354-1346","geo_precision":"range"},"type":"Feature","geometry":{"type":"Point","coordinates":[-89.121895,41.342957]}},{"properties":{"name":"Judith Carr","geo_score":0.823,"id":"a65aw3ra2nt6","address":"509 5th Ave , Ottawa, IL 61350-4107","geo_precision":"range"},"type":"Feature","geometry":{"type":"Point","coordinates":[-88.83256,41.336526]}},{"properties":{"name":"Judith Pineda","geo_score":0.921,"id":"a65aw3s6i0b5","address":"1010 Lincoln Ave , Ottawa, IL 61350-4429","geo_precision":"range"},"type":"Feature","geometry":{"type":"Point","coordinates":[-88.841155,41.328244]}},{"properties":{"name":"Judith Robb","geo_score":0.93,"id":"a65aw3jwjnnt","address":"404 Cherry St , Mendota, IL 61342-2240","geo_precision":"range"},"type":"Feature","geometry":{"type":"Point","coordinates":[-89.113024,41.538977]}},{"properties":{"name":"Judy Brandow","geo_score":0.837,"id":"a65aw3s9ss0q","address":"2924 E 15th Rd , Ottawa, IL 61350-9598","geo_precision":"range"},"type":"Feature","geometry":{"type":"Point","coordinates":[-88.86981,41.357482]}},{"properties":{"name":"Judy Jacobson","geo_score":0.927,"id":"a65aw3sndut8","address":"2617 N 3653rd Rd , Sheridan, IL 60551-9596","geo_precision":"range"},"type":"Feature","geometry":{"type":"Point","coordinates":[-88.668659,41.463668]}},{"properties":{"name":"Judy Jagg","geo_score":0.73,"id":"a65aw3hxuzlx","address":"1480 Linden Ave , La Salle, IL 61301-1529","geo_precision":"range"},"type":"Feature","geometry":{"type":"Point","coordinates":[-89.103541,41.343295]}},{"properties":{"name":"Julee Nawa","geo_score":0.902,"id":"a65aw3ny6vci","address":"1514 27th St , Peru, IL 61354-1394","geo_precision":"range"},"type":"Feature","geometry":{"type":"Point","coordinates":[-89.125672,41.345051]}},{"properties":{"name":"Julia Kohnke","geo_score":0.921,"id":"a65aw3u6zqeb","address":"723 Ottawa Ave , Ottawa, IL 61350-3317","geo_precision":"range"},"type":"Feature","geometry":{"type":"Point","coordinates":[-88.850878,41.343191]}},{"properties":{"name":"Julie Allen","geo_score":0.921,"id":"a65aw3n66lwu","address":"1525 Birchlawn Pl , Ottawa, IL 61350-3403","geo_precision":"range"},"type":"Feature","geometry":{"type":"Point","coordinates":[-88.863384,41.338575]}},{"properties":{"name":"Julie Bailey","geo_score":1.0,"id":"a65aw3mpii7r","address":"3613 E 2075th Rd , Serena, IL 60549-9752","geo_precision":"range"},"type":"Feature","geometry":{"type":"Point","coordinates":[-88.771195,41.4583]}},{"properties":{"name":"Julie Condie","geo_score":0.902,"id":"a65aw3lo0x89","address":"1621 26th St , Peru, IL 61354-1374","geo_precision":"range"},"type":"Feature","geometry":{"type":"Point","coordinates":[-89.127197,41.344285]}},{"properties":{"name":"Julie Erlenborn","geo_score":1.0,"id":"a65aw3itli2i","address":"2 Sunset Ct , Peru, IL 61354-1215","geo_precision":"range"},"type":"Feature","geometry":{"type":"Point","coordinates":[-89.12728,41.341485]}},{"properties":{"name":"Julie Hamilton","geo_score":0.924,"id":"a65aw3md2qqm","address":"2868 N 2350th Rd , Seneca, IL 61360-9548","geo_precision":"range"},"type":"Feature","geometry":{"type":"Point","coordinates":[-88.613297,41.271635]}},{"properties":{"name":"Julie Hughes","geo_score":0.912,"id":"a65aw3ku2jn6","address":"2453 E 2350th Rd , Marseilles, IL 61341-9710","geo_precision":"range"},"type":"Feature","geometry":{"type":"Point","coordinates":[-88.713748,41.290116]}},{"properties":{"name":"Julie Messley","geo_score":0.927,"id":"a65aw3s79wox","address":"3868 E 2609th Rd , Sheridan, IL 60551-9584","geo_precision":"range"},"type":"Feature","geometry":{"type":"Point","coordinates":[-88.681153,41.496317]}},{"properties":{"name":"Julie Obrien-Smith","geo_score":0.902,"id":"a65aw3omd1kt","address":"1513 26th St , Peru, IL 61354-1382","geo_precision":"range"},"type":"Feature","geometry":{"type":"Point","coordinates":[-89.125792,41.344274]}},{"properties":{"name":"Julie Peterson","geo_score":0.745,"id":"a65aw3ehvlwe","address":"818 N Otter Creek Rd , Streator, IL 61364-1849","geo_precision":"street"},"type":"Feature","geometry":{"type":"Point","coordinates":[-88.816217,41.105881]}},{"properties":{"name":"Julie Rosengren","geo_score":0.921,"id":"a65aw3rhcwem","address":"3832 E 1925th Rd , Ottawa, IL 61350-9447","geo_precision":"range"},"type":"Feature","geometry":{"type":"Point","coordinates":[-88.800759,41.48975]}},{"properties":{"name":"Julie Vargo","geo_score":0.921,"id":"a65aw3lkydjr","address":"824 Pearl St , Ottawa, IL 61350-3050","geo_precision":"range"},"type":"Feature","geometry":{"type":"Point","coordinates":[-88.827481,41.347632]}},{"properties":{"name":"Julie Verona","geo_score":0.921,"id":"a65aw3joisbk","address":"903 Congress St , Ottawa, IL 61350-3023","geo_precision":"range"},"type":"Feature","geometry":{"type":"Point","coordinates":[-88.826682,41.34671]}},{"properties":{"name":"Julie Walsh","geo_score":0.862,"id":"a65aw3rvhy5d","address":"2109 Fox Chase Dr , Ottawa, IL 61350-1277","geo_precision":"range"},"type":"Feature","geometry":{"type":"Point","coordinates":[-88.834656,41.362424]}},{"properties":{"name":"June Bankes","geo_score":0.925,"id":"a65aw3jru01q","address":"444 Maple Rd , La Salle, IL 61301-1566","geo_precision":"range"},"type":"Feature","geometry":{"type":"Point","coordinates":[-89.100896,41.342742]}},{"properties":{"name":"Justin Miller","geo_score":1.0,"id":"a65aw3f4cdbv","address":"1427 Centennial Rd , Peru, IL 61354-1845","geo_precision":"range"},"type":"Feature","geometry":{"type":"Point","coordinates":[-89.124473,41.335657]}},{"properties":{"name":"Jyll Zeglis","geo_score":0.921,"id":"a65aw3pbw7er","address":"1118 Lincoln Ave , Ottawa, IL 61350-4431","geo_precision":"range"},"type":"Feature","geometry":{"type":"Point","coordinates":[-88.841133,41.327076]}},{"properties":{"name":"Kaitlin Liesse","geo_score":1.0,"id":"a65aw3qdtjem","address":"510 Pike St , Peru, IL 61354-3247","geo_precision":"range"},"type":"Feature","geometry":{"type":"Point","coordinates":[-89.133053,41.324951]}},{"properties":{"name":"Kara Ericzon","geo_score":0.595,"id":"a65aw3joknlm","address":"1466 N 3025th Rd , Ottawa, IL 61350-8902","geo_precision":"zip"},"type":"Feature","geometry":{"type":"Point","coordinates":[-88.83341,41.299201]}},{"properties":{"name":"Karen Duncan","geo_score":0.685,"id":"a65aw3lzzh47","address":"433 Roosevelt Rd , La Salle, IL 61301-1364","geo_precision":"range"},"type":"Feature","geometry":{"type":"Point","coordinates":[-89.100949,41.344876]}},{"properties":{"name":"Karen Espinal","geo_score":0.829,"id":"a65aw3hp063u","address":"2705 N 3764th Rd , Sheridan, IL 60551-9756","geo_precision":"street"},"type":"Feature","geometry":{"type":"Point","coordinates":[-88.654166,41.478815]}},{"properties":{"name":"Karen Gretzinger","geo_score":0.823,"id":"a65aw3tj7s8s","address":"425 4th Ave , Ottawa, IL 61350-3617","geo_precision":"range"},"type":"Feature","geometry":{"type":"Point","coordinates":[-88.833756,41.338518]}},{"properties":{"name":"Karen Houltram","geo_score":0.921,"id":"a65aw3mgsvx9","address":"2112 Post St , Ottawa, IL 61350-1234","geo_precision":"range"},"type":"Feature","geometry":{"type":"Point","coordinates":[-88.838149,41.363019]}},{"properties":{"name":"Karen Hundley","geo_score":0.922,"id":"a65aw3fg6yld","address":"315 N School Ave , Oglesby, IL 61348-1159","geo_precision":"range"},"type":"Feature","geometry":{"type":"Point","coordinates":[-89.063981,41.29814]}},{"properties":{"name":"Karen Manicki","geo_score":0.922,"id":"a65aw3q7bptv","address":"116 S Columbia Ave , Oglesby, IL 61348-1414","geo_precision":"range"},"type":"Feature","geometry":{"type":"Point","coordinates":[-89.068095,41.294849]}},{"properties":{"name":"Karen Morse","geo_score":0.829,"id":"a65aw3p125i5","address":"2567 E 22nd Rd , Marseilles, IL 61341-9702","geo_precision":"range"},"type":"Feature","geometry":{"type":"Point","coordinates":[-88.724225,41.304052]}},{"properties":{"name":"Karen Windsor","geo_score":0.888,"id":"a65aw3qrrpfc","address":"2965 E 1519th Rd , Ottawa, IL 61350-9002","geo_precision":"range"},"type":"Feature","geometry":{"type":"Point","coordinates":[-88.872461,41.355199]}},{"properties":{"name":"Karla Armstrong","geo_score":0.921,"id":"a65aw3np0ppi","address":"404 Congress St , Ottawa, IL 61350-3014","geo_precision":"range"},"type":"Feature","geometry":{"type":"Point","coordinates":[-88.836319,41.346695]}},{"properties":{"name":"Karylin Clevenger","geo_score":1.0,"id":"a65aw3gqqwjj","address":"1833 Laverne Dr , Sandwich, IL 60548-9392","geo_precision":"range"},"type":"Feature","geometry":{"type":"Point","coordinates":[-88.65575,41.61814]}},{"properties":{"name":"Kathe Woeltje","geo_score":0.927,"id":"a65aw3rs3miv","address":"2646 N 3650th Rd , Sheridan, IL 60551-9553","geo_precision":"range"},"type":"Feature","geometry":{"type":"Point","coordinates":[-88.768179,41.463352]}},{"properties":{"name":"Kathleen Brubaker","geo_score":1.0,"id":"a65aw3gjdxac","address":"1776 Doris Rd , Sandwich, IL 60548-9338","geo_precision":"range"},"type":"Feature","geometry":{"type":"Point","coordinates":[-88.658259,41.618197]}},{"properties":{"name":"Kathleen Robida","geo_score":0.824,"id":"a65aw3lgblr0","address":"446 W 2nd St , Oglesby, IL 61348-1408","geo_precision":"range"},"type":"Feature","geometry":{"type":"Point","coordinates":[-89.067725,41.292823]}},{"properties":{"name":"Kathleen Rooney","geo_score":0.921,"id":"a65aw3ij9pfe","address":"328 E Prospect Ave , Ottawa, IL 61350-3636","geo_precision":"range"},"type":"Feature","geometry":{"type":"Point","coordinates":[-88.838276,41.340047]}},{"properties":{"name":"Kathleen Zuccarini","geo_score":1.0,"id":"a65aw3kmqvh0","address":"2138 Meadow Lawn Ln , Peru, IL 61354-1212","geo_precision":"range"},"type":"Feature","geometry":{"type":"Point","coordinates":[-89.128199,41.340138]}},{"properties":{"name":"Kathryn Holocker","geo_score":0.962,"id":"a65aw3per3rx","address":"703 Wisconsin Ave , Streator, IL 61364-2436","geo_precision":"range"},"type":"Feature","geometry":{"type":"Point","coordinates":[-88.819345,41.127635]}},{"properties":{"name":"Kathryn Nink","geo_score":0.962,"id":"a65aw3n3ewyz","address":"1525 E Main St , Streator, IL 61364-3162","geo_precision":"range"},"type":"Feature","geometry":{"type":"Point","coordinates":[-88.81219,41.121033]}},{"properties":{"name":"Kathy Biage","geo_score":1.0,"id":"a65aw3raaix5","address":"2109 Meadow Lawn Ln , Peru, IL 61354-1211","geo_precision":"range"},"type":"Feature","geometry":{"type":"Point","coordinates":[-89.128037,41.339874]}},{"properties":{"name":"Kathy Edens","geo_score":0.902,"id":"a65aw3pjmhp2","address":"809 10th St , Peru, IL 61354-2340","geo_precision":"range"},"type":"Feature","geometry":{"type":"Point","coordinates":[-89.115831,41.333641]}},{"properties":{"name":"Kathy Sibert","geo_score":0.837,"id":"a65aw3rq1xgz","address":"1628 N 31st Rd , Ottawa, IL 61350-9102","geo_precision":"range"},"type":"Feature","geometry":{"type":"Point","coordinates":[-88.849663,41.382835]}},{"properties":{"name":"Kathy Venturini","geo_score":0.921,"id":"a65aw3mdkcek","address":"1038 State St , Ottawa, IL 61350-4441","geo_precision":"range"},"type":"Feature","geometry":{"type":"Point","coordinates":[-88.839857,41.329959]}},{"properties":{"name":"Katie Fauth","geo_score":0.883,"id":"a65aw3l9327x","address":"2615 2nd St , Peru, IL 61354-3105","geo_precision":"range"},"type":"Feature","geometry":{"type":"Point","coordinates":[-89.139765,41.325693]}},{"properties":{"name":"Keith Alexander","geo_score":0.843,"id":"a65aw3rkc73f","address":"2509 N 42nd Rd , Sheridan, IL 60551-9684","geo_precision":"range"},"type":"Feature","geometry":{"type":"Point","coordinates":[-88.690866,41.54297]}},{"properties":{"name":"Keith Nugent","geo_score":0.921,"id":"a65aw3s2kvpb","address":"738 E Main St , Ottawa, IL 61350-3122","geo_precision":"range"},"type":"Feature","geometry":{"type":"Point","coordinates":[-88.830011,41.345817]}},{"properties":{"name":"Keith Zehr II","geo_score":0.804,"id":"a65aw3gokl2f","address":"609 Clay St Apt 2 , Ottawa, IL 61350-2791","geo_precision":"range"},"type":"Feature","geometry":{"type":"Point","coordinates":[-88.850647,41.346141]}},{"properties":{"name":"Kelli Currier","geo_score":0.922,"id":"a65aw3mvozda","address":"430 W Walnut St , Oglesby, IL 61348-1453","geo_precision":"range"},"type":"Feature","geometry":{"type":"Point","coordinates":[-89.067089,41.295048]}},{"properties":{"name":"Kelli Kaszynski","geo_score":1.0,"id":"a65aw3kelxu2","address":"1816 Rock St , Peru, IL 61354-1853","geo_precision":"range"},"type":"Feature","geometry":{"type":"Point","coordinates":[-89.122818,41.336556]}},{"properties":{"name":"Kendra Fessler","geo_score":0.912,"id":"a65aw3qw2mg4","address":"2810 E 2709th Rd , Marseilles, IL 61341-9437","geo_precision":"range"},"type":"Feature","geometry":{"type":"Point","coordinates":[-88.650192,41.34123]}},{"properties":{"name":"Kenneth Murphy","geo_score":0.921,"id":"a65aw3k1wz99","address":"400 Pearl St , Ottawa, IL 61350-3042","geo_precision":"range"},"type":"Feature","geometry":{"type":"Point","coordinates":[-88.836373,41.347576]}},{"properties":{"name":"Kenneth Taylor","geo_score":0.962,"id":"a65aw3qbt8fg","address":"610 Wisconsin Ave , Streator, IL 61364-2435","geo_precision":"range"},"type":"Feature","geometry":{"type":"Point","coordinates":[-88.819334,41.126097]}},{"properties":{"name":"Kenny Siensa","geo_score":0.824,"id":"a65aw3kzdlve","address":"227 W 1st St , Oglesby, IL 61348-1511","geo_precision":"range"},"type":"Feature","geometry":{"type":"Point","coordinates":[-89.062875,41.293957]}},{"properties":{"name":"Kent Crouch","geo_score":0.921,"id":"a65aw3i6mlo2","address":"1034 Catherine St , Ottawa, IL 61350-4402","geo_precision":"range"},"type":"Feature","geometry":{"type":"Point","coordinates":[-88.838383,41.330143]}},{"properties":{"name":"Kerry Taylor","geo_score":0.927,"id":"a65aw3nvn4dh","address":"2089 N 4071st Rd , Sheridan, IL 60551-9451","geo_precision":"range"},"type":"Feature","geometry":{"type":"Point","coordinates":[-88.770063,41.525576]}},{"properties":{"name":"Kevin Callahan","geo_score":0.837,"id":"a65aw3k1bvx7","address":"3151 E 15th Rd , Ottawa, IL 61350-9618","geo_precision":"range"},"type":"Feature","geometry":{"type":"Point","coordinates":[-88.874285,41.389854]}},{"properties":{"name":"Kevin Hardt","geo_score":0.921,"id":"a65aw3legit7","address":"1226 Kansas St , Ottawa, IL 61350-3235","geo_precision":"range"},"type":"Feature","geometry":{"type":"Point","coordinates":[-88.857811,41.34482]}},{"properties":{"name":"Kevin Kramer","geo_score":0.883,"id":"a65aw3hhua8p","address":"1628 1st St , Peru, IL 61354-3512","geo_precision":"range"},"type":"Feature","geometry":{"type":"Point","coordinates":[-89.126833,41.324907]}},{"properties":{"name":"Kevin Schultz","geo_score":0.823,"id":"a65aw3jdk47d","address":"407 4th Ave , Ottawa, IL 61350-3617","geo_precision":"range"},"type":"Feature","geometry":{"type":"Point","coordinates":[-88.833764,41.338912]}},{"properties":{"name":"Kevin Strickland","geo_score":0.883,"id":"a65aw3ex9ic1","address":"2316 1st St , Peru, IL 61354-3241","geo_precision":"range"},"type":"Feature","geometry":{"type":"Point","coordinates":[-89.135845,41.324833]}},{"properties":{"name":"Kim Farrell","geo_score":0.921,"id":"a65aw3out3sp","address":"602 Green St , Ottawa, IL 61350-3108","geo_precision":"range"},"type":"Feature","geometry":{"type":"Point","coordinates":[-88.826685,41.345867]}},{"properties":{"name":"Kimberly Christopherson","geo_score":0.915,"id":"a65aw3jhr35k","address":"2562 N 4670th Rd , Somonauk, IL 60552-9604","geo_precision":"range"},"type":"Feature","geometry":{"type":"Point","coordinates":[-88.689343,41.613174]}},{"properties":{"name":"Kimberly McNamara","geo_score":0.921,"id":"a65aw3twvekt","address":"1515 Birchlawn Pl , Ottawa, IL 61350-3459","geo_precision":"range"},"type":"Feature","geometry":{"type":"Point","coordinates":[-88.862622,41.338965]}},{"properties":{"name":"Kimberly Schultz","geo_score":0.962,"id":"a65aw3mvdcb7","address":"1103 E Hickory St , Streator, IL 61364-2449","geo_precision":"range"},"type":"Feature","geometry":{"type":"Point","coordinates":[-88.820635,41.122088]}},{"properties":{"name":"Kimberly Tate","geo_score":0.829,"id":"a65aw3uwe0t8","address":"2540 E 22nd Rd , Marseilles, IL 61341-9703","geo_precision":"range"},"type":"Feature","geometry":{"type":"Point","coordinates":[-88.729284,41.30204]}},{"properties":{"name":"Kimberly Tucker","geo_score":0.922,"id":"a65aw3na60bg","address":"346 N School Ave , Oglesby, IL 61348-1160","geo_precision":"range"},"type":"Feature","geometry":{"type":"Point","coordinates":[-89.063983,41.298546]}},{"properties":{"name":"Krissi Gallo","geo_score":0.823,"id":"a65aw3tijbia","address":"441 2nd Ave , Ottawa, IL 61350-3609","geo_precision":"range"},"type":"Feature","geometry":{"type":"Point","coordinates":[-88.836052,41.338043]}},{"properties":{"name":"Kristin Callahan","geo_score":0.837,"id":"a65aw3styxvl","address":"3151 E 15th Rd , Ottawa, IL 61350-9618","geo_precision":"range"},"type":"Feature","geometry":{"type":"Point","coordinates":[-88.874285,41.389854]}},{"properties":{"name":"Kristin Pyszka","geo_score":0.902,"id":"a65aw3h5if2o","address":"1702 27th St , Peru, IL 61354-3901","geo_precision":"range"},"type":"Feature","geometry":{"type":"Point","coordinates":[-89.127973,41.345165]}},{"properties":{"name":"Kristina Diemer","geo_score":0.717,"id":"a65aw3giuao0","address":"100 S 9th Ave Apt 103 , Mendota, IL 61342-2057","geo_precision":"range"},"type":"Feature","geometry":{"type":"Point","coordinates":[-89.121371,41.540396]}},{"properties":{"name":"Kristina Julian","geo_score":0.902,"id":"a65aw3fjpfd9","address":"1516 11th St , Peru, IL 61354-2311","geo_precision":"range"},"type":"Feature","geometry":{"type":"Point","coordinates":[-89.125493,41.334021]}},{"properties":{"name":"Kristopher Zehr","geo_score":0.921,"id":"a65aw3rnpj84","address":"609 Clay St , Ottawa, IL 61350-2791","geo_precision":"range"},"type":"Feature","geometry":{"type":"Point","coordinates":[-88.850647,41.346141]}},{"properties":{"name":"Kurt Foster","geo_score":0.921,"id":"a65aw3or1n2h","address":"1120 Bergen Ave , Ottawa, IL 61350-4419","geo_precision":"range"},"type":"Feature","geometry":{"type":"Point","coordinates":[-88.8424,41.327046]}},{"properties":{"name":"Larry Cain","geo_score":0.921,"id":"a65aw3rrn8d6","address":"1204 Bergen Ave , Ottawa, IL 61350-4421","geo_precision":"range"},"type":"Feature","geometry":{"type":"Point","coordinates":[-88.842387,41.326162]}},{"properties":{"name":"Larry Dibrito","geo_score":0.595,"id":"a65aw3i3xfzc","address":"2375 N 4060th Rd , Sheridan, IL 60551-9382","geo_precision":"zip"},"type":"Feature","geometry":{"type":"Point","coordinates":[-88.664518,41.465587]}},{"properties":{"name":"Larry Tonelli","geo_score":1.0,"id":"a65aw3fg88cf","address":"2405 Rock St , Peru, IL 61354-1346","geo_precision":"range"},"type":"Feature","geometry":{"type":"Point","coordinates":[-89.121841,41.342826]}},{"properties":{"name":"Laurie Dudek","geo_score":0.838,"id":"a65aw3eytlz5","address":"486 N 23rd Rd , Oglesby, IL 61348-9632","geo_precision":"range"},"type":"Feature","geometry":{"type":"Point","coordinates":[-89.070245,41.26498]}},{"properties":{"name":"Lavonne Claggett","geo_score":0.921,"id":"a65aw3oqtdsy","address":"1029 Catherine St , Ottawa, IL 61350-4401","geo_precision":"range"},"type":"Feature","geometry":{"type":"Point","coordinates":[-88.838385,41.330252]}},{"properties":{"name":"Lavonne Sipula","geo_score":0.921,"id":"a65aw3gg87po","address":"1456 Birchlawn Pl , Ottawa, IL 61350-3402","geo_precision":"range"},"type":"Feature","geometry":{"type":"Point","coordinates":[-88.860792,41.339627]}},{"properties":{"name":"Lawren Taylor","geo_score":0.883,"id":"a65aw3gkp5i6","address":"2510 3rd St , Peru, IL 61354-3153","geo_precision":"range"},"type":"Feature","geometry":{"type":"Point","coordinates":[-89.13843,41.32662]}},{"properties":{"name":"Lee Rathbun","geo_score":0.942,"id":"a65aw3rvwwu7","address":"12 Marilla Park Rd , Streator, IL 61364-9354","geo_precision":"range"},"type":"Feature","geometry":{"type":"Point","coordinates":[-88.827928,41.150061]}},{"properties":{"name":"Leo Hughes","geo_score":0.922,"id":"a65aw3ldqvnr","address":"126 N Columbia Ave , Oglesby, IL 61348-1433","geo_precision":"range"},"type":"Feature","geometry":{"type":"Point","coordinates":[-89.0681,41.295567]}},{"properties":{"name":"Leon Wieczorek","geo_score":0.827,"id":"a65aw3rekanq","address":"1225 11th St , La Salle, IL 61301-1946","geo_precision":"range"},"type":"Feature","geometry":{"type":"Point","coordinates":[-89.089632,41.339057]}},{"properties":{"name":"Leonard Monterastelli","geo_score":1.0,"id":"a65aw3sc93qj","address":"1609 Shooting Park Rd , Peru, IL 61354-1774","geo_precision":"range"},"type":"Feature","geometry":{"type":"Point","coordinates":[-89.126697,41.338402]}},{"properties":{"name":"Leonard Pietrowski","geo_score":0.712,"id":"a65aw3gqba23","address":"1147 Lafayette St , La Salle, IL 61301-1542","geo_precision":"range"},"type":"Feature","geometry":{"type":"Point","coordinates":[-89.102318,41.338873]}},{"properties":{"name":"Leroy Adelphia Jr","geo_score":0.921,"id":"a65aw3piefwb","address":"616 E Center St , Ottawa, IL 61350-3630","geo_precision":"range"},"type":"Feature","geometry":{"type":"Point","coordinates":[-88.833585,41.336903]}},{"properties":{"name":"Leroy South","geo_score":0.916,"id":"a65aw3qh4ot3","address":"3669 E 20th Rd , Serena, IL 60549-9766","geo_precision":"range"},"type":"Feature","geometry":{"type":"Point","coordinates":[-88.78522,41.465829]}},{"properties":{"name":"Liberty Grzybowski","geo_score":1.0,"id":"a65aw3rrnvmw","address":"2120 Meadow Lawn Ln , Peru, IL 61354-1212","geo_precision":"range"},"type":"Feature","geometry":{"type":"Point","coordinates":[-89.128085,41.339979]}},{"properties":{"name":"Linda Klein","geo_score":0.452,"id":"a65aw3jnylnl","address":"136 Nellie Cir , Oglesby, IL 61348-9534","geo_precision":"street"},"type":"Feature","geometry":{"type":"Point","coordinates":[-88.852925,41.11246]}},{"properties":{"name":"Linda Pelka","geo_score":0.902,"id":"a65aw3hgsork","address":"1421 27th St , Peru, IL 61354-1378","geo_precision":"range"},"type":"Feature","geometry":{"type":"Point","coordinates":[-89.124415,41.344902]}},{"properties":{"name":"Linda Vela","geo_score":0.665,"id":"a65aw3rjry8j","address":"1446 Porter Ave , La Salle, IL 61301-1464","geo_precision":"range"},"type":"Feature","geometry":{"type":"Point","coordinates":[-89.086767,41.344276]}},{"properties":{"name":"Linda Yeruski","geo_score":1.0,"id":"a65aw3lnaidw","address":"1520 Grant Ct , Peru, IL 61354-2381","geo_precision":"range"},"type":"Feature","geometry":{"type":"Point","coordinates":[-89.125813,41.334296]}},{"properties":{"name":"Lindsay Waldron","geo_score":0.837,"id":"a65aw3tpznzc","address":"1497 N 36th Rd , Ottawa, IL 61350-9514","geo_precision":"range"},"type":"Feature","geometry":{"type":"Point","coordinates":[-88.875179,41.455373]}},{"properties":{"name":"Lisa Anderson","geo_score":0.902,"id":"a65aw3sprnei","address":"1837 May Rd , Peru, IL 61354-9305","geo_precision":"range"},"type":"Feature","geometry":{"type":"Point","coordinates":[-89.137468,41.367272]}},{"properties":{"name":"Lisa Bond","geo_score":0.921,"id":"a65aw3tm34gc","address":"533 E Marquette St , Ottawa, IL 61350-2306","geo_precision":"range"},"type":"Feature","geometry":{"type":"Point","coordinates":[-88.833204,41.354259]}},{"properties":{"name":"Lisa Carlson","geo_score":0.921,"id":"a65aw3lfehvv","address":"1321 Illinois Ave , Ottawa, IL 61350-3207","geo_precision":"range"},"type":"Feature","geometry":{"type":"Point","coordinates":[-88.858996,41.342897]}},{"properties":{"name":"Lisa Lange","geo_score":0.883,"id":"a65aw3fr76w8","address":"1806 3rd St , Peru, IL 61354-3340","geo_precision":"range"},"type":"Feature","geometry":{"type":"Point","coordinates":[-89.129205,41.326706]}},{"properties":{"name":"Lisa McDonnell","geo_score":0.837,"id":"a65aw3hbt20h","address":"3281 E 16th Rd , Ottawa, IL 61350-9636","geo_precision":"range"},"type":"Feature","geometry":{"type":"Point","coordinates":[-88.854743,41.408744]}},{"properties":{"name":"Lisa Michael","geo_score":1.0,"id":"a65aw3mwam9x","address":"1911 Putnam St , Peru, IL 61354-1760","geo_precision":"range"},"type":"Feature","geometry":{"type":"Point","coordinates":[-89.1279,41.337462]}},{"properties":{"name":"Lisa Reiss","geo_score":1.0,"id":"a65aw3ggdb1l","address":"2002 Rosemary Cir , Sandwich, IL 60548-9333","geo_precision":"range"},"type":"Feature","geometry":{"type":"Point","coordinates":[-88.657458,41.614308]}},{"properties":{"name":"Lisa Schrader","geo_score":1.0,"id":"a65aw3h4xa2k","address":"1216 Plain St , Peru, IL 61354-2366","geo_precision":"range"},"type":"Feature","geometry":{"type":"Point","coordinates":[-89.120921,41.331813]}},{"properties":{"name":"Lois Swanson","geo_score":0.883,"id":"a65aw3sg0p8a","address":"1828 3rd St , Peru, IL 61354-3340","geo_precision":"range"},"type":"Feature","geometry":{"type":"Point","coordinates":[-89.129491,41.326704]}},{"properties":{"name":"Lori Plichta","geo_score":0.962,"id":"a65aw3ufvepf","address":"1211 E Hickory St , Streator, IL 61364-2451","geo_precision":"range"},"type":"Feature","geometry":{"type":"Point","coordinates":[-88.819222,41.122091]}},{"properties":{"name":"Lori Satterfield","geo_score":0.912,"id":"a65aw3ilekq6","address":"3109 E 2379th Rd , Marseilles, IL 61341-9498","geo_precision":"range"},"type":"Feature","geometry":{"type":"Point","coordinates":[-88.710676,41.384312]}},{"properties":{"name":"Lori Stephenson","geo_score":0.921,"id":"a65aw3i7u66a","address":"1337 Illinois Ave , Ottawa, IL 61350-3207","geo_precision":"range"},"type":"Feature","geometry":{"type":"Point","coordinates":[-88.859285,41.34274]}},{"properties":{"name":"Lorraine Olivero","geo_score":0.827,"id":"a65aw3kjufnp","address":"301 11th St , La Salle, IL 61301-1752","geo_precision":"range"},"type":"Feature","geometry":{"type":"Point","coordinates":[-89.102886,41.338687]}},{"properties":{"name":"Louis Hancin","geo_score":0.962,"id":"a65aw3uazlnq","address":"301 Fuller Ave , Streator, IL 61364-2506","geo_precision":"range"},"type":"Feature","geometry":{"type":"Point","coordinates":[-88.809716,41.123667]}},{"properties":{"name":"Louis Rios","geo_score":0.925,"id":"a65aw3q3hxy6","address":"444 Maple Rd , La Salle, IL 61301-1566","geo_precision":"range"},"type":"Feature","geometry":{"type":"Point","coordinates":[-89.100896,41.342742]}},{"properties":{"name":"Loyce Beyer","geo_score":0.921,"id":"a65aw3kf6ze1","address":"1527 Ottawa Ave , Ottawa, IL 61350-3453","geo_precision":"range"},"type":"Feature","geometry":{"type":"Point","coordinates":[-88.863453,41.339802]}},{"properties":{"name":"Lucas Vickers","geo_score":0.962,"id":"a65aw3j8krto","address":"607 Wisconsin Ave , Streator, IL 61364-2434","geo_precision":"range"},"type":"Feature","geometry":{"type":"Point","coordinates":[-88.819333,41.126033]}},{"properties":{"name":"Lupe Eick","geo_score":0.921,"id":"a65aw3kdzn6i","address":"1135 W Main St , Ottawa, IL 61350-2624","geo_precision":"range"},"type":"Feature","geometry":{"type":"Point","coordinates":[-88.855791,41.345559]}},{"properties":{"name":"Lynn Grove","geo_score":1.0,"id":"a65aw3uanb72","address":"2119 Main St , Peru, IL 61354-3425","geo_precision":"range"},"type":"Feature","geometry":{"type":"Point","coordinates":[-89.13366,41.32395]}},{"properties":{"name":"Lynne Strand","geo_score":0.824,"id":"a65aw3k2nngg","address":"308 W 2nd St , Oglesby, IL 61348-1406","geo_precision":"range"},"type":"Feature","geometry":{"type":"Point","coordinates":[-89.064079,41.292852]}},{"properties":{"name":"M Anderson","geo_score":0.657,"id":"a65aw3ju9y17","address":"1205 Creve Coeur St , La Salle, IL 61301-1577","geo_precision":"range"},"type":"Feature","geometry":{"type":"Point","coordinates":[-89.104614,41.339987]}},{"properties":{"name":"Madeline Pena","geo_score":0.73,"id":"a65aw3flur12","address":"1323 Laharpe St , La Salle, IL 61301-1657","geo_precision":"range"},"type":"Feature","geometry":{"type":"Point","coordinates":[-89.090194,41.34131]}},{"properties":{"name":"Manuel Gomez","geo_score":0.712,"id":"a65aw3ujv2gx","address":"1599 Lafayette St , La Salle, IL 61301-1313","geo_precision":"range"},"type":"Feature","geometry":{"type":"Point","coordinates":[-89.103246,41.34485]}},{"properties":{"name":"Marcus Fox","geo_score":0.837,"id":"a65aw3no9au6","address":"2912 E 15th Rd , Ottawa, IL 61350-9046","geo_precision":"range"},"type":"Feature","geometry":{"type":"Point","coordinates":[-88.867438,41.356698]}},{"properties":{"name":"Margaret Murray","geo_score":0.962,"id":"a65aw3tw9eb2","address":"1503 E Main St , Streator, IL 61364-3163","geo_precision":"range"},"type":"Feature","geometry":{"type":"Point","coordinates":[-88.812951,41.12103]}},{"properties":{"name":"Marie Rimmele","geo_score":0.61,"id":"a65aw3f48i37","address":"710 Saint Vincents Ave , Peru, IL 61354-2355","geo_precision":"street"},"type":"Feature","geometry":{"type":"Point","coordinates":[-89.096318,41.338817]}},{"properties":{"name":"Marie Stoetzel","geo_score":0.632,"id":"a65aw3ue9caj","address":"397 N 2959th Rd , La Salle, IL 61301-9702","geo_precision":"range"},"type":"Feature","geometry":{"type":"Point","coordinates":[-89.084599,41.357153]}},{"properties":{"name":"Marjory Nobile","geo_score":0.921,"id":"a65aw3qnbkyj","address":"1048 State St , Ottawa, IL 61350-4462","geo_precision":"range"},"type":"Feature","geometry":{"type":"Point","coordinates":[-88.839845,41.329331]}},{"properties":{"name":"Mark Grzetich","geo_score":0.916,"id":"a65aw3q9huxj","address":"3743 E 25th Rd , Serena, IL 60549-9735","geo_precision":"range"},"type":"Feature","geometry":{"type":"Point","coordinates":[-88.694132,41.47666]}},{"properties":{"name":"Mark Grzybowski","geo_score":0.902,"id":"a65aw3k5ffc8","address":"1209 24th St , Peru, IL 61354-1307","geo_precision":"range"},"type":"Feature","geometry":{"type":"Point","coordinates":[-89.1219,41.342796]}},{"properties":{"name":"Mark Walsh","geo_score":0.921,"id":"a65aw3g9wj0m","address":"201 College Ave , Ottawa, IL 61350-3965","geo_precision":"range"},"type":"Feature","geometry":{"type":"Point","coordinates":[-88.841419,41.331219]}},{"properties":{"name":"Martha Highsmith","geo_score":0.962,"id":"a65aw3fcym16","address":"1206 E Main St , Streator, IL 61364-3144","geo_precision":"range"},"type":"Feature","geometry":{"type":"Point","coordinates":[-88.819262,41.12103]}},{"properties":{"name":"Martin Meng","geo_score":0.927,"id":"a65aw3l9zs1n","address":"2636 N 3853rd Rd , Sheridan, IL 60551-9570","geo_precision":"range"},"type":"Feature","geometry":{"type":"Point","coordinates":[-88.667812,41.496027]}},{"properties":{"name":"Marva Andrews","geo_score":0.817,"id":"a65aw3fpnz33","address":"221 Holiday Dr , Somonauk, IL 60552-9666","geo_precision":"street"},"type":"Feature","geometry":{"type":"Point","coordinates":[-88.683864,41.614789]}},{"properties":{"name":"Mary Biba","geo_score":0.912,"id":"a65aw3jux6cb","address":"2351 N 2453rd Rd , Marseilles, IL 61341-9705","geo_precision":"range"},"type":"Feature","geometry":{"type":"Point","coordinates":[-88.719288,41.287507]}},{"properties":{"name":"Mary Bjork","geo_score":0.915,"id":"a65aw3uhi2jf","address":"66 Timmy Trl , Somonauk, IL 60552-9610","geo_precision":"range"},"type":"Feature","geometry":{"type":"Point","coordinates":[-88.685804,41.606327]}},{"properties":{"name":"Mary Boland","geo_score":0.902,"id":"a65aw3h81yox","address":"826 10th St , Peru, IL 61354-2341","geo_precision":"range"},"type":"Feature","geometry":{"type":"Point","coordinates":[-89.116378,41.333641]}},{"properties":{"name":"Mary Egan","geo_score":0.894,"id":"a65aw3l7bstb","address":"1314 Maple Dr Apt C , Peru, IL 61354-1326","geo_precision":"range"},"type":"Feature","geometry":{"type":"Point","coordinates":[-89.122966,41.340274]}},{"properties":{"name":"Mary Gambo","geo_score":0.921,"id":"a65aw3gigezs","address":"208 Carriage Dr , Ottawa, IL 61350-3458","geo_precision":"range"},"type":"Feature","geometry":{"type":"Point","coordinates":[-88.859358,41.34067]}},{"properties":{"name":"Mary Guilinger","geo_score":1.0,"id":"a65aw3re98n1","address":"1918 Laverne Dr , Sandwich, IL 60548-9335","geo_precision":"range"},"type":"Feature","geometry":{"type":"Point","coordinates":[-88.657157,41.615752]}},{"properties":{"name":"Mary Henson","geo_score":0.962,"id":"a65aw3tb72pl","address":"817 Painter St , Streator, IL 61364-1853","geo_precision":"range"},"type":"Feature","geometry":{"type":"Point","coordinates":[-88.817982,41.128553]}},{"properties":{"name":"Mary Holsinger","geo_score":0.921,"id":"a65aw3scghnz","address":"544 Catherine St , Ottawa, IL 61350-3675","geo_precision":"range"},"type":"Feature","geometry":{"type":"Point","coordinates":[-88.838493,41.335935]}},{"properties":{"name":"Mary Hunter","geo_score":0.712,"id":"a65aw3jvelq0","address":"1260 Lafayette St , La Salle, IL 61301-1545","geo_precision":"range"},"type":"Feature","geometry":{"type":"Point","coordinates":[-89.102516,41.340289]}},{"properties":{"name":"Mary Livieri","geo_score":0.922,"id":"a65aw3qnv5mm","address":"130 Claret Knoll Ave , Oglesby, IL 61348-9533","geo_precision":"range"},"type":"Feature","geometry":{"type":"Point","coordinates":[-89.103188,41.293751]}},{"properties":{"name":"Mary McDermott","geo_score":0.823,"id":"a65aw3u8vlqe","address":"800 E Center St , Ottawa, IL 61350-4145","geo_precision":"street"},"type":"Feature","geometry":{"type":"Point","coordinates":[-88.83106,41.336951]}},{"properties":{"name":"Mary Neimann","geo_score":0.962,"id":"a65aw3gtu4ys","address":"308 N Colorado Ave , Streator, IL 61364-2443","geo_precision":"range"},"type":"Feature","geometry":{"type":"Point","coordinates":[-88.820658,41.123175]}},{"properties":{"name":"Mary Renick","geo_score":0.921,"id":"a65aw3rbt8j8","address":"1236 Douglas St , Ottawa, IL 61350-3406","geo_precision":"range"},"type":"Feature","geometry":{"type":"Point","coordinates":[-88.85642,41.341721]}},{"properties":{"name":"Mary Wieczorek","geo_score":0.827,"id":"a65aw3fydano","address":"1225 11th St , La Salle, IL 61301-1946","geo_precision":"range"},"type":"Feature","geometry":{"type":"Point","coordinates":[-89.089632,41.339057]}},{"properties":{"name":"Mary Zalazar","geo_score":1.0,"id":"a65aw3j228b1","address":"2423 Rock St , Peru, IL 61354-1346","geo_precision":"range"},"type":"Feature","geometry":{"type":"Point","coordinates":[-89.121895,41.342957]}},{"properties":{"name":"Maryann Lasik","geo_score":1.0,"id":"a65aw3twl8yr","address":"1904 Plum St , Peru, IL 61354-1851","geo_precision":"range"},"type":"Feature","geometry":{"type":"Point","coordinates":[-89.12391,41.337529]}},{"properties":{"name":"Maryanne Powers","geo_score":0.921,"id":"a65aw3gmyq3y","address":"417 E Prospect Ave , Ottawa, IL 61350-3637","geo_precision":"range"},"type":"Feature","geometry":{"type":"Point","coordinates":[-88.835937,41.339745]}},{"properties":{"name":"Matthew Chapman","geo_score":0.916,"id":"a65aw3k9lwst","address":"2291 N 37th Rd , Serena, IL 60549-9755","geo_precision":"range"},"type":"Feature","geometry":{"type":"Point","coordinates":[-88.730533,41.470342]}},{"properties":{"name":"Matthew Lightle","geo_score":0.824,"id":"a65aw3p7d8g3","address":"326 W 2nd St , Oglesby, IL 61348-1406","geo_precision":"range"},"type":"Feature","geometry":{"type":"Point","coordinates":[-89.064339,41.29285]}},{"properties":{"name":"Megan Taylor","geo_score":0.921,"id":"a65aw3lvfb7b","address":"655 Webster St , Ottawa, IL 61350-2748","geo_precision":"range"},"type":"Feature","geometry":{"type":"Point","coordinates":[-88.849855,41.345101]}},{"properties":{"name":"Melissa Clancy","geo_score":1.0,"id":"a65aw3nm460s","address":"1616 Shooting Park Rd , Peru, IL 61354-1772","geo_precision":"range"},"type":"Feature","geometry":{"type":"Point","coordinates":[-89.126751,41.338401]}},{"properties":{"name":"Melissa Lee","geo_score":0.921,"id":"a65aw3hezwg3","address":"536 E Superior St , Ottawa, IL 61350-2345","geo_precision":"range"},"type":"Feature","geometry":{"type":"Point","coordinates":[-88.83571,41.352185]}},{"properties":{"name":"Melissa Pinter","geo_score":0.883,"id":"a65aw3p8xk2v","address":"1828 1st St , Peru, IL 61354-3329","geo_precision":"range"},"type":"Feature","geometry":{"type":"Point","coordinates":[-89.129461,41.324893]}},{"properties":{"name":"Melvin Johnson Jr","geo_score":0.921,"id":"a65aw3orwvxd","address":"421 E Main St , Ottawa, IL 61350-3115","geo_precision":"range"},"type":"Feature","geometry":{"type":"Point","coordinates":[-88.836033,41.34577]}},{"properties":{"name":"Meredith Owens","geo_score":1.0,"id":"a65aw3th99pq","address":"1880 Suzy St , Sandwich, IL 60548-9308","geo_precision":"range"},"type":"Feature","geometry":{"type":"Point","coordinates":[-88.653511,41.619905]}},{"properties":{"name":"Merle Fishburn","geo_score":0.916,"id":"a65aw3eoc654","address":"3849 E 22nd Rd , Serena, IL 60549-9723","geo_precision":"range"},"type":"Feature","geometry":{"type":"Point","coordinates":[-88.747641,41.492353]}},{"properties":{"name":"Merle Yott","geo_score":0.805,"id":"a65aw3gsoszc","address":"641 W Walnut St Trlr 43 , Oglesby, IL 61348-1483","geo_precision":"range"},"type":"Feature","geometry":{"type":"Point","coordinates":[-89.069255,41.295053]}},{"properties":{"name":"Michael Barnes","geo_score":0.921,"id":"a65aw3gy7ucg","address":"514 E Main St , Ottawa, IL 61350-3118","geo_precision":"range"},"type":"Feature","geometry":{"type":"Point","coordinates":[-88.834533,41.345782]}},{"properties":{"name":"Michael Barrie","geo_score":0.695,"id":"a65aw3pc2t3e","address":"108 Scott Ave , Oglesby, IL 61348-9604","geo_precision":"range"},"type":"Feature","geometry":{"type":"Point","coordinates":[-89.16462,41.354757]}},{"properties":{"name":"Michael Graham","geo_score":0.921,"id":"a65aw3pav2h3","address":"428 Catherine St , Ottawa, IL 61350-3654","geo_precision":"range"},"type":"Feature","geometry":{"type":"Point","coordinates":[-88.838535,41.338252]}},{"properties":{"name":"Michael Harlow","geo_score":0.922,"id":"a65aw3t2vevn","address":"325 N School Ave , Oglesby, IL 61348-1159","geo_precision":"range"},"type":"Feature","geometry":{"type":"Point","coordinates":[-89.063983,41.298267]}},{"properties":{"name":"Michael Hough","geo_score":0.917,"id":"a65aw3i2kkny","address":"1564 N 3975th Rd , Earlville, IL 60518-6037","geo_precision":"range"},"type":"Feature","geometry":{"type":"Point","coordinates":[-88.870328,41.509958]}},{"properties":{"name":"Michael Krolak","geo_score":1.0,"id":"a65aw3flnxd0","address":"322 Calhoun St , Peru, IL 61354-3403","geo_precision":"range"},"type":"Feature","geometry":{"type":"Point","coordinates":[-89.134969,41.32386]}},{"properties":{"name":"Michael Lamb","geo_score":0.0,"id":"a65aw3ghxm0u","address":"1640 N 3019th , Ottawa, IL 61350-","geo_precision":"unmatched"},"type":"Feature","geometry":null},{"properties":{"name":"Michael Ludkowski","geo_score":0.962,"id":"a65aw3f98ynw","address":"1311 E Hickory St , Streator, IL 61364-2549","geo_precision":"range"},"type":"Feature","geometry":{"type":"Point","coordinates":[-88.817863,41.122092]}},{"properties":{"name":"Michael Maier","geo_score":0.665,"id":"a65aw3hti6ea","address":"1133 Bucklin St , La Salle, IL 61301-1532","geo_precision":"range"},"type":"Feature","geometry":{"type":"Point","coordinates":[-89.101198,41.338987]}},{"properties":{"name":"Michael Malley","geo_score":0.962,"id":"a65aw3lauwb5","address":"703 Iowa Ave , Streator, IL 61364-2430","geo_precision":"range"},"type":"Feature","geometry":{"type":"Point","coordinates":[-88.822014,41.12689]}},{"properties":{"name":"Michael McWhorter","geo_score":0.902,"id":"a65aw3jelsfy","address":"1321 26th St , Peru, IL 61354-1317","geo_precision":"range"},"type":"Feature","geometry":{"type":"Point","coordinates":[-89.122609,41.34421]}},{"properties":{"name":"Michael Olson","geo_score":1.0,"id":"a65aw3krfld2","address":"2130 Market St , Peru, IL 61354-3443","geo_precision":"range"},"type":"Feature","geometry":{"type":"Point","coordinates":[-89.133602,41.323313]}},{"properties":{"name":"Michael Peterson","geo_score":0.927,"id":"a65aw3frrib5","address":"2632 N 3739th Rd , Sheridan, IL 60551-9474","geo_precision":"range"},"type":"Feature","geometry":{"type":"Point","coordinates":[-88.665775,41.475055]}},{"properties":{"name":"Michael Reynolds","geo_score":0.921,"id":"a65aw3lixcus","address":"1515 Ottawa Ave , Ottawa, IL 61350-3453","geo_precision":"range"},"type":"Feature","geometry":{"type":"Point","coordinates":[-88.863336,41.339866]}},{"properties":{"name":"Michael Sabatini","geo_score":0.883,"id":"a65aw3p7ij4i","address":"2322 2nd St , Peru, IL 61354-3207","geo_precision":"range"},"type":"Feature","geometry":{"type":"Point","coordinates":[-89.135983,41.325735]}},{"properties":{"name":"Michael Schmotzer","geo_score":0.925,"id":"a65aw3gd9z4m","address":"1704 Tonti St , La Salle, IL 61301-1479","geo_precision":"range"},"type":"Feature","geometry":{"type":"Point","coordinates":[-89.092796,41.345494]}},{"properties":{"name":"Michael Willand","geo_score":0.922,"id":"a65aw3hg6a9n","address":"215 S Woodland Ave , Oglesby, IL 61348-1572","geo_precision":"range"},"type":"Feature","geometry":{"type":"Point","coordinates":[-89.062505,41.293803]}},{"properties":{"name":"Michael Wiltgen","geo_score":1.0,"id":"a65aw3l47eds","address":"1759 Laverne Dr , Sandwich, IL 60548-9391","geo_precision":"range"},"type":"Feature","geometry":{"type":"Point","coordinates":[-88.656188,41.619461]}},{"properties":{"name":"Michael Woods","geo_score":0.837,"id":"a65aw3ro4rlx","address":"1427 N 36th Rd , Ottawa, IL 61350-9514","geo_precision":"range"},"type":"Feature","geometry":{"type":"Point","coordinates":[-88.888906,41.455133]}},{"properties":{"name":"Michele Connell","geo_score":0.657,"id":"a65aw3s32a7c","address":"1467 Creve Coeur St , La Salle, IL 61301-1516","geo_precision":"range"},"type":"Feature","geometry":{"type":"Point","coordinates":[-89.104654,41.343399]}},{"properties":{"name":"Michelle Brandenburg","geo_score":1.0,"id":"a65aw3iw0rrt","address":"1322 Centennial Dr , Peru, IL 61354-1844","geo_precision":"range"},"type":"Feature","geometry":{"type":"Point","coordinates":[-89.122243,41.335936]}},{"properties":{"name":"Michelle Glancy","geo_score":0.883,"id":"a65aw3kgidy1","address":"1818 2nd St , Peru, IL 61354-3304","geo_precision":"range"},"type":"Feature","geometry":{"type":"Point","coordinates":[-89.129309,41.325796]}},{"properties":{"name":"Michelle Sharpe","geo_score":1.0,"id":"a65aw3mh618u","address":"626 Green St , Peru, IL 61354-3230","geo_precision":"range"},"type":"Feature","geometry":{"type":"Point","coordinates":[-89.135702,41.325978]}},{"properties":{"name":"Mildred Gray","geo_score":0.922,"id":"a65aw3pmbod4","address":"129 S Kenosha Ave , Oglesby, IL 61348-1430","geo_precision":"range"},"type":"Feature","geometry":{"type":"Point","coordinates":[-89.06538,41.294895]}},{"properties":{"name":"Mine Banushi","geo_score":0.921,"id":"a65aw3q90umc","address":"2753 E 1779th Rd , Ottawa, IL 61350-9374","geo_precision":"range"},"type":"Feature","geometry":{"type":"Point","coordinates":[-88.819799,41.333953]}},{"properties":{"name":"Molly Farrell","geo_score":0.0,"id":"a65aw3grvz4p","address":"3019 E 1622nd , Ottawa, IL 61350-","geo_precision":"unmatched"},"type":"Feature","geometry":null},{"properties":{"name":"Mona Murphy","geo_score":0.921,"id":"a65aw3s7e1fn","address":"400 Pearl St , Ottawa, IL 61350-3042","geo_precision":"range"},"type":"Feature","geometry":{"type":"Point","coordinates":[-88.836373,41.347576]}},{"properties":{"name":"Myra Liebhart","geo_score":0.883,"id":"a65aw3m5qpin","address":"1225 7th St , Peru, IL 61354-2724","geo_precision":"range"},"type":"Feature","geometry":{"type":"Point","coordinates":[-89.1212,41.330449]}},{"properties":{"name":"Nancy Brown","geo_score":0.921,"id":"a65aw3trn647","address":"1002 University Ave , Ottawa, IL 61350-4338","geo_precision":"range"},"type":"Feature","geometry":{"type":"Point","coordinates":[-88.843637,41.328214]}},{"properties":{"name":"Nancy Erwin","geo_score":0.902,"id":"a65aw3rwz9sp","address":"1701 26th St , Peru, IL 61354-1389","geo_precision":"range"},"type":"Feature","geometry":{"type":"Point","coordinates":[-89.12808,41.344261]}},{"properties":{"name":"Nancy Godwin","geo_score":0.829,"id":"a65aw3ithv3d","address":"2571 E 22nd Rd , Marseilles, IL 61341-9702","geo_precision":"range"},"type":"Feature","geometry":{"type":"Point","coordinates":[-88.7237,41.304529]}},{"properties":{"name":"Nancy Sondgeroth","geo_score":1.0,"id":"a65aw3gn3qw3","address":"1975 Janet Ct , Sandwich, IL 60548-9202","geo_precision":"range"},"type":"Feature","geometry":{"type":"Point","coordinates":[-88.655721,41.613062]}},{"properties":{"name":"Nancy Zmia","geo_score":0.962,"id":"a65aw3rpyfhm","address":"1002 Johnson St , Streator, IL 61364-1846","geo_precision":"range"},"type":"Feature","geometry":{"type":"Point","coordinates":[-88.819359,41.131255]}},{"properties":{"name":"Nicholas Jagg","geo_score":0.73,"id":"a65aw3jdm8pf","address":"1480 Linden Ave , La Salle, IL 61301-1529","geo_precision":"range"},"type":"Feature","geometry":{"type":"Point","coordinates":[-89.103541,41.343295]}},{"properties":{"name":"Nicole Speirer","geo_score":0.921,"id":"a65aw3nh6f57","address":"704 E Canal Ave , Ottawa, IL 61350-2400","geo_precision":"range"},"type":"Feature","geometry":{"type":"Point","coordinates":[-88.835295,41.352923]}},{"properties":{"name":"Nijas Banushi","geo_score":0.921,"id":"a65aw3fh6sy4","address":"2753 E 1779th Rd , Ottawa, IL 61350-9374","geo_precision":"range"},"type":"Feature","geometry":{"type":"Point","coordinates":[-88.819799,41.333953]}},{"properties":{"name":"Niki Bailey","geo_score":0.823,"id":"a65aw3negon2","address":"500 2nd Ave , Ottawa, IL 61350-3612","geo_precision":"range"},"type":"Feature","geometry":{"type":"Point","coordinates":[-88.836029,41.336876]}},{"properties":{"name":"Norma Beardsley","geo_score":0.843,"id":"a65aw3feb8j1","address":"2442 N 41st Rd , Sheridan, IL 60551-9461","geo_precision":"range"},"type":"Feature","geometry":{"type":"Point","coordinates":[-88.701337,41.529005]}},{"properties":{"name":"Norma Overocke","geo_score":0.823,"id":"a65aw3qkbgfu","address":"800 E Center St , Ottawa, IL 61350-4145","geo_precision":"street"},"type":"Feature","geometry":{"type":"Point","coordinates":[-88.83106,41.336951]}},{"properties":{"name":"Norma Sweet","geo_score":0.921,"id":"a65aw3pcskin","address":"745 Chapel St , Ottawa, IL 61350-3007","geo_precision":"range"},"type":"Feature","geometry":{"type":"Point","coordinates":[-88.82994,41.348464]}},{"properties":{"name":"Pamela Tregoning","geo_score":0.922,"id":"a65aw3sebrjh","address":"396 S Columbia Ave , Oglesby, IL 61348-1418","geo_precision":"range"},"type":"Feature","geometry":{"type":"Point","coordinates":[-89.068089,41.291488]}},{"properties":{"name":"Patricia Allen","geo_score":0.921,"id":"a65aw3rnsm29","address":"628 W Main St , Ottawa, IL 61350-2718","geo_precision":"range"},"type":"Feature","geometry":{"type":"Point","coordinates":[-88.848864,41.345712]}},{"properties":{"name":"Patricia Cooter","geo_score":0.921,"id":"a65aw3h40qw3","address":"415 Clay St , Ottawa, IL 61350-2744","geo_precision":"range"},"type":"Feature","geometry":{"type":"Point","coordinates":[-88.850629,41.344285]}},{"properties":{"name":"Patricia Forthe","geo_score":0.61,"id":"a65aw3pte03b","address":"102 Meadow Ln , Streator, IL 61364-1106","geo_precision":"street"},"type":"Feature","geometry":{"type":"Point","coordinates":[-88.833809,41.368034]}},{"properties":{"name":"Patricia Miller","geo_score":0.0,"id":"a65aw3jk8lpw","address":"1612 N 3005th , Ottawa, IL 61350-","geo_precision":"unmatched"},"type":"Feature","geometry":null},{"properties":{"name":"Patricia Pescetto","geo_score":1.0,"id":"a65aw3n7pj0s","address":"2205 Plum St , Peru, IL 61354-1329","geo_precision":"range"},"type":"Feature","geometry":{"type":"Point","coordinates":[-89.124068,41.341368]}},{"properties":{"name":"Patricia Rigazio","geo_score":0.922,"id":"a65aw3gk0xev","address":"609 Jordan St , Oglesby, IL 61348-1108","geo_precision":"range"},"type":"Feature","geometry":{"type":"Point","coordinates":[-89.068556,41.299169]}},{"properties":{"name":"Patricia Steep","geo_score":0.921,"id":"a65aw3rwbbyx","address":"137 Riverview Dr , Ottawa, IL 61350-3426","geo_precision":"range"},"type":"Feature","geometry":{"type":"Point","coordinates":[-88.857732,41.341023]}},{"properties":{"name":"Patricia Taylor","geo_score":0.962,"id":"a65aw3g3ghlv","address":"610 Wisconsin Ave , Streator, IL 61364-2435","geo_precision":"range"},"type":"Feature","geometry":{"type":"Point","coordinates":[-88.819334,41.126097]}},{"properties":{"name":"Patricia White","geo_score":1.0,"id":"a65aw3k20xbp","address":"2605 Rock St , Peru, IL 61354-1350","geo_precision":"range"},"type":"Feature","geometry":{"type":"Point","coordinates":[-89.122516,41.344255]}},{"properties":{"name":"Patrick Cawley","geo_score":0.665,"id":"a65aw3t4neq1","address":"1401 Bucklin St , La Salle, IL 61301-1538","geo_precision":"range"},"type":"Feature","geometry":{"type":"Point","coordinates":[-89.101676,41.341999]}},{"properties":{"name":"Patrick Graham","geo_score":0.823,"id":"a65aw3k8sxki","address":"440 5th Ave , Ottawa, IL 61350-3679","geo_precision":"range"},"type":"Feature","geometry":{"type":"Point","coordinates":[-88.832584,41.337384]}},{"properties":{"name":"Patrick Karns","geo_score":1.0,"id":"a65aw3i1y6yh","address":"1858 Laverne Dr , Sandwich, IL 60548-9390","geo_precision":"range"},"type":"Feature","geometry":{"type":"Point","coordinates":[-88.655558,41.617521]}},{"properties":{"name":"Patrick Sondgeroth","geo_score":1.0,"id":"a65aw3ko553j","address":"1975 Janet Ct , Sandwich, IL 60548-9202","geo_precision":"range"},"type":"Feature","geometry":{"type":"Point","coordinates":[-88.655721,41.613062]}},{"properties":{"name":"Patsy Balke","geo_score":0.962,"id":"a65aw3j5kua7","address":"918 N Jackson St , Streator, IL 61364-1836","geo_precision":"range"},"type":"Feature","geometry":{"type":"Point","coordinates":[-88.820722,41.130208]}},{"properties":{"name":"Paul Cisneros","geo_score":0.824,"id":"a65aw3hgtduu","address":"113 Cedar Creek Ln , Oglesby, IL 61348-9699","geo_precision":"street"},"type":"Feature","geometry":{"type":"Point","coordinates":[-89.10454,41.29484]}},{"properties":{"name":"Paul Delvallee","geo_score":1.0,"id":"a65aw3mt62e9","address":"2523 Rock St , Peru, IL 61354-1348","geo_precision":"range"},"type":"Feature","geometry":{"type":"Point","coordinates":[-89.122214,41.343665]}},{"properties":{"name":"Paul Franciskovich","geo_score":0.921,"id":"a65aw3m34mrs","address":"604 E Main St , Ottawa, IL 61350-3120","geo_precision":"range"},"type":"Feature","geometry":{"type":"Point","coordinates":[-88.832651,41.345794]}},{"properties":{"name":"Paul Sheedy","geo_score":0.921,"id":"a65aw3qw7zps","address":"1025 Ottawa Ave , Ottawa, IL 61350-3323","geo_precision":"range"},"type":"Feature","geometry":{"type":"Point","coordinates":[-88.854384,41.34317]}},{"properties":{"name":"Paul Verona","geo_score":0.921,"id":"a65aw3q1kwhd","address":"903 Congress St , Ottawa, IL 61350-3023","geo_precision":"range"},"type":"Feature","geometry":{"type":"Point","coordinates":[-88.826682,41.34671]}},{"properties":{"name":"Paula Latty","geo_score":0.662,"id":"a65aw3ikpfkc","address":"1520 Chartres St , La Salle, IL 61301-1368","geo_precision":"range"},"type":"Feature","geometry":{"type":"Point","coordinates":[-89.105965,41.343702]}},{"properties":{"name":"Paula Monn","geo_score":1.0,"id":"a65aw3s5nnfl","address":"2404 Market St , Peru, IL 61354-3449","geo_precision":"range"},"type":"Feature","geometry":{"type":"Point","coordinates":[-89.13703,41.322501]}},{"properties":{"name":"Pauline Schweickert","geo_score":0.883,"id":"a65aw3fr77ei","address":"1616 2nd St , Peru, IL 61354-3504","geo_precision":"range"},"type":"Feature","geometry":{"type":"Point","coordinates":[-89.126655,41.325811]}},{"properties":{"name":"Pedro Diaz","geo_score":0.921,"id":"a65aw3tujye4","address":"622 Webster St , Ottawa, IL 61350-2754","geo_precision":"range"},"type":"Feature","geometry":{"type":"Point","coordinates":[-88.84969,41.345102]}},{"properties":{"name":"Peggy Pool","geo_score":0.916,"id":"a65aw3l24ttg","address":"1822 E 28th Rd , Ransom, IL 60470-8039","geo_precision":"range"},"type":"Feature","geometry":{"type":"Point","coordinates":[-88.625335,41.198345]}},{"properties":{"name":"Peter Gallo","geo_score":0.823,"id":"a65aw3pf9lly","address":"441 2nd Ave , Ottawa, IL 61350-3609","geo_precision":"range"},"type":"Feature","geometry":{"type":"Point","coordinates":[-88.836052,41.338043]}},{"properties":{"name":"Philip Brandow","geo_score":0.837,"id":"a65aw3nssksl","address":"2924 E 15th Rd , Ottawa, IL 61350-9598","geo_precision":"range"},"type":"Feature","geometry":{"type":"Point","coordinates":[-88.86981,41.357482]}},{"properties":{"name":"Philip Burdette","geo_score":0.823,"id":"a65aw3i1yftf","address":"536 3rd Ave , Ottawa, IL 61350-3616","geo_precision":"range"},"type":"Feature","geometry":{"type":"Point","coordinates":[-88.834865,41.336347]}},{"properties":{"name":"Philip Larson","geo_score":0.921,"id":"a65aw3ju5n0q","address":"621 E Joliet St , Ottawa, IL 61350-2301","geo_precision":"range"},"type":"Feature","geometry":{"type":"Point","coordinates":[-88.833122,41.355305]}},{"properties":{"name":"Phillip Whalen","geo_score":0.916,"id":"a65aw3iyeagw","address":"1877 E 25th Rd , Ransom, IL 60470-8013","geo_precision":"range"},"type":"Feature","geometry":{"type":"Point","coordinates":[-88.683159,41.205667]}},{"properties":{"name":"Phyllis Smith","geo_score":0.921,"id":"a65aw3eye7ze","address":"712 E Superior St , Ottawa, IL 61350-2434","geo_precision":"range"},"type":"Feature","geometry":{"type":"Point","coordinates":[-88.832684,41.352215]}},{"properties":{"name":"Polly Matin","geo_score":0.705,"id":"a65aw3glrc4i","address":"1120 Crosat St , La Salle, IL 61301-1648","geo_precision":"range"},"type":"Feature","geometry":{"type":"Point","coordinates":[-89.091551,41.339241]}},{"properties":{"name":"Poppy Mitchell","geo_score":0.921,"id":"a65aw3f4gwra","address":"303 E Prospect Ave , Ottawa, IL 61350-3635","geo_precision":"range"},"type":"Feature","geometry":{"type":"Point","coordinates":[-88.837234,41.339756]}},{"properties":{"name":"Ralph Rimmele","geo_score":0.61,"id":"a65aw3h6rnzc","address":"710 Saint Vincents Ave , Peru, IL 61354-2355","geo_precision":"street"},"type":"Feature","geometry":{"type":"Point","coordinates":[-89.096318,41.338817]}},{"properties":{"name":"Randi Paquette","geo_score":0.921,"id":"a65aw3k13u4u","address":"1012 Illinois Ave , Ottawa, IL 61350-3346","geo_precision":"range"},"type":"Feature","geometry":{"type":"Point","coordinates":[-88.854362,41.344128]}},{"properties":{"name":"Raymond Glanz","geo_score":1.0,"id":"a65aw3kavfd5","address":"1915 Rock St , Peru, IL 61354-1854","geo_precision":"range"},"type":"Feature","geometry":{"type":"Point","coordinates":[-89.12282,41.338452]}},{"properties":{"name":"Rebecca Karns","geo_score":1.0,"id":"a65aw3o808e4","address":"1858 Laverne Dr , Sandwich, IL 60548-9390","geo_precision":"range"},"type":"Feature","geometry":{"type":"Point","coordinates":[-88.655558,41.617521]}},{"properties":{"name":"Rebecca Poutre","geo_score":0.0,"id":"a65aw3fbd2uf","address":"3014 E 1622nd , Ottawa, IL 61350-","geo_precision":"unmatched"},"type":"Feature","geometry":null},{"properties":{"name":"Remzi Banushi","geo_score":0.921,"id":"a65aw3hsm6mo","address":"2753 E 1779th Rd , Ottawa, IL 61350-9374","geo_precision":"range"},"type":"Feature","geometry":{"type":"Point","coordinates":[-88.819799,41.333953]}},{"properties":{"name":"Rene Sprandel","geo_score":0.665,"id":"a65aw3gpqbgj","address":"1599 Bucklin St , La Salle, IL 61301-1311","geo_precision":"range"},"type":"Feature","geometry":{"type":"Point","coordinates":[-89.102111,41.344861]}},{"properties":{"name":"Renee Huss","geo_score":0.862,"id":"a65aw3llzxr1","address":"3608 E 2631st Rd , Sheridan, IL 60551-9556","geo_precision":"range"},"type":"Feature","geometry":{"type":"Point","coordinates":[-88.671445,41.457659]}},{"properties":{"name":"Renee Jones","geo_score":0.921,"id":"a65aw3ufbh8e","address":"922 E Main St , Ottawa, IL 61350-3126","geo_precision":"range"},"type":"Feature","geometry":{"type":"Point","coordinates":[-88.826518,41.34585]}},{"properties":{"name":"Renee Mahan","geo_score":0.962,"id":"a65aw3mdkkjr","address":"701 Iowa Ave , Streator, IL 61364-2430","geo_precision":"range"},"type":"Feature","geometry":{"type":"Point","coordinates":[-88.822014,41.126861]}},{"properties":{"name":"Rhonda Lee","geo_score":0.921,"id":"a65aw3r3hu5l","address":"1209 Bergen Ave , Ottawa, IL 61350-4420","geo_precision":"range"},"type":"Feature","geometry":{"type":"Point","coordinates":[-88.842385,41.32603]}},{"properties":{"name":"Richard Dodge","geo_score":0.705,"id":"a65aw3pdemhy","address":"1120 Crosat St , La Salle, IL 61301-1648","geo_precision":"range"},"type":"Feature","geometry":{"type":"Point","coordinates":[-89.091551,41.339241]}},{"properties":{"name":"Richard Gerdovich","geo_score":0.837,"id":"a65aw3msbc54","address":"1380 N 27th Rd , Ottawa, IL 61350-9732","geo_precision":"range"},"type":"Feature","geometry":{"type":"Point","coordinates":[-88.897883,41.331738]}},{"properties":{"name":"Richard Granados","geo_score":0.921,"id":"a65aw3ezidjp","address":"644 Congress St , Ottawa, IL 61350-3018","geo_precision":"range"},"type":"Feature","geometry":{"type":"Point","coordinates":[-88.831938,41.346722]}},{"properties":{"name":"Richard Lucas","geo_score":0.962,"id":"a65aw3onqfub","address":"1504 E Main St , Streator, IL 61364-3148","geo_precision":"range"},"type":"Feature","geometry":{"type":"Point","coordinates":[-88.812886,41.12103]}},{"properties":{"name":"Richard Valdez","geo_score":0.921,"id":"a65aw3mwt8mo","address":"1013 Guion St , Ottawa, IL 61350-2240","geo_precision":"range"},"type":"Feature","geometry":{"type":"Point","coordinates":[-88.836851,41.350131]}},{"properties":{"name":"Richard Vargo Jr","geo_score":0.921,"id":"a65aw3tmvxwz","address":"824 Pearl St , Ottawa, IL 61350-3050","geo_precision":"range"},"type":"Feature","geometry":{"type":"Point","coordinates":[-88.827481,41.347632]}},{"properties":{"name":"Richard Wheeler","geo_score":0.921,"id":"a65aw3odc1lc","address":"1013 Bergen Ave , Ottawa, IL 61350-4411","geo_precision":"range"},"type":"Feature","geometry":{"type":"Point","coordinates":[-88.842417,41.327745]}},{"properties":{"name":"Richard Wollack","geo_score":0.712,"id":"a65aw3shuyxd","address":"1455 Lafayette St , La Salle, IL 61301-1548","geo_precision":"range"},"type":"Feature","geometry":{"type":"Point","coordinates":[-89.102896,41.342749]}},{"properties":{"name":"Richard Zasada","geo_score":0.921,"id":"a65aw3sa4odh","address":"1260 Illinois Ave , Ottawa, IL 61350-3312","geo_precision":"range"},"type":"Feature","geometry":{"type":"Point","coordinates":[-88.857363,41.343467]}},{"properties":{"name":"Ricky Kwit","geo_score":0.902,"id":"a65aw3f8lg54","address":"826 10th St , Peru, IL 61354-2341","geo_precision":"range"},"type":"Feature","geometry":{"type":"Point","coordinates":[-89.116378,41.333641]}},{"properties":{"name":"Robert Currier","geo_score":0.922,"id":"a65aw3ksh8iq","address":"430 W Walnut St , Oglesby, IL 61348-1453","geo_precision":"range"},"type":"Feature","geometry":{"type":"Point","coordinates":[-89.067089,41.295048]}},{"properties":{"name":"Robert Fike","geo_score":0.921,"id":"a65aw3fqb8xs","address":"3623 E 1769 Rd , Ottawa, IL 61350-9682","geo_precision":"range"},"type":"Feature","geometry":{"type":"Point","coordinates":[-88.821764,41.457496]}},{"properties":{"name":"Robert Fowler","geo_score":0.921,"id":"a65aw3fkzekt","address":"1206 Bergen Ave , Ottawa, IL 61350-4421","geo_precision":"range"},"type":"Feature","geometry":{"type":"Point","coordinates":[-88.842386,41.326113]}},{"properties":{"name":"Robert Fowler","geo_score":0.837,"id":"a65aw3slu3nj","address":"1380 N 27th Rd , Ottawa, IL 61350-9732","geo_precision":"range"},"type":"Feature","geometry":{"type":"Point","coordinates":[-88.897883,41.331738]}},{"properties":{"name":"Robert Hoffman","geo_score":0.595,"id":"a65aw3niu3b6","address":"2394 N 4089th Rd , Sheridan, IL 60551-9504","geo_precision":"zip"},"type":"Feature","geometry":{"type":"Point","coordinates":[-88.664518,41.465587]}},{"properties":{"name":"Robert Klein","geo_score":0.854,"id":"a65aw3eqdkja","address":"1312 West St , Peru, IL 61354-2319","geo_precision":"range"},"type":"Feature","geometry":{"type":"Point","coordinates":[-89.125222,41.332312]}},{"properties":{"name":"Robert Marini","geo_score":1.0,"id":"a65aw3laisr7","address":"2201 Meadow Lawn Ln , Peru, IL 61354-1213","geo_precision":"range"},"type":"Feature","geometry":{"type":"Point","coordinates":[-89.128413,41.34071]}},{"properties":{"name":"Robert Schultz Jr","geo_score":0.962,"id":"a65aw3k97ccz","address":"1103 E Hickory St , Streator, IL 61364-2449","geo_precision":"range"},"type":"Feature","geometry":{"type":"Point","coordinates":[-88.820635,41.122088]}},{"properties":{"name":"Robert Siebert","geo_score":0.685,"id":"a65aw3qi28wv","address":"329 Roosevelt Rd , La Salle, IL 61301-1310","geo_precision":"range"},"type":"Feature","geometry":{"type":"Point","coordinates":[-89.103955,41.344844]}},{"properties":{"name":"Robert Torres","geo_score":0.921,"id":"a65aw3iakour","address":"739 E Michigan St , Ottawa, IL 61350-2411","geo_precision":"range"},"type":"Feature","geometry":{"type":"Point","coordinates":[-88.831895,41.353668]}},{"properties":{"name":"Robert Wachowiak Jr","geo_score":0.73,"id":"a65aw3qfn9se","address":"1263 Laharpe St , La Salle, IL 61301-1655","geo_precision":"range"},"type":"Feature","geometry":{"type":"Point","coordinates":[-89.090191,41.340696]}},{"properties":{"name":"Robert Wainwright","geo_score":0.922,"id":"a65aw3ozh5wr","address":"303 W Walnut St , Oglesby, IL 61348-1485","geo_precision":"range"},"type":"Feature","geometry":{"type":"Point","coordinates":[-89.064043,41.295068]}},{"properties":{"name":"Robert Wright","geo_score":0.665,"id":"a65aw3tm3n4n","address":"1433 Porter Ave , La Salle, IL 61301-1463","geo_precision":"range"},"type":"Feature","geometry":{"type":"Point","coordinates":[-89.08684,41.344273]}},{"properties":{"name":"Roddy Lapradd","geo_score":0.921,"id":"a65aw3q990ib","address":"714 Griffith Ct , Ottawa, IL 61350-3034","geo_precision":"range"},"type":"Feature","geometry":{"type":"Point","coordinates":[-88.824706,41.347364]}},{"properties":{"name":"Rodney Halterman","geo_score":0.74,"id":"a65aw3r0bmiy","address":"2964 E 15th Rd , Ottawa, IL 61350-9604","geo_precision":"street"},"type":"Feature","geometry":{"type":"Point","coordinates":[-88.87337,41.361595]}},{"properties":{"name":"Roger Herrington","geo_score":1.0,"id":"a65aw3tnhv56","address":"764 Cynthia Dr , Sandwich, IL 60548-9235","geo_precision":"range"},"type":"Feature","geometry":{"type":"Point","coordinates":[-88.674739,41.609138]}},{"properties":{"name":"Ronald Foster","geo_score":1.0,"id":"a65aw3s6en27","address":"704 Cross St , Peru, IL 61354-3226","geo_precision":"range"},"type":"Feature","geometry":{"type":"Point","coordinates":[-89.137018,41.32667]}},{"properties":{"name":"Ronald Gbur","geo_score":0.902,"id":"a65aw3ej5kpf","address":"1410 14th St , Peru, IL 61354-1840","geo_precision":"range"},"type":"Feature","geometry":{"type":"Point","coordinates":[-89.124511,41.336498]}},{"properties":{"name":"Ronald Glancy","geo_score":0.883,"id":"a65aw3makppe","address":"1818 2nd St , Peru, IL 61354-3304","geo_precision":"range"},"type":"Feature","geometry":{"type":"Point","coordinates":[-89.129309,41.325796]}},{"properties":{"name":"Ronald Krzyaniak","geo_score":0.902,"id":"a65aw3fe3cfa","address":"1413 24th St , Peru, IL 61354-1311","geo_precision":"range"},"type":"Feature","geometry":{"type":"Point","coordinates":[-89.124183,41.342765]}},{"properties":{"name":"Rosalie Leake","geo_score":0.831,"id":"a65aw3uib9ph","address":"617 Webster St Apt 1 , Ottawa, IL 61350-2766","geo_precision":"range"},"type":"Feature","geometry":{"type":"Point","coordinates":[-88.84894,41.345103]}},{"properties":{"name":"Rosanne Moersch","geo_score":1.0,"id":"a65aw3sy8g5r","address":"1827 Dolly Ct , Sandwich, IL 60548-9367","geo_precision":"range"},"type":"Feature","geometry":{"type":"Point","coordinates":[-88.657025,41.616607]}},{"properties":{"name":"Rose-Marie Lowe","geo_score":0.921,"id":"a65aw3smv0cg","address":"612 Pearl St , Ottawa, IL 61350-3046","geo_precision":"range"},"type":"Feature","geometry":{"type":"Point","coordinates":[-88.83254,41.347594]}},{"properties":{"name":"Roxanne Olson","geo_score":0.922,"id":"a65aw3fiari8","address":"620 S Columbia Ave , Oglesby, IL 61348-1467","geo_precision":"range"},"type":"Feature","geometry":{"type":"Point","coordinates":[-89.068074,41.288826]}},{"properties":{"name":"Ruth Frig","geo_score":0.695,"id":"a65aw3ibw0xt","address":"137 Scott Ave , Oglesby, IL 61348-9604","geo_precision":"range"},"type":"Feature","geometry":{"type":"Point","coordinates":[-89.165685,41.354739]}},{"properties":{"name":"Ruth Gullickson","geo_score":1.0,"id":"a65aw3ppdhj1","address":"1286 Lake Holiday Dr , Sandwich, IL 60548-9246","geo_precision":"range"},"type":"Feature","geometry":{"type":"Point","coordinates":[-88.666509,41.615696]}},{"properties":{"name":"Salvador Guerrero","geo_score":0.921,"id":"a65aw3i2f6hm","address":"617 E Center St , Ottawa, IL 61350-3629","geo_precision":"range"},"type":"Feature","geometry":{"type":"Point","coordinates":[-88.833585,41.336903]}},{"properties":{"name":"Samantha Brooks","geo_score":0.823,"id":"a65aw3j7pb1w","address":"424 5th Ave , Ottawa, IL 61350-3622","geo_precision":"range"},"type":"Feature","geometry":{"type":"Point","coordinates":[-88.832602,41.338285]}},{"properties":{"name":"Samantha Brown","geo_score":0.927,"id":"a65aw3i60y60","address":"2634 N 3659th Rd , Sheridan, IL 60551-9594","geo_precision":"range"},"type":"Feature","geometry":{"type":"Point","coordinates":[-88.670271,41.464116]}},{"properties":{"name":"Samantha Stoudt","geo_score":0.822,"id":"a65aw3t4g34n","address":"3932 E 2601st Rd Unit 1 , Sheridan, IL 60551-9374","geo_precision":"range"},"type":"Feature","geometry":{"type":"Point","coordinates":[-88.671141,41.505611]}},{"properties":{"name":"Samuel Calkins","geo_score":0.922,"id":"a65aw3qvw9d2","address":"325 W Porter St , Oglesby, IL 61348-1155","geo_precision":"range"},"type":"Feature","geometry":{"type":"Point","coordinates":[-89.064762,41.297963]}},{"properties":{"name":"Sandra Frederick","geo_score":0.921,"id":"a65aw3m2151i","address":"850 E Main St , Ottawa, IL 61350-3142","geo_precision":"range"},"type":"Feature","geometry":{"type":"Point","coordinates":[-88.827216,41.345845]}},{"properties":{"name":"Sandra Knott","geo_score":1.0,"id":"a65aw3kn5t1e","address":"2210 Brewster St , Peru, IL 61354-3468","geo_precision":"range"},"type":"Feature","geometry":{"type":"Point","coordinates":[-89.132636,41.321982]}},{"properties":{"name":"Sandra Ribolzi","geo_score":0.922,"id":"a65aw3kisylc","address":"112 Cedar Creek Ln , Oglesby, IL 61348-9699","geo_precision":"range"},"type":"Feature","geometry":{"type":"Point","coordinates":[-89.10454,41.294779]}},{"properties":{"name":"Sandra Wardell","geo_score":0.837,"id":"a65aw3nl4aht","address":"1326 N 36th Rd , Ottawa, IL 61350-9513","geo_precision":"range"},"type":"Feature","geometry":{"type":"Point","coordinates":[-88.908023,41.454711]}},{"properties":{"name":"Sara Arreola","geo_score":0.962,"id":"a65aw3rj6too","address":"906 Johnson St , Streator, IL 61364-1844","geo_precision":"range"},"type":"Feature","geometry":{"type":"Point","coordinates":[-88.819349,41.13006]}},{"properties":{"name":"Sarah Farlee","geo_score":0.921,"id":"a65aw3ez55ro","address":"616 Orleans St , Ottawa, IL 61350-3130","geo_precision":"range"},"type":"Feature","geometry":{"type":"Point","coordinates":[-88.834754,41.345931]}},{"properties":{"name":"Sarah Hoffman","geo_score":0.595,"id":"a65aw3utnha5","address":"2394 N 4089th Rd , Sheridan, IL 60551-9504","geo_precision":"zip"},"type":"Feature","geometry":{"type":"Point","coordinates":[-88.664518,41.465587]}},{"properties":{"name":"Scott Huffman","geo_score":0.938,"id":"a65aw3qhyh3p","address":"30 Cedar Crest Dr , Streator, IL 61364-1001","geo_precision":"range"},"type":"Feature","geometry":{"type":"Point","coordinates":[-88.839476,41.151688]}},{"properties":{"name":"Scott Pescetto","geo_score":0.824,"id":"a65aw3i88cpr","address":"401 W 2nd St , Oglesby, IL 61348-1407","geo_precision":"range"},"type":"Feature","geometry":{"type":"Point","coordinates":[-89.065379,41.292843]}},{"properties":{"name":"Shanna Wasik","geo_score":0.902,"id":"a65aw3i8gez5","address":"1314 23rd St , Peru, IL 61354-1304","geo_precision":"range"},"type":"Feature","geometry":{"type":"Point","coordinates":[-89.122781,41.342068]}},{"properties":{"name":"Sharlene Lau","geo_score":0.883,"id":"a65aw3ihd37w","address":"2406 4th St , Peru, IL 61354-3112","geo_precision":"range"},"type":"Feature","geometry":{"type":"Point","coordinates":[-89.137158,41.327538]}},{"properties":{"name":"Sharon Leppin","geo_score":0.632,"id":"a65aw3ud73zh","address":"255 Kilmer Rd , La Salle, IL 61301-1571","geo_precision":"range"},"type":"Feature","geometry":{"type":"Point","coordinates":[-89.103196,41.339531]}},{"properties":{"name":"Sharon Smith","geo_score":0.921,"id":"a65aw3f1xjcw","address":"415 Thompson St , Ottawa, IL 61350-4335","geo_precision":"range"},"type":"Feature","geometry":{"type":"Point","coordinates":[-88.845179,41.32624]}},{"properties":{"name":"Sharon Spaulding","geo_score":0.0,"id":"a65aw3induop","address":"2981 E 1508th , Ottawa, IL 61350-","geo_precision":"unmatched"},"type":"Feature","geometry":null},{"properties":{"name":"Sharon Webber","geo_score":0.662,"id":"a65aw3njpkvg","address":"1470 Chartres St , La Salle, IL 61301-1509","geo_precision":"range"},"type":"Feature","geometry":{"type":"Point","coordinates":[-89.105982,41.342801]}},{"properties":{"name":"Shaun Torres","geo_score":0.921,"id":"a65aw3ps6u42","address":"325 E Marquette St , Ottawa, IL 61350-2221","geo_precision":"range"},"type":"Feature","geometry":{"type":"Point","coordinates":[-88.837957,41.354203]}},{"properties":{"name":"Shawn Schwingle","geo_score":1.0,"id":"a65aw3gvw0mu","address":"1604 Walnut St , Peru, IL 61354-1942","geo_precision":"range"},"type":"Feature","geometry":{"type":"Point","coordinates":[-89.111913,41.333774]}},{"properties":{"name":"Sheila Fornero","geo_score":0.962,"id":"a65aw3jocn4r","address":"304 Oakley Ave , Streator, IL 61364-1015","geo_precision":"range"},"type":"Feature","geometry":{"type":"Point","coordinates":[-88.839485,41.149993]}},{"properties":{"name":"Shellie Pool","geo_score":0.916,"id":"a65aw3mvlush","address":"1822 E 28th Rd , Ransom, IL 60470-8039","geo_precision":"range"},"type":"Feature","geometry":{"type":"Point","coordinates":[-88.625335,41.198345]}},{"properties":{"name":"Shelly Chapman","geo_score":1.0,"id":"a65aw3fqx8gq","address":"2601 Peoria St , Peru, IL 61354-1897","geo_precision":"range"},"type":"Feature","geometry":{"type":"Point","coordinates":[-89.13004,41.345137]}},{"properties":{"name":"Sheri Gunderson","geo_score":0.843,"id":"a65aw3i2ub4d","address":"2206 N 42nd Rd , Sheridan, IL 60551-9419","geo_precision":"range"},"type":"Feature","geometry":{"type":"Point","coordinates":[-88.747075,41.543671]}},{"properties":{"name":"Sherry Anderson","geo_score":0.921,"id":"a65aw3kb0ucm","address":"605 E Joliet St , Ottawa, IL 61350-2301","geo_precision":"range"},"type":"Feature","geometry":{"type":"Point","coordinates":[-88.833362,41.355302]}},{"properties":{"name":"Sheryl Harlow","geo_score":0.922,"id":"a65aw3r5jyco","address":"325 N School Ave , Oglesby, IL 61348-1159","geo_precision":"range"},"type":"Feature","geometry":{"type":"Point","coordinates":[-89.063983,41.298267]}},{"properties":{"name":"Shirley Bahr","geo_score":0.921,"id":"a65aw3j5bm66","address":"400 E Washington St , Ottawa, IL 61350-2283","geo_precision":"range"},"type":"Feature","geometry":{"type":"Point","coordinates":[-88.836847,41.351048]}},{"properties":{"name":"Shirley Johnson","geo_score":0.725,"id":"a65aw3fe3mgo","address":"608 Heritage Cir , Streator, IL 61364-9213","geo_precision":"range"},"type":"Feature","geometry":{"type":"Point","coordinates":[-88.844928,41.322145]}},{"properties":{"name":"Shirley Reynolds","geo_score":0.897,"id":"a65aw3glkq1d","address":"2010 N Bloomington St Apt D2 , Streator, IL 61364-1376","geo_precision":"range"},"type":"Feature","geometry":{"type":"Point","coordinates":[-88.835822,41.142882]}},{"properties":{"name":"Sidney Duttlinger","geo_score":0.51,"id":"a65aw3rymh59","address":"381 N 2959th Rd , La Salle, IL 61301-9702","geo_precision":"range"},"type":"Feature","geometry":{"type":"Point","coordinates":[-89.08857,41.357071]}},{"properties":{"name":"Stephanie Knudson","geo_score":1.0,"id":"a65aw3nyvdj3","address":"3979 E 2351st Rd , Serena, IL 60549-9705","geo_precision":"range"},"type":"Feature","geometry":{"type":"Point","coordinates":[-88.726298,41.511041]}},{"properties":{"name":"Stephanie Schumacher","geo_score":0.549,"id":"a65aw3r2s9ey","address":"111 S 13th Ave Trlr A14 , Mendota, IL 61342-2085","geo_precision":"street"},"type":"Feature","geometry":{"type":"Point","coordinates":[-89.127348,41.518214]}},{"properties":{"name":"Stephen Meyer","geo_score":0.921,"id":"a65aw3pg0iq6","address":"704 E Main St , Ottawa, IL 61350-3122","geo_precision":"range"},"type":"Feature","geometry":{"type":"Point","coordinates":[-88.830633,41.345809]}},{"properties":{"name":"Steve Happ","geo_score":1.0,"id":"a65aw3tfng6w","address":"2312 Rock St , Peru, IL 61354-1345","geo_precision":"range"},"type":"Feature","geometry":{"type":"Point","coordinates":[-89.121599,41.342177]}},{"properties":{"name":"Steve Killelea","geo_score":0.837,"id":"a65aw3hheyju","address":"3453 E 16th Rd , Ottawa, IL 61350-9634","geo_precision":"range"},"type":"Feature","geometry":{"type":"Point","coordinates":[-88.854948,41.433246]}},{"properties":{"name":"Steve Slimko","geo_score":0.657,"id":"a65aw3habo4l","address":"1511 Creve Coeur St , La Salle, IL 61301-1369","geo_precision":"range"},"type":"Feature","geometry":{"type":"Point","coordinates":[-89.104656,41.343599]}},{"properties":{"name":"Steven Garrison II","geo_score":0.791,"id":"a65aw3m1by0z","address":"1916 2nd St Apt 2 , Peru, IL 61354-3352","geo_precision":"range"},"type":"Feature","geometry":{"type":"Point","coordinates":[-89.130601,41.325788]}},{"properties":{"name":"Steven Johnson Sr","geo_score":0.596,"id":"a65aw3eoft0v","address":"2994 E 1520th Rd , Ottawa, IL 61350-9030","geo_precision":"street"},"type":"Feature","geometry":{"type":"Point","coordinates":[-88.870973,41.368168]}},{"properties":{"name":"Steven Kennedy","geo_score":0.921,"id":"a65aw3s65p9w","address":"638 Congress St , Ottawa, IL 61350-3018","geo_precision":"range"},"type":"Feature","geometry":{"type":"Point","coordinates":[-88.832031,41.346721]}},{"properties":{"name":"Steven Moreno","geo_score":0.921,"id":"a65aw3f3xl4h","address":"1451 Birchlawn Pl , Ottawa, IL 61350-3401","geo_precision":"range"},"type":"Feature","geometry":{"type":"Point","coordinates":[-88.860689,41.339683]}},{"properties":{"name":"Steven Schweickert","geo_score":0.883,"id":"a65aw3i9xbqs","address":"1616 2nd St , Peru, IL 61354-3504","geo_precision":"range"},"type":"Feature","geometry":{"type":"Point","coordinates":[-89.126655,41.325811]}},{"properties":{"name":"Sue Barto","geo_score":1.0,"id":"a65aw3h3fu27","address":"2027 Luther Dr , Peru, IL 61354-1233","geo_precision":"range"},"type":"Feature","geometry":{"type":"Point","coordinates":[-89.127393,41.339634]}},{"properties":{"name":"Sue Staus","geo_score":0.973,"id":"a65aw3m6ocxk","address":"2127 Wynnwood Ln , Peru, IL 61354-1222","geo_precision":"range"},"type":"Feature","geometry":{"type":"Point","coordinates":[-89.129342,41.340692]}},{"properties":{"name":"Susan Cherny","geo_score":1.0,"id":"a65aw3rqprzt","address":"1109 Plain St , Peru, IL 61354-2740","geo_precision":"range"},"type":"Feature","geometry":{"type":"Point","coordinates":[-89.120907,41.330537]}},{"properties":{"name":"Susan Cook","geo_score":0.883,"id":"a65aw3l5gvqe","address":"1828 2nd St , Peru, IL 61354-3304","geo_precision":"range"},"type":"Feature","geometry":{"type":"Point","coordinates":[-89.129475,41.325795]}},{"properties":{"name":"Susan Grady","geo_score":0.823,"id":"a65aw3lvds62","address":"418 View St , Ottawa, IL 61350-4346","geo_precision":"range"},"type":"Feature","geometry":{"type":"Point","coordinates":[-88.844645,41.32526]}},{"properties":{"name":"Susan Koeppe","geo_score":0.921,"id":"a65aw3lkbt59","address":"703 Ottawa Ave , Ottawa, IL 61350-3317","geo_precision":"range"},"type":"Feature","geometry":{"type":"Point","coordinates":[-88.850637,41.343192]}},{"properties":{"name":"Susan Prettyman","geo_score":0.921,"id":"a65aw3g6dt5b","address":"909 Christie St , Ottawa, IL 61350-3961","geo_precision":"range"},"type":"Feature","geometry":{"type":"Point","coordinates":[-88.841367,41.330913]}},{"properties":{"name":"Susan Stuart","geo_score":1.0,"id":"a65aw3rhxlmn","address":"1718 Walnut St , Peru, IL 61354-1944","geo_precision":"range"},"type":"Feature","geometry":{"type":"Point","coordinates":[-89.111916,41.334665]}},{"properties":{"name":"Suzanne Loebach","geo_score":0.829,"id":"a65aw3hxbadd","address":"2514 E 22nd Rd , Marseilles, IL 61341-9703","geo_precision":"range"},"type":"Feature","geometry":{"type":"Point","coordinates":[-88.732471,41.300185]}},{"properties":{"name":"Suzanne Scheidecker","geo_score":0.814,"id":"a65aw3fvhmkn","address":"622 Pearl St Apt 1 , Ottawa, IL 61350-3061","geo_precision":"range"},"type":"Feature","geometry":{"type":"Point","coordinates":[-88.832285,41.347595]}},{"properties":{"name":"Tami Callahan","geo_score":0.837,"id":"a65aw3ghih8b","address":"3151 E 15th Rd , Ottawa, IL 61350-9618","geo_precision":"range"},"type":"Feature","geometry":{"type":"Point","coordinates":[-88.874285,41.389854]}},{"properties":{"name":"Tamika Dalton","geo_score":0.837,"id":"a65aw3sv5j3y","address":"2912 E 15th Rd , Ottawa, IL 61350-9046","geo_precision":"range"},"type":"Feature","geometry":{"type":"Point","coordinates":[-88.867438,41.356698]}},{"properties":{"name":"Tammie Walgenbach","geo_score":0.838,"id":"a65aw3uune0h","address":"336 N 24th Rd , Oglesby, IL 61348-9664","geo_precision":"range"},"type":"Feature","geometry":{"type":"Point","coordinates":[-89.098981,41.280667]}},{"properties":{"name":"Tammy Bernardoni","geo_score":0.838,"id":"a65aw3msvvdp","address":"545 N 23rd Rd , Oglesby, IL 61348-9686","geo_precision":"range"},"type":"Feature","geometry":{"type":"Point","coordinates":[-89.058269,41.265315]}},{"properties":{"name":"Tammy Walter","geo_score":0.922,"id":"a65aw3ii8iba","address":"304 W Walnut St , Oglesby, IL 61348-1451","geo_precision":"range"},"type":"Feature","geometry":{"type":"Point","coordinates":[-89.064093,41.295068]}},{"properties":{"name":"Teresa Brand","geo_score":1.0,"id":"a65aw3hk08bk","address":"2620 Market St , Peru, IL 61354-3481","geo_precision":"range"},"type":"Feature","geometry":{"type":"Point","coordinates":[-89.140089,41.322413]}},{"properties":{"name":"Terrence Heneghan","geo_score":1.0,"id":"a65aw3h9jhlx","address":"1769 Suzy St , Sandwich, IL 60548-9244","geo_precision":"range"},"type":"Feature","geometry":{"type":"Point","coordinates":[-88.656202,41.619595]}},{"properties":{"name":"Terrence Jones","geo_score":0.921,"id":"a65aw3rarbgh","address":"818 E Center St , Ottawa, IL 61350-4145","geo_precision":"range"},"type":"Feature","geometry":{"type":"Point","coordinates":[-88.830976,41.336953]}},{"properties":{"name":"Terry Grunstad","geo_score":0.823,"id":"a65aw3r5rtmf","address":"437 5th Ave , Ottawa, IL 61350-3621","geo_precision":"range"},"type":"Feature","geometry":{"type":"Point","coordinates":[-88.832584,41.337384]}},{"properties":{"name":"Terry Orr","geo_score":1.0,"id":"a65aw3tnomkc","address":"1799 Glyn Dr , Sandwich, IL 60548-9336","geo_precision":"range"},"type":"Feature","geometry":{"type":"Point","coordinates":[-88.658777,41.616446]}},{"properties":{"name":"Theresa Petriekis","geo_score":0.915,"id":"a65aw3f5ep2u","address":"168 Holiday Dr , Somonauk, IL 60552-9620","geo_precision":"range"},"type":"Feature","geometry":{"type":"Point","coordinates":[-88.678777,41.605101]}},{"properties":{"name":"Therese Sienkiewicz","geo_score":0.925,"id":"a65aw3px9x04","address":"1179 Tonti St , La Salle, IL 61301-1637","geo_precision":"range"},"type":"Feature","geometry":{"type":"Point","coordinates":[-89.092911,41.340609]}},{"properties":{"name":"Therold Herndon","geo_score":0.925,"id":"a65aw3rrqwxf","address":"1523 Zinc St , La Salle, IL 61301-1663","geo_precision":"range"},"type":"Feature","geometry":{"type":"Point","coordinates":[-89.087872,41.34382]}},{"properties":{"name":"Thomas Byrd","geo_score":1.0,"id":"a65aw3gj9onv","address":"1202 Chambers Ave , Peru, IL 61354-2868","geo_precision":"range"},"type":"Feature","geometry":{"type":"Point","coordinates":[-89.115513,41.330566]}},{"properties":{"name":"Thomas Camp","geo_score":0.921,"id":"a65aw3qsvv2q","address":"1006 Bergen Ave , Ottawa, IL 61350-4417","geo_precision":"range"},"type":"Feature","geometry":{"type":"Point","coordinates":[-88.842427,41.32818]}},{"properties":{"name":"Thomas Hancock","geo_score":0.927,"id":"a65aw3ippxfw","address":"3775 E 2708th Rd , Sheridan, IL 60551-9754","geo_precision":"range"},"type":"Feature","geometry":{"type":"Point","coordinates":[-88.651654,41.484113]}},{"properties":{"name":"Thomas Hoagland","geo_score":0.921,"id":"a65aw3tjcd15","address":"609 Illinois Ave , Ottawa, IL 61350-2713","geo_precision":"range"},"type":"Feature","geometry":{"type":"Point","coordinates":[-88.848534,41.344155]}},{"properties":{"name":"Thomas McGurk","geo_score":0.962,"id":"a65aw3l9z838","address":"110 N Colorado Ave , Streator, IL 61364-2439","geo_precision":"range"},"type":"Feature","geometry":{"type":"Point","coordinates":[-88.82065,41.121137]}},{"properties":{"name":"Thomas Myers","geo_score":0.922,"id":"a65aw3rwyfx2","address":"332 W Florence St , Oglesby, IL 61348-1439","geo_precision":"range"},"type":"Feature","geometry":{"type":"Point","coordinates":[-89.065626,41.296353]}},{"properties":{"name":"Thomas Walgenbach","geo_score":0.838,"id":"a65aw3ng338u","address":"336 N 24th Rd , Oglesby, IL 61348-9664","geo_precision":"range"},"type":"Feature","geometry":{"type":"Point","coordinates":[-89.098981,41.280667]}},{"properties":{"name":"Thomas Wilcox","geo_score":0.921,"id":"a65aw3rf7kqh","address":"523 Illinois Ave , Ottawa, IL 61350-2711","geo_precision":"range"},"type":"Feature","geometry":{"type":"Point","coordinates":[-88.847272,41.344166]}},{"properties":{"name":"Tiffany Barroso","geo_score":0.902,"id":"a65aw3t3tu4h","address":"1325 14th St , Peru, IL 61354-1837","geo_precision":"range"},"type":"Feature","geometry":{"type":"Point","coordinates":[-89.123413,41.336512]}},{"properties":{"name":"Tiffany Noblett","geo_score":0.665,"id":"a65aw3s0uop6","address":"1303 Bucklin St , La Salle, IL 61301-1536","geo_precision":"range"},"type":"Feature","geometry":{"type":"Point","coordinates":[-89.101484,41.340798]}},{"properties":{"name":"Tim Gage Jr","geo_score":0.0,"id":"a65aw3fqrm76","address":"3026 E 1622nd , Ottawa, IL 61350-","geo_precision":"unmatched"},"type":"Feature","geometry":null},{"properties":{"name":"Timothy Cantlin","geo_score":0.834,"id":"a65aw3eprwid","address":"1250 N 39th Rd , Earlville, IL 60518-6047","geo_precision":"range"},"type":"Feature","geometry":{"type":"Point","coordinates":[-88.92383,41.497983]}},{"properties":{"name":"Timothy Ethington","geo_score":0.962,"id":"a65aw3m503sy","address":"812 Johnson St , Streator, IL 61364-1842","geo_precision":"range"},"type":"Feature","geometry":{"type":"Point","coordinates":[-88.81935,41.128483]}},{"properties":{"name":"Timothy Myers","geo_score":0.883,"id":"a65aw3pguc9s","address":"1908 3rd St , Peru, IL 61354-3338","geo_precision":"range"},"type":"Feature","geometry":{"type":"Point","coordinates":[-89.130536,41.326695]}},{"properties":{"name":"Tina Naumann","geo_score":0.922,"id":"a65aw3on8fyb","address":"1010 S Columbia Ave , Oglesby, IL 61348-9766","geo_precision":"range"},"type":"Feature","geometry":{"type":"Point","coordinates":[-89.068038,41.284259]}},{"properties":{"name":"Tina Watt","geo_score":0.921,"id":"a65aw3jt25ph","address":"927 State St , Ottawa, IL 61350-3950","geo_precision":"range"},"type":"Feature","geometry":{"type":"Point","coordinates":[-88.839866,41.330462]}},{"properties":{"name":"Todd Steffens","geo_score":0.0,"id":"a65aw3jtubao","address":"4052 N Ill23 , Sheridan, IL 60551-","geo_precision":"unmatched"},"type":"Feature","geometry":null},{"properties":{"name":"Tonya Roberts","geo_score":0.921,"id":"a65aw3mwm0mv","address":"1069 State St , Ottawa, IL 61350-4460","geo_precision":"range"},"type":"Feature","geometry":{"type":"Point","coordinates":[-88.839818,41.327994]}},{"properties":{"name":"Traci Scherff","geo_score":0.921,"id":"a65aw3ljnr83","address":"643 Webster St , Ottawa, IL 61350-2748","geo_precision":"range"},"type":"Feature","geometry":{"type":"Point","coordinates":[-88.849707,41.345102]}},{"properties":{"name":"Tricia Senica","geo_score":0.922,"id":"a65aw3rv81np","address":"2144 E 550th Rd , Oglesby, IL 61348-9646","geo_precision":"range"},"type":"Feature","geometry":{"type":"Point","coordinates":[-89.057182,41.242939]}},{"properties":{"name":"Tricia Tonarelli","geo_score":0.712,"id":"a65aw3oacadt","address":"1422 Lafayette St , La Salle, IL 61301-1549","geo_precision":"range"},"type":"Feature","geometry":{"type":"Point","coordinates":[-89.102844,41.3423]}},{"properties":{"name":"Trina Jungers","geo_score":1.0,"id":"a65aw3equtn4","address":"3863 E 2050th Rd , Serena, IL 60549-9718","geo_precision":"range"},"type":"Feature","geometry":{"type":"Point","coordinates":[-88.776726,41.49427]}},{"properties":{"name":"Ty Rathbun","geo_score":0.883,"id":"a65aw3tbhf4h","address":"709 7th St , Peru, IL 61354-2805","geo_precision":"range"},"type":"Feature","geometry":{"type":"Point","coordinates":[-89.114396,41.330568]}},{"properties":{"name":"Tyson Trunick","geo_score":1.0,"id":"a65aw3esu74q","address":"2011 Suzy St , Sandwich, IL 60548-9327","geo_precision":"range"},"type":"Feature","geometry":{"type":"Point","coordinates":[-88.65155,41.619519]}},{"properties":{"name":"V Musgrove","geo_score":0.883,"id":"a65aw3ra6b3b","address":"2627 1st St , Peru, IL 61354-3141","geo_precision":"range"},"type":"Feature","geometry":{"type":"Point","coordinates":[-89.139935,41.32479]}},{"properties":{"name":"Vicki Perez","geo_score":0.921,"id":"a65aw3qmwckf","address":"1207 Bergen Ave , Ottawa, IL 61350-4420","geo_precision":"range"},"type":"Feature","geometry":{"type":"Point","coordinates":[-88.842386,41.326087]}},{"properties":{"name":"Victor Christopherson","geo_score":0.915,"id":"a65aw3k3z1ed","address":"2562 N 4670th Rd , Somonauk, IL 60552-9604","geo_precision":"range"},"type":"Feature","geometry":{"type":"Point","coordinates":[-88.689343,41.613174]}},{"properties":{"name":"Vincent Stalsis Jr","geo_score":0.902,"id":"a65aw3snw9kv","address":"840 10th St , Peru, IL 61354-2341","geo_precision":"range"},"type":"Feature","geometry":{"type":"Point","coordinates":[-89.116968,41.333641]}},{"properties":{"name":"Vincent Wardell","geo_score":0.837,"id":"a65aw3l1bali","address":"1326 N 36th Rd , Ottawa, IL 61350-9513","geo_precision":"range"},"type":"Feature","geometry":{"type":"Point","coordinates":[-88.908023,41.454711]}},{"properties":{"name":"Violet Fessler","geo_score":0.831,"id":"a65aw3ijh7sg","address":"722 Ottawa Ave Apt A , Ottawa, IL 61350-3318","geo_precision":"range"},"type":"Feature","geometry":{"type":"Point","coordinates":[-88.850878,41.343191]}},{"properties":{"name":"Virginia Hegland","geo_score":0.728,"id":"a65aw3gqtzsd","address":"321 N Kenosha Ave , Oglesby, IL 61348-1145","geo_precision":"street"},"type":"Feature","geometry":{"type":"Point","coordinates":[-89.065796,41.296352]}},{"properties":{"name":"Virginia McWhorter","geo_score":0.902,"id":"a65aw3ir7qdn","address":"1321 26th St , Peru, IL 61354-1317","geo_precision":"range"},"type":"Feature","geometry":{"type":"Point","coordinates":[-89.122609,41.34421]}},{"properties":{"name":"Virginia Ralph","geo_score":0.962,"id":"a65aw3si8c06","address":"409 Indiana Ave , Streator, IL 61364-2457","geo_precision":"range"},"type":"Feature","geometry":{"type":"Point","coordinates":[-88.818006,41.124254]}},{"properties":{"name":"Walter Bohnstengel","geo_score":0.596,"id":"a65aw3ioh4ex","address":"3614 E 1759th Rd , Ottawa, IL 61350-9067","geo_precision":"street"},"type":"Feature","geometry":{"type":"Point","coordinates":[-88.825314,41.36501]}},{"properties":{"name":"Walter Rudnicky","geo_score":0.921,"id":"a65aw3kgrdmr","address":"520 E Main St , Ottawa, IL 61350-3118","geo_precision":"range"},"type":"Feature","geometry":{"type":"Point","coordinates":[-88.834338,41.345783]}},{"properties":{"name":"Wanda Degroot","geo_score":0.883,"id":"a65aw3pw1g0w","address":"2418 3rd St , Peru, IL 61354-3155","geo_precision":"range"},"type":"Feature","geometry":{"type":"Point","coordinates":[-89.137199,41.32663]}},{"properties":{"name":"Wayne Schneider","geo_score":1.0,"id":"a65aw3enlruc","address":"3601 E 2075th Rd , Serena, IL 60549-9752","geo_precision":"range"},"type":"Feature","geometry":{"type":"Point","coordinates":[-88.771172,41.455954]}},{"properties":{"name":"Wesley Rolseth","geo_score":1.0,"id":"a65aw3lwejz7","address":"1842 Irene Rd , Sandwich, IL 60548-9386","geo_precision":"range"},"type":"Feature","geometry":{"type":"Point","coordinates":[-88.654036,41.615945]}},{"properties":{"name":"William Johnson III","geo_score":0.921,"id":"a65aw3l5cvrd","address":"922 E Main St , Ottawa, IL 61350-3126","geo_precision":"range"},"type":"Feature","geometry":{"type":"Point","coordinates":[-88.826518,41.34585]}},{"properties":{"name":"William Klein Jr","geo_score":0.452,"id":"a65aw3m2yxem","address":"136 Nellie Cir , Oglesby, IL 61348-9534","geo_precision":"street"},"type":"Feature","geometry":{"type":"Point","coordinates":[-88.852925,41.11246]}},{"properties":{"name":"William Runge","geo_score":0.927,"id":"a65aw3nw9vii","address":"2613 N 3749th Rd , Sheridan, IL 60551-9748","geo_precision":"range"},"type":"Feature","geometry":{"type":"Point","coordinates":[-88.67085,41.477574]}},{"properties":{"name":"William Torres","geo_score":0.824,"id":"a65aw3txku1o","address":"317 W 2nd St , Oglesby, IL 61348-1405","geo_precision":"range"},"type":"Feature","geometry":{"type":"Point","coordinates":[-89.064164,41.292851]}},{"properties":{"name":"William Wells","geo_score":0.922,"id":"a65aw3emysa8","address":"109 Claret Knoll Ave , Oglesby, IL 61348-9533","geo_precision":"range"},"type":"Feature","geometry":{"type":"Point","coordinates":[-89.103161,41.294679]}},{"properties":{"name":"Winifred Hartenbower","geo_score":1.0,"id":"a65aw3mqb1i7","address":"1919 Plum St , Peru, IL 61354-1850","geo_precision":"range"},"type":"Feature","geometry":{"type":"Point","coordinates":[-89.12391,41.337666]}},{"properties":{"name":"Zita Buiting","geo_score":0.921,"id":"a65aw3sku233","address":"919 Congress St , Ottawa, IL 61350-3023","geo_precision":"range"},"type":"Feature","geometry":{"type":"Point","coordinates":[-88.826561,41.346712]}}],"is_temporal":false,"author":{"url":"","metadata":"","contact_name":"","contact_address":"","source":"","contact_phone":""},"source":"","pagination":{"sort":null,"start":0,"total":742,"limit":1000000},"state":"complete","tags":"","published":"2014-08-10T20:13:22-04:00","id":66908}