{"type":"FeatureCollection","data_type":"Dataset","url_type":null,"permissions":[{"permissions":{"download":true,"view":true},"group_id":"everyone"}],"classification":null,"title":"New York state data v1","count":864,"stream_id":67886,"contributor":{"url":"http://geocommons.com/users/16194","name":"twisecar"},"data_attributes":null,"calculation_params":null,"icon_link":null,"link":"http://geocommons.com/overlays/67886.json","extent":[-79.7377,40.5434,-71.967,45.0003],"geometry_types":["point"],"unique_name":null,"name":"New York state data v1","feature_count":864,"description":"","next_feature":null,"is_raster":false,"short_classification":"Y","stats":{"geo_score":{"max":0.857,"mean":0.856337962962964,"variance":9.43421956139212e-05,"stdev":0.00971299107453112,"min":0.714,"median":0.857},"ivr call volume":{"max":3830,"mean":178.08912037037,"variance":108241.879649747,"stdev":329.001336851002,"min":1,"median":41}},"features":[{"properties":{"geo_score":0.857,"zip code":"10001","ivr call volume":105,"id":"a6h8kx0nhars","geo_precision":"zip","state":"New York"},"type":"Feature","geometry":{"type":"Point","coordinates":[-73.996328,40.750422]}},{"properties":{"geo_score":0.857,"zip code":"10003","ivr call volume":1318,"id":"a6h8kx7o2yh0","geo_precision":"zip","state":"New York"},"type":"Feature","geometry":{"type":"Point","coordinates":[-73.988564,40.730223]}},{"properties":{"geo_score":0.857,"zip code":"10005","ivr call volume":1280,"id":"a6h8kwxjwp9a","geo_precision":"zip","state":"New York"},"type":"Feature","geometry":{"type":"Point","coordinates":[-74.008654,40.706903]}},{"properties":{"geo_score":0.857,"zip code":"10007","ivr call volume":56,"id":"a6h8kx3nhi6y","geo_precision":"zip","state":"New York"},"type":"Feature","geometry":{"type":"Point","coordinates":[-74.007401,40.713941]}},{"properties":{"geo_score":0.857,"zip code":"10010","ivr call volume":532,"id":"a6h8kx5qlwyi","geo_precision":"zip","state":"New York"},"type":"Feature","geometry":{"type":"Point","coordinates":[-73.983542,40.739024]}},{"properties":{"geo_score":0.857,"zip code":"10011","ivr call volume":1671,"id":"a6h8kx0zzinm","geo_precision":"zip","state":"New York"},"type":"Feature","geometry":{"type":"Point","coordinates":[-73.999769,40.740916]}},{"properties":{"geo_score":0.857,"zip code":"10012","ivr call volume":198,"id":"a6h8kx0c48o7","geo_precision":"zip","state":"New York"},"type":"Feature","geometry":{"type":"Point","coordinates":[-73.991582,40.729124]}},{"properties":{"geo_score":0.857,"zip code":"10013","ivr call volume":279,"id":"a6h8kww60akz","geo_precision":"zip","state":"New York"},"type":"Feature","geometry":{"type":"Point","coordinates":[-73.99625,40.716491]}},{"properties":{"geo_score":0.857,"zip code":"10014","ivr call volume":156,"id":"a6h8kwydf6pf","geo_precision":"zip","state":"New York"},"type":"Feature","geometry":{"type":"Point","coordinates":[-74.005095,40.738088]}},{"properties":{"geo_score":0.857,"zip code":"10016","ivr call volume":853,"id":"a6h8kwzn435f","geo_precision":"zip","state":"New York"},"type":"Feature","geometry":{"type":"Point","coordinates":[-73.978449,40.745527]}},{"properties":{"geo_score":0.857,"zip code":"10017","ivr call volume":100,"id":"a6h8kx8xbzrw","geo_precision":"zip","state":"New York"},"type":"Feature","geometry":{"type":"Point","coordinates":[-73.973196,40.752955]}},{"properties":{"geo_score":0.857,"zip code":"10019","ivr call volume":387,"id":"a6h8kx06qz91","geo_precision":"zip","state":"New York"},"type":"Feature","geometry":{"type":"Point","coordinates":[-73.985443,40.765926]}},{"properties":{"geo_score":0.857,"zip code":"10021","ivr call volume":1909,"id":"a6h8kxaeq8cx","geo_precision":"zip","state":"New York"},"type":"Feature","geometry":{"type":"Point","coordinates":[-73.960257,40.768823]}},{"properties":{"geo_score":0.857,"zip code":"10022","ivr call volume":1197,"id":"a6h8kwzi9lc5","geo_precision":"zip","state":"New York"},"type":"Feature","geometry":{"type":"Point","coordinates":[-73.967842,40.758775]}},{"properties":{"geo_score":0.857,"zip code":"10023","ivr call volume":1386,"id":"a6h8kwyx5usl","geo_precision":"zip","state":"New York"},"type":"Feature","geometry":{"type":"Point","coordinates":[-73.982213,40.776765]}},{"properties":{"geo_score":0.857,"zip code":"10026","ivr call volume":971,"id":"a6h8kx7kac5z","geo_precision":"zip","state":"New York"},"type":"Feature","geometry":{"type":"Point","coordinates":[-73.953107,40.802918]}},{"properties":{"geo_score":0.857,"zip code":"10033","ivr call volume":651,"id":"a6h8kww4q12m","geo_precision":"zip","state":"New York"},"type":"Feature","geometry":{"type":"Point","coordinates":[-73.934764,40.851293]}},{"properties":{"geo_score":0.857,"zip code":"10036","ivr call volume":911,"id":"a6h8kxaoutau","geo_precision":"zip","state":"New York"},"type":"Feature","geometry":{"type":"Point","coordinates":[-73.989847,40.75953]}},{"properties":{"geo_score":0.857,"zip code":"10039","ivr call volume":694,"id":"a6h8kx44l9xe","geo_precision":"zip","state":"New York"},"type":"Feature","geometry":{"type":"Point","coordinates":[-73.939398,40.826736]}},{"properties":{"geo_score":0.857,"zip code":"10040","ivr call volume":312,"id":"a6h8kwyhtw0j","geo_precision":"zip","state":"New York"},"type":"Feature","geometry":{"type":"Point","coordinates":[-73.930999,40.858692]}},{"properties":{"geo_score":0.857,"zip code":"10041","ivr call volume":382,"id":"a6h8kxae561l","geo_precision":"zip","state":"New York"},"type":"Feature","geometry":{"type":"Point","coordinates":[-74.009814,40.703801]}},{"properties":{"geo_score":0.857,"zip code":"10069","ivr call volume":259,"id":"a6h8kx9mrgun","geo_precision":"zip","state":"New York"},"type":"Feature","geometry":{"type":"Point","coordinates":[-73.988381,40.777952]}},{"properties":{"geo_score":0.857,"zip code":"10075","ivr call volume":9,"id":"a6h8kx8d84nb","geo_precision":"zip","state":"New York"},"type":"Feature","geometry":{"type":"Point","coordinates":[-74.005973,40.714269]}},{"properties":{"geo_score":0.857,"zip code":"10090","ivr call volume":110,"id":"a6h8kwzv1r7c","geo_precision":"zip","state":"New York"},"type":"Feature","geometry":{"type":"Point","coordinates":[-73.977182,40.780751]}},{"properties":{"geo_score":0.857,"zip code":"10110","ivr call volume":3830,"id":"a6h8kwv7bwqy","geo_precision":"zip","state":"New York"},"type":"Feature","geometry":{"type":"Point","coordinates":[-73.980811,40.753987]}},{"properties":{"geo_score":0.857,"zip code":"10119","ivr call volume":598,"id":"a6h8kx6ja8m4","geo_precision":"zip","state":"New York"},"type":"Feature","geometry":{"type":"Point","coordinates":[-73.977182,40.780751]}},{"properties":{"geo_score":0.857,"zip code":"10128","ivr call volume":1965,"id":"a6h8kx6omf4u","geo_precision":"zip","state":"New York"},"type":"Feature","geometry":{"type":"Point","coordinates":[-73.95158,40.780989]}},{"properties":{"geo_score":0.857,"zip code":"10155","ivr call volume":3,"id":"a6h8kwy4ychr","geo_precision":"zip","state":"New York"},"type":"Feature","geometry":{"type":"Point","coordinates":[-73.968036,40.761104]}},{"properties":{"geo_score":0.857,"zip code":"10158","ivr call volume":246,"id":"a6h8kwy5el04","geo_precision":"zip","state":"New York"},"type":"Feature","geometry":{"type":"Point","coordinates":[-73.9758,40.749435]}},{"properties":{"geo_score":0.857,"zip code":"10168","ivr call volume":338,"id":"a6h8kwyli1xu","geo_precision":"zip","state":"New York"},"type":"Feature","geometry":{"type":"Point","coordinates":[-73.976794,40.751933]}},{"properties":{"geo_score":0.857,"zip code":"10172","ivr call volume":86,"id":"a6h8kx70eazb","geo_precision":"zip","state":"New York"},"type":"Feature","geometry":{"type":"Point","coordinates":[-73.975279,40.755839]}},{"properties":{"geo_score":0.857,"zip code":"10175","ivr call volume":41,"id":"a6h8kwygb34z","geo_precision":"zip","state":"New York"},"type":"Feature","geometry":{"type":"Point","coordinates":[-73.979782,40.754305]}},{"properties":{"geo_score":0.857,"zip code":"10178","ivr call volume":518,"id":"a6h8kx8hp0t0","geo_precision":"zip","state":"New York"},"type":"Feature","geometry":{"type":"Point","coordinates":[-73.978507,40.751378]}},{"properties":{"geo_score":0.857,"zip code":"10199","ivr call volume":1,"id":"a6h8kwwvq9wu","geo_precision":"zip","state":"New York"},"type":"Feature","geometry":{"type":"Point","coordinates":[-74.00058,40.750308]}},{"properties":{"geo_score":0.857,"zip code":"10270","ivr call volume":53,"id":"a6h8kx0bncje","geo_precision":"zip","state":"New York"},"type":"Feature","geometry":{"type":"Point","coordinates":[-74.008154,40.706925]}},{"properties":{"geo_score":0.857,"zip code":"10279","ivr call volume":35,"id":"a6h8kx6m43oe","geo_precision":"zip","state":"New York"},"type":"Feature","geometry":{"type":"Point","coordinates":[-74.007812,40.712697]}},{"properties":{"geo_score":0.857,"zip code":"10281","ivr call volume":791,"id":"a6h8kxb2pep9","geo_precision":"zip","state":"New York"},"type":"Feature","geometry":{"type":"Point","coordinates":[-74.014958,40.714643]}},{"properties":{"geo_score":0.857,"zip code":"10282","ivr call volume":50,"id":"a6h8kx6p1jqj","geo_precision":"zip","state":"New York"},"type":"Feature","geometry":{"type":"Point","coordinates":[-74.01459,40.716597]}},{"properties":{"geo_score":0.857,"zip code":"10301","ivr call volume":1037,"id":"a6h8kx41b9sr","geo_precision":"zip","state":"New York"},"type":"Feature","geometry":{"type":"Point","coordinates":[-74.138476,40.60316]}},{"properties":{"geo_score":0.857,"zip code":"10306","ivr call volume":706,"id":"a6h8kx390yf6","geo_precision":"zip","state":"New York"},"type":"Feature","geometry":{"type":"Point","coordinates":[-74.10292,40.565383]}},{"properties":{"geo_score":0.857,"zip code":"10309","ivr call volume":177,"id":"a6h8kx5dw8fu","geo_precision":"zip","state":"New York"},"type":"Feature","geometry":{"type":"Point","coordinates":[-74.197644,40.543439]}},{"properties":{"geo_score":0.857,"zip code":"10311","ivr call volume":15,"id":"a6h8kx6ta0ax","geo_precision":"zip","state":"New York"},"type":"Feature","geometry":{"type":"Point","coordinates":[-74.179485,40.605245]}},{"properties":{"geo_score":0.857,"zip code":"10312","ivr call volume":1227,"id":"a6h8kww51k0x","geo_precision":"zip","state":"New York"},"type":"Feature","geometry":{"type":"Point","coordinates":[-74.165699,40.545383]}},{"properties":{"geo_score":0.857,"zip code":"10314","ivr call volume":803,"id":"a6h8kx9z2eve","geo_precision":"zip","state":"New York"},"type":"Feature","geometry":{"type":"Point","coordinates":[-74.131809,40.621215]}},{"properties":{"geo_score":0.857,"zip code":"10451","ivr call volume":324,"id":"a6h8kwzl1ftq","geo_precision":"zip","state":"New York"},"type":"Feature","geometry":{"type":"Point","coordinates":[-73.920355,40.819329]}},{"properties":{"geo_score":0.857,"zip code":"10452","ivr call volume":472,"id":"a6h8kx09te9q","geo_precision":"zip","state":"New York"},"type":"Feature","geometry":{"type":"Point","coordinates":[-73.909303,40.8601]}},{"properties":{"geo_score":0.857,"zip code":"10453","ivr call volume":327,"id":"a6h8kx6378g2","geo_precision":"zip","state":"New York"},"type":"Feature","geometry":{"type":"Point","coordinates":[-73.919859,40.849822]}},{"properties":{"geo_score":0.857,"zip code":"10456","ivr call volume":890,"id":"a6h8kx660dha","geo_precision":"zip","state":"New York"},"type":"Feature","geometry":{"type":"Point","coordinates":[-73.906525,40.829267]}},{"properties":{"geo_score":0.857,"zip code":"10458","ivr call volume":571,"id":"a6h8kwvwteub","geo_precision":"zip","state":"New York"},"type":"Feature","geometry":{"type":"Point","coordinates":[-73.898469,40.859267]}},{"properties":{"geo_score":0.857,"zip code":"10459","ivr call volume":641,"id":"a6h8kwykjhpg","geo_precision":"zip","state":"New York"},"type":"Feature","geometry":{"type":"Point","coordinates":[-73.893605,40.825629]}},{"properties":{"geo_score":0.857,"zip code":"10461","ivr call volume":412,"id":"a6h8kx1m60k3","geo_precision":"zip","state":"New York"},"type":"Feature","geometry":{"type":"Point","coordinates":[-73.85528,40.84722]}},{"properties":{"geo_score":0.857,"zip code":"10462","ivr call volume":1552,"id":"a6h8kx0kai4q","geo_precision":"zip","state":"New York"},"type":"Feature","geometry":{"type":"Point","coordinates":[-73.863746,40.848434]}},{"properties":{"geo_score":0.857,"zip code":"10463","ivr call volume":849,"id":"a6h8kx3ln67d","geo_precision":"zip","state":"New York"},"type":"Feature","geometry":{"type":"Point","coordinates":[-73.917359,40.881211]}},{"properties":{"geo_score":0.857,"zip code":"10464","ivr call volume":36,"id":"a6h8kx3f0ku5","geo_precision":"zip","state":"New York"},"type":"Feature","geometry":{"type":"Point","coordinates":[-73.786522,40.847323]}},{"properties":{"geo_score":0.857,"zip code":"10466","ivr call volume":621,"id":"a6h8kx9ep7vu","geo_precision":"zip","state":"New York"},"type":"Feature","geometry":{"type":"Point","coordinates":[-73.852357,40.897877]}},{"properties":{"geo_score":0.857,"zip code":"10467","ivr call volume":1048,"id":"a6h8kx9romr1","geo_precision":"zip","state":"New York"},"type":"Feature","geometry":{"type":"Point","coordinates":[-73.866246,40.877322]}},{"properties":{"geo_score":0.857,"zip code":"10501","ivr call volume":36,"id":"a6h8kx7gys7f","geo_precision":"zip","state":"New York"},"type":"Feature","geometry":{"type":"Point","coordinates":[-73.759033,41.293169]}},{"properties":{"geo_score":0.857,"zip code":"10502","ivr call volume":75,"id":"a6h8kwvqc1da","geo_precision":"zip","state":"New York"},"type":"Feature","geometry":{"type":"Point","coordinates":[-73.856523,41.002598]}},{"properties":{"geo_score":0.857,"zip code":"10504","ivr call volume":79,"id":"a6h8kwzax221","geo_precision":"zip","state":"New York"},"type":"Feature","geometry":{"type":"Point","coordinates":[-73.680963,41.147596]}},{"properties":{"geo_score":0.857,"zip code":"10505","ivr call volume":6,"id":"a6h8kx3tswpc","geo_precision":"zip","state":"New York"},"type":"Feature","geometry":{"type":"Point","coordinates":[-73.749244,41.33431]}},{"properties":{"geo_score":0.857,"zip code":"10506","ivr call volume":40,"id":"a6h8kx4hn4p4","geo_precision":"zip","state":"New York"},"type":"Feature","geometry":{"type":"Point","coordinates":[-73.639572,41.141207]}},{"properties":{"geo_score":0.857,"zip code":"10509","ivr call volume":251,"id":"a6h8kx0c758x","geo_precision":"zip","state":"New York"},"type":"Feature","geometry":{"type":"Point","coordinates":[-73.591238,41.402039]}},{"properties":{"geo_score":0.857,"zip code":"10512","ivr call volume":195,"id":"a6h8kxb5fn8s","geo_precision":"zip","state":"New York"},"type":"Feature","geometry":{"type":"Point","coordinates":[-73.670963,41.461483]}},{"properties":{"geo_score":0.857,"zip code":"10514","ivr call volume":50,"id":"a6h8kx2jremx","geo_precision":"zip","state":"New York"},"type":"Feature","geometry":{"type":"Point","coordinates":[-73.775547,41.078957]}},{"properties":{"geo_score":0.857,"zip code":"10516","ivr call volume":62,"id":"a6h8kx7l8scy","geo_precision":"zip","state":"New York"},"type":"Feature","geometry":{"type":"Point","coordinates":[-73.916804,41.461205]}},{"properties":{"geo_score":0.857,"zip code":"10520","ivr call volume":79,"id":"a6h8kwy3hpa9","geo_precision":"zip","state":"New York"},"type":"Feature","geometry":{"type":"Point","coordinates":[-73.914027,41.227872]}},{"properties":{"geo_score":0.857,"zip code":"10522","ivr call volume":311,"id":"a6h8kx05hcgi","geo_precision":"zip","state":"New York"},"type":"Feature","geometry":{"type":"Point","coordinates":[-73.865178,41.011147]}},{"properties":{"geo_score":0.857,"zip code":"10523","ivr call volume":104,"id":"a6h8kx0nplux","geo_precision":"zip","state":"New York"},"type":"Feature","geometry":{"type":"Point","coordinates":[-73.836784,41.058732]}},{"properties":{"geo_score":0.857,"zip code":"10524","ivr call volume":9,"id":"a6h8kx9rd0x5","geo_precision":"zip","state":"New York"},"type":"Feature","geometry":{"type":"Point","coordinates":[-73.963751,41.33315]}},{"properties":{"geo_score":0.857,"zip code":"10536","ivr call volume":82,"id":"a6h8kwurwo2o","geo_precision":"zip","state":"New York"},"type":"Feature","geometry":{"type":"Point","coordinates":[-73.722909,41.308983]}},{"properties":{"geo_score":0.857,"zip code":"10538","ivr call volume":177,"id":"a6h8kx1u1p05","geo_precision":"zip","state":"New York"},"type":"Feature","geometry":{"type":"Point","coordinates":[-73.755284,41.090197]}},{"properties":{"geo_score":0.857,"zip code":"10541","ivr call volume":225,"id":"a6h8kx3vek4d","geo_precision":"zip","state":"New York"},"type":"Feature","geometry":{"type":"Point","coordinates":[-73.702353,41.371761]}},{"properties":{"geo_score":0.857,"zip code":"10543","ivr call volume":389,"id":"a6h8kx2x9z2p","geo_precision":"zip","state":"New York"},"type":"Feature","geometry":{"type":"Point","coordinates":[-73.728464,40.937321]}},{"properties":{"geo_score":0.857,"zip code":"10547","ivr call volume":25,"id":"a6h8kx8wbqbi","geo_precision":"zip","state":"New York"},"type":"Feature","geometry":{"type":"Point","coordinates":[-73.797555,41.281975]}},{"properties":{"geo_score":0.857,"zip code":"10549","ivr call volume":218,"id":"a6h8kx1v3gj3","geo_precision":"zip","state":"New York"},"type":"Feature","geometry":{"type":"Point","coordinates":[-73.746521,41.238983]}},{"properties":{"geo_score":0.857,"zip code":"10550","ivr call volume":592,"id":"a6h8kxaqgyke","geo_precision":"zip","state":"New York"},"type":"Feature","geometry":{"type":"Point","coordinates":[-73.83389,40.909838]}},{"properties":{"geo_score":0.857,"zip code":"10560","ivr call volume":59,"id":"a6h8kwvim3qa","geo_precision":"zip","state":"New York"},"type":"Feature","geometry":{"type":"Point","coordinates":[-73.608451,41.331814]}},{"properties":{"geo_score":0.857,"zip code":"10562","ivr call volume":324,"id":"a6h8kx9xe7gb","geo_precision":"zip","state":"New York"},"type":"Feature","geometry":{"type":"Point","coordinates":[-73.838746,41.168706]}},{"properties":{"geo_score":0.857,"zip code":"10566","ivr call volume":448,"id":"a6h8kx0dllyp","geo_precision":"zip","state":"New York"},"type":"Feature","geometry":{"type":"Point","coordinates":[-73.903749,41.314816]}},{"properties":{"geo_score":0.857,"zip code":"10570","ivr call volume":228,"id":"a6h8kx5nry4g","geo_precision":"zip","state":"New York"},"type":"Feature","geometry":{"type":"Point","coordinates":[-73.792214,41.131069]}},{"properties":{"geo_score":0.857,"zip code":"10573","ivr call volume":303,"id":"a6h8kxarbi6h","geo_precision":"zip","state":"New York"},"type":"Feature","geometry":{"type":"Point","coordinates":[-73.683462,41.019264]}},{"properties":{"geo_score":0.857,"zip code":"10576","ivr call volume":43,"id":"a6h8kx7x729d","geo_precision":"zip","state":"New York"},"type":"Feature","geometry":{"type":"Point","coordinates":[-73.550681,41.189263]}},{"properties":{"geo_score":0.857,"zip code":"10577","ivr call volume":45,"id":"a6h8kx1lv52w","geo_precision":"zip","state":"New York"},"type":"Feature","geometry":{"type":"Point","coordinates":[-73.751025,41.002757]}},{"properties":{"geo_score":0.857,"zip code":"10578","ivr call volume":186,"id":"a6h8kwvlnbjx","geo_precision":"zip","state":"New York"},"type":"Feature","geometry":{"type":"Point","coordinates":[-73.598183,41.329261]}},{"properties":{"geo_score":0.857,"zip code":"10579","ivr call volume":157,"id":"a6h8kx8mvyl1","geo_precision":"zip","state":"New York"},"type":"Feature","geometry":{"type":"Point","coordinates":[-73.802078,41.398983]}},{"properties":{"geo_score":0.857,"zip code":"10580","ivr call volume":145,"id":"a6h8kx69hyce","geo_precision":"zip","state":"New York"},"type":"Feature","geometry":{"type":"Point","coordinates":[-73.688185,40.962043]}},{"properties":{"geo_score":0.857,"zip code":"10583","ivr call volume":420,"id":"a6h8kx5wph3n","geo_precision":"zip","state":"New York"},"type":"Feature","geometry":{"type":"Point","coordinates":[-73.760965,40.994542]}},{"properties":{"geo_score":0.857,"zip code":"10589","ivr call volume":2,"id":"a6h8kwwgt4j5","geo_precision":"zip","state":"New York"},"type":"Feature","geometry":{"type":"Point","coordinates":[-73.693685,41.326544]}},{"properties":{"geo_score":0.857,"zip code":"10590","ivr call volume":77,"id":"a6h8kx4loz5p","geo_precision":"zip","state":"New York"},"type":"Feature","geometry":{"type":"Point","coordinates":[-73.569849,41.299262]}},{"properties":{"geo_score":0.857,"zip code":"10591","ivr call volume":205,"id":"a6h8kx82phy8","geo_precision":"zip","state":"New York"},"type":"Feature","geometry":{"type":"Point","coordinates":[-73.863191,41.105652]}},{"properties":{"geo_score":0.857,"zip code":"10598","ivr call volume":360,"id":"a6h8kx05gi2m","geo_precision":"zip","state":"New York"},"type":"Feature","geometry":{"type":"Point","coordinates":[-73.80819,41.29565]}},{"properties":{"geo_score":0.857,"zip code":"10601","ivr call volume":1508,"id":"a6h8kx2ctg7p","geo_precision":"zip","state":"New York"},"type":"Feature","geometry":{"type":"Point","coordinates":[-73.769626,41.031397]}},{"properties":{"geo_score":0.857,"zip code":"10701","ivr call volume":1513,"id":"a6h8kx2btxpp","geo_precision":"zip","state":"New York"},"type":"Feature","geometry":{"type":"Point","coordinates":[-73.866926,40.946107]}},{"properties":{"geo_score":0.857,"zip code":"10703","ivr call volume":83,"id":"a6h8kwuyhfo0","geo_precision":"zip","state":"New York"},"type":"Feature","geometry":{"type":"Point","coordinates":[-73.881329,40.959347]}},{"properties":{"geo_score":0.857,"zip code":"10707","ivr call volume":659,"id":"a6h8kx7qy3rf","geo_precision":"zip","state":"New York"},"type":"Feature","geometry":{"type":"Point","coordinates":[-73.820411,40.958987]}},{"properties":{"geo_score":0.857,"zip code":"10708","ivr call volume":112,"id":"a6h8kwup3fxm","geo_precision":"zip","state":"New York"},"type":"Feature","geometry":{"type":"Point","coordinates":[-73.829978,40.938448]}},{"properties":{"geo_score":0.857,"zip code":"10801","ivr call volume":122,"id":"a6h8kx1ls6il","geo_precision":"zip","state":"New York"},"type":"Feature","geometry":{"type":"Point","coordinates":[-73.801401,41.035123]}},{"properties":{"geo_score":0.857,"zip code":"10805","ivr call volume":777,"id":"a6h8kwygcfc2","geo_precision":"zip","state":"New York"},"type":"Feature","geometry":{"type":"Point","coordinates":[-73.780976,40.899599]}},{"properties":{"geo_score":0.857,"zip code":"10901","ivr call volume":269,"id":"a6h8kx4d7lh8","geo_precision":"zip","state":"New York"},"type":"Feature","geometry":{"type":"Point","coordinates":[-74.121532,41.110374]}},{"properties":{"geo_score":0.857,"zip code":"10918","ivr call volume":81,"id":"a6h8kwzemudi","geo_precision":"zip","state":"New York"},"type":"Feature","geometry":{"type":"Point","coordinates":[-74.215981,41.350927]}},{"properties":{"geo_score":0.857,"zip code":"10919","ivr call volume":57,"id":"a6h8kx48kkn0","geo_precision":"zip","state":"New York"},"type":"Feature","geometry":{"type":"Point","coordinates":[-74.370569,41.53156]}},{"properties":{"geo_score":0.857,"zip code":"10920","ivr call volume":163,"id":"a6h8kwvyi5p2","geo_precision":"zip","state":"New York"},"type":"Feature","geometry":{"type":"Point","coordinates":[-73.936305,41.152545]}},{"properties":{"geo_score":0.857,"zip code":"10921","ivr call volume":44,"id":"a6h8kx07e08e","geo_precision":"zip","state":"New York"},"type":"Feature","geometry":{"type":"Point","coordinates":[-74.36699,41.319956]}},{"properties":{"geo_score":0.857,"zip code":"10924","ivr call volume":152,"id":"a6h8kx29ryd3","geo_precision":"zip","state":"New York"},"type":"Feature","geometry":{"type":"Point","coordinates":[-74.430156,41.32315]}},{"properties":{"geo_score":0.857,"zip code":"10925","ivr call volume":60,"id":"a6h8kwymw406","geo_precision":"zip","state":"New York"},"type":"Feature","geometry":{"type":"Point","coordinates":[-74.312095,41.208428]}},{"properties":{"geo_score":0.857,"zip code":"10927","ivr call volume":295,"id":"a6h8kx9zjve5","geo_precision":"zip","state":"New York"},"type":"Feature","geometry":{"type":"Point","coordinates":[-73.964933,41.191694]}},{"properties":{"geo_score":0.857,"zip code":"10928","ivr call volume":69,"id":"a6h8kx6z6kvj","geo_precision":"zip","state":"New York"},"type":"Feature","geometry":{"type":"Point","coordinates":[-74.255846,41.398883]}},{"properties":{"geo_score":0.857,"zip code":"10930","ivr call volume":54,"id":"a6h8kx0ewb6n","geo_precision":"zip","state":"New York"},"type":"Feature","geometry":{"type":"Point","coordinates":[-74.245108,41.372924]}},{"properties":{"geo_score":0.857,"zip code":"10940","ivr call volume":572,"id":"a6h8kwzxyhz2","geo_precision":"zip","state":"New York"},"type":"Feature","geometry":{"type":"Point","coordinates":[-74.415712,41.470094]}},{"properties":{"geo_score":0.857,"zip code":"10941","ivr call volume":445,"id":"a6h8kx4quty0","geo_precision":"zip","state":"New York"},"type":"Feature","geometry":{"type":"Point","coordinates":[-74.354017,41.370586]}},{"properties":{"geo_score":0.857,"zip code":"10950","ivr call volume":257,"id":"a6h8kx7dswbo","geo_precision":"zip","state":"New York"},"type":"Feature","geometry":{"type":"Point","coordinates":[-74.141812,41.388427]}},{"properties":{"geo_score":0.857,"zip code":"10954","ivr call volume":302,"id":"a6h8kx123m3n","geo_precision":"zip","state":"New York"},"type":"Feature","geometry":{"type":"Point","coordinates":[-74.010418,41.11204]}},{"properties":{"geo_score":0.857,"zip code":"10956","ivr call volume":458,"id":"a6h8kx7e39ur","geo_precision":"zip","state":"New York"},"type":"Feature","geometry":{"type":"Point","coordinates":[-74.002084,41.133429]}},{"properties":{"geo_score":0.857,"zip code":"10958","ivr call volume":45,"id":"a6h8kx8rqtl2","geo_precision":"zip","state":"New York"},"type":"Feature","geometry":{"type":"Point","coordinates":[-74.412378,41.38065]}},{"properties":{"geo_score":0.857,"zip code":"10960","ivr call volume":185,"id":"a6h8kx8d7v9b","geo_precision":"zip","state":"New York"},"type":"Feature","geometry":{"type":"Point","coordinates":[-73.920137,41.10704]}},{"properties":{"geo_score":0.857,"zip code":"10963","ivr call volume":56,"id":"a6h8kx62m2q6","geo_precision":"zip","state":"New York"},"type":"Feature","geometry":{"type":"Point","coordinates":[-74.536702,41.401702]}},{"properties":{"geo_score":0.857,"zip code":"10965","ivr call volume":235,"id":"a6h8kx6u53i8","geo_precision":"zip","state":"New York"},"type":"Feature","geometry":{"type":"Point","coordinates":[-73.992361,41.057041]}},{"properties":{"geo_score":0.857,"zip code":"10968","ivr call volume":293,"id":"a6h8kx3jffmh","geo_precision":"zip","state":"New York"},"type":"Feature","geometry":{"type":"Point","coordinates":[-73.918205,41.040946]}},{"properties":{"geo_score":0.857,"zip code":"10969","ivr call volume":41,"id":"a6h8kx1d06bj","geo_precision":"zip","state":"New York"},"type":"Feature","geometry":{"type":"Point","coordinates":[-74.447101,41.286206]}},{"properties":{"geo_score":0.857,"zip code":"10973","ivr call volume":49,"id":"a6h8kx7o2mkq","geo_precision":"zip","state":"New York"},"type":"Feature","geometry":{"type":"Point","coordinates":[-74.453491,41.386483]}},{"properties":{"geo_score":0.857,"zip code":"10974","ivr call volume":1,"id":"a6h8kx5ewejo","geo_precision":"zip","state":"New York"},"type":"Feature","geometry":{"type":"Point","coordinates":[-74.188757,41.145373]}},{"properties":{"geo_score":0.857,"zip code":"10977","ivr call volume":758,"id":"a6h8kwwqlc3d","geo_precision":"zip","state":"New York"},"type":"Feature","geometry":{"type":"Point","coordinates":[-74.069865,41.159262]}},{"properties":{"geo_score":0.857,"zip code":"10987","ivr call volume":31,"id":"a6h8kx4bswoq","geo_precision":"zip","state":"New York"},"type":"Feature","geometry":{"type":"Point","coordinates":[-74.204924,41.28142]}},{"properties":{"geo_score":0.857,"zip code":"10990","ivr call volume":173,"id":"a6h8kx844uv6","geo_precision":"zip","state":"New York"},"type":"Feature","geometry":{"type":"Point","coordinates":[-74.326541,41.270927]}},{"properties":{"geo_score":0.857,"zip code":"10992","ivr call volume":196,"id":"a6h8kwv9jmoq","geo_precision":"zip","state":"New York"},"type":"Feature","geometry":{"type":"Point","coordinates":[-74.345433,41.407974]}},{"properties":{"geo_score":0.857,"zip code":"10998","ivr call volume":32,"id":"a6h8kwy8yos7","geo_precision":"zip","state":"New York"},"type":"Feature","geometry":{"type":"Point","coordinates":[-74.456673,41.331044]}},{"properties":{"geo_score":0.857,"zip code":"11001","ivr call volume":1459,"id":"a6h8kwy7bx2o","geo_precision":"zip","state":"New York"},"type":"Feature","geometry":{"type":"Point","coordinates":[-73.706783,40.720051]}},{"properties":{"geo_score":0.857,"zip code":"11021","ivr call volume":637,"id":"a6h8kx35pbnu","geo_precision":"zip","state":"New York"},"type":"Feature","geometry":{"type":"Point","coordinates":[-72.715376,40.775933]}},{"properties":{"geo_score":0.857,"zip code":"11030","ivr call volume":1218,"id":"a6h8kx6o49dd","geo_precision":"zip","state":"New York"},"type":"Feature","geometry":{"type":"Point","coordinates":[-73.697353,40.816212]}},{"properties":{"geo_score":0.857,"zip code":"11050","ivr call volume":244,"id":"a6h8kxattfk3","geo_precision":"zip","state":"New York"},"type":"Feature","geometry":{"type":"Point","coordinates":[-73.718742,40.851767]}},{"properties":{"geo_score":0.857,"zip code":"11101","ivr call volume":593,"id":"a6h8kx9o0tkv","geo_precision":"zip","state":"New York"},"type":"Feature","geometry":{"type":"Point","coordinates":[-73.934502,40.744622]}},{"properties":{"geo_score":0.857,"zip code":"11102","ivr call volume":804,"id":"a6h8kx5wfh83","geo_precision":"zip","state":"New York"},"type":"Feature","geometry":{"type":"Point","coordinates":[-73.92516,40.770808]}},{"properties":{"geo_score":0.857,"zip code":"11204","ivr call volume":622,"id":"a6h8kwx1nbrr","geo_precision":"zip","state":"New York"},"type":"Feature","geometry":{"type":"Point","coordinates":[-73.978472,40.63316]}},{"properties":{"geo_score":0.857,"zip code":"11206","ivr call volume":507,"id":"a6h8kxad896x","geo_precision":"zip","state":"New York"},"type":"Feature","geometry":{"type":"Point","coordinates":[-73.949255,40.700453]}},{"properties":{"geo_score":0.857,"zip code":"11208","ivr call volume":383,"id":"a6h8kxay2l7j","geo_precision":"zip","state":"New York"},"type":"Feature","geometry":{"type":"Point","coordinates":[-73.912945,40.662195]}},{"properties":{"geo_score":0.857,"zip code":"11209","ivr call volume":998,"id":"a6h8kx33ir52","geo_precision":"zip","state":"New York"},"type":"Feature","geometry":{"type":"Point","coordinates":[-74.033196,40.618715]}},{"properties":{"geo_score":0.857,"zip code":"11210","ivr call volume":1343,"id":"a6h8kwytpoqa","geo_precision":"zip","state":"New York"},"type":"Feature","geometry":{"type":"Point","coordinates":[-73.945521,40.625468]}},{"properties":{"geo_score":0.857,"zip code":"11212","ivr call volume":672,"id":"a6h8kx0pfofe","geo_precision":"zip","state":"New York"},"type":"Feature","geometry":{"type":"Point","coordinates":[-73.920137,40.660937]}},{"properties":{"geo_score":0.857,"zip code":"11213","ivr call volume":865,"id":"a6h8kx01luh2","geo_precision":"zip","state":"New York"},"type":"Feature","geometry":{"type":"Point","coordinates":[-73.936055,40.67317]}},{"properties":{"geo_score":0.857,"zip code":"11215","ivr call volume":333,"id":"a6h8kwwb7de4","geo_precision":"zip","state":"New York"},"type":"Feature","geometry":{"type":"Point","coordinates":[-73.985972,40.670103]}},{"properties":{"geo_score":0.857,"zip code":"11216","ivr call volume":1815,"id":"a6h8kwx25t73","geo_precision":"zip","state":"New York"},"type":"Feature","geometry":{"type":"Point","coordinates":[-73.946829,40.680474]}},{"properties":{"geo_score":0.857,"zip code":"11218","ivr call volume":794,"id":"a6h8kxal5cdu","geo_precision":"zip","state":"New York"},"type":"Feature","geometry":{"type":"Point","coordinates":[-73.970694,40.646215]}},{"properties":{"geo_score":0.857,"zip code":"11221","ivr call volume":349,"id":"a6h8kxa7w1ur","geo_precision":"zip","state":"New York"},"type":"Feature","geometry":{"type":"Point","coordinates":[-73.918748,40.69427]}},{"properties":{"geo_score":0.857,"zip code":"11223","ivr call volume":1703,"id":"a6h8kwy62hpd","geo_precision":"zip","state":"New York"},"type":"Feature","geometry":{"type":"Point","coordinates":[-73.965138,40.597605]}},{"properties":{"geo_score":0.857,"zip code":"11226","ivr call volume":610,"id":"a6h8kx92whkf","geo_precision":"zip","state":"New York"},"type":"Feature","geometry":{"type":"Point","coordinates":[-73.959027,40.652048]}},{"properties":{"geo_score":0.857,"zip code":"11229","ivr call volume":382,"id":"a6h8kx8cenhh","geo_precision":"zip","state":"New York"},"type":"Feature","geometry":{"type":"Point","coordinates":[-73.939998,40.600988]}},{"properties":{"geo_score":0.857,"zip code":"11234","ivr call volume":684,"id":"a6h8kx9uq4ye","geo_precision":"zip","state":"New York"},"type":"Feature","geometry":{"type":"Point","coordinates":[-73.913892,40.610947]}},{"properties":{"geo_score":0.857,"zip code":"11235","ivr call volume":929,"id":"a6h8kx5rewg3","geo_precision":"zip","state":"New York"},"type":"Feature","geometry":{"type":"Point","coordinates":[-73.948402,40.584455]}},{"properties":{"geo_score":0.857,"zip code":"11238","ivr call volume":445,"id":"a6h8kx0j4nvb","geo_precision":"zip","state":"New York"},"type":"Feature","geometry":{"type":"Point","coordinates":[-73.964583,40.680936]}},{"properties":{"geo_score":0.857,"zip code":"11241","ivr call volume":797,"id":"a6h8kwy14ulz","geo_precision":"zip","state":"New York"},"type":"Feature","geometry":{"type":"Point","coordinates":[-73.945032,40.645099]}},{"properties":{"geo_score":0.857,"zip code":"11242","ivr call volume":3,"id":"a6h8kx0vg5db","geo_precision":"zip","state":"New York"},"type":"Feature","geometry":{"type":"Point","coordinates":[-73.945032,40.645099]}},{"properties":{"geo_score":0.857,"zip code":"11354","ivr call volume":1181,"id":"a6h8kx38555t","geo_precision":"zip","state":"New York"},"type":"Feature","geometry":{"type":"Point","coordinates":[-73.923471,40.715658]}},{"properties":{"geo_score":0.857,"zip code":"11357","ivr call volume":8,"id":"a6h8kwz4ara2","geo_precision":"zip","state":"New York"},"type":"Feature","geometry":{"type":"Point","coordinates":[-73.804578,40.79149]}},{"properties":{"geo_score":0.857,"zip code":"11361","ivr call volume":1537,"id":"a6h8kww029k9","geo_precision":"zip","state":"New York"},"type":"Feature","geometry":{"type":"Point","coordinates":[-73.773026,40.764438]}},{"properties":{"geo_score":0.857,"zip code":"11366","ivr call volume":485,"id":"a6h8kx5rz4rs","geo_precision":"zip","state":"New York"},"type":"Feature","geometry":{"type":"Point","coordinates":[-73.786522,40.727325]}},{"properties":{"geo_score":0.857,"zip code":"11368","ivr call volume":282,"id":"a6h8kx4pza7a","geo_precision":"zip","state":"New York"},"type":"Feature","geometry":{"type":"Point","coordinates":[-73.854333,40.748751]}},{"properties":{"geo_score":0.857,"zip code":"11373","ivr call volume":1312,"id":"a6h8kx827ul3","geo_precision":"zip","state":"New York"},"type":"Feature","geometry":{"type":"Point","coordinates":[-73.877562,40.73509]}},{"properties":{"geo_score":0.857,"zip code":"11374","ivr call volume":86,"id":"a6h8kwyjd2og","geo_precision":"zip","state":"New York"},"type":"Feature","geometry":{"type":"Point","coordinates":[-73.862069,40.722861]}},{"properties":{"geo_score":0.857,"zip code":"11375","ivr call volume":1420,"id":"a6h8kwzmu4d2","geo_precision":"zip","state":"New York"},"type":"Feature","geometry":{"type":"Point","coordinates":[-73.850969,40.710658]}},{"properties":{"geo_score":0.857,"zip code":"11377","ivr call volume":560,"id":"a6h8kx89xtp6","geo_precision":"zip","state":"New York"},"type":"Feature","geometry":{"type":"Point","coordinates":[-73.905445,40.748372]}},{"properties":{"geo_score":0.857,"zip code":"11385","ivr call volume":657,"id":"a6h8kx6rcjgl","geo_precision":"zip","state":"New York"},"type":"Feature","geometry":{"type":"Point","coordinates":[-73.886803,40.701492]}},{"properties":{"geo_score":0.857,"zip code":"11412","ivr call volume":124,"id":"a6h8kx4p7uad","geo_precision":"zip","state":"New York"},"type":"Feature","geometry":{"type":"Point","coordinates":[-73.761747,40.695829]}},{"properties":{"geo_score":0.857,"zip code":"11413","ivr call volume":800,"id":"a6h8kwxtm8v4","geo_precision":"zip","state":"New York"},"type":"Feature","geometry":{"type":"Point","coordinates":[-73.755926,40.664542]}},{"properties":{"geo_score":0.857,"zip code":"11418","ivr call volume":448,"id":"a6h8kxa2k8fc","geo_precision":"zip","state":"New York"},"type":"Feature","geometry":{"type":"Point","coordinates":[-73.83127,40.698566]}},{"properties":{"geo_score":0.857,"zip code":"11419","ivr call volume":509,"id":"a6h8kwxk08sd","geo_precision":"zip","state":"New York"},"type":"Feature","geometry":{"type":"Point","coordinates":[-73.822979,40.686769]}},{"properties":{"geo_score":0.857,"zip code":"11420","ivr call volume":866,"id":"a6h8kx50sz7j","geo_precision":"zip","state":"New York"},"type":"Feature","geometry":{"type":"Point","coordinates":[-73.819013,40.674432]}},{"properties":{"geo_score":0.857,"zip code":"11423","ivr call volume":751,"id":"a6h8kx6235cu","geo_precision":"zip","state":"New York"},"type":"Feature","geometry":{"type":"Point","coordinates":[-73.766897,40.716888]}},{"properties":{"geo_score":0.857,"zip code":"11433","ivr call volume":685,"id":"a6h8kx9ot3hu","geo_precision":"zip","state":"New York"},"type":"Feature","geometry":{"type":"Point","coordinates":[-73.786776,40.696533]}},{"properties":{"geo_score":0.857,"zip code":"11436","ivr call volume":27,"id":"a6h8kx4mnrha","geo_precision":"zip","state":"New York"},"type":"Feature","geometry":{"type":"Point","coordinates":[-73.800696,40.675283]}},{"properties":{"geo_score":0.857,"zip code":"11501","ivr call volume":659,"id":"a6h8kx7zuvqr","geo_precision":"zip","state":"New York"},"type":"Feature","geometry":{"type":"Point","coordinates":[-73.638061,40.735901]}},{"properties":{"geo_score":0.857,"zip code":"11510","ivr call volume":285,"id":"a6h8kx7jxfg8","geo_precision":"zip","state":"New York"},"type":"Feature","geometry":{"type":"Point","coordinates":[-73.595406,40.629547]}},{"properties":{"geo_score":0.857,"zip code":"11520","ivr call volume":743,"id":"a6h8kwwrp5sk","geo_precision":"zip","state":"New York"},"type":"Feature","geometry":{"type":"Point","coordinates":[-73.585222,40.651251]}},{"properties":{"geo_score":0.857,"zip code":"11542","ivr call volume":403,"id":"a6h8kx8pechi","geo_precision":"zip","state":"New York"},"type":"Feature","geometry":{"type":"Point","coordinates":[-73.601772,40.754757]}},{"properties":{"geo_score":0.857,"zip code":"11545","ivr call volume":88,"id":"a6h8kwuo29rq","geo_precision":"zip","state":"New York"},"type":"Feature","geometry":{"type":"Point","coordinates":[-73.565126,40.83871]}},{"properties":{"geo_score":0.857,"zip code":"11550","ivr call volume":684,"id":"a6h8kx60e012","geo_precision":"zip","state":"New York"},"type":"Feature","geometry":{"type":"Point","coordinates":[-73.615406,40.680935]}},{"properties":{"geo_score":0.857,"zip code":"11557","ivr call volume":104,"id":"a6h8kx1xfh6y","geo_precision":"zip","state":"New York"},"type":"Feature","geometry":{"type":"Point","coordinates":[-73.681519,40.636215]}},{"properties":{"geo_score":0.857,"zip code":"11561","ivr call volume":472,"id":"a6h8kxa0fj3g","geo_precision":"zip","state":"New York"},"type":"Feature","geometry":{"type":"Point","coordinates":[-73.625407,40.588993]}},{"properties":{"geo_score":0.857,"zip code":"11563","ivr call volume":1268,"id":"a6h8kwwcnzhh","geo_precision":"zip","state":"New York"},"type":"Feature","geometry":{"type":"Point","coordinates":[-73.664575,40.602326]}},{"properties":{"geo_score":0.857,"zip code":"11576","ivr call volume":400,"id":"a6h8kx0mt75b","geo_precision":"zip","state":"New York"},"type":"Feature","geometry":{"type":"Point","coordinates":[-73.637073,40.816489]}},{"properties":{"geo_score":0.857,"zip code":"11590","ivr call volume":439,"id":"a6h8kx7aze45","geo_precision":"zip","state":"New York"},"type":"Feature","geometry":{"type":"Point","coordinates":[-73.560127,40.745656]}},{"properties":{"geo_score":0.857,"zip code":"11598","ivr call volume":506,"id":"a6h8kx8v2p0s","geo_precision":"zip","state":"New York"},"type":"Feature","geometry":{"type":"Point","coordinates":[-73.708465,40.623993]}},{"properties":{"geo_score":0.857,"zip code":"11599","ivr call volume":1883,"id":"a6h8kx1wr3ea","geo_precision":"zip","state":"New York"},"type":"Feature","geometry":{"type":"Point","coordinates":[-73.742691,40.607574]}},{"properties":{"geo_score":0.857,"zip code":"11691","ivr call volume":512,"id":"a6h8kx1xv94w","geo_precision":"zip","state":"New York"},"type":"Feature","geometry":{"type":"Point","coordinates":[-73.76191,40.601475]}},{"properties":{"geo_score":0.857,"zip code":"11692","ivr call volume":377,"id":"a6h8kx1d8746","geo_precision":"zip","state":"New York"},"type":"Feature","geometry":{"type":"Point","coordinates":[-73.793273,40.5923]}},{"properties":{"geo_score":0.857,"zip code":"11701","ivr call volume":313,"id":"a6h8kx4d0sfs","geo_precision":"zip","state":"New York"},"type":"Feature","geometry":{"type":"Point","coordinates":[-73.425123,40.6976]}},{"properties":{"geo_score":0.857,"zip code":"11702","ivr call volume":610,"id":"a6h8kx86es9c","geo_precision":"zip","state":"New York"},"type":"Feature","geometry":{"type":"Point","coordinates":[-73.419568,40.612879]}},{"properties":{"geo_score":0.857,"zip code":"11705","ivr call volume":32,"id":"a6h8kx9mwg5n","geo_precision":"zip","state":"New York"},"type":"Feature","geometry":{"type":"Point","coordinates":[-73.057026,40.748364]}},{"properties":{"geo_score":0.857,"zip code":"11706","ivr call volume":62,"id":"a6h8kx3za3sd","geo_precision":"zip","state":"New York"},"type":"Feature","geometry":{"type":"Point","coordinates":[-73.281229,40.70871]}},{"properties":{"geo_score":0.857,"zip code":"11713","ivr call volume":149,"id":"a6h8kx3wtf21","geo_precision":"zip","state":"New York"},"type":"Feature","geometry":{"type":"Point","coordinates":[-72.942884,40.774265]}},{"properties":{"geo_score":0.857,"zip code":"11717","ivr call volume":875,"id":"a6h8kwzz223v","geo_precision":"zip","state":"New York"},"type":"Feature","geometry":{"type":"Point","coordinates":[-73.274006,40.770654]}},{"properties":{"geo_score":0.857,"zip code":"11718","ivr call volume":273,"id":"a6h8kwv5ghzd","geo_precision":"zip","state":"New York"},"type":"Feature","geometry":{"type":"Point","coordinates":[-73.260912,40.715424]}},{"properties":{"geo_score":0.857,"zip code":"11722","ivr call volume":453,"id":"a6h8kx9ir55y","geo_precision":"zip","state":"New York"},"type":"Feature","geometry":{"type":"Point","coordinates":[-73.169836,40.747321]}},{"properties":{"geo_score":0.857,"zip code":"11724","ivr call volume":181,"id":"a6h8kx3qvt64","geo_precision":"zip","state":"New York"},"type":"Feature","geometry":{"type":"Point","coordinates":[-73.442315,40.860098]}},{"properties":{"geo_score":0.857,"zip code":"11725","ivr call volume":544,"id":"a6h8kx7h29v0","geo_precision":"zip","state":"New York"},"type":"Feature","geometry":{"type":"Point","coordinates":[-73.280935,40.842247]}},{"properties":{"geo_score":0.857,"zip code":"11729","ivr call volume":663,"id":"a6h8kx7rwauc","geo_precision":"zip","state":"New York"},"type":"Feature","geometry":{"type":"Point","coordinates":[-73.343175,40.776488]}},{"properties":{"geo_score":0.857,"zip code":"11730","ivr call volume":30,"id":"a6h8kx890ztm","geo_precision":"zip","state":"New York"},"type":"Feature","geometry":{"type":"Point","coordinates":[-73.169444,40.740278]}},{"properties":{"geo_score":0.857,"zip code":"11733","ivr call volume":235,"id":"a6h8kxalu7du","geo_precision":"zip","state":"New York"},"type":"Feature","geometry":{"type":"Point","coordinates":[-73.083996,40.950932]}},{"properties":{"geo_score":0.857,"zip code":"11735","ivr call volume":597,"id":"a6h8kx9bsewy","geo_precision":"zip","state":"New York"},"type":"Feature","geometry":{"type":"Point","coordinates":[-73.416789,40.729266]}},{"properties":{"geo_score":0.857,"zip code":"11743","ivr call volume":1062,"id":"a6h8kx879q0k","geo_precision":"zip","state":"New York"},"type":"Feature","geometry":{"type":"Point","coordinates":[-73.425675,40.903431]}},{"properties":{"geo_score":0.857,"zip code":"11746","ivr call volume":1,"id":"a6h8kwuxqtn7","geo_precision":"zip","state":"New York"},"type":"Feature","geometry":{"type":"Point","coordinates":[-73.398731,40.82371]}},{"properties":{"geo_score":0.857,"zip code":"11751","ivr call volume":364,"id":"a6h8kx0a081z","geo_precision":"zip","state":"New York"},"type":"Feature","geometry":{"type":"Point","coordinates":[-73.217871,40.72813]}},{"properties":{"geo_score":0.857,"zip code":"11754","ivr call volume":132,"id":"a6h8kwvohqjv","geo_precision":"zip","state":"New York"},"type":"Feature","geometry":{"type":"Point","coordinates":[-73.220669,40.882042]}},{"properties":{"geo_score":0.857,"zip code":"11756","ivr call volume":504,"id":"a6h8kx3t5vz2","geo_precision":"zip","state":"New York"},"type":"Feature","geometry":{"type":"Point","coordinates":[-73.483736,40.717322]}},{"properties":{"geo_score":0.857,"zip code":"11757","ivr call volume":381,"id":"a6h8kx55et9s","geo_precision":"zip","state":"New York"},"type":"Feature","geometry":{"type":"Point","coordinates":[-73.38151,40.714266]}},{"properties":{"geo_score":0.857,"zip code":"11762","ivr call volume":515,"id":"a6h8kx95dnhm","geo_precision":"zip","state":"New York"},"type":"Feature","geometry":{"type":"Point","coordinates":[-73.601772,40.754757]}},{"properties":{"geo_score":0.857,"zip code":"11768","ivr call volume":387,"id":"a6h8kwyx8w0k","geo_precision":"zip","state":"New York"},"type":"Feature","geometry":{"type":"Point","coordinates":[-73.296227,40.899265]}},{"properties":{"geo_score":0.857,"zip code":"11771","ivr call volume":270,"id":"a6h8kx67y5l8","geo_precision":"zip","state":"New York"},"type":"Feature","geometry":{"type":"Point","coordinates":[-73.510957,40.870932]}},{"properties":{"geo_score":0.857,"zip code":"11772","ivr call volume":645,"id":"a6h8kwv373lp","geo_precision":"zip","state":"New York"},"type":"Feature","geometry":{"type":"Point","coordinates":[-73.029276,40.675655]}},{"properties":{"geo_score":0.857,"zip code":"11777","ivr call volume":610,"id":"a6h8kx9mhae7","geo_precision":"zip","state":"New York"},"type":"Feature","geometry":{"type":"Point","coordinates":[-73.067884,40.959821]}},{"properties":{"geo_score":0.857,"zip code":"11779","ivr call volume":651,"id":"a6h8kx3fa76b","geo_precision":"zip","state":"New York"},"type":"Feature","geometry":{"type":"Point","coordinates":[-73.120111,40.807876]}},{"properties":{"geo_score":0.857,"zip code":"11780","ivr call volume":118,"id":"a6h8kwwnhgeu","geo_precision":"zip","state":"New York"},"type":"Feature","geometry":{"type":"Point","coordinates":[-73.19789,40.903987]}},{"properties":{"geo_score":0.857,"zip code":"11782","ivr call volume":552,"id":"a6h8kwzhj11y","geo_precision":"zip","state":"New York"},"type":"Feature","geometry":{"type":"Point","coordinates":[-73.068167,40.665377]}},{"properties":{"geo_score":0.857,"zip code":"11783","ivr call volume":117,"id":"a6h8kx43v4ql","geo_precision":"zip","state":"New York"},"type":"Feature","geometry":{"type":"Point","coordinates":[-73.496169,40.683897]}},{"properties":{"geo_score":0.857,"zip code":"11784","ivr call volume":610,"id":"a6h8kx4ht46x","geo_precision":"zip","state":"New York"},"type":"Feature","geometry":{"type":"Point","coordinates":[-72.637078,40.922326]}},{"properties":{"geo_score":0.857,"zip code":"11786","ivr call volume":450,"id":"a6h8kxaal33d","geo_precision":"zip","state":"New York"},"type":"Feature","geometry":{"type":"Point","coordinates":[-72.637078,40.922326]}},{"properties":{"geo_score":0.857,"zip code":"11787","ivr call volume":711,"id":"a6h8kx5l7zjd","geo_precision":"zip","state":"New York"},"type":"Feature","geometry":{"type":"Point","coordinates":[-73.187335,40.856209]}},{"properties":{"geo_score":0.857,"zip code":"11790","ivr call volume":22,"id":"a6h8kx6t8rtc","geo_precision":"zip","state":"New York"},"type":"Feature","geometry":{"type":"Point","coordinates":[-73.182803,40.90129]}},{"properties":{"geo_score":0.857,"zip code":"11791","ivr call volume":248,"id":"a6h8kwx4a4n5","geo_precision":"zip","state":"New York"},"type":"Feature","geometry":{"type":"Point","coordinates":[-73.547625,40.823988]}},{"properties":{"geo_score":0.857,"zip code":"11792","ivr call volume":7,"id":"a6h8kx73ydhb","geo_precision":"zip","state":"New York"},"type":"Feature","geometry":{"type":"Point","coordinates":[-72.812046,40.964543]}},{"properties":{"geo_score":0.857,"zip code":"11793","ivr call volume":641,"id":"a6h8kwv01m9g","geo_precision":"zip","state":"New York"},"type":"Feature","geometry":{"type":"Point","coordinates":[-73.507626,40.693434]}},{"properties":{"geo_score":0.857,"zip code":"11797","ivr call volume":76,"id":"a6h8kwxp1fic","geo_precision":"zip","state":"New York"},"type":"Feature","geometry":{"type":"Point","coordinates":[-73.601772,40.754757]}},{"properties":{"geo_score":0.857,"zip code":"11798","ivr call volume":24,"id":"a6h8kwx4cpsd","geo_precision":"zip","state":"New York"},"type":"Feature","geometry":{"type":"Point","coordinates":[-73.369843,40.76371]}},{"properties":{"geo_score":0.857,"zip code":"11801","ivr call volume":1346,"id":"a6h8kx7a3u59","geo_precision":"zip","state":"New York"},"type":"Feature","geometry":{"type":"Point","coordinates":[-73.601772,40.754757]}},{"properties":{"geo_score":0.857,"zip code":"11803","ivr call volume":95,"id":"a6h8kwzrmxbh","geo_precision":"zip","state":"New York"},"type":"Feature","geometry":{"type":"Point","coordinates":[-73.601772,40.754757]}},{"properties":{"geo_score":0.857,"zip code":"11901","ivr call volume":531,"id":"a6h8kwzhl0we","geo_precision":"zip","state":"New York"},"type":"Feature","geometry":{"type":"Point","coordinates":[-72.677874,40.88121]}},{"properties":{"geo_score":0.857,"zip code":"11934","ivr call volume":42,"id":"a6h8kxai2il1","geo_precision":"zip","state":"New York"},"type":"Feature","geometry":{"type":"Point","coordinates":[-72.637078,40.922326]}},{"properties":{"geo_score":0.857,"zip code":"11937","ivr call volume":204,"id":"a6h8kx6av5op","geo_precision":"zip","state":"New York"},"type":"Feature","geometry":{"type":"Point","coordinates":[-72.159244,41.016211]}},{"properties":{"geo_score":0.857,"zip code":"11941","ivr call volume":47,"id":"a6h8kx7pn3hd","geo_precision":"zip","state":"New York"},"type":"Feature","geometry":{"type":"Point","coordinates":[-72.637078,40.922326]}},{"properties":{"geo_score":0.857,"zip code":"11944","ivr call volume":87,"id":"a6h8kwysi9ip","geo_precision":"zip","state":"New York"},"type":"Feature","geometry":{"type":"Point","coordinates":[-72.367861,41.113988]}},{"properties":{"geo_score":0.857,"zip code":"11946","ivr call volume":135,"id":"a6h8kwxk6f4r","geo_precision":"zip","state":"New York"},"type":"Feature","geometry":{"type":"Point","coordinates":[-72.543702,40.859822]}},{"properties":{"geo_score":0.857,"zip code":"11948","ivr call volume":17,"id":"a6h8kwxvjhhl","geo_precision":"zip","state":"New York"},"type":"Feature","geometry":{"type":"Point","coordinates":[-72.637078,40.922326]}},{"properties":{"geo_score":0.857,"zip code":"11950","ivr call volume":362,"id":"a6h8kx5nlg2r","geo_precision":"zip","state":"New York"},"type":"Feature","geometry":{"type":"Point","coordinates":[-72.83288,40.789821]}},{"properties":{"geo_score":0.857,"zip code":"11952","ivr call volume":68,"id":"a6h8kx5m1xwc","geo_precision":"zip","state":"New York"},"type":"Feature","geometry":{"type":"Point","coordinates":[-72.549811,41.0026]}},{"properties":{"geo_score":0.857,"zip code":"11954","ivr call volume":50,"id":"a6h8kxb2h9ej","geo_precision":"zip","state":"New York"},"type":"Feature","geometry":{"type":"Point","coordinates":[-71.967015,41.025935]}},{"properties":{"geo_score":0.857,"zip code":"11955","ivr call volume":72,"id":"a6h8kx7him50","geo_precision":"zip","state":"New York"},"type":"Feature","geometry":{"type":"Point","coordinates":[-72.637078,40.922326]}},{"properties":{"geo_score":0.857,"zip code":"11958","ivr call volume":58,"id":"a6h8kx2w7j3r","geo_precision":"zip","state":"New York"},"type":"Feature","geometry":{"type":"Point","coordinates":[-72.637078,40.922326]}},{"properties":{"geo_score":0.857,"zip code":"11963","ivr call volume":117,"id":"a6h8kx0xfml3","geo_precision":"zip","state":"New York"},"type":"Feature","geometry":{"type":"Point","coordinates":[-72.313416,40.997877]}},{"properties":{"geo_score":0.857,"zip code":"11964","ivr call volume":31,"id":"a6h8kx0wpbpg","geo_precision":"zip","state":"New York"},"type":"Feature","geometry":{"type":"Point","coordinates":[-72.34925,41.050933]}},{"properties":{"geo_score":0.857,"zip code":"11968","ivr call volume":200,"id":"a6h8kxaoidqj","geo_precision":"zip","state":"New York"},"type":"Feature","geometry":{"type":"Point","coordinates":[-72.410919,40.898989]}},{"properties":{"geo_score":0.857,"zip code":"11971","ivr call volume":82,"id":"a6h8kwy2h5dr","geo_precision":"zip","state":"New York"},"type":"Feature","geometry":{"type":"Point","coordinates":[-72.398973,41.046767]}},{"properties":{"geo_score":0.857,"zip code":"11976","ivr call volume":2,"id":"a6h8kx1nh3e0","geo_precision":"zip","state":"New York"},"type":"Feature","geometry":{"type":"Point","coordinates":[-72.304249,40.911211]}},{"properties":{"geo_score":0.857,"zip code":"11978","ivr call volume":118,"id":"a6h8kxastg2h","geo_precision":"zip","state":"New York"},"type":"Feature","geometry":{"type":"Point","coordinates":[-72.628984,40.819822]}},{"properties":{"geo_score":0.857,"zip code":"11980","ivr call volume":249,"id":"a6h8kx2rj7kr","geo_precision":"zip","state":"New York"},"type":"Feature","geometry":{"type":"Point","coordinates":[-72.637078,40.922326]}},{"properties":{"geo_score":0.857,"zip code":"12008","ivr call volume":120,"id":"a6h8kwy2s92h","geo_precision":"zip","state":"New York"},"type":"Feature","geometry":{"type":"Point","coordinates":[-73.843733,42.835077]}},{"properties":{"geo_score":0.857,"zip code":"12009","ivr call volume":20,"id":"a6h8kx27hz7o","geo_precision":"zip","state":"New York"},"type":"Feature","geometry":{"type":"Point","coordinates":[-74.044018,42.642855]}},{"properties":{"geo_score":0.857,"zip code":"12010","ivr call volume":202,"id":"a6h8kx63mryl","geo_precision":"zip","state":"New York"},"type":"Feature","geometry":{"type":"Point","coordinates":[-74.269856,43.012574]}},{"properties":{"geo_score":0.857,"zip code":"12015","ivr call volume":35,"id":"a6h8kx1697c2","geo_precision":"zip","state":"New York"},"type":"Feature","geometry":{"type":"Point","coordinates":[-73.837035,42.28004]}},{"properties":{"geo_score":0.857,"zip code":"12018","ivr call volume":48,"id":"a6h8kx6c5vu5","geo_precision":"zip","state":"New York"},"type":"Feature","geometry":{"type":"Point","coordinates":[-73.530947,42.63008]}},{"properties":{"geo_score":0.857,"zip code":"12020","ivr call volume":109,"id":"a6h8kx3ao9yu","geo_precision":"zip","state":"New York"},"type":"Feature","geometry":{"type":"Point","coordinates":[-73.929291,43.037575]}},{"properties":{"geo_score":0.857,"zip code":"12022","ivr call volume":16,"id":"a6h8kx166aom","geo_precision":"zip","state":"New York"},"type":"Feature","geometry":{"type":"Point","coordinates":[-73.368721,42.660913]}},{"properties":{"geo_score":0.857,"zip code":"12023","ivr call volume":19,"id":"a6h8kx3uuc5a","geo_precision":"zip","state":"New York"},"type":"Feature","geometry":{"type":"Point","coordinates":[-74.100133,42.558411]}},{"properties":{"geo_score":0.857,"zip code":"12024","ivr call volume":18,"id":"a6h8kx9iq23z","geo_precision":"zip","state":"New York"},"type":"Feature","geometry":{"type":"Point","coordinates":[-73.564003,42.480915]}},{"properties":{"geo_score":0.857,"zip code":"12025","ivr call volume":26,"id":"a6h8kwwygiw0","geo_precision":"zip","state":"New York"},"type":"Feature","geometry":{"type":"Point","coordinates":[-74.21791,43.050074]}},{"properties":{"geo_score":0.857,"zip code":"12029","ivr call volume":4,"id":"a6h8kx0dtog7","geo_precision":"zip","state":"New York"},"type":"Feature","geometry":{"type":"Point","coordinates":[-73.421221,42.404807]}},{"properties":{"geo_score":0.857,"zip code":"12032","ivr call volume":7,"id":"a6h8kx69dxpl","geo_precision":"zip","state":"New York"},"type":"Feature","geometry":{"type":"Point","coordinates":[-74.486808,43.157293]}},{"properties":{"geo_score":0.857,"zip code":"12033","ivr call volume":21,"id":"a6h8kwupvskp","geo_precision":"zip","state":"New York"},"type":"Feature","geometry":{"type":"Point","coordinates":[-73.676507,42.554525]}},{"properties":{"geo_score":0.857,"zip code":"12035","ivr call volume":13,"id":"a6h8kx3n5ov9","geo_precision":"zip","state":"New York"},"type":"Feature","geometry":{"type":"Point","coordinates":[-74.331244,42.706464]}},{"properties":{"geo_score":0.857,"zip code":"12037","ivr call volume":82,"id":"a6h8kwvs3f3e","geo_precision":"zip","state":"New York"},"type":"Feature","geometry":{"type":"Point","coordinates":[-73.60484,42.345919]}},{"properties":{"geo_score":0.857,"zip code":"12041","ivr call volume":17,"id":"a6h8kx8toz20","geo_precision":"zip","state":"New York"},"type":"Feature","geometry":{"type":"Point","coordinates":[-73.957345,42.561988]}},{"properties":{"geo_score":0.857,"zip code":"12043","ivr call volume":40,"id":"a6h8kx877ulm","geo_precision":"zip","state":"New York"},"type":"Feature","geometry":{"type":"Point","coordinates":[-74.450972,42.670353]}},{"properties":{"geo_score":0.857,"zip code":"12051","ivr call volume":36,"id":"a6h8kx7o9onh","geo_precision":"zip","state":"New York"},"type":"Feature","geometry":{"type":"Point","coordinates":[-73.847967,42.355924]}},{"properties":{"geo_score":0.857,"zip code":"12053","ivr call volume":11,"id":"a6h8kx0752hr","geo_precision":"zip","state":"New York"},"type":"Feature","geometry":{"type":"Point","coordinates":[-74.21874,42.808686]}},{"properties":{"geo_score":0.857,"zip code":"12054","ivr call volume":22,"id":"a6h8kx1amiyu","geo_precision":"zip","state":"New York"},"type":"Feature","geometry":{"type":"Point","coordinates":[-73.887903,42.60119]}},{"properties":{"geo_score":0.857,"zip code":"12065","ivr call volume":262,"id":"a6h8kx7dq941","geo_precision":"zip","state":"New York"},"type":"Feature","geometry":{"type":"Point","coordinates":[-73.823733,42.910076]}},{"properties":{"geo_score":0.857,"zip code":"12066","ivr call volume":17,"id":"a6h8kx1we9d5","geo_precision":"zip","state":"New York"},"type":"Feature","geometry":{"type":"Point","coordinates":[-74.340132,42.796464]}},{"properties":{"geo_score":0.857,"zip code":"12068","ivr call volume":14,"id":"a6h8kx64jm5g","geo_precision":"zip","state":"New York"},"type":"Feature","geometry":{"type":"Point","coordinates":[-74.433471,42.988406]}},{"properties":{"geo_score":0.857,"zip code":"12070","ivr call volume":10,"id":"a6h8kwzndzwj","geo_precision":"zip","state":"New York"},"type":"Feature","geometry":{"type":"Point","coordinates":[-74.292476,42.969738]}},{"properties":{"geo_score":0.857,"zip code":"12072","ivr call volume":4,"id":"a6h8kx0qm3lj","geo_precision":"zip","state":"New York"},"type":"Feature","geometry":{"type":"Point","coordinates":[-74.427636,42.921185]}},{"properties":{"geo_score":0.857,"zip code":"12074","ivr call volume":22,"id":"a6h8kwz1zqxd","geo_precision":"zip","state":"New York"},"type":"Feature","geometry":{"type":"Point","coordinates":[-74.018738,43.061741]}},{"properties":{"geo_score":0.857,"zip code":"12078","ivr call volume":129,"id":"a6h8kx1hghtc","geo_precision":"zip","state":"New York"},"type":"Feature","geometry":{"type":"Point","coordinates":[-74.378192,43.083128]}},{"properties":{"geo_score":0.857,"zip code":"12083","ivr call volume":20,"id":"a6h8kx7j6ucj","geo_precision":"zip","state":"New York"},"type":"Feature","geometry":{"type":"Point","coordinates":[-74.039022,42.411749]}},{"properties":{"geo_score":0.857,"zip code":"12090","ivr call volume":38,"id":"a6h8kx6fznkt","geo_precision":"zip","state":"New York"},"type":"Feature","geometry":{"type":"Point","coordinates":[-73.323722,42.924245]}},{"properties":{"geo_score":0.857,"zip code":"12092","ivr call volume":4,"id":"a6h8kwv2n292","geo_precision":"zip","state":"New York"},"type":"Feature","geometry":{"type":"Point","coordinates":[-74.401248,42.686186]}},{"properties":{"geo_score":0.857,"zip code":"12095","ivr call volume":83,"id":"a6h8kwwmnq5d","geo_precision":"zip","state":"New York"},"type":"Feature","geometry":{"type":"Point","coordinates":[-74.504029,43.058128]}},{"properties":{"geo_score":0.857,"zip code":"12106","ivr call volume":80,"id":"a6h8kx9v3orb","geo_precision":"zip","state":"New York"},"type":"Feature","geometry":{"type":"Point","coordinates":[-73.704442,42.385231]}},{"properties":{"geo_score":0.857,"zip code":"12117","ivr call volume":20,"id":"a6h8kwy8047m","geo_precision":"zip","state":"New York"},"type":"Feature","geometry":{"type":"Point","coordinates":[-74.284024,43.134239]}},{"properties":{"geo_score":0.857,"zip code":"12118","ivr call volume":96,"id":"a6h8kx75pcbm","geo_precision":"zip","state":"New York"},"type":"Feature","geometry":{"type":"Point","coordinates":[-73.720675,42.919799]}},{"properties":{"geo_score":0.857,"zip code":"12122","ivr call volume":57,"id":"a6h8kx8z3s63","geo_precision":"zip","state":"New York"},"type":"Feature","geometry":{"type":"Point","coordinates":[-74.353194,42.595632]}},{"properties":{"geo_score":0.857,"zip code":"12123","ivr call volume":35,"id":"a6h8kx7bhubn","geo_precision":"zip","state":"New York"},"type":"Feature","geometry":{"type":"Point","coordinates":[-73.60706,42.530359]}},{"properties":{"geo_score":0.857,"zip code":"12134","ivr call volume":37,"id":"a6h8kwyy27hh","geo_precision":"zip","state":"New York"},"type":"Feature","geometry":{"type":"Point","coordinates":[-74.336249,43.249237]}},{"properties":{"geo_score":0.857,"zip code":"12137","ivr call volume":12,"id":"a6h8kx83qtm6","geo_precision":"zip","state":"New York"},"type":"Feature","geometry":{"type":"Point","coordinates":[-74.135128,42.828686]}},{"properties":{"geo_score":0.857,"zip code":"12138","ivr call volume":16,"id":"a6h8kx80n32q","geo_precision":"zip","state":"New York"},"type":"Feature","geometry":{"type":"Point","coordinates":[-73.332333,42.823134]}},{"properties":{"geo_score":0.857,"zip code":"12143","ivr call volume":49,"id":"a6h8kwyz6mtv","geo_precision":"zip","state":"New York"},"type":"Feature","geometry":{"type":"Point","coordinates":[-73.84568,42.551469]}},{"properties":{"geo_score":0.857,"zip code":"12149","ivr call volume":19,"id":"a6h8kxajpcqc","geo_precision":"zip","state":"New York"},"type":"Feature","geometry":{"type":"Point","coordinates":[-74.613478,42.65202]}},{"properties":{"geo_score":0.857,"zip code":"12150","ivr call volume":6,"id":"a6h8kwzgphlv","geo_precision":"zip","state":"New York"},"type":"Feature","geometry":{"type":"Point","coordinates":[-74.050083,42.869961]}},{"properties":{"geo_score":0.857,"zip code":"12151","ivr call volume":60,"id":"a6h8kxaxj7l6","geo_precision":"zip","state":"New York"},"type":"Feature","geometry":{"type":"Point","coordinates":[-73.773731,42.908132]}},{"properties":{"geo_score":0.857,"zip code":"12155","ivr call volume":25,"id":"a6h8kx2dzrz8","geo_precision":"zip","state":"New York"},"type":"Feature","geometry":{"type":"Point","coordinates":[-74.880432,42.627298]}},{"properties":{"geo_score":0.857,"zip code":"12164","ivr call volume":6,"id":"a6h8kx7lmrpg","geo_precision":"zip","state":"New York"},"type":"Feature","geometry":{"type":"Point","coordinates":[-74.456913,43.667618]}},{"properties":{"geo_score":0.857,"zip code":"12167","ivr call volume":29,"id":"a6h8kwzaykb0","geo_precision":"zip","state":"New York"},"type":"Feature","geometry":{"type":"Point","coordinates":[-74.57765,42.450912]}},{"properties":{"geo_score":0.857,"zip code":"12169","ivr call volume":10,"id":"a6h8kx73k3tm","geo_precision":"zip","state":"New York"},"type":"Feature","geometry":{"type":"Point","coordinates":[-73.415444,42.585511]}},{"properties":{"geo_score":0.857,"zip code":"12175","ivr call volume":3,"id":"a6h8kwz8ixd8","geo_precision":"zip","state":"New York"},"type":"Feature","geometry":{"type":"Point","coordinates":[-74.535424,42.525354]}},{"properties":{"geo_score":0.857,"zip code":"12180","ivr call volume":94,"id":"a6h8kx021h8x","geo_precision":"zip","state":"New York"},"type":"Feature","geometry":{"type":"Point","coordinates":[-73.652618,42.742023]}},{"properties":{"geo_score":0.857,"zip code":"12182","ivr call volume":240,"id":"a6h8kx1eu5ho","geo_precision":"zip","state":"New York"},"type":"Feature","geometry":{"type":"Point","coordinates":[-73.634284,42.804522]}},{"properties":{"geo_score":0.857,"zip code":"12183","ivr call volume":364,"id":"a6h8kwyp3jy0","geo_precision":"zip","state":"New York"},"type":"Feature","geometry":{"type":"Point","coordinates":[-73.691785,42.728412]}},{"properties":{"geo_score":0.857,"zip code":"12185","ivr call volume":42,"id":"a6h8kx6f33vd","geo_precision":"zip","state":"New York"},"type":"Feature","geometry":{"type":"Point","coordinates":[-73.543726,42.868967]}},{"properties":{"geo_score":0.857,"zip code":"12186","ivr call volume":18,"id":"a6h8kxb6l6bu","geo_precision":"zip","state":"New York"},"type":"Feature","geometry":{"type":"Point","coordinates":[-74.024019,42.566745]}},{"properties":{"geo_score":0.857,"zip code":"12190","ivr call volume":6,"id":"a6h8kwyqki7v","geo_precision":"zip","state":"New York"},"type":"Feature","geometry":{"type":"Point","coordinates":[-74.315974,43.438123]}},{"properties":{"geo_score":0.857,"zip code":"12193","ivr call volume":17,"id":"a6h8kx2hma4w","geo_precision":"zip","state":"New York"},"type":"Feature","geometry":{"type":"Point","coordinates":[-74.03961,42.521722]}},{"properties":{"geo_score":0.857,"zip code":"12197","ivr call volume":15,"id":"a6h8kx9dqe5c","geo_precision":"zip","state":"New York"},"type":"Feature","geometry":{"type":"Point","coordinates":[-74.76904,42.586743]}},{"properties":{"geo_score":0.857,"zip code":"12202","ivr call volume":75,"id":"a6h8kwyf6i2p","geo_precision":"zip","state":"New York"},"type":"Feature","geometry":{"type":"Point","coordinates":[-73.763564,42.636371]}},{"properties":{"geo_score":0.857,"zip code":"12204","ivr call volume":79,"id":"a6h8kwv9yls9","geo_precision":"zip","state":"New York"},"type":"Feature","geometry":{"type":"Point","coordinates":[-73.724564,42.692023]}},{"properties":{"geo_score":0.857,"zip code":"12205","ivr call volume":461,"id":"a6h8kxaqea24","geo_precision":"zip","state":"New York"},"type":"Feature","geometry":{"type":"Point","coordinates":[-73.8629,42.743966]}},{"properties":{"geo_score":0.857,"zip code":"12207","ivr call volume":420,"id":"a6h8kx06eqxd","geo_precision":"zip","state":"New York"},"type":"Feature","geometry":{"type":"Point","coordinates":[-73.750764,42.656029]}},{"properties":{"geo_score":0.857,"zip code":"12209","ivr call volume":149,"id":"a6h8kx0dghll","geo_precision":"zip","state":"New York"},"type":"Feature","geometry":{"type":"Point","coordinates":[-73.91019,42.677953]}},{"properties":{"geo_score":0.857,"zip code":"12210","ivr call volume":37,"id":"a6h8kwy956nq","geo_precision":"zip","state":"New York"},"type":"Feature","geometry":{"type":"Point","coordinates":[-73.758115,42.683079]}},{"properties":{"geo_score":0.857,"zip code":"12226","ivr call volume":388,"id":"a6h8kwxgwp5g","geo_precision":"zip","state":"New York"},"type":"Feature","geometry":{"type":"Point","coordinates":[-73.970812,42.614852]}},{"properties":{"geo_score":0.857,"zip code":"12227","ivr call volume":74,"id":"a6h8kwvevfj1","geo_precision":"zip","state":"New York"},"type":"Feature","geometry":{"type":"Point","coordinates":[-73.970812,42.614852]}},{"properties":{"geo_score":0.857,"zip code":"12260","ivr call volume":684,"id":"a6h8kwvb6w2k","geo_precision":"zip","state":"New York"},"type":"Feature","geometry":{"type":"Point","coordinates":[-73.970812,42.614852]}},{"properties":{"geo_score":0.857,"zip code":"12304","ivr call volume":2,"id":"a6h8kwxjuo8t","geo_precision":"zip","state":"New York"},"type":"Feature","geometry":{"type":"Point","coordinates":[-73.899917,42.788176]}},{"properties":{"geo_score":0.857,"zip code":"12305","ivr call volume":572,"id":"a6h8kx9fe469","geo_precision":"zip","state":"New York"},"type":"Feature","geometry":{"type":"Point","coordinates":[-73.943368,42.812776]}},{"properties":{"geo_score":0.857,"zip code":"12306","ivr call volume":210,"id":"a6h8kx2g2xn2","geo_precision":"zip","state":"New York"},"type":"Feature","geometry":{"type":"Point","coordinates":[-73.969569,42.794243]}},{"properties":{"geo_score":0.857,"zip code":"12401","ivr call volume":591,"id":"a6h8kx5npl4j","geo_precision":"zip","state":"New York"},"type":"Feature","geometry":{"type":"Point","coordinates":[-74.004583,41.909815]}},{"properties":{"geo_score":0.857,"zip code":"12413","ivr call volume":59,"id":"a6h8kx3rh1ju","geo_precision":"zip","state":"New York"},"type":"Feature","geometry":{"type":"Point","coordinates":[-74.078469,42.340362]}},{"properties":{"geo_score":0.857,"zip code":"12414","ivr call volume":68,"id":"a6h8kx88c94k","geo_precision":"zip","state":"New York"},"type":"Feature","geometry":{"type":"Point","coordinates":[-73.875684,42.308419]}},{"properties":{"geo_score":0.857,"zip code":"12424","ivr call volume":11,"id":"a6h8kwzhannw","geo_precision":"zip","state":"New York"},"type":"Feature","geometry":{"type":"Point","coordinates":[-74.15549,42.28041]}},{"properties":{"geo_score":0.857,"zip code":"12428","ivr call volume":70,"id":"a6h8kx31793n","geo_precision":"zip","state":"New York"},"type":"Feature","geometry":{"type":"Point","coordinates":[-74.483768,41.773705]}},{"properties":{"geo_score":0.857,"zip code":"12430","ivr call volume":31,"id":"a6h8kwznvoa1","geo_precision":"zip","state":"New York"},"type":"Feature","geometry":{"type":"Point","coordinates":[-74.550153,42.195088]}},{"properties":{"geo_score":0.857,"zip code":"12431","ivr call volume":23,"id":"a6h8kx480vma","geo_precision":"zip","state":"New York"},"type":"Feature","geometry":{"type":"Point","coordinates":[-74.024147,42.336112]}},{"properties":{"geo_score":0.857,"zip code":"12434","ivr call volume":27,"id":"a6h8kx1vsngg","geo_precision":"zip","state":"New York"},"type":"Feature","geometry":{"type":"Point","coordinates":[-74.459223,42.320684]}},{"properties":{"geo_score":0.857,"zip code":"12440","ivr call volume":45,"id":"a6h8kx491l35","geo_precision":"zip","state":"New York"},"type":"Feature","geometry":{"type":"Point","coordinates":[-74.172923,41.797593]}},{"properties":{"geo_score":0.857,"zip code":"12446","ivr call volume":47,"id":"a6h8kx0kzqxl","geo_precision":"zip","state":"New York"},"type":"Feature","geometry":{"type":"Point","coordinates":[-74.305984,41.79176]}},{"properties":{"geo_score":0.857,"zip code":"12455","ivr call volume":39,"id":"a6h8kx71nnz9","geo_precision":"zip","state":"New York"},"type":"Feature","geometry":{"type":"Point","coordinates":[-74.697101,42.134255]}},{"properties":{"geo_score":0.857,"zip code":"12460","ivr call volume":26,"id":"a6h8kx2ocero","geo_precision":"zip","state":"New York"},"type":"Feature","geometry":{"type":"Point","coordinates":[-74.192105,42.409721]}},{"properties":{"geo_score":0.857,"zip code":"12463","ivr call volume":30,"id":"a6h8kx08qfz4","geo_precision":"zip","state":"New York"},"type":"Feature","geometry":{"type":"Point","coordinates":[-74.013746,42.202311]}},{"properties":{"geo_score":0.857,"zip code":"12464","ivr call volume":47,"id":"a6h8kx6xd2hy","geo_precision":"zip","state":"New York"},"type":"Feature","geometry":{"type":"Point","coordinates":[-74.331815,42.053147]}},{"properties":{"geo_score":0.857,"zip code":"12468","ivr call volume":10,"id":"a6h8kx2c6ug2","geo_precision":"zip","state":"New York"},"type":"Feature","geometry":{"type":"Point","coordinates":[-74.390703,42.309529]}},{"properties":{"geo_score":0.857,"zip code":"12472","ivr call volume":26,"id":"a6h8kxavougf","geo_precision":"zip","state":"New York"},"type":"Feature","geometry":{"type":"Point","coordinates":[-74.073785,41.850385]}},{"properties":{"geo_score":0.857,"zip code":"12474","ivr call volume":29,"id":"a6h8kwwzulae","geo_precision":"zip","state":"New York"},"type":"Feature","geometry":{"type":"Point","coordinates":[-74.554596,42.30064]}},{"properties":{"geo_score":0.857,"zip code":"12477","ivr call volume":130,"id":"a6h8kx7p5rx5","geo_precision":"zip","state":"New York"},"type":"Feature","geometry":{"type":"Point","coordinates":[-74.048193,42.11259]}},{"properties":{"geo_score":0.857,"zip code":"12481","ivr call volume":50,"id":"a6h8kxarijl6","geo_precision":"zip","state":"New York"},"type":"Feature","geometry":{"type":"Point","coordinates":[-74.196812,41.975648]}},{"properties":{"geo_score":0.857,"zip code":"12485","ivr call volume":10,"id":"a6h8kwymc2tj","geo_precision":"zip","state":"New York"},"type":"Feature","geometry":{"type":"Point","coordinates":[-74.135417,42.220088]}},{"properties":{"geo_score":0.857,"zip code":"12496","ivr call volume":23,"id":"a6h8kwwykdn3","geo_precision":"zip","state":"New York"},"type":"Feature","geometry":{"type":"Point","coordinates":[-74.290144,42.340361]}},{"properties":{"geo_score":0.857,"zip code":"12498","ivr call volume":117,"id":"a6h8kx0adl51","geo_precision":"zip","state":"New York"},"type":"Feature","geometry":{"type":"Point","coordinates":[-74.076252,42.016759]}},{"properties":{"geo_score":0.857,"zip code":"12501","ivr call volume":13,"id":"a6h8kx0wj84u","geo_precision":"zip","state":"New York"},"type":"Feature","geometry":{"type":"Point","coordinates":[-73.600126,41.885649]}},{"properties":{"geo_score":0.857,"zip code":"12508","ivr call volume":220,"id":"a6h8kwv1ksxk","geo_precision":"zip","state":"New York"},"type":"Feature","geometry":{"type":"Point","coordinates":[-73.939582,41.515372]}},{"properties":{"geo_score":0.857,"zip code":"12513","ivr call volume":53,"id":"a6h8kxazz23p","geo_precision":"zip","state":"New York"},"type":"Feature","geometry":{"type":"Point","coordinates":[-73.694642,42.206862]}},{"properties":{"geo_score":0.857,"zip code":"12514","ivr call volume":32,"id":"a6h8kx2pic2c","geo_precision":"zip","state":"New York"},"type":"Feature","geometry":{"type":"Point","coordinates":[-73.777256,41.867364]}},{"properties":{"geo_score":0.857,"zip code":"12515","ivr call volume":43,"id":"a6h8kx1zga5q","geo_precision":"zip","state":"New York"},"type":"Feature","geometry":{"type":"Point","coordinates":[-74.072643,41.675927]}},{"properties":{"geo_score":0.857,"zip code":"12516","ivr call volume":18,"id":"a6h8kx0af4za","geo_precision":"zip","state":"New York"},"type":"Feature","geometry":{"type":"Point","coordinates":[-73.576102,42.099322]}},{"properties":{"geo_score":0.857,"zip code":"12518","ivr call volume":84,"id":"a6h8kxargtwa","geo_precision":"zip","state":"New York"},"type":"Feature","geometry":{"type":"Point","coordinates":[-74.135167,41.348593]}},{"properties":{"geo_score":0.857,"zip code":"12522","ivr call volume":18,"id":"a6h8kx44b4k0","geo_precision":"zip","state":"New York"},"type":"Feature","geometry":{"type":"Point","coordinates":[-73.687324,41.800316]}},{"properties":{"geo_score":0.857,"zip code":"12523","ivr call volume":29,"id":"a6h8kx2cp4i7","geo_precision":"zip","state":"New York"},"type":"Feature","geometry":{"type":"Point","coordinates":[-73.765961,42.084535]}},{"properties":{"geo_score":0.857,"zip code":"12524","ivr call volume":100,"id":"a6h8kwwhfby4","geo_precision":"zip","state":"New York"},"type":"Feature","geometry":{"type":"Point","coordinates":[-73.868191,41.543982]}},{"properties":{"geo_score":0.857,"zip code":"12526","ivr call volume":40,"id":"a6h8kx6kefbv","geo_precision":"zip","state":"New York"},"type":"Feature","geometry":{"type":"Point","coordinates":[-73.874021,42.098701]}},{"properties":{"geo_score":0.857,"zip code":"12528","ivr call volume":69,"id":"a6h8kxaoys20","geo_precision":"zip","state":"New York"},"type":"Feature","geometry":{"type":"Point","coordinates":[-74.005418,41.736204]}},{"properties":{"geo_score":0.857,"zip code":"12529","ivr call volume":26,"id":"a6h8kx83e391","geo_precision":"zip","state":"New York"},"type":"Feature","geometry":{"type":"Point","coordinates":[-73.507338,42.235644]}},{"properties":{"geo_score":0.857,"zip code":"12533","ivr call volume":158,"id":"a6h8kx4moqe0","geo_precision":"zip","state":"New York"},"type":"Feature","geometry":{"type":"Point","coordinates":[-73.846246,41.538982]}},{"properties":{"geo_score":0.857,"zip code":"12534","ivr call volume":161,"id":"a6h8kx7ku2v6","geo_precision":"zip","state":"New York"},"type":"Feature","geometry":{"type":"Point","coordinates":[-73.768458,42.263698]}},{"properties":{"geo_score":0.857,"zip code":"12538","ivr call volume":95,"id":"a6h8kwyuvvpr","geo_precision":"zip","state":"New York"},"type":"Feature","geometry":{"type":"Point","coordinates":[-73.901525,41.76676]}},{"properties":{"geo_score":0.857,"zip code":"12540","ivr call volume":28,"id":"a6h8kx3s5jwy","geo_precision":"zip","state":"New York"},"type":"Feature","geometry":{"type":"Point","coordinates":[-73.743183,41.633029]}},{"properties":{"geo_score":0.857,"zip code":"12542","ivr call volume":39,"id":"a6h8kx36ytzj","geo_precision":"zip","state":"New York"},"type":"Feature","geometry":{"type":"Point","coordinates":[-74.003473,41.64426]}},{"properties":{"geo_score":0.857,"zip code":"12543","ivr call volume":12,"id":"a6h8kwyymnwn","geo_precision":"zip","state":"New York"},"type":"Feature","geometry":{"type":"Point","coordinates":[-74.230587,41.357625]}},{"properties":{"geo_score":0.857,"zip code":"12545","ivr call volume":62,"id":"a6h8kx6nq0vq","geo_precision":"zip","state":"New York"},"type":"Feature","geometry":{"type":"Point","coordinates":[-73.697907,41.774261]}},{"properties":{"geo_score":0.857,"zip code":"12546","ivr call volume":12,"id":"a6h8kx89wlmf","geo_precision":"zip","state":"New York"},"type":"Feature","geometry":{"type":"Point","coordinates":[-73.534013,41.931759]}},{"properties":{"geo_score":0.857,"zip code":"12547","ivr call volume":22,"id":"a6h8kx4sxqgh","geo_precision":"zip","state":"New York"},"type":"Feature","geometry":{"type":"Point","coordinates":[-73.852623,43.033686]}},{"properties":{"geo_score":0.857,"zip code":"12549","ivr call volume":42,"id":"a6h8kwxcnve5","geo_precision":"zip","state":"New York"},"type":"Feature","geometry":{"type":"Point","coordinates":[-74.307096,41.563705]}},{"properties":{"geo_score":0.857,"zip code":"12550","ivr call volume":752,"id":"a6h8kxao1rmq","geo_precision":"zip","state":"New York"},"type":"Feature","geometry":{"type":"Point","coordinates":[-73.984028,41.558427]}},{"properties":{"geo_score":0.857,"zip code":"12553","ivr call volume":21,"id":"a6h8kwv9rd7z","geo_precision":"zip","state":"New York"},"type":"Feature","geometry":{"type":"Point","coordinates":[-74.311974,41.413667]}},{"properties":{"geo_score":0.857,"zip code":"12561","ivr call volume":110,"id":"a6h8kx2vhixu","geo_precision":"zip","state":"New York"},"type":"Feature","geometry":{"type":"Point","coordinates":[-74.086809,41.782315]}},{"properties":{"geo_score":0.857,"zip code":"12563","ivr call volume":45,"id":"a6h8kwuvo6mv","geo_precision":"zip","state":"New York"},"type":"Feature","geometry":{"type":"Point","coordinates":[-73.570682,41.484538]}},{"properties":{"geo_score":0.857,"zip code":"12564","ivr call volume":60,"id":"a6h8kx7d0qkm","geo_precision":"zip","state":"New York"},"type":"Feature","geometry":{"type":"Point","coordinates":[-73.630128,41.570649]}},{"properties":{"geo_score":0.857,"zip code":"12566","ivr call volume":52,"id":"a6h8kwzl6ltg","geo_precision":"zip","state":"New York"},"type":"Feature","geometry":{"type":"Point","coordinates":[-74.335708,41.610094]}},{"properties":{"geo_score":0.857,"zip code":"12567","ivr call volume":18,"id":"a6h8kwz65r1d","geo_precision":"zip","state":"New York"},"type":"Feature","geometry":{"type":"Point","coordinates":[-73.599015,41.928148]}},{"properties":{"geo_score":0.857,"zip code":"12569","ivr call volume":63,"id":"a6h8kx56ffok","geo_precision":"zip","state":"New York"},"type":"Feature","geometry":{"type":"Point","coordinates":[-73.838189,41.73926]}},{"properties":{"geo_score":0.857,"zip code":"12570","ivr call volume":29,"id":"a6h8kx0gcdz9","geo_precision":"zip","state":"New York"},"type":"Feature","geometry":{"type":"Point","coordinates":[-73.717908,41.587316]}},{"properties":{"geo_score":0.857,"zip code":"12571","ivr call volume":57,"id":"a6h8kx4k8r1j","geo_precision":"zip","state":"New York"},"type":"Feature","geometry":{"type":"Point","coordinates":[-73.844576,42.029814]}},{"properties":{"geo_score":0.857,"zip code":"12572","ivr call volume":65,"id":"a6h8kx5u6ecz","geo_precision":"zip","state":"New York"},"type":"Feature","geometry":{"type":"Point","coordinates":[-73.867078,41.895926]}},{"properties":{"geo_score":0.857,"zip code":"12580","ivr call volume":17,"id":"a6h8kx3ugm4q","geo_precision":"zip","state":"New York"},"type":"Feature","geometry":{"type":"Point","coordinates":[-73.866245,41.847871]}},{"properties":{"geo_score":0.857,"zip code":"12581","ivr call volume":13,"id":"a6h8kx14fnko","geo_precision":"zip","state":"New York"},"type":"Feature","geometry":{"type":"Point","coordinates":[-73.682072,41.909259]}},{"properties":{"geo_score":0.857,"zip code":"12583","ivr call volume":12,"id":"a6h8kx89d6z9","geo_precision":"zip","state":"New York"},"type":"Feature","geometry":{"type":"Point","coordinates":[-73.842909,42.060646]}},{"properties":{"geo_score":0.857,"zip code":"12586","ivr call volume":61,"id":"a6h8kx6mgnyf","geo_precision":"zip","state":"New York"},"type":"Feature","geometry":{"type":"Point","coordinates":[-74.145423,41.56926]}},{"properties":{"geo_score":0.857,"zip code":"12589","ivr call volume":37,"id":"a6h8kx320p8w","geo_precision":"zip","state":"New York"},"type":"Feature","geometry":{"type":"Point","coordinates":[-74.25126,41.670649]}},{"properties":{"geo_score":0.857,"zip code":"12590","ivr call volume":198,"id":"a6h8kx32urt9","geo_precision":"zip","state":"New York"},"type":"Feature","geometry":{"type":"Point","coordinates":[-73.870691,41.622871]}},{"properties":{"geo_score":0.857,"zip code":"12594","ivr call volume":37,"id":"a6h8kxa2hk5e","geo_precision":"zip","state":"New York"},"type":"Feature","geometry":{"type":"Point","coordinates":[-73.555681,41.654261]}},{"properties":{"geo_score":0.857,"zip code":"12601","ivr call volume":780,"id":"a6h8kx3fabb2","geo_precision":"zip","state":"New York"},"type":"Feature","geometry":{"type":"Point","coordinates":[-74.049584,41.999536]}},{"properties":{"geo_score":0.857,"zip code":"12603","ivr call volume":101,"id":"a6h8kx9z91md","geo_precision":"zip","state":"New York"},"type":"Feature","geometry":{"type":"Point","coordinates":[-73.943749,41.645371]}},{"properties":{"geo_score":0.857,"zip code":"12701","ivr call volume":216,"id":"a6h8kx1lwysh","geo_precision":"zip","state":"New York"},"type":"Feature","geometry":{"type":"Point","coordinates":[-74.739607,41.669534]}},{"properties":{"geo_score":0.857,"zip code":"12719","ivr call volume":26,"id":"a6h8kwydh1sb","geo_precision":"zip","state":"New York"},"type":"Feature","geometry":{"type":"Point","coordinates":[-74.976835,41.48259]}},{"properties":{"geo_score":0.857,"zip code":"12721","ivr call volume":54,"id":"a6h8kx9qzwcy","geo_precision":"zip","state":"New York"},"type":"Feature","geometry":{"type":"Point","coordinates":[-74.470436,41.522871]}},{"properties":{"geo_score":0.714,"zip code":"12723","ivr call volume":24,"id":"a6h8kx07k9u2","geo_precision":"zip","state":"New York"},"type":"Feature","geometry":{"type":"Point","coordinates":[-75.123503,41.764255]}},{"properties":{"geo_score":0.857,"zip code":"12729","ivr call volume":16,"id":"a6h8kx926wwm","geo_precision":"zip","state":"New York"},"type":"Feature","geometry":{"type":"Point","coordinates":[-74.697662,41.53537]}},{"properties":{"geo_score":0.857,"zip code":"12733","ivr call volume":119,"id":"a6h8kx5g5cie","geo_precision":"zip","state":"New York"},"type":"Feature","geometry":{"type":"Point","coordinates":[-74.537252,41.647052]}},{"properties":{"geo_score":0.857,"zip code":"12740","ivr call volume":42,"id":"a6h8kx9ffweg","geo_precision":"zip","state":"New York"},"type":"Feature","geometry":{"type":"Point","coordinates":[-74.563213,41.857036]}},{"properties":{"geo_score":0.857,"zip code":"12748","ivr call volume":33,"id":"a6h8kwwr3h5n","geo_precision":"zip","state":"New York"},"type":"Feature","geometry":{"type":"Point","coordinates":[-74.905417,41.782874]}},{"properties":{"geo_score":0.857,"zip code":"12752","ivr call volume":9,"id":"a6h8kx0i8dwh","geo_precision":"zip","state":"New York"},"type":"Feature","geometry":{"type":"Point","coordinates":[-74.946306,41.758563]}},{"properties":{"geo_score":0.857,"zip code":"12754","ivr call volume":111,"id":"a6h8kx1z6dt3","geo_precision":"zip","state":"New York"},"type":"Feature","geometry":{"type":"Point","coordinates":[-74.785717,41.797311]}},{"properties":{"geo_score":0.857,"zip code":"12758","ivr call volume":23,"id":"a6h8kx56s90y","geo_precision":"zip","state":"New York"},"type":"Feature","geometry":{"type":"Point","coordinates":[-74.67238,41.918979]}},{"properties":{"geo_score":0.857,"zip code":"12764","ivr call volume":31,"id":"a6h8kx5imnhq","geo_precision":"zip","state":"New York"},"type":"Feature","geometry":{"type":"Point","coordinates":[-75.019057,41.616756]}},{"properties":{"geo_score":0.857,"zip code":"12771","ivr call volume":155,"id":"a6h8kx3z5qdm","geo_precision":"zip","state":"New York"},"type":"Feature","geometry":{"type":"Point","coordinates":[-74.598495,41.343428]}},{"properties":{"geo_score":0.857,"zip code":"12776","ivr call volume":11,"id":"a6h8kwzvowpa","geo_precision":"zip","state":"New York"},"type":"Feature","geometry":{"type":"Point","coordinates":[-74.976553,41.895088]}},{"properties":{"geo_score":0.857,"zip code":"12786","ivr call volume":47,"id":"a6h8kwyt52xm","geo_precision":"zip","state":"New York"},"type":"Feature","geometry":{"type":"Point","coordinates":[-74.811773,41.64788]}},{"properties":{"geo_score":0.857,"zip code":"12790","ivr call volume":50,"id":"a6h8kx80m5cb","geo_precision":"zip","state":"New York"},"type":"Feature","geometry":{"type":"Point","coordinates":[-74.544326,41.583426]}},{"properties":{"geo_score":0.857,"zip code":"12801","ivr call volume":514,"id":"a6h8kwzmlrpx","geo_precision":"zip","state":"New York"},"type":"Feature","geometry":{"type":"Point","coordinates":[-73.684007,43.300072]}},{"properties":{"geo_score":0.857,"zip code":"12803","ivr call volume":1,"id":"a6h8kx36pgwf","geo_precision":"zip","state":"New York"},"type":"Feature","geometry":{"type":"Point","coordinates":[-73.629401,43.283561]}},{"properties":{"geo_score":0.857,"zip code":"12809","ivr call volume":17,"id":"a6h8kwvw5zyf","geo_precision":"zip","state":"New York"},"type":"Feature","geometry":{"type":"Point","coordinates":[-73.493725,43.184797]}},{"properties":{"geo_score":0.857,"zip code":"12812","ivr call volume":3,"id":"a6h8kxaxkapf","geo_precision":"zip","state":"New York"},"type":"Feature","geometry":{"type":"Point","coordinates":[-74.456913,43.667618]}},{"properties":{"geo_score":0.857,"zip code":"12816","ivr call volume":51,"id":"a6h8kxarsj5d","geo_precision":"zip","state":"New York"},"type":"Feature","geometry":{"type":"Point","coordinates":[-73.358445,43.052855]}},{"properties":{"geo_score":0.857,"zip code":"12817","ivr call volume":52,"id":"a6h8kwy8gpq8","geo_precision":"zip","state":"New York"},"type":"Feature","geometry":{"type":"Point","coordinates":[-73.777627,43.6734]}},{"properties":{"geo_score":0.857,"zip code":"12822","ivr call volume":38,"id":"a6h8kwyjux5k","geo_precision":"zip","state":"New York"},"type":"Feature","geometry":{"type":"Point","coordinates":[-73.867346,43.196462]}},{"properties":{"geo_score":0.857,"zip code":"12823","ivr call volume":34,"id":"a6h8kww1sn0y","geo_precision":"zip","state":"New York"},"type":"Feature","geometry":{"type":"Point","coordinates":[-73.458063,43.154262]}},{"properties":{"geo_score":0.857,"zip code":"12824","ivr call volume":41,"id":"a6h8kx8i90ii","geo_precision":"zip","state":"New York"},"type":"Feature","geometry":{"type":"Point","coordinates":[-73.667618,43.536457]}},{"properties":{"geo_score":0.857,"zip code":"12827","ivr call volume":6,"id":"a6h8kxa424m1","geo_precision":"zip","state":"New York"},"type":"Feature","geometry":{"type":"Point","coordinates":[-73.573726,43.409793]}},{"properties":{"geo_score":0.857,"zip code":"12832","ivr call volume":46,"id":"a6h8kxad7zk8","geo_precision":"zip","state":"New York"},"type":"Feature","geometry":{"type":"Point","coordinates":[-73.324832,43.450348]}},{"properties":{"geo_score":0.857,"zip code":"12833","ivr call volume":18,"id":"a6h8kx38mcta","geo_precision":"zip","state":"New York"},"type":"Feature","geometry":{"type":"Point","coordinates":[-73.906293,43.181214]}},{"properties":{"geo_score":0.857,"zip code":"12834","ivr call volume":45,"id":"a6h8kwyc9q9w","geo_precision":"zip","state":"New York"},"type":"Feature","geometry":{"type":"Point","coordinates":[-73.485669,43.158686]}},{"properties":{"geo_score":0.857,"zip code":"12836","ivr call volume":16,"id":"a6h8kxafk221","geo_precision":"zip","state":"New York"},"type":"Feature","geometry":{"type":"Point","coordinates":[-73.488453,43.773394]}},{"properties":{"geo_score":0.857,"zip code":"12838","ivr call volume":18,"id":"a6h8kxa6u6i7","geo_precision":"zip","state":"New York"},"type":"Feature","geometry":{"type":"Point","coordinates":[-73.406222,43.34785]}},{"properties":{"geo_score":0.857,"zip code":"12842","ivr call volume":8,"id":"a6h8kxa9qnty","geo_precision":"zip","state":"New York"},"type":"Feature","geometry":{"type":"Point","coordinates":[-74.327593,43.749928]}},{"properties":{"geo_score":0.857,"zip code":"12844","ivr call volume":10,"id":"a6h8kx332ca7","geo_precision":"zip","state":"New York"},"type":"Feature","geometry":{"type":"Point","coordinates":[-73.629283,43.515902]}},{"properties":{"geo_score":0.857,"zip code":"12845","ivr call volume":30,"id":"a6h8kwylel32","geo_precision":"zip","state":"New York"},"type":"Feature","geometry":{"type":"Point","coordinates":[-73.637339,43.372849]}},{"properties":{"geo_score":0.857,"zip code":"12846","ivr call volume":48,"id":"a6h8kwuys50f","geo_precision":"zip","state":"New York"},"type":"Feature","geometry":{"type":"Point","coordinates":[-73.786788,43.37007]}},{"properties":{"geo_score":0.857,"zip code":"12847","ivr call volume":11,"id":"a6h8kwxmrbug","geo_precision":"zip","state":"New York"},"type":"Feature","geometry":{"type":"Point","coordinates":[-74.702678,44.080894]}},{"properties":{"geo_score":0.857,"zip code":"12852","ivr call volume":5,"id":"a6h8kwv0d3tn","geo_precision":"zip","state":"New York"},"type":"Feature","geometry":{"type":"Point","coordinates":[-73.815204,44.145678]}},{"properties":{"geo_score":0.857,"zip code":"12853","ivr call volume":15,"id":"a6h8kxa46bkz","geo_precision":"zip","state":"New York"},"type":"Feature","geometry":{"type":"Point","coordinates":[-73.998742,43.635621]}},{"properties":{"geo_score":0.857,"zip code":"12861","ivr call volume":18,"id":"a6h8kx0c64w0","geo_precision":"zip","state":"New York"},"type":"Feature","geometry":{"type":"Point","coordinates":[-73.45623,43.763395]}},{"properties":{"geo_score":0.857,"zip code":"12866","ivr call volume":311,"id":"a6h8kx8dxb48","geo_precision":"zip","state":"New York"},"type":"Feature","geometry":{"type":"Point","coordinates":[-73.758175,43.067575]}},{"properties":{"geo_score":0.857,"zip code":"12870","ivr call volume":40,"id":"a6h8kx1qobkx","geo_precision":"zip","state":"New York"},"type":"Feature","geometry":{"type":"Point","coordinates":[-73.784577,43.95728]}},{"properties":{"geo_score":0.857,"zip code":"12871","ivr call volume":29,"id":"a6h8kwwr6wsn","geo_precision":"zip","state":"New York"},"type":"Feature","geometry":{"type":"Point","coordinates":[-73.587616,43.121742]}},{"properties":{"geo_score":0.857,"zip code":"12883","ivr call volume":36,"id":"a6h8kx8dplkr","geo_precision":"zip","state":"New York"},"type":"Feature","geometry":{"type":"Point","coordinates":[-73.449288,43.880337]}},{"properties":{"geo_score":0.857,"zip code":"12885","ivr call volume":29,"id":"a6h8kx2nko1z","geo_precision":"zip","state":"New York"},"type":"Feature","geometry":{"type":"Point","coordinates":[-73.915959,43.5334]}},{"properties":{"geo_score":0.857,"zip code":"12887","ivr call volume":58,"id":"a6h8kx0ueh78","geo_precision":"zip","state":"New York"},"type":"Feature","geometry":{"type":"Point","coordinates":[-73.298445,43.5859]}},{"properties":{"geo_score":0.857,"zip code":"12901","ivr call volume":273,"id":"a6h8kx6h0pbo","geo_precision":"zip","state":"New York"},"type":"Feature","geometry":{"type":"Point","coordinates":[-73.411801,44.722543]}},{"properties":{"geo_score":0.857,"zip code":"12918","ivr call volume":18,"id":"a6h8kx8pf8fm","geo_precision":"zip","state":"New York"},"type":"Feature","geometry":{"type":"Point","coordinates":[-73.614305,44.692542]}},{"properties":{"geo_score":0.857,"zip code":"12919","ivr call volume":11,"id":"a6h8kx7vfj8a","geo_precision":"zip","state":"New York"},"type":"Feature","geometry":{"type":"Point","coordinates":[-73.50625,45.000316]}},{"properties":{"geo_score":0.857,"zip code":"12920","ivr call volume":4,"id":"a6h8kx0vhzgd","geo_precision":"zip","state":"New York"},"type":"Feature","geometry":{"type":"Point","coordinates":[-74.049885,44.970322]}},{"properties":{"geo_score":0.857,"zip code":"12921","ivr call volume":6,"id":"a6h8kwxc75h4","geo_precision":"zip","state":"New York"},"type":"Feature","geometry":{"type":"Point","coordinates":[-73.378189,44.887263]}},{"properties":{"geo_score":0.857,"zip code":"12924","ivr call volume":22,"id":"a6h8kx2wey5k","geo_precision":"zip","state":"New York"},"type":"Feature","geometry":{"type":"Point","coordinates":[-73.582637,44.465603]}},{"properties":{"geo_score":0.857,"zip code":"12928","ivr call volume":10,"id":"a6h8kwvrt34a","geo_precision":"zip","state":"New York"},"type":"Feature","geometry":{"type":"Point","coordinates":[-73.53568,43.922558]}},{"properties":{"geo_score":0.857,"zip code":"12930","ivr call volume":16,"id":"a6h8kx15zx3r","geo_precision":"zip","state":"New York"},"type":"Feature","geometry":{"type":"Point","coordinates":[-74.497673,44.779499]}},{"properties":{"geo_score":0.857,"zip code":"12932","ivr call volume":21,"id":"a6h8kwynh9za","geo_precision":"zip","state":"New York"},"type":"Feature","geometry":{"type":"Point","coordinates":[-73.815204,44.145678]}},{"properties":{"geo_score":0.857,"zip code":"12935","ivr call volume":25,"id":"a6h8kx0f50ay","geo_precision":"zip","state":"New York"},"type":"Feature","geometry":{"type":"Point","coordinates":[-73.75598,44.901983]}},{"properties":{"geo_score":0.857,"zip code":"12937","ivr call volume":32,"id":"a6h8kx7d3hrr","geo_precision":"zip","state":"New York"},"type":"Feature","geometry":{"type":"Point","coordinates":[-74.464079,44.948377]}},{"properties":{"geo_score":0.857,"zip code":"12942","ivr call volume":15,"id":"a6h8kwxg73q7","geo_precision":"zip","state":"New York"},"type":"Feature","geometry":{"type":"Point","coordinates":[-73.815204,44.145678]}},{"properties":{"geo_score":0.857,"zip code":"12944","ivr call volume":56,"id":"a6h8kx2ljngq","geo_precision":"zip","state":"New York"},"type":"Feature","geometry":{"type":"Point","coordinates":[-73.436913,44.343063]}},{"properties":{"geo_score":0.857,"zip code":"12946","ivr call volume":46,"id":"a6h8kx6h68cu","geo_precision":"zip","state":"New York"},"type":"Feature","geometry":{"type":"Point","coordinates":[-74.00265,44.311158]}},{"properties":{"geo_score":0.857,"zip code":"12953","ivr call volume":78,"id":"a6h8kwyflj03","geo_precision":"zip","state":"New York"},"type":"Feature","geometry":{"type":"Point","coordinates":[-74.244336,44.806716]}},{"properties":{"geo_score":0.857,"zip code":"12955","ivr call volume":4,"id":"a6h8kwy0zxyi","geo_precision":"zip","state":"New York"},"type":"Feature","geometry":{"type":"Point","coordinates":[-73.9582,44.764765]}},{"properties":{"geo_score":0.857,"zip code":"12956","ivr call volume":9,"id":"a6h8kx05jgct","geo_precision":"zip","state":"New York"},"type":"Feature","geometry":{"type":"Point","coordinates":[-73.511516,44.077554]}},{"properties":{"geo_score":0.857,"zip code":"12957","ivr call volume":17,"id":"a6h8kwxcjqfx","geo_precision":"zip","state":"New York"},"type":"Feature","geometry":{"type":"Point","coordinates":[-74.554351,44.890048]}},{"properties":{"geo_score":0.857,"zip code":"12958","ivr call volume":14,"id":"a6h8kwvfvr1k","geo_precision":"zip","state":"New York"},"type":"Feature","geometry":{"type":"Point","coordinates":[-73.661296,44.792956]}},{"properties":{"geo_score":0.857,"zip code":"12965","ivr call volume":9,"id":"a6h8kx4m40tj","geo_precision":"zip","state":"New York"},"type":"Feature","geometry":{"type":"Point","coordinates":[-74.678121,44.726424]}},{"properties":{"geo_score":0.857,"zip code":"12970","ivr call volume":2,"id":"a6h8kx1you6u","geo_precision":"zip","state":"New York"},"type":"Feature","geometry":{"type":"Point","coordinates":[-74.317958,44.552725]}},{"properties":{"geo_score":0.857,"zip code":"12972","ivr call volume":19,"id":"a6h8kx50r9w5","geo_precision":"zip","state":"New York"},"type":"Feature","geometry":{"type":"Point","coordinates":[-73.439856,44.605045]}},{"properties":{"geo_score":0.857,"zip code":"12974","ivr call volume":14,"id":"a6h8kx2mxvo0","geo_precision":"zip","state":"New York"},"type":"Feature","geometry":{"type":"Point","coordinates":[-73.461308,44.087072]}},{"properties":{"geo_score":0.857,"zip code":"12979","ivr call volume":24,"id":"a6h8kwwege2b","geo_precision":"zip","state":"New York"},"type":"Feature","geometry":{"type":"Point","coordinates":[-73.626615,44.864633]}},{"properties":{"geo_score":0.857,"zip code":"12981","ivr call volume":32,"id":"a6h8kwwcwxfv","geo_precision":"zip","state":"New York"},"type":"Feature","geometry":{"type":"Point","coordinates":[-73.755976,44.638654]}},{"properties":{"geo_score":0.857,"zip code":"12983","ivr call volume":83,"id":"a6h8kx6qm91k","geo_precision":"zip","state":"New York"},"type":"Feature","geometry":{"type":"Point","coordinates":[-74.143489,44.35283]}},{"properties":{"geo_score":0.857,"zip code":"12986","ivr call volume":60,"id":"a6h8kwy7unzr","geo_precision":"zip","state":"New York"},"type":"Feature","geometry":{"type":"Point","coordinates":[-74.484892,44.227838]}},{"properties":{"geo_score":0.857,"zip code":"12992","ivr call volume":19,"id":"a6h8kwwrzwen","geo_precision":"zip","state":"New York"},"type":"Feature","geometry":{"type":"Point","coordinates":[-73.434579,44.810874]}},{"properties":{"geo_score":0.857,"zip code":"12993","ivr call volume":13,"id":"a6h8kx3vflr4","geo_precision":"zip","state":"New York"},"type":"Feature","geometry":{"type":"Point","coordinates":[-73.434541,44.18783]}},{"properties":{"geo_score":0.857,"zip code":"12996","ivr call volume":32,"id":"a6h8kx5eyam2","geo_precision":"zip","state":"New York"},"type":"Feature","geometry":{"type":"Point","coordinates":[-73.378186,44.408661]}},{"properties":{"geo_score":0.857,"zip code":"12997","ivr call volume":4,"id":"a6h8kx99lpfw","geo_precision":"zip","state":"New York"},"type":"Feature","geometry":{"type":"Point","coordinates":[-73.815204,44.145678]}},{"properties":{"geo_score":0.857,"zip code":"13021","ivr call volume":323,"id":"a6h8kx3yumg9","geo_precision":"zip","state":"New York"},"type":"Feature","geometry":{"type":"Point","coordinates":[-76.601888,42.973122]}},{"properties":{"geo_score":0.857,"zip code":"13026","ivr call volume":24,"id":"a6h8kx2zzjts","geo_precision":"zip","state":"New York"},"type":"Feature","geometry":{"type":"Point","coordinates":[-76.71356,42.784514]}},{"properties":{"geo_score":0.857,"zip code":"13027","ivr call volume":185,"id":"a6h8kx8asii0","geo_precision":"zip","state":"New York"},"type":"Feature","geometry":{"type":"Point","coordinates":[-76.302152,43.113678]}},{"properties":{"geo_score":0.857,"zip code":"13030","ivr call volume":35,"id":"a6h8kww626hc","geo_precision":"zip","state":"New York"},"type":"Feature","geometry":{"type":"Point","coordinates":[-75.993896,43.165372]}},{"properties":{"geo_score":0.857,"zip code":"13031","ivr call volume":47,"id":"a6h8kx9o0v0u","geo_precision":"zip","state":"New York"},"type":"Feature","geometry":{"type":"Point","coordinates":[-76.274929,43.047844]}},{"properties":{"geo_score":0.857,"zip code":"13032","ivr call volume":43,"id":"a6h8kx9ph73b","geo_precision":"zip","state":"New York"},"type":"Feature","geometry":{"type":"Point","coordinates":[-75.790743,43.13229]}},{"properties":{"geo_score":0.857,"zip code":"13033","ivr call volume":26,"id":"a6h8kwz7ou3l","geo_precision":"zip","state":"New York"},"type":"Feature","geometry":{"type":"Point","coordinates":[-76.654393,43.197289]}},{"properties":{"geo_score":0.857,"zip code":"13035","ivr call volume":47,"id":"a6h8kx8gbyw3","geo_precision":"zip","state":"New York"},"type":"Feature","geometry":{"type":"Point","coordinates":[-75.868248,42.912011]}},{"properties":{"geo_score":0.857,"zip code":"13036","ivr call volume":125,"id":"a6h8kx4l5gil","geo_precision":"zip","state":"New York"},"type":"Feature","geometry":{"type":"Point","coordinates":[-76.229928,43.338402]}},{"properties":{"geo_score":0.857,"zip code":"13037","ivr call volume":61,"id":"a6h8kww5jhov","geo_precision":"zip","state":"New York"},"type":"Feature","geometry":{"type":"Point","coordinates":[-75.846857,43.054512]}},{"properties":{"geo_score":0.857,"zip code":"13039","ivr call volume":102,"id":"a6h8kx4wyjgg","geo_precision":"zip","state":"New York"},"type":"Feature","geometry":{"type":"Point","coordinates":[-76.154128,43.125491]}},{"properties":{"geo_score":0.857,"zip code":"13040","ivr call volume":27,"id":"a6h8kx6c5wlb","geo_precision":"zip","state":"New York"},"type":"Feature","geometry":{"type":"Point","coordinates":[-75.893253,42.567014]}},{"properties":{"geo_score":0.857,"zip code":"13042","ivr call volume":18,"id":"a6h8kx8ll6bz","geo_precision":"zip","state":"New York"},"type":"Feature","geometry":{"type":"Point","coordinates":[-75.498232,42.880625]}},{"properties":{"geo_score":0.857,"zip code":"13044","ivr call volume":20,"id":"a6h8kx01x27i","geo_precision":"zip","state":"New York"},"type":"Feature","geometry":{"type":"Point","coordinates":[-76.013531,43.305903]}},{"properties":{"geo_score":0.857,"zip code":"13045","ivr call volume":260,"id":"a6h8kx1rojte","geo_precision":"zip","state":"New York"},"type":"Feature","geometry":{"type":"Point","coordinates":[-76.194374,42.510627]}},{"properties":{"geo_score":0.857,"zip code":"13052","ivr call volume":24,"id":"a6h8kx3bxm18","geo_precision":"zip","state":"New York"},"type":"Feature","geometry":{"type":"Point","coordinates":[-75.54185,42.324245]}},{"properties":{"geo_score":0.857,"zip code":"13053","ivr call volume":55,"id":"a6h8kx4f99a0","geo_precision":"zip","state":"New York"},"type":"Feature","geometry":{"type":"Point","coordinates":[-76.32799,42.489794]}},{"properties":{"geo_score":0.857,"zip code":"13054","ivr call volume":48,"id":"a6h8kx4qv3n0","geo_precision":"zip","state":"New York"},"type":"Feature","geometry":{"type":"Point","coordinates":[-75.676572,43.145902]}},{"properties":{"geo_score":0.857,"zip code":"13063","ivr call volume":8,"id":"a6h8kx2wmptj","geo_precision":"zip","state":"New York"},"type":"Feature","geometry":{"type":"Point","coordinates":[-75.976158,42.855631]}},{"properties":{"geo_score":0.857,"zip code":"13066","ivr call volume":112,"id":"a6h8kxazu6m2","geo_precision":"zip","state":"New York"},"type":"Feature","geometry":{"type":"Point","coordinates":[-76.054088,43.029233]}},{"properties":{"geo_score":0.857,"zip code":"13068","ivr call volume":46,"id":"a6h8kxa6e20h","geo_precision":"zip","state":"New York"},"type":"Feature","geometry":{"type":"Point","coordinates":[-76.414382,42.517017]}},{"properties":{"geo_score":0.857,"zip code":"13069","ivr call volume":178,"id":"a6h8kwyeb90m","geo_precision":"zip","state":"New York"},"type":"Feature","geometry":{"type":"Point","coordinates":[-76.357712,43.342846]}},{"properties":{"geo_score":0.857,"zip code":"13072","ivr call volume":6,"id":"a6h8kxb35asg","geo_precision":"zip","state":"New York"},"type":"Feature","geometry":{"type":"Point","coordinates":[-75.788393,42.768124]}},{"properties":{"geo_score":0.857,"zip code":"13073","ivr call volume":17,"id":"a6h8kx3e917u","geo_precision":"zip","state":"New York"},"type":"Feature","geometry":{"type":"Point","coordinates":[-76.445493,42.604238]}},{"properties":{"geo_score":0.857,"zip code":"13074","ivr call volume":17,"id":"a6h8kxapl6th","geo_precision":"zip","state":"New York"},"type":"Feature","geometry":{"type":"Point","coordinates":[-76.524108,43.262568]}},{"properties":{"geo_score":0.857,"zip code":"13080","ivr call volume":46,"id":"a6h8kwzi6hm0","geo_precision":"zip","state":"New York"},"type":"Feature","geometry":{"type":"Point","coordinates":[-76.439657,43.067413]}},{"properties":{"geo_score":0.857,"zip code":"13084","ivr call volume":23,"id":"a6h8kx973xqn","geo_precision":"zip","state":"New York"},"type":"Feature","geometry":{"type":"Point","coordinates":[-76.087979,42.889511]}},{"properties":{"geo_score":0.857,"zip code":"13090","ivr call volume":163,"id":"a6h8kxaxrgmj","geo_precision":"zip","state":"New York"},"type":"Feature","geometry":{"type":"Point","coordinates":[-76.223459,43.152767]}},{"properties":{"geo_score":0.857,"zip code":"13101","ivr call volume":6,"id":"a6h8kwxev1og","geo_precision":"zip","state":"New York"},"type":"Feature","geometry":{"type":"Point","coordinates":[-76.065759,42.600903]}},{"properties":{"geo_score":0.857,"zip code":"13104","ivr call volume":126,"id":"a6h8kwuxaxi6","geo_precision":"zip","state":"New York"},"type":"Feature","geometry":{"type":"Point","coordinates":[-75.982142,42.950067]}},{"properties":{"geo_score":0.857,"zip code":"13108","ivr call volume":38,"id":"a6h8kx8v6qbv","geo_precision":"zip","state":"New York"},"type":"Feature","geometry":{"type":"Point","coordinates":[-76.273818,42.927567]}},{"properties":{"geo_score":0.857,"zip code":"13110","ivr call volume":18,"id":"a6h8kwuucidv","geo_precision":"zip","state":"New York"},"type":"Feature","geometry":{"type":"Point","coordinates":[-76.253262,42.848123]}},{"properties":{"geo_score":0.857,"zip code":"13114","ivr call volume":32,"id":"a6h8kx9oxrkd","geo_precision":"zip","state":"New York"},"type":"Feature","geometry":{"type":"Point","coordinates":[-76.277708,43.417014]}},{"properties":{"geo_score":0.857,"zip code":"13116","ivr call volume":93,"id":"a6h8kx3dpzav","geo_precision":"zip","state":"New York"},"type":"Feature","geometry":{"type":"Point","coordinates":[-76.006001,43.076828]}},{"properties":{"geo_score":0.857,"zip code":"13118","ivr call volume":52,"id":"a6h8kww44upz","geo_precision":"zip","state":"New York"},"type":"Feature","geometry":{"type":"Point","coordinates":[-76.459381,42.758403]}},{"properties":{"geo_score":0.857,"zip code":"13122","ivr call volume":8,"id":"a6h8kx27l2mp","geo_precision":"zip","state":"New York"},"type":"Feature","geometry":{"type":"Point","coordinates":[-75.85266,42.825164]}},{"properties":{"geo_score":0.857,"zip code":"13126","ivr call volume":158,"id":"a6h8kwzktpmz","geo_precision":"zip","state":"New York"},"type":"Feature","geometry":{"type":"Point","coordinates":[-76.577446,43.412568]}},{"properties":{"geo_score":0.857,"zip code":"13131","ivr call volume":16,"id":"a6h8kwv56mn4","geo_precision":"zip","state":"New York"},"type":"Feature","geometry":{"type":"Point","coordinates":[-76.081589,43.461459]}},{"properties":{"geo_score":0.857,"zip code":"13135","ivr call volume":61,"id":"a6h8kx44zy2o","geo_precision":"zip","state":"New York"},"type":"Feature","geometry":{"type":"Point","coordinates":[-76.358544,43.217846]}},{"properties":{"geo_score":0.857,"zip code":"13140","ivr call volume":20,"id":"a6h8kx4nrnod","geo_precision":"zip","state":"New York"},"type":"Feature","geometry":{"type":"Point","coordinates":[-76.715784,43.038399]}},{"properties":{"geo_score":0.857,"zip code":"13142","ivr call volume":29,"id":"a6h8kwuurzcf","geo_precision":"zip","state":"New York"},"type":"Feature","geometry":{"type":"Point","coordinates":[-76.184094,43.635902]}},{"properties":{"geo_score":0.857,"zip code":"13143","ivr call volume":8,"id":"a6h8kwyv226q","geo_precision":"zip","state":"New York"},"type":"Feature","geometry":{"type":"Point","coordinates":[-76.710785,43.214789]}},{"properties":{"geo_score":0.857,"zip code":"13145","ivr call volume":25,"id":"a6h8kwxs03pv","geo_precision":"zip","state":"New York"},"type":"Feature","geometry":{"type":"Point","coordinates":[-76.11029,43.621562]}},{"properties":{"geo_score":0.857,"zip code":"13146","ivr call volume":5,"id":"a6h8kxauiagy","geo_precision":"zip","state":"New York"},"type":"Feature","geometry":{"type":"Point","coordinates":[-76.762705,43.099386]}},{"properties":{"geo_score":0.857,"zip code":"13148","ivr call volume":39,"id":"a6h8kx1cos1q","geo_precision":"zip","state":"New York"},"type":"Feature","geometry":{"type":"Point","coordinates":[-76.802178,42.991176]}},{"properties":{"geo_score":0.857,"zip code":"13152","ivr call volume":59,"id":"a6h8kww93f9i","geo_precision":"zip","state":"New York"},"type":"Feature","geometry":{"type":"Point","coordinates":[-76.41049,42.888956]}},{"properties":{"geo_score":0.857,"zip code":"13155","ivr call volume":1,"id":"a6h8kxa2x3ae","geo_precision":"zip","state":"New York"},"type":"Feature","geometry":{"type":"Point","coordinates":[-75.810192,42.707568]}},{"properties":{"geo_score":0.857,"zip code":"13156","ivr call volume":10,"id":"a6h8kx5elz0x","geo_precision":"zip","state":"New York"},"type":"Feature","geometry":{"type":"Point","coordinates":[-76.630504,43.348123]}},{"properties":{"geo_score":0.857,"zip code":"13158","ivr call volume":12,"id":"a6h8kx4dhg8j","geo_precision":"zip","state":"New York"},"type":"Feature","geometry":{"type":"Point","coordinates":[-76.005479,42.709513]}},{"properties":{"geo_score":0.857,"zip code":"13159","ivr call volume":17,"id":"a6h8kx8v87oj","geo_precision":"zip","state":"New York"},"type":"Feature","geometry":{"type":"Point","coordinates":[-76.181316,42.817567]}},{"properties":{"geo_score":0.857,"zip code":"13160","ivr call volume":29,"id":"a6h8kxaollky","geo_precision":"zip","state":"New York"},"type":"Feature","geometry":{"type":"Point","coordinates":[-76.649164,42.847447]}},{"properties":{"geo_score":0.857,"zip code":"13165","ivr call volume":56,"id":"a6h8kx8w6ayq","geo_precision":"zip","state":"New York"},"type":"Feature","geometry":{"type":"Point","coordinates":[-76.882263,42.892556]}},{"properties":{"geo_score":0.857,"zip code":"13166","ivr call volume":24,"id":"a6h8kx29krfu","geo_precision":"zip","state":"New York"},"type":"Feature","geometry":{"type":"Point","coordinates":[-76.592721,43.040899]}},{"properties":{"geo_score":0.857,"zip code":"13202","ivr call volume":1268,"id":"a6h8kww25o01","geo_precision":"zip","state":"New York"},"type":"Feature","geometry":{"type":"Point","coordinates":[-76.150796,43.043116]}},{"properties":{"geo_score":0.857,"zip code":"13205","ivr call volume":197,"id":"a6h8kx97hloa","geo_precision":"zip","state":"New York"},"type":"Feature","geometry":{"type":"Point","coordinates":[-76.142495,43.006816]}},{"properties":{"geo_score":0.857,"zip code":"13206","ivr call volume":267,"id":"a6h8kx3rozxb","geo_precision":"zip","state":"New York"},"type":"Feature","geometry":{"type":"Point","coordinates":[-76.104645,43.066178]}},{"properties":{"geo_score":0.857,"zip code":"13208","ivr call volume":85,"id":"a6h8kx8g9mhf","geo_precision":"zip","state":"New York"},"type":"Feature","geometry":{"type":"Point","coordinates":[-76.125757,43.081456]}},{"properties":{"geo_score":0.857,"zip code":"13212","ivr call volume":211,"id":"a6h8kx0srzm1","geo_precision":"zip","state":"New York"},"type":"Feature","geometry":{"type":"Point","coordinates":[-76.145758,43.115345]}},{"properties":{"geo_score":0.857,"zip code":"13219","ivr call volume":319,"id":"a6h8kx0490ye","geo_precision":"zip","state":"New York"},"type":"Feature","geometry":{"type":"Point","coordinates":[-76.220482,43.047567]}},{"properties":{"geo_score":0.857,"zip code":"13224","ivr call volume":179,"id":"a6h8kxa7v3or","geo_precision":"zip","state":"New York"},"type":"Feature","geometry":{"type":"Point","coordinates":[-76.099394,43.038366]}},{"properties":{"geo_score":0.857,"zip code":"13290","ivr call volume":187,"id":"a6h8kwxuttr3","geo_precision":"zip","state":"New York"},"type":"Feature","geometry":{"type":"Point","coordinates":[-76.171351,43.067576]}},{"properties":{"geo_score":0.857,"zip code":"13303","ivr call volume":2,"id":"a6h8kx8dgvfv","geo_precision":"zip","state":"New York"},"type":"Feature","geometry":{"type":"Point","coordinates":[-75.482121,43.372014]}},{"properties":{"geo_score":0.857,"zip code":"13304","ivr call volume":23,"id":"a6h8kwvw7e1m","geo_precision":"zip","state":"New York"},"type":"Feature","geometry":{"type":"Point","coordinates":[-75.160164,43.271458]}},{"properties":{"geo_score":0.857,"zip code":"13308","ivr call volume":8,"id":"a6h8kx2079hz","geo_precision":"zip","state":"New York"},"type":"Feature","geometry":{"type":"Point","coordinates":[-75.702407,43.239514]}},{"properties":{"geo_score":0.857,"zip code":"13309","ivr call volume":28,"id":"a6h8kwzq7hsz","geo_precision":"zip","state":"New York"},"type":"Feature","geometry":{"type":"Point","coordinates":[-75.365174,43.533402]}},{"properties":{"geo_score":0.857,"zip code":"13314","ivr call volume":19,"id":"a6h8kwwevx99","geo_precision":"zip","state":"New York"},"type":"Feature","geometry":{"type":"Point","coordinates":[-75.616793,42.954541]}},{"properties":{"geo_score":0.857,"zip code":"13316","ivr call volume":33,"id":"a6h8kww5jlj6","geo_precision":"zip","state":"New York"},"type":"Feature","geometry":{"type":"Point","coordinates":[-75.72213,43.50007]}},{"properties":{"geo_score":0.857,"zip code":"13317","ivr call volume":25,"id":"a6h8kx61scmj","geo_precision":"zip","state":"New York"},"type":"Feature","geometry":{"type":"Point","coordinates":[-74.686255,42.843129]}},{"properties":{"geo_score":0.857,"zip code":"13320","ivr call volume":19,"id":"a6h8kx1vq3z0","geo_precision":"zip","state":"New York"},"type":"Feature","geometry":{"type":"Point","coordinates":[-74.710424,42.707297]}},{"properties":{"geo_score":0.857,"zip code":"13322","ivr call volume":13,"id":"a6h8kwvv3a4c","geo_precision":"zip","state":"New York"},"type":"Feature","geometry":{"type":"Point","coordinates":[-75.233003,42.961973]}},{"properties":{"geo_score":0.857,"zip code":"13323","ivr call volume":37,"id":"a6h8kx5m09oi","geo_precision":"zip","state":"New York"},"type":"Feature","geometry":{"type":"Point","coordinates":[-75.431562,43.079792]}},{"properties":{"geo_score":0.857,"zip code":"13326","ivr call volume":66,"id":"a6h8kww1p2mf","geo_precision":"zip","state":"New York"},"type":"Feature","geometry":{"type":"Point","coordinates":[-74.89432,42.709797]}},{"properties":{"geo_score":0.857,"zip code":"13327","ivr call volume":9,"id":"a6h8kwv2wrq9","geo_precision":"zip","state":"New York"},"type":"Feature","geometry":{"type":"Point","coordinates":[-75.336852,43.883124]}},{"properties":{"geo_score":0.857,"zip code":"13329","ivr call volume":26,"id":"a6h8kxa8va1p","geo_precision":"zip","state":"New York"},"type":"Feature","geometry":{"type":"Point","coordinates":[-74.692646,43.072293]}},{"properties":{"geo_score":0.857,"zip code":"13332","ivr call volume":14,"id":"a6h8kwviobbt","geo_precision":"zip","state":"New York"},"type":"Feature","geometry":{"type":"Point","coordinates":[-75.657963,42.759235]}},{"properties":{"geo_score":0.857,"zip code":"13338","ivr call volume":7,"id":"a6h8kwx5zzla","geo_precision":"zip","state":"New York"},"type":"Feature","geometry":{"type":"Point","coordinates":[-75.111836,43.59118]}},{"properties":{"geo_score":0.857,"zip code":"13339","ivr call volume":33,"id":"a6h8kx2f6vre","geo_precision":"zip","state":"New York"},"type":"Feature","geometry":{"type":"Point","coordinates":[-74.558474,42.953684]}},{"properties":{"geo_score":0.857,"zip code":"13346","ivr call volume":22,"id":"a6h8kwwepspm","geo_precision":"zip","state":"New York"},"type":"Feature","geometry":{"type":"Point","coordinates":[-75.566847,42.795069]}},{"properties":{"geo_score":0.857,"zip code":"13348","ivr call volume":12,"id":"a6h8kx8enxtv","geo_precision":"zip","state":"New York"},"type":"Feature","geometry":{"type":"Point","coordinates":[-75.063214,42.732574]}},{"properties":{"geo_score":0.857,"zip code":"13350","ivr call volume":150,"id":"a6h8kx5n0898","geo_precision":"zip","state":"New York"},"type":"Feature","geometry":{"type":"Point","coordinates":[-74.964044,43.030348]}},{"properties":{"geo_score":0.857,"zip code":"13354","ivr call volume":32,"id":"a6h8kxakgckb","geo_precision":"zip","state":"New York"},"type":"Feature","geometry":{"type":"Point","coordinates":[-75.244612,43.293681]}},{"properties":{"geo_score":0.857,"zip code":"13357","ivr call volume":88,"id":"a6h8kx3xukri","geo_precision":"zip","state":"New York"},"type":"Feature","geometry":{"type":"Point","coordinates":[-75.040157,42.967571]}},{"properties":{"geo_score":0.857,"zip code":"13360","ivr call volume":8,"id":"a6h8kx2tf8ye","geo_precision":"zip","state":"New York"},"type":"Feature","geometry":{"type":"Point","coordinates":[-74.456913,43.667618]}},{"properties":{"geo_score":0.857,"zip code":"13365","ivr call volume":44,"id":"a6h8kx8hplo4","geo_precision":"zip","state":"New York"},"type":"Feature","geometry":{"type":"Point","coordinates":[-74.82404,43.134237]}},{"properties":{"geo_score":0.857,"zip code":"13367","ivr call volume":41,"id":"a6h8kx6t5x32","geo_precision":"zip","state":"New York"},"type":"Feature","geometry":{"type":"Point","coordinates":[-75.61241,43.799236]}},{"properties":{"geo_score":0.857,"zip code":"13368","ivr call volume":9,"id":"a6h8kx7yibsc","geo_precision":"zip","state":"New York"},"type":"Feature","geometry":{"type":"Point","coordinates":[-75.306287,43.61868]}},{"properties":{"geo_score":0.857,"zip code":"13402","ivr call volume":8,"id":"a6h8kwv0o84o","geo_precision":"zip","state":"New York"},"type":"Feature","geometry":{"type":"Point","coordinates":[-75.549372,42.898322]}},{"properties":{"geo_score":0.857,"zip code":"13408","ivr call volume":19,"id":"a6h8kxb5bbhb","geo_precision":"zip","state":"New York"},"type":"Feature","geometry":{"type":"Point","coordinates":[-75.60407,42.891457]}},{"properties":{"geo_score":0.857,"zip code":"13409","ivr call volume":14,"id":"a6h8kx0cz3xa","geo_precision":"zip","state":"New York"},"type":"Feature","geometry":{"type":"Point","coordinates":[-75.589624,43.012013]}},{"properties":{"geo_score":0.857,"zip code":"13411","ivr call volume":13,"id":"a6h8kx8ktxip","geo_precision":"zip","state":"New York"},"type":"Feature","geometry":{"type":"Point","coordinates":[-75.281279,42.638685]}},{"properties":{"geo_score":0.857,"zip code":"13416","ivr call volume":14,"id":"a6h8kx6mm56e","geo_precision":"zip","state":"New York"},"type":"Feature","geometry":{"type":"Point","coordinates":[-74.952101,43.208402]}},{"properties":{"geo_score":0.857,"zip code":"13418","ivr call volume":1,"id":"a6h8kx5zfm8z","geo_precision":"zip","state":"New York"},"type":"Feature","geometry":{"type":"Point","coordinates":[-75.616793,42.954541]}},{"properties":{"geo_score":0.857,"zip code":"13420","ivr call volume":13,"id":"a6h8kwxtdkxs","geo_precision":"zip","state":"New York"},"type":"Feature","geometry":{"type":"Point","coordinates":[-74.873176,43.752203]}},{"properties":{"geo_score":0.857,"zip code":"13421","ivr call volume":120,"id":"a6h8kx19tj9q","geo_precision":"zip","state":"New York"},"type":"Feature","geometry":{"type":"Point","coordinates":[-75.632403,43.054235]}},{"properties":{"geo_score":0.857,"zip code":"13425","ivr call volume":18,"id":"a6h8kwxnp9o5","geo_precision":"zip","state":"New York"},"type":"Feature","geometry":{"type":"Point","coordinates":[-75.501287,42.974792]}},{"properties":{"geo_score":0.857,"zip code":"13431","ivr call volume":18,"id":"a6h8kx339gy0","geo_precision":"zip","state":"New York"},"type":"Feature","geometry":{"type":"Point","coordinates":[-75.082105,43.25868]}},{"properties":{"geo_score":0.857,"zip code":"13436","ivr call volume":3,"id":"a6h8kx069o08","geo_precision":"zip","state":"New York"},"type":"Feature","geometry":{"type":"Point","coordinates":[-74.456913,43.667618]}},{"properties":{"geo_score":0.857,"zip code":"13438","ivr call volume":9,"id":"a6h8kww89cp6","geo_precision":"zip","state":"New York"},"type":"Feature","geometry":{"type":"Point","coordinates":[-75.016549,43.449791]}},{"properties":{"geo_score":0.857,"zip code":"13439","ivr call volume":30,"id":"a6h8kx086ysa","geo_precision":"zip","state":"New York"},"type":"Feature","geometry":{"type":"Point","coordinates":[-74.920987,42.847295]}},{"properties":{"geo_score":0.857,"zip code":"13441","ivr call volume":351,"id":"a6h8kx14ekna","geo_precision":"zip","state":"New York"},"type":"Feature","geometry":{"type":"Point","coordinates":[-75.511301,43.164312]}},{"properties":{"geo_score":0.857,"zip code":"13452","ivr call volume":25,"id":"a6h8kx3qqy77","geo_precision":"zip","state":"New York"},"type":"Feature","geometry":{"type":"Point","coordinates":[-74.573754,43.071738]}},{"properties":{"geo_score":0.857,"zip code":"13459","ivr call volume":12,"id":"a6h8kx707lc9","geo_precision":"zip","state":"New York"},"type":"Feature","geometry":{"type":"Point","coordinates":[-74.586529,42.780074]}},{"properties":{"geo_score":0.857,"zip code":"13460","ivr call volume":24,"id":"a6h8kx47awm3","geo_precision":"zip","state":"New York"},"type":"Feature","geometry":{"type":"Point","coordinates":[-75.455824,42.648204]}},{"properties":{"geo_score":0.857,"zip code":"13464","ivr call volume":4,"id":"a6h8kx0dtcgi","geo_precision":"zip","state":"New York"},"type":"Feature","geometry":{"type":"Point","coordinates":[-75.615184,42.700347]}},{"properties":{"geo_score":0.857,"zip code":"13473","ivr call volume":4,"id":"a6h8kwwqwad0","geo_precision":"zip","state":"New York"},"type":"Feature","geometry":{"type":"Point","coordinates":[-75.480342,43.818705]}},{"properties":{"geo_score":0.857,"zip code":"13476","ivr call volume":30,"id":"a6h8kx10c8es","geo_precision":"zip","state":"New York"},"type":"Feature","geometry":{"type":"Point","coordinates":[-75.50161,43.092924]}},{"properties":{"geo_score":0.857,"zip code":"13480","ivr call volume":27,"id":"a6h8kx9fohbd","geo_precision":"zip","state":"New York"},"type":"Feature","geometry":{"type":"Point","coordinates":[-75.38906,42.874792]}},{"properties":{"geo_score":0.857,"zip code":"13482","ivr call volume":5,"id":"a6h8kx54z0ez","geo_precision":"zip","state":"New York"},"type":"Feature","geometry":{"type":"Point","coordinates":[-75.184913,42.704333]}},{"properties":{"geo_score":0.857,"zip code":"13491","ivr call volume":24,"id":"a6h8kwvwkh8y","geo_precision":"zip","state":"New York"},"type":"Feature","geometry":{"type":"Point","coordinates":[-75.240164,42.841738]}},{"properties":{"geo_score":0.857,"zip code":"13493","ivr call volume":11,"id":"a6h8kx7cnt3d","geo_precision":"zip","state":"New York"},"type":"Feature","geometry":{"type":"Point","coordinates":[-75.941861,43.368959]}},{"properties":{"geo_score":0.857,"zip code":"13501","ivr call volume":45,"id":"a6h8kwxvwcg4","geo_precision":"zip","state":"New York"},"type":"Feature","geometry":{"type":"Point","coordinates":[-75.233208,43.077369]}},{"properties":{"geo_score":0.857,"zip code":"13502","ivr call volume":1080,"id":"a6h8kx5hwd5h","geo_precision":"zip","state":"New York"},"type":"Feature","geometry":{"type":"Point","coordinates":[-75.125995,43.225625]}},{"properties":{"geo_score":0.857,"zip code":"13601","ivr call volume":324,"id":"a6h8kx39o554","geo_precision":"zip","state":"New York"},"type":"Feature","geometry":{"type":"Point","coordinates":[-75.806865,43.954509]}},{"properties":{"geo_score":0.857,"zip code":"13602","ivr call volume":5,"id":"a6h8kx67y2qp","geo_precision":"zip","state":"New York"},"type":"Feature","geometry":{"type":"Point","coordinates":[-75.754468,44.032457]}},{"properties":{"geo_score":0.857,"zip code":"13603","ivr call volume":44,"id":"a6h8kwv07t9z","geo_precision":"zip","state":"New York"},"type":"Feature","geometry":{"type":"Point","coordinates":[-75.896719,43.908739]}},{"properties":{"geo_score":0.857,"zip code":"13605","ivr call volume":16,"id":"a6h8kwvhttc0","geo_precision":"zip","state":"New York"},"type":"Feature","geometry":{"type":"Point","coordinates":[-76.074646,43.813954]}},{"properties":{"geo_score":0.857,"zip code":"13607","ivr call volume":52,"id":"a6h8kwxcgvhr","geo_precision":"zip","state":"New York"},"type":"Feature","geometry":{"type":"Point","coordinates":[-75.963006,44.309771]}},{"properties":{"geo_score":0.857,"zip code":"13614","ivr call volume":6,"id":"a6h8kxakcou5","geo_precision":"zip","state":"New York"},"type":"Feature","geometry":{"type":"Point","coordinates":[-75.68666,44.538648]}},{"properties":{"geo_score":0.857,"zip code":"13617","ivr call volume":54,"id":"a6h8kx2ii3hn","geo_precision":"zip","state":"New York"},"type":"Feature","geometry":{"type":"Point","coordinates":[-75.059645,44.492562]}},{"properties":{"geo_score":0.857,"zip code":"13618","ivr call volume":23,"id":"a6h8kx7t86o4","geo_precision":"zip","state":"New York"},"type":"Feature","geometry":{"type":"Point","coordinates":[-76.241601,44.12144]}},{"properties":{"geo_score":0.857,"zip code":"13619","ivr call volume":61,"id":"a6h8kx3dtb9y","geo_precision":"zip","state":"New York"},"type":"Feature","geometry":{"type":"Point","coordinates":[-75.615193,43.974235]}},{"properties":{"geo_score":0.857,"zip code":"13622","ivr call volume":20,"id":"a6h8kx9chn0a","geo_precision":"zip","state":"New York"},"type":"Feature","geometry":{"type":"Point","coordinates":[-76.190209,44.05811]}},{"properties":{"geo_score":0.857,"zip code":"13624","ivr call volume":33,"id":"a6h8kwvpg1m9","geo_precision":"zip","state":"New York"},"type":"Feature","geometry":{"type":"Point","coordinates":[-76.142724,44.283379]}},{"properties":{"geo_score":0.857,"zip code":"13626","ivr call volume":1,"id":"a6h8kwzb6mq8","geo_precision":"zip","state":"New York"},"type":"Feature","geometry":{"type":"Point","coordinates":[-75.745748,43.800069]}},{"properties":{"geo_score":0.857,"zip code":"13634","ivr call volume":39,"id":"a6h8kxab22p4","geo_precision":"zip","state":"New York"},"type":"Feature","geometry":{"type":"Point","coordinates":[-76.12576,43.970336]}},{"properties":{"geo_score":0.857,"zip code":"13635","ivr call volume":11,"id":"a6h8kww8gwee","geo_precision":"zip","state":"New York"},"type":"Feature","geometry":{"type":"Point","coordinates":[-75.306042,44.309784]}},{"properties":{"geo_score":0.857,"zip code":"13636","ivr call volume":6,"id":"a6h8kx1y5o80","geo_precision":"zip","state":"New York"},"type":"Feature","geometry":{"type":"Point","coordinates":[-76.152508,43.75965]}},{"properties":{"geo_score":0.857,"zip code":"13642","ivr call volume":54,"id":"a6h8kx4zzme0","geo_precision":"zip","state":"New York"},"type":"Feature","geometry":{"type":"Point","coordinates":[-75.556606,44.283116]}},{"properties":{"geo_score":0.857,"zip code":"13646","ivr call volume":7,"id":"a6h8kx9ml2zx","geo_precision":"zip","state":"New York"},"type":"Feature","geometry":{"type":"Point","coordinates":[-75.596339,44.452283]}},{"properties":{"geo_score":0.857,"zip code":"13648","ivr call volume":14,"id":"a6h8kx38xncq","geo_precision":"zip","state":"New York"},"type":"Feature","geometry":{"type":"Point","coordinates":[-75.22215,44.26034]}},{"properties":{"geo_score":0.857,"zip code":"13650","ivr call volume":19,"id":"a6h8kxahps20","geo_precision":"zip","state":"New York"},"type":"Feature","geometry":{"type":"Point","coordinates":[-76.120203,43.816454]}},{"properties":{"geo_score":0.857,"zip code":"13654","ivr call volume":16,"id":"a6h8kx9yr3ts","geo_precision":"zip","state":"New York"},"type":"Feature","geometry":{"type":"Point","coordinates":[-75.580785,44.484783]}},{"properties":{"geo_score":0.857,"zip code":"13656","ivr call volume":5,"id":"a6h8kx42hpe2","geo_precision":"zip","state":"New York"},"type":"Feature","geometry":{"type":"Point","coordinates":[-75.973823,44.114498]}},{"properties":{"geo_score":0.857,"zip code":"13660","ivr call volume":36,"id":"a6h8kwyyvzzz","geo_precision":"zip","state":"New York"},"type":"Feature","geometry":{"type":"Point","coordinates":[-75.143537,44.740059]}},{"properties":{"geo_score":0.857,"zip code":"13662","ivr call volume":120,"id":"a6h8kwyarjt6","geo_precision":"zip","state":"New York"},"type":"Feature","geometry":{"type":"Point","coordinates":[-74.973263,44.948658]}},{"properties":{"geo_score":0.857,"zip code":"13664","ivr call volume":8,"id":"a6h8kx28iuzq","geo_precision":"zip","state":"New York"},"type":"Feature","geometry":{"type":"Point","coordinates":[-75.655877,44.555889]}},{"properties":{"geo_score":0.857,"zip code":"13667","ivr call volume":14,"id":"a6h8kx4x8x5l","geo_precision":"zip","state":"New York"},"type":"Feature","geometry":{"type":"Point","coordinates":[-74.906865,44.835608]}},{"properties":{"geo_score":0.857,"zip code":"13668","ivr call volume":17,"id":"a6h8kx745gek","geo_precision":"zip","state":"New York"},"type":"Feature","geometry":{"type":"Point","coordinates":[-74.992421,44.767278]}},{"properties":{"geo_score":0.857,"zip code":"13669","ivr call volume":123,"id":"a6h8kx32phik","geo_precision":"zip","state":"New York"},"type":"Feature","geometry":{"type":"Point","coordinates":[-75.634957,44.598116]}},{"properties":{"geo_score":0.857,"zip code":"13673","ivr call volume":2,"id":"a6h8kx2gzzmz","geo_precision":"zip","state":"New York"},"type":"Feature","geometry":{"type":"Point","coordinates":[-75.719346,44.116323]}},{"properties":{"geo_score":0.857,"zip code":"13676","ivr call volume":99,"id":"a6h8kx81kwaz","geo_precision":"zip","state":"New York"},"type":"Feature","geometry":{"type":"Point","coordinates":[-75.089646,44.687004]}},{"properties":{"geo_score":0.857,"zip code":"13682","ivr call volume":13,"id":"a6h8kx270q0q","geo_precision":"zip","state":"New York"},"type":"Feature","geometry":{"type":"Point","coordinates":[-75.922421,43.858676]}},{"properties":{"geo_score":0.857,"zip code":"13684","ivr call volume":12,"id":"a6h8kww0q0rh","geo_precision":"zip","state":"New York"},"type":"Feature","geometry":{"type":"Point","coordinates":[-75.127425,44.371451]}},{"properties":{"geo_score":0.857,"zip code":"13685","ivr call volume":14,"id":"a6h8kx85b0kp","geo_precision":"zip","state":"New York"},"type":"Feature","geometry":{"type":"Point","coordinates":[-76.134371,43.935616]}},{"properties":{"geo_score":0.857,"zip code":"13690","ivr call volume":9,"id":"a6h8kwxuofbv","geo_precision":"zip","state":"New York"},"type":"Feature","geometry":{"type":"Point","coordinates":[-75.015472,44.169785]}},{"properties":{"geo_score":0.857,"zip code":"13691","ivr call volume":9,"id":"a6h8kx10vdo0","geo_precision":"zip","state":"New York"},"type":"Feature","geometry":{"type":"Point","coordinates":[-75.767059,44.220448]}},{"properties":{"geo_score":0.857,"zip code":"13694","ivr call volume":10,"id":"a6h8kwymsc9f","geo_precision":"zip","state":"New York"},"type":"Feature","geometry":{"type":"Point","coordinates":[-75.194099,44.550617]}},{"properties":{"geo_score":0.857,"zip code":"13697","ivr call volume":24,"id":"a6h8kwz1huqg","geo_precision":"zip","state":"New York"},"type":"Feature","geometry":{"type":"Point","coordinates":[-74.831584,44.759499]}},{"properties":{"geo_score":0.857,"zip code":"13730","ivr call volume":35,"id":"a6h8kx3gwepy","geo_precision":"zip","state":"New York"},"type":"Feature","geometry":{"type":"Point","coordinates":[-75.543239,42.267857]}},{"properties":{"geo_score":0.857,"zip code":"13731","ivr call volume":8,"id":"a6h8kx5so4zw","geo_precision":"zip","state":"New York"},"type":"Feature","geometry":{"type":"Point","coordinates":[-74.843187,42.12923]}},{"properties":{"geo_score":0.857,"zip code":"13732","ivr call volume":28,"id":"a6h8kx2evwpd","geo_precision":"zip","state":"New York"},"type":"Feature","geometry":{"type":"Point","coordinates":[-76.155206,42.019241]}},{"properties":{"geo_score":0.857,"zip code":"13733","ivr call volume":11,"id":"a6h8kx0zio7c","geo_precision":"zip","state":"New York"},"type":"Feature","geometry":{"type":"Point","coordinates":[-75.543517,42.313967]}},{"properties":{"geo_score":0.857,"zip code":"13736","ivr call volume":20,"id":"a6h8kx9lyn12","geo_precision":"zip","state":"New York"},"type":"Feature","geometry":{"type":"Point","coordinates":[-76.254377,42.303685]}},{"properties":{"geo_score":0.857,"zip code":"13743","ivr call volume":11,"id":"a6h8kx1k1n5q","geo_precision":"zip","state":"New York"},"type":"Feature","geometry":{"type":"Point","coordinates":[-76.417716,42.220352]}},{"properties":{"geo_score":0.857,"zip code":"13750","ivr call volume":21,"id":"a6h8kx2cbvsi","geo_precision":"zip","state":"New York"},"type":"Feature","geometry":{"type":"Point","coordinates":[-74.756266,42.448968]}},{"properties":{"geo_score":0.857,"zip code":"13753","ivr call volume":26,"id":"a6h8kwyupuwe","geo_precision":"zip","state":"New York"},"type":"Feature","geometry":{"type":"Point","coordinates":[-75.008219,42.299528]}},{"properties":{"geo_score":0.857,"zip code":"13754","ivr call volume":33,"id":"a6h8kx1i01d7","geo_precision":"zip","state":"New York"},"type":"Feature","geometry":{"type":"Point","coordinates":[-75.399065,42.080361]}},{"properties":{"geo_score":0.857,"zip code":"13755","ivr call volume":20,"id":"a6h8kx22418q","geo_precision":"zip","state":"New York"},"type":"Feature","geometry":{"type":"Point","coordinates":[-75.036277,42.031199]}},{"properties":{"geo_score":0.857,"zip code":"13760","ivr call volume":426,"id":"a6h8kx9l028c","geo_precision":"zip","state":"New York"},"type":"Feature","geometry":{"type":"Point","coordinates":[-76.069092,42.151464]}},{"properties":{"geo_score":0.857,"zip code":"13775","ivr call volume":11,"id":"a6h8kx5qrdh9","geo_precision":"zip","state":"New York"},"type":"Feature","geometry":{"type":"Point","coordinates":[-75.127389,42.359804]}},{"properties":{"geo_score":0.857,"zip code":"13776","ivr call volume":15,"id":"a6h8kwvnulyn","geo_precision":"zip","state":"New York"},"type":"Feature","geometry":{"type":"Point","coordinates":[-75.311836,42.458584]}},{"properties":{"geo_score":0.857,"zip code":"13778","ivr call volume":23,"id":"a6h8kx41648e","geo_precision":"zip","state":"New York"},"type":"Feature","geometry":{"type":"Point","coordinates":[-75.880197,42.339796]}},{"properties":{"geo_score":0.857,"zip code":"13780","ivr call volume":10,"id":"a6h8kxb0olh3","geo_precision":"zip","state":"New York"},"type":"Feature","geometry":{"type":"Point","coordinates":[-75.462124,42.405355]}},{"properties":{"geo_score":0.714,"zip code":"13783","ivr call volume":8,"id":"a6h8kx3sum3i","geo_precision":"zip","state":"New York"},"type":"Feature","geometry":{"type":"Point","coordinates":[-75.349897,41.95703]}},{"properties":{"geo_score":0.857,"zip code":"13787","ivr call volume":29,"id":"a6h8kx8b6qcp","geo_precision":"zip","state":"New York"},"type":"Feature","geometry":{"type":"Point","coordinates":[-75.67491,42.203689]}},{"properties":{"geo_score":0.857,"zip code":"13788","ivr call volume":16,"id":"a6h8kx735ouj","geo_precision":"zip","state":"New York"},"type":"Feature","geometry":{"type":"Point","coordinates":[-74.711604,42.380427]}},{"properties":{"geo_score":0.857,"zip code":"13801","ivr call volume":2,"id":"a6h8kx87rgcf","geo_precision":"zip","state":"New York"},"type":"Feature","geometry":{"type":"Point","coordinates":[-75.731309,42.49712]}},{"properties":{"geo_score":0.857,"zip code":"13802","ivr call volume":9,"id":"a6h8kx2v188h","geo_precision":"zip","state":"New York"},"type":"Feature","geometry":{"type":"Point","coordinates":[-76.054092,42.274796]}},{"properties":{"geo_score":0.857,"zip code":"13803","ivr call volume":22,"id":"a6h8kx56vca0","geo_precision":"zip","state":"New York"},"type":"Feature","geometry":{"type":"Point","coordinates":[-75.972979,42.486183]}},{"properties":{"geo_score":0.857,"zip code":"13804","ivr call volume":5,"id":"a6h8kx87u3r2","geo_precision":"zip","state":"New York"},"type":"Feature","geometry":{"type":"Point","coordinates":[-75.375455,42.195361]}},{"properties":{"geo_score":0.857,"zip code":"13807","ivr call volume":5,"id":"a6h8kwx8p1ya","geo_precision":"zip","state":"New York"},"type":"Feature","geometry":{"type":"Point","coordinates":[-74.975717,42.601799]}},{"properties":{"geo_score":0.857,"zip code":"13808","ivr call volume":17,"id":"a6h8kwx8om97","geo_precision":"zip","state":"New York"},"type":"Feature","geometry":{"type":"Point","coordinates":[-75.24767,42.494522]}},{"properties":{"geo_score":0.857,"zip code":"13809","ivr call volume":10,"id":"a6h8kx7ptlff","geo_precision":"zip","state":"New York"},"type":"Feature","geometry":{"type":"Point","coordinates":[-75.407678,42.378134]}},{"properties":{"geo_score":0.857,"zip code":"13811","ivr call volume":24,"id":"a6h8kx67dfjj","geo_precision":"zip","state":"New York"},"type":"Feature","geometry":{"type":"Point","coordinates":[-76.236321,42.24313]}},{"properties":{"geo_score":0.714,"zip code":"13812","ivr call volume":6,"id":"a6h8kwwq79h2","geo_precision":"zip","state":"New York"},"type":"Feature","geometry":{"type":"Point","coordinates":[-76.326325,41.964519]}},{"properties":{"geo_score":0.857,"zip code":"13815","ivr call volume":112,"id":"a6h8kww6wpwh","geo_precision":"zip","state":"New York"},"type":"Feature","geometry":{"type":"Point","coordinates":[-75.473513,42.519518]}},{"properties":{"geo_score":0.857,"zip code":"13820","ivr call volume":298,"id":"a6h8kx11s0y8","geo_precision":"zip","state":"New York"},"type":"Feature","geometry":{"type":"Point","coordinates":[-75.093776,42.46869]}},{"properties":{"geo_score":0.857,"zip code":"13825","ivr call volume":9,"id":"a6h8kwymrhn2","geo_precision":"zip","state":"New York"},"type":"Feature","geometry":{"type":"Point","coordinates":[-75.174334,42.4848]}},{"properties":{"geo_score":0.857,"zip code":"13827","ivr call volume":87,"id":"a6h8kwwayb0u","geo_precision":"zip","state":"New York"},"type":"Feature","geometry":{"type":"Point","coordinates":[-76.380771,42.149796]}},{"properties":{"geo_score":0.857,"zip code":"13830","ivr call volume":29,"id":"a6h8kx8vpjnw","geo_precision":"zip","state":"New York"},"type":"Feature","geometry":{"type":"Point","coordinates":[-75.665466,42.430351]}},{"properties":{"geo_score":0.857,"zip code":"13838","ivr call volume":42,"id":"a6h8kx7y9ixa","geo_precision":"zip","state":"New York"},"type":"Feature","geometry":{"type":"Point","coordinates":[-75.391644,42.308884]}},{"properties":{"geo_score":0.857,"zip code":"13849","ivr call volume":16,"id":"a6h8kx0xfyxd","geo_precision":"zip","state":"New York"},"type":"Feature","geometry":{"type":"Point","coordinates":[-75.318231,42.300081]}},{"properties":{"geo_score":0.857,"zip code":"13856","ivr call volume":41,"id":"a6h8kwvftai1","geo_precision":"zip","state":"New York"},"type":"Feature","geometry":{"type":"Point","coordinates":[-75.174058,42.011198]}},{"properties":{"geo_score":0.857,"zip code":"13862","ivr call volume":9,"id":"a6h8kx1f9dxw","geo_precision":"zip","state":"New York"},"type":"Feature","geometry":{"type":"Point","coordinates":[-75.957145,42.396184]}},{"properties":{"geo_score":0.857,"zip code":"13865","ivr call volume":29,"id":"a6h8kwxrpcvk","geo_precision":"zip","state":"New York"},"type":"Feature","geometry":{"type":"Point","coordinates":[-75.764078,42.098966]}},{"properties":{"geo_score":0.857,"zip code":"13901","ivr call volume":103,"id":"a6h8kx6hdy33","geo_precision":"zip","state":"New York"},"type":"Feature","geometry":{"type":"Point","coordinates":[-75.896307,42.133409]}},{"properties":{"geo_score":0.857,"zip code":"13903","ivr call volume":582,"id":"a6h8kx3bdmyv","geo_precision":"zip","state":"New York"},"type":"Feature","geometry":{"type":"Point","coordinates":[-75.912973,42.069798]}},{"properties":{"geo_score":0.857,"zip code":"13904","ivr call volume":74,"id":"a6h8kwyea167","geo_precision":"zip","state":"New York"},"type":"Feature","geometry":{"type":"Point","coordinates":[-75.7488,42.14341]}},{"properties":{"geo_score":0.857,"zip code":"13905","ivr call volume":250,"id":"a6h8kx8ivtda","geo_precision":"zip","state":"New York"},"type":"Feature","geometry":{"type":"Point","coordinates":[-75.962699,42.200631]}},{"properties":{"geo_score":0.857,"zip code":"14001","ivr call volume":45,"id":"a6h8kwxj7iqp","geo_precision":"zip","state":"New York"},"type":"Feature","geometry":{"type":"Point","coordinates":[-78.518081,43.111447]}},{"properties":{"geo_score":0.857,"zip code":"14004","ivr call volume":35,"id":"a6h8kx8ez8r6","geo_precision":"zip","state":"New York"},"type":"Feature","geometry":{"type":"Point","coordinates":[-78.516412,42.82756]}},{"properties":{"geo_score":0.857,"zip code":"14006","ivr call volume":68,"id":"a6h8kww5y90f","geo_precision":"zip","state":"New York"},"type":"Feature","geometry":{"type":"Point","coordinates":[-79.066983,42.624226]}},{"properties":{"geo_score":0.857,"zip code":"14009","ivr call volume":52,"id":"a6h8kwvfzcmp","geo_precision":"zip","state":"New York"},"type":"Feature","geometry":{"type":"Point","coordinates":[-78.34446,42.570618]}},{"properties":{"geo_score":0.857,"zip code":"14011","ivr call volume":27,"id":"a6h8kx02se24","geo_precision":"zip","state":"New York"},"type":"Feature","geometry":{"type":"Point","coordinates":[-78.263626,42.793394]}},{"properties":{"geo_score":0.857,"zip code":"14012","ivr call volume":12,"id":"a6h8kx197juc","geo_precision":"zip","state":"New York"},"type":"Feature","geometry":{"type":"Point","coordinates":[-78.534963,43.327031]}},{"properties":{"geo_score":0.857,"zip code":"14020","ivr call volume":170,"id":"a6h8kwvehw6r","geo_precision":"zip","state":"New York"},"type":"Feature","geometry":{"type":"Point","coordinates":[-78.299463,42.979782]}},{"properties":{"geo_score":0.857,"zip code":"14024","ivr call volume":10,"id":"a6h8kx3xlwcg","geo_precision":"zip","state":"New York"},"type":"Feature","geometry":{"type":"Point","coordinates":[-78.444978,43.068413]}},{"properties":{"geo_score":0.857,"zip code":"14025","ivr call volume":9,"id":"a6h8kx3mo7ua","geo_precision":"zip","state":"New York"},"type":"Feature","geometry":{"type":"Point","coordinates":[-78.747529,42.657838]}},{"properties":{"geo_score":0.857,"zip code":"14030","ivr call volume":14,"id":"a6h8kwvkqyoe","geo_precision":"zip","state":"New York"},"type":"Feature","geometry":{"type":"Point","coordinates":[-78.522178,42.560669]}},{"properties":{"geo_score":0.857,"zip code":"14031","ivr call volume":34,"id":"a6h8kx59v9d2","geo_precision":"zip","state":"New York"},"type":"Feature","geometry":{"type":"Point","coordinates":[-78.586971,43.03117]}},{"properties":{"geo_score":0.857,"zip code":"14032","ivr call volume":75,"id":"a6h8kx99266r","geo_precision":"zip","state":"New York"},"type":"Feature","geometry":{"type":"Point","coordinates":[-78.636973,43.058114]}},{"properties":{"geo_score":0.857,"zip code":"14036","ivr call volume":15,"id":"a6h8kwzwt7l7","geo_precision":"zip","state":"New York"},"type":"Feature","geometry":{"type":"Point","coordinates":[-78.434744,42.997559]}},{"properties":{"geo_score":0.857,"zip code":"14040","ivr call volume":4,"id":"a6h8kwzxmxbr","geo_precision":"zip","state":"New York"},"type":"Feature","geometry":{"type":"Point","coordinates":[-78.33724,42.858671]}},{"properties":{"geo_score":0.857,"zip code":"14047","ivr call volume":36,"id":"a6h8kwzsqqaj","geo_precision":"zip","state":"New York"},"type":"Feature","geometry":{"type":"Point","coordinates":[-79.015038,42.683115]}},{"properties":{"geo_score":0.857,"zip code":"14048","ivr call volume":58,"id":"a6h8kx21pq0k","geo_precision":"zip","state":"New York"},"type":"Feature","geometry":{"type":"Point","coordinates":[-79.406434,42.450335]}},{"properties":{"geo_score":0.857,"zip code":"14052","ivr call volume":146,"id":"a6h8kx96b4sg","geo_precision":"zip","state":"New York"},"type":"Feature","geometry":{"type":"Point","coordinates":[-78.65586,42.745338]}},{"properties":{"geo_score":0.857,"zip code":"14057","ivr call volume":51,"id":"a6h8kwwtwdx3","geo_precision":"zip","state":"New York"},"type":"Feature","geometry":{"type":"Point","coordinates":[-78.791697,42.588394]}},{"properties":{"geo_score":0.857,"zip code":"14058","ivr call volume":7,"id":"a6h8kwzc31ay","geo_precision":"zip","state":"New York"},"type":"Feature","geometry":{"type":"Point","coordinates":[-78.16261,43.088434]}},{"properties":{"geo_score":0.857,"zip code":"14062","ivr call volume":13,"id":"a6h8kx8ahdgg","geo_precision":"zip","state":"New York"},"type":"Feature","geometry":{"type":"Point","coordinates":[-79.105594,42.495059]}},{"properties":{"geo_score":0.857,"zip code":"14063","ivr call volume":86,"id":"a6h8kxavodms","geo_precision":"zip","state":"New York"},"type":"Feature","geometry":{"type":"Point","coordinates":[-79.298655,42.386725]}},{"properties":{"geo_score":0.857,"zip code":"14067","ivr call volume":12,"id":"a6h8kww019d0","geo_precision":"zip","state":"New York"},"type":"Feature","geometry":{"type":"Point","coordinates":[-78.600307,43.174224]}},{"properties":{"geo_score":0.857,"zip code":"14068","ivr call volume":130,"id":"a6h8kx5o44r1","geo_precision":"zip","state":"New York"},"type":"Feature","geometry":{"type":"Point","coordinates":[-78.798923,43.030057]}},{"properties":{"geo_score":0.857,"zip code":"14070","ivr call volume":39,"id":"a6h8kwwqzfai","geo_precision":"zip","state":"New York"},"type":"Feature","geometry":{"type":"Point","coordinates":[-78.957537,42.373117]}},{"properties":{"geo_score":0.857,"zip code":"14072","ivr call volume":63,"id":"a6h8kx51wmll","geo_precision":"zip","state":"New York"},"type":"Feature","geometry":{"type":"Point","coordinates":[-78.959763,43.056445]}},{"properties":{"geo_score":0.857,"zip code":"14075","ivr call volume":189,"id":"a6h8kwzv75mo","geo_precision":"zip","state":"New York"},"type":"Feature","geometry":{"type":"Point","coordinates":[-78.850033,42.705615]}},{"properties":{"geo_score":0.857,"zip code":"14080","ivr call volume":21,"id":"a6h8kx107nbo","geo_precision":"zip","state":"New York"},"type":"Feature","geometry":{"type":"Point","coordinates":[-78.494188,42.608673]}},{"properties":{"geo_score":0.857,"zip code":"14083","ivr call volume":5,"id":"a6h8kx5cup1a","geo_precision":"zip","state":"New York"},"type":"Feature","geometry":{"type":"Point","coordinates":[-78.436442,42.675193]}},{"properties":{"geo_score":0.857,"zip code":"14085","ivr call volume":56,"id":"a6h8kx94stvt","geo_precision":"zip","state":"New York"},"type":"Feature","geometry":{"type":"Point","coordinates":[-78.935036,42.732281]}},{"properties":{"geo_score":0.857,"zip code":"14086","ivr call volume":327,"id":"a6h8kx15s7ry","geo_precision":"zip","state":"New York"},"type":"Feature","geometry":{"type":"Point","coordinates":[-78.632137,42.907658]}},{"properties":{"geo_score":0.857,"zip code":"14092","ivr call volume":37,"id":"a6h8kwwr9429","geo_precision":"zip","state":"New York"},"type":"Feature","geometry":{"type":"Point","coordinates":[-79.017267,43.166166]}},{"properties":{"geo_score":0.857,"zip code":"14094","ivr call volume":352,"id":"a6h8kx7ggylc","geo_precision":"zip","state":"New York"},"type":"Feature","geometry":{"type":"Point","coordinates":[-78.676977,43.222557]}},{"properties":{"geo_score":0.857,"zip code":"14098","ivr call volume":4,"id":"a6h8kxafbuev","geo_precision":"zip","state":"New York"},"type":"Feature","geometry":{"type":"Point","coordinates":[-78.388914,43.375057]}},{"properties":{"geo_score":0.857,"zip code":"14101","ivr call volume":18,"id":"a6h8kwvgaokp","geo_precision":"zip","state":"New York"},"type":"Feature","geometry":{"type":"Point","coordinates":[-78.544468,42.366175]}},{"properties":{"geo_score":0.857,"zip code":"14103","ivr call volume":28,"id":"a6h8kx7b0y0h","geo_precision":"zip","state":"New York"},"type":"Feature","geometry":{"type":"Point","coordinates":[-78.436969,43.159225]}},{"properties":{"geo_score":0.857,"zip code":"14105","ivr call volume":11,"id":"a6h8kwzctqrl","geo_precision":"zip","state":"New York"},"type":"Feature","geometry":{"type":"Point","coordinates":[-78.502849,43.196947]}},{"properties":{"geo_score":0.857,"zip code":"14108","ivr call volume":47,"id":"a6h8kww7d5l3","geo_precision":"zip","state":"New York"},"type":"Feature","geometry":{"type":"Point","coordinates":[-78.813093,43.241723]}},{"properties":{"geo_score":0.857,"zip code":"14111","ivr call volume":25,"id":"a6h8kxa8eztl","geo_precision":"zip","state":"New York"},"type":"Feature","geometry":{"type":"Point","coordinates":[-78.91888,42.583165]}},{"properties":{"geo_score":0.857,"zip code":"14125","ivr call volume":10,"id":"a6h8kwwe3p9x","geo_precision":"zip","state":"New York"},"type":"Feature","geometry":{"type":"Point","coordinates":[-78.247242,43.098115]}},{"properties":{"geo_score":0.857,"zip code":"14127","ivr call volume":213,"id":"a6h8kx8novo1","geo_precision":"zip","state":"New York"},"type":"Feature","geometry":{"type":"Point","coordinates":[-78.746419,42.783393]}},{"properties":{"geo_score":0.857,"zip code":"14131","ivr call volume":11,"id":"a6h8kwxfxkx0","geo_precision":"zip","state":"New York"},"type":"Feature","geometry":{"type":"Point","coordinates":[-78.957543,43.2495]}},{"properties":{"geo_score":0.857,"zip code":"14132","ivr call volume":58,"id":"a6h8kx7z5go4","geo_precision":"zip","state":"New York"},"type":"Feature","geometry":{"type":"Point","coordinates":[-78.837815,43.128112]}},{"properties":{"geo_score":0.857,"zip code":"14136","ivr call volume":22,"id":"a6h8kx56e82q","geo_precision":"zip","state":"New York"},"type":"Feature","geometry":{"type":"Point","coordinates":[-79.143373,42.557281]}},{"properties":{"geo_score":0.857,"zip code":"14138","ivr call volume":6,"id":"a6h8kx3onjp0","geo_precision":"zip","state":"New York"},"type":"Feature","geometry":{"type":"Point","coordinates":[-79.135041,42.369782]}},{"properties":{"geo_score":0.857,"zip code":"14141","ivr call volume":42,"id":"a6h8kx8ws6vk","geo_precision":"zip","state":"New York"},"type":"Feature","geometry":{"type":"Point","coordinates":[-78.685169,42.538335]}},{"properties":{"geo_score":0.857,"zip code":"14150","ivr call volume":549,"id":"a6h8kx20l1do","geo_precision":"zip","state":"New York"},"type":"Feature","geometry":{"type":"Point","coordinates":[-78.809201,43.011724]}},{"properties":{"geo_score":0.857,"zip code":"14167","ivr call volume":13,"id":"a6h8kx47osad","geo_precision":"zip","state":"New York"},"type":"Feature","geometry":{"type":"Point","coordinates":[-78.30946,42.737561]}},{"properties":{"geo_score":0.857,"zip code":"14171","ivr call volume":9,"id":"a6h8kx1zcoxt","geo_precision":"zip","state":"New York"},"type":"Feature","geometry":{"type":"Point","coordinates":[-78.614747,42.442563]}},{"properties":{"geo_score":0.857,"zip code":"14172","ivr call volume":15,"id":"a6h8kx1bffma","geo_precision":"zip","state":"New York"},"type":"Feature","geometry":{"type":"Point","coordinates":[-78.843095,43.315333]}},{"properties":{"geo_score":0.857,"zip code":"14174","ivr call volume":31,"id":"a6h8kwwaqqfo","geo_precision":"zip","state":"New York"},"type":"Feature","geometry":{"type":"Point","coordinates":[-79.047269,43.236721]}},{"properties":{"geo_score":0.857,"zip code":"14202","ivr call volume":65,"id":"a6h8kwvt8626","geo_precision":"zip","state":"New York"},"type":"Feature","geometry":{"type":"Point","coordinates":[-78.884157,42.889662]}},{"properties":{"geo_score":0.857,"zip code":"14203","ivr call volume":732,"id":"a6h8kwwbtn2i","geo_precision":"zip","state":"New York"},"type":"Feature","geometry":{"type":"Point","coordinates":[-78.731418,42.734504]}},{"properties":{"geo_score":0.857,"zip code":"14204","ivr call volume":68,"id":"a6h8kx6hih8t","geo_precision":"zip","state":"New York"},"type":"Feature","geometry":{"type":"Point","coordinates":[-74.681667,44.976111]}},{"properties":{"geo_score":0.857,"zip code":"14207","ivr call volume":386,"id":"a6h8kx1vphrt","geo_precision":"zip","state":"New York"},"type":"Feature","geometry":{"type":"Point","coordinates":[-78.897009,42.949557]}},{"properties":{"geo_score":0.857,"zip code":"14209","ivr call volume":11,"id":"a6h8kx35qa8o","geo_precision":"zip","state":"New York"},"type":"Feature","geometry":{"type":"Point","coordinates":[-78.865857,42.918107]}},{"properties":{"geo_score":0.857,"zip code":"14211","ivr call volume":373,"id":"a6h8kx2uolr8","geo_precision":"zip","state":"New York"},"type":"Feature","geometry":{"type":"Point","coordinates":[-78.819005,42.912257]}},{"properties":{"geo_score":0.857,"zip code":"14214","ivr call volume":484,"id":"a6h8kwzmdqzc","geo_precision":"zip","state":"New York"},"type":"Feature","geometry":{"type":"Point","coordinates":[-78.835256,42.940107]}},{"properties":{"geo_score":0.857,"zip code":"14217","ivr call volume":1,"id":"a6h8kx4f29v9","geo_precision":"zip","state":"New York"},"type":"Feature","geometry":{"type":"Point","coordinates":[-78.870036,42.965891]}},{"properties":{"geo_score":0.857,"zip code":"14220","ivr call volume":552,"id":"a6h8kx0prjy8","geo_precision":"zip","state":"New York"},"type":"Feature","geometry":{"type":"Point","coordinates":[-78.823005,42.845908]}},{"properties":{"geo_score":0.857,"zip code":"14221","ivr call volume":664,"id":"a6h8kx8zyvde","geo_precision":"zip","state":"New York"},"type":"Feature","geometry":{"type":"Point","coordinates":[-78.677529,42.964781]}},{"properties":{"geo_score":0.857,"zip code":"14222","ivr call volume":338,"id":"a6h8kx8iq7q8","geo_precision":"zip","state":"New York"},"type":"Feature","geometry":{"type":"Point","coordinates":[-78.875007,42.918207]}},{"properties":{"geo_score":0.857,"zip code":"14224","ivr call volume":94,"id":"a6h8kx6zx0b1","geo_precision":"zip","state":"New York"},"type":"Feature","geometry":{"type":"Point","coordinates":[-78.786699,42.864781]}},{"properties":{"geo_score":0.857,"zip code":"14227","ivr call volume":3,"id":"a6h8kx1s8pw7","geo_precision":"zip","state":"New York"},"type":"Feature","geometry":{"type":"Point","coordinates":[-78.746202,42.885308]}},{"properties":{"geo_score":0.857,"zip code":"14280","ivr call volume":412,"id":"a6h8kx84rijd","geo_precision":"zip","state":"New York"},"type":"Feature","geometry":{"type":"Point","coordinates":[-78.887094,42.768413]}},{"properties":{"geo_score":0.857,"zip code":"14301","ivr call volume":278,"id":"a6h8kwuwx3cc","geo_precision":"zip","state":"New York"},"type":"Feature","geometry":{"type":"Point","coordinates":[-79.009414,43.089805]}},{"properties":{"geo_score":0.857,"zip code":"14304","ivr call volume":222,"id":"a6h8kx5qpgdp","geo_precision":"zip","state":"New York"},"type":"Feature","geometry":{"type":"Point","coordinates":[-78.906706,43.103112]}},{"properties":{"geo_score":0.857,"zip code":"14411","ivr call volume":77,"id":"a6h8kwwaqfrs","geo_precision":"zip","state":"New York"},"type":"Feature","geometry":{"type":"Point","coordinates":[-78.296134,43.280058]}},{"properties":{"geo_score":0.857,"zip code":"14414","ivr call volume":31,"id":"a6h8kx3o0q09","geo_precision":"zip","state":"New York"},"type":"Feature","geometry":{"type":"Point","coordinates":[-77.70639,42.90923]}},{"properties":{"geo_score":0.857,"zip code":"14416","ivr call volume":6,"id":"a6h8kx4fkt7v","geo_precision":"zip","state":"New York"},"type":"Feature","geometry":{"type":"Point","coordinates":[-77.962789,43.04895]}},{"properties":{"geo_score":0.857,"zip code":"14418","ivr call volume":8,"id":"a6h8kx9mk1q9","geo_precision":"zip","state":"New York"},"type":"Feature","geometry":{"type":"Point","coordinates":[-77.16553,42.623958]}},{"properties":{"geo_score":0.857,"zip code":"14420","ivr call volume":35,"id":"a6h8kx5uotyf","geo_precision":"zip","state":"New York"},"type":"Feature","geometry":{"type":"Point","coordinates":[-77.945013,43.178394]}},{"properties":{"geo_score":0.857,"zip code":"14422","ivr call volume":8,"id":"a6h8kx803gg8","geo_precision":"zip","state":"New York"},"type":"Feature","geometry":{"type":"Point","coordinates":[-78.066126,43.097005]}},{"properties":{"geo_score":0.857,"zip code":"14423","ivr call volume":29,"id":"a6h8kx1o2jjk","geo_precision":"zip","state":"New York"},"type":"Feature","geometry":{"type":"Point","coordinates":[-77.845561,42.893396]}},{"properties":{"geo_score":0.857,"zip code":"14424","ivr call volume":130,"id":"a6h8kx2oprtq","geo_precision":"zip","state":"New York"},"type":"Feature","geometry":{"type":"Point","coordinates":[-77.401099,42.835343]}},{"properties":{"geo_score":0.857,"zip code":"14427","ivr call volume":12,"id":"a6h8kwvyqe8v","geo_precision":"zip","state":"New York"},"type":"Feature","geometry":{"type":"Point","coordinates":[-78.106119,42.591452]}},{"properties":{"geo_score":0.857,"zip code":"14428","ivr call volume":21,"id":"a6h8kx17z0vy","geo_precision":"zip","state":"New York"},"type":"Feature","geometry":{"type":"Point","coordinates":[-77.814729,43.052284]}},{"properties":{"geo_score":0.857,"zip code":"14432","ivr call volume":31,"id":"a6h8kx1e3vf8","geo_precision":"zip","state":"New York"},"type":"Feature","geometry":{"type":"Point","coordinates":[-77.114418,42.918676]}},{"properties":{"geo_score":0.857,"zip code":"14433","ivr call volume":11,"id":"a6h8kxaa8kyb","geo_precision":"zip","state":"New York"},"type":"Feature","geometry":{"type":"Point","coordinates":[-76.910518,43.025897]}},{"properties":{"geo_score":0.857,"zip code":"14437","ivr call volume":40,"id":"a6h8kx4hedzb","geo_precision":"zip","state":"New York"},"type":"Feature","geometry":{"type":"Point","coordinates":[-77.731663,42.5759]}},{"properties":{"geo_score":0.857,"zip code":"14445","ivr call volume":21,"id":"a6h8kx3doaxm","geo_precision":"zip","state":"New York"},"type":"Feature","geometry":{"type":"Point","coordinates":[-77.482538,43.113563]}},{"properties":{"geo_score":0.857,"zip code":"14450","ivr call volume":174,"id":"a6h8kx7mid1e","geo_precision":"zip","state":"New York"},"type":"Feature","geometry":{"type":"Point","coordinates":[-77.407491,43.06423]}},{"properties":{"geo_score":0.857,"zip code":"14454","ivr call volume":58,"id":"a6h8kx6hfcxu","geo_precision":"zip","state":"New York"},"type":"Feature","geometry":{"type":"Point","coordinates":[-77.717222,42.800063]}},{"properties":{"geo_score":0.857,"zip code":"14456","ivr call volume":132,"id":"a6h8kwx1yee3","geo_precision":"zip","state":"New York"},"type":"Feature","geometry":{"type":"Point","coordinates":[-76.941908,42.839512]}},{"properties":{"geo_score":0.857,"zip code":"14464","ivr call volume":19,"id":"a6h8kx6i2xid","geo_precision":"zip","state":"New York"},"type":"Feature","geometry":{"type":"Point","coordinates":[-77.872234,43.348671]}},{"properties":{"geo_score":0.857,"zip code":"14466","ivr call volume":10,"id":"a6h8kx4qwwox","geo_precision":"zip","state":"New York"},"type":"Feature","geometry":{"type":"Point","coordinates":[-77.618049,42.78481]}},{"properties":{"geo_score":0.857,"zip code":"14467","ivr call volume":157,"id":"a6h8kwx9mibe","geo_precision":"zip","state":"New York"},"type":"Feature","geometry":{"type":"Point","coordinates":[-77.558902,43.058863]}},{"properties":{"geo_score":0.857,"zip code":"14468","ivr call volume":61,"id":"a6h8kx5duguz","geo_precision":"zip","state":"New York"},"type":"Feature","geometry":{"type":"Point","coordinates":[-77.809177,43.341449]}},{"properties":{"geo_score":0.857,"zip code":"14469","ivr call volume":11,"id":"a6h8kwwgdwfv","geo_precision":"zip","state":"New York"},"type":"Feature","geometry":{"type":"Point","coordinates":[-77.389432,42.861176]}},{"properties":{"geo_score":0.857,"zip code":"14470","ivr call volume":52,"id":"a6h8kx4ve61k","geo_precision":"zip","state":"New York"},"type":"Feature","geometry":{"type":"Point","coordinates":[-78.04585,43.273948]}},{"properties":{"geo_score":0.857,"zip code":"14471","ivr call volume":6,"id":"a6h8kx9e5n26","geo_precision":"zip","state":"New York"},"type":"Feature","geometry":{"type":"Point","coordinates":[-77.491905,42.755573]}},{"properties":{"geo_score":0.857,"zip code":"14472","ivr call volume":53,"id":"a6h8kx7sbxev","geo_precision":"zip","state":"New York"},"type":"Feature","geometry":{"type":"Point","coordinates":[-77.618333,42.967008]}},{"properties":{"geo_score":0.857,"zip code":"14476","ivr call volume":14,"id":"a6h8kx4zrzox","geo_precision":"zip","state":"New York"},"type":"Feature","geometry":{"type":"Point","coordinates":[-78.075851,43.335892]}},{"properties":{"geo_score":0.857,"zip code":"14481","ivr call volume":1,"id":"a6h8kwwudli0","geo_precision":"zip","state":"New York"},"type":"Feature","geometry":{"type":"Point","coordinates":[-77.870837,42.777007]}},{"properties":{"geo_score":0.857,"zip code":"14482","ivr call volume":28,"id":"a6h8kx4c2o7p","geo_precision":"zip","state":"New York"},"type":"Feature","geometry":{"type":"Point","coordinates":[-77.918898,42.978673]}},{"properties":{"geo_score":0.857,"zip code":"14487","ivr call volume":42,"id":"a6h8kwwvm9ap","geo_precision":"zip","state":"New York"},"type":"Feature","geometry":{"type":"Point","coordinates":[-77.671109,42.770897]}},{"properties":{"geo_score":0.857,"zip code":"14489","ivr call volume":33,"id":"a6h8kx1gvkb3","geo_precision":"zip","state":"New York"},"type":"Feature","geometry":{"type":"Point","coordinates":[-76.958855,43.150898]}},{"properties":{"geo_score":0.857,"zip code":"14502","ivr call volume":26,"id":"a6h8kx83rgjg","geo_precision":"zip","state":"New York"},"type":"Feature","geometry":{"type":"Point","coordinates":[-77.345544,43.14673]}},{"properties":{"geo_score":0.857,"zip code":"14505","ivr call volume":21,"id":"a6h8kww4s8d9","geo_precision":"zip","state":"New York"},"type":"Feature","geometry":{"type":"Point","coordinates":[-77.172684,43.15594]}},{"properties":{"geo_score":0.857,"zip code":"14510","ivr call volume":23,"id":"a6h8kx99mr0f","geo_precision":"zip","state":"New York"},"type":"Feature","geometry":{"type":"Point","coordinates":[-77.913337,42.676174]}},{"properties":{"geo_score":0.857,"zip code":"14512","ivr call volume":31,"id":"a6h8kwyha57g","geo_precision":"zip","state":"New York"},"type":"Feature","geometry":{"type":"Point","coordinates":[-77.364151,42.669789]}},{"properties":{"geo_score":0.857,"zip code":"14513","ivr call volume":95,"id":"a6h8kx3p65v1","geo_precision":"zip","state":"New York"},"type":"Feature","geometry":{"type":"Point","coordinates":[-77.075528,43.075064]}},{"properties":{"geo_score":0.857,"zip code":"14514","ivr call volume":47,"id":"a6h8kx8c9bv1","geo_precision":"zip","state":"New York"},"type":"Feature","geometry":{"type":"Point","coordinates":[-77.789174,43.096173]}},{"properties":{"geo_score":0.857,"zip code":"14516","ivr call volume":6,"id":"a6h8kwzgbveg","geo_precision":"zip","state":"New York"},"type":"Feature","geometry":{"type":"Point","coordinates":[-76.923853,43.226455]}},{"properties":{"geo_score":0.857,"zip code":"14517","ivr call volume":11,"id":"a6h8kx57y8ry","geo_precision":"zip","state":"New York"},"type":"Feature","geometry":{"type":"Point","coordinates":[-77.970282,42.577842]}},{"properties":{"geo_score":0.857,"zip code":"14519","ivr call volume":30,"id":"a6h8kwyewg6f","geo_precision":"zip","state":"New York"},"type":"Feature","geometry":{"type":"Point","coordinates":[-77.348324,43.278119]}},{"properties":{"geo_score":0.857,"zip code":"14521","ivr call volume":13,"id":"a6h8kx9t6u93","geo_precision":"zip","state":"New York"},"type":"Feature","geometry":{"type":"Point","coordinates":[-76.701616,42.665071]}},{"properties":{"geo_score":0.857,"zip code":"14522","ivr call volume":35,"id":"a6h8kwxmnfzg","geo_precision":"zip","state":"New York"},"type":"Feature","geometry":{"type":"Point","coordinates":[-77.218849,43.081306]}},{"properties":{"geo_score":0.857,"zip code":"14525","ivr call volume":18,"id":"a6h8kx6k27by","geo_precision":"zip","state":"New York"},"type":"Feature","geometry":{"type":"Point","coordinates":[-77.965007,42.833673]}},{"properties":{"geo_score":0.857,"zip code":"14527","ivr call volume":49,"id":"a6h8kx3barm9","geo_precision":"zip","state":"New York"},"type":"Feature","geometry":{"type":"Point","coordinates":[-77.137473,42.672013]}},{"properties":{"geo_score":0.857,"zip code":"14530","ivr call volume":12,"id":"a6h8kx3q1rae","geo_precision":"zip","state":"New York"},"type":"Feature","geometry":{"type":"Point","coordinates":[-78.032785,42.720062]}},{"properties":{"geo_score":0.857,"zip code":"14532","ivr call volume":16,"id":"a6h8kwx3dvyo","geo_precision":"zip","state":"New York"},"type":"Feature","geometry":{"type":"Point","coordinates":[-77.03747,42.951731]}},{"properties":{"geo_score":0.857,"zip code":"14541","ivr call volume":20,"id":"a6h8kx9nsr18","geo_precision":"zip","state":"New York"},"type":"Feature","geometry":{"type":"Point","coordinates":[-76.761063,42.726182]}},{"properties":{"geo_score":0.857,"zip code":"14543","ivr call volume":4,"id":"a6h8kxacdr8g","geo_precision":"zip","state":"New York"},"type":"Feature","geometry":{"type":"Point","coordinates":[-77.705559,43.003396]}},{"properties":{"geo_score":0.857,"zip code":"14544","ivr call volume":18,"id":"a6h8kwvlvp03","geo_precision":"zip","state":"New York"},"type":"Feature","geometry":{"type":"Point","coordinates":[-77.242693,42.734157]}},{"properties":{"geo_score":0.857,"zip code":"14546","ivr call volume":39,"id":"a6h8kx9y7gj9","geo_precision":"zip","state":"New York"},"type":"Feature","geometry":{"type":"Point","coordinates":[-77.781117,43.053951]}},{"properties":{"geo_score":0.857,"zip code":"14548","ivr call volume":16,"id":"a6h8kx4280ij","geo_precision":"zip","state":"New York"},"type":"Feature","geometry":{"type":"Point","coordinates":[-77.252696,42.978834]}},{"properties":{"geo_score":0.857,"zip code":"14551","ivr call volume":35,"id":"a6h8kww768c8","geo_precision":"zip","state":"New York"},"type":"Feature","geometry":{"type":"Point","coordinates":[-77.01247,43.221732]}},{"properties":{"geo_score":0.857,"zip code":"14559","ivr call volume":70,"id":"a6h8kx0e1j5j","geo_precision":"zip","state":"New York"},"type":"Feature","geometry":{"type":"Point","coordinates":[-77.855287,43.151728]}},{"properties":{"geo_score":0.857,"zip code":"14560","ivr call volume":6,"id":"a6h8kwypujkr","geo_precision":"zip","state":"New York"},"type":"Feature","geometry":{"type":"Point","coordinates":[-77.54166,42.737009]}},{"properties":{"geo_score":0.857,"zip code":"14561","ivr call volume":3,"id":"a6h8kx9hyo15","geo_precision":"zip","state":"New York"},"type":"Feature","geometry":{"type":"Point","coordinates":[-77.106084,42.857844]}},{"properties":{"geo_score":0.857,"zip code":"14564","ivr call volume":99,"id":"a6h8kx97zwxn","geo_precision":"zip","state":"New York"},"type":"Feature","geometry":{"type":"Point","coordinates":[-77.362766,42.962008]}},{"properties":{"geo_score":0.857,"zip code":"14569","ivr call volume":25,"id":"a6h8kx8fzyun","geo_precision":"zip","state":"New York"},"type":"Feature","geometry":{"type":"Point","coordinates":[-78.205846,42.685895]}},{"properties":{"geo_score":0.857,"zip code":"14571","ivr call volume":6,"id":"a6h8kwyz2f9b","geo_precision":"zip","state":"New York"},"type":"Feature","geometry":{"type":"Point","coordinates":[-78.272245,43.371169]}},{"properties":{"geo_score":0.857,"zip code":"14572","ivr call volume":16,"id":"a6h8kxaf0p2p","geo_precision":"zip","state":"New York"},"type":"Feature","geometry":{"type":"Point","coordinates":[-77.58888,42.530901]}},{"properties":{"geo_score":0.857,"zip code":"14580","ivr call volume":246,"id":"a6h8kwv13ctb","geo_precision":"zip","state":"New York"},"type":"Feature","geometry":{"type":"Point","coordinates":[-77.496386,43.204785]}},{"properties":{"geo_score":0.857,"zip code":"14589","ivr call volume":36,"id":"a6h8kx4ckg3r","geo_precision":"zip","state":"New York"},"type":"Feature","geometry":{"type":"Point","coordinates":[-77.14359,43.287009]}},{"properties":{"geo_score":0.857,"zip code":"14590","ivr call volume":22,"id":"a6h8kwvogtav","geo_precision":"zip","state":"New York"},"type":"Feature","geometry":{"type":"Point","coordinates":[-76.781901,43.284233]}},{"properties":{"geo_score":0.857,"zip code":"14603","ivr call volume":274,"id":"a6h8kx3dp11k","geo_precision":"zip","state":"New York"},"type":"Feature","geometry":{"type":"Point","coordinates":[-77.606774,43.161613]}},{"properties":{"geo_score":0.857,"zip code":"14604","ivr call volume":60,"id":"a6h8kx0mwx91","geo_precision":"zip","state":"New York"},"type":"Feature","geometry":{"type":"Point","coordinates":[-77.604023,43.156612]}},{"properties":{"geo_score":0.857,"zip code":"14607","ivr call volume":276,"id":"a6h8kx93mgii","geo_precision":"zip","state":"New York"},"type":"Feature","geometry":{"type":"Point","coordinates":[-77.584888,43.152013]}},{"properties":{"geo_score":0.857,"zip code":"14609","ivr call volume":155,"id":"a6h8kwvy06v1","geo_precision":"zip","state":"New York"},"type":"Feature","geometry":{"type":"Point","coordinates":[-77.549971,43.198197]}},{"properties":{"geo_score":0.857,"zip code":"14611","ivr call volume":179,"id":"a6h8kww1r2fa","geo_precision":"zip","state":"New York"},"type":"Feature","geometry":{"type":"Point","coordinates":[-77.690837,43.153395]}},{"properties":{"geo_score":0.857,"zip code":"14613","ivr call volume":166,"id":"a6h8kx0bf2rj","geo_precision":"zip","state":"New York"},"type":"Feature","geometry":{"type":"Point","coordinates":[-77.519325,43.13378]}},{"properties":{"geo_score":0.857,"zip code":"14614","ivr call volume":897,"id":"a6h8kwzsc4nt","geo_precision":"zip","state":"New York"},"type":"Feature","geometry":{"type":"Point","coordinates":[-77.512569,43.104463]}},{"properties":{"geo_score":0.857,"zip code":"14616","ivr call volume":170,"id":"a6h8kx4abuiu","geo_precision":"zip","state":"New York"},"type":"Feature","geometry":{"type":"Point","coordinates":[-77.69306,43.209784]}},{"properties":{"geo_score":0.857,"zip code":"14618","ivr call volume":58,"id":"a6h8kxb14vtw","geo_precision":"zip","state":"New York"},"type":"Feature","geometry":{"type":"Point","coordinates":[-77.565555,43.127007]}},{"properties":{"geo_score":0.857,"zip code":"14621","ivr call volume":339,"id":"a6h8kwy315p4","geo_precision":"zip","state":"New York"},"type":"Feature","geometry":{"type":"Point","coordinates":[-77.631124,43.149013]}},{"properties":{"geo_score":0.857,"zip code":"14623","ivr call volume":36,"id":"a6h8kx77mo6x","geo_precision":"zip","state":"New York"},"type":"Feature","geometry":{"type":"Point","coordinates":[-77.649074,43.082184]}},{"properties":{"geo_score":0.857,"zip code":"14624","ivr call volume":143,"id":"a6h8kx5hixtp","geo_precision":"zip","state":"New York"},"type":"Feature","geometry":{"type":"Point","coordinates":[-77.735283,43.135895]}},{"properties":{"geo_score":0.857,"zip code":"14625","ivr call volume":268,"id":"a6h8kx7fo7bz","geo_precision":"zip","state":"New York"},"type":"Feature","geometry":{"type":"Point","coordinates":[-77.505705,43.152213]}},{"properties":{"geo_score":0.857,"zip code":"14626","ivr call volume":254,"id":"a6h8kwvpspay","geo_precision":"zip","state":"New York"},"type":"Feature","geometry":{"type":"Point","coordinates":[-77.73195,43.190895]}},{"properties":{"geo_score":0.857,"zip code":"14701","ivr call volume":382,"id":"a6h8kx5ec0dy","geo_precision":"zip","state":"New York"},"type":"Feature","geometry":{"type":"Point","coordinates":[-79.301993,42.118113]}},{"properties":{"geo_score":0.857,"zip code":"14709","ivr call volume":7,"id":"a6h8kwygfgve","geo_precision":"zip","state":"New York"},"type":"Feature","geometry":{"type":"Point","coordinates":[-77.920279,42.391456]}},{"properties":{"geo_score":0.857,"zip code":"14711","ivr call volume":16,"id":"a6h8kx0qk3kq","geo_precision":"zip","state":"New York"},"type":"Feature","geometry":{"type":"Point","coordinates":[-78.164455,42.306734]}},{"properties":{"geo_score":0.857,"zip code":"14712","ivr call volume":11,"id":"a6h8kx6xawvj","geo_precision":"zip","state":"New York"},"type":"Feature","geometry":{"type":"Point","coordinates":[-79.406159,42.17728]}},{"properties":{"geo_score":0.857,"zip code":"14715","ivr call volume":18,"id":"a6h8kx56cwx6","geo_precision":"zip","state":"New York"},"type":"Feature","geometry":{"type":"Point","coordinates":[-78.081118,42.071456]}},{"properties":{"geo_score":0.857,"zip code":"14716","ivr call volume":1,"id":"a6h8kwxy69t3","geo_precision":"zip","state":"New York"},"type":"Feature","geometry":{"type":"Point","coordinates":[-79.432622,42.316748]}},{"properties":{"geo_score":0.857,"zip code":"14718","ivr call volume":14,"id":"a6h8kx3bk6sl","geo_precision":"zip","state":"New York"},"type":"Feature","geometry":{"type":"Point","coordinates":[-79.3231,42.335614]}},{"properties":{"geo_score":0.857,"zip code":"14719","ivr call volume":6,"id":"a6h8kwxpe355","geo_precision":"zip","state":"New York"},"type":"Feature","geometry":{"type":"Point","coordinates":[-78.88948,42.289506]}},{"properties":{"geo_score":0.857,"zip code":"14723","ivr call volume":4,"id":"a6h8kx40tqfo","geo_precision":"zip","state":"New York"},"type":"Feature","geometry":{"type":"Point","coordinates":[-79.157265,42.263948]}},{"properties":{"geo_score":0.857,"zip code":"14724","ivr call volume":9,"id":"a6h8kx787den","geo_precision":"zip","state":"New York"},"type":"Feature","geometry":{"type":"Point","coordinates":[-79.695884,42.024221]}},{"properties":{"geo_score":0.857,"zip code":"14727","ivr call volume":51,"id":"a6h8kww1lnlb","geo_precision":"zip","state":"New York"},"type":"Feature","geometry":{"type":"Point","coordinates":[-78.308627,42.321455]}},{"properties":{"geo_score":0.857,"zip code":"14731","ivr call volume":7,"id":"a6h8kwwjunkg","geo_precision":"zip","state":"New York"},"type":"Feature","geometry":{"type":"Point","coordinates":[-78.565025,42.333675]}},{"properties":{"geo_score":0.857,"zip code":"14735","ivr call volume":17,"id":"a6h8kx5r8fln","geo_precision":"zip","state":"New York"},"type":"Feature","geometry":{"type":"Point","coordinates":[-78.014449,42.452287]}},{"properties":{"geo_score":0.857,"zip code":"14736","ivr call volume":11,"id":"a6h8kx7sh0mj","geo_precision":"zip","state":"New York"},"type":"Feature","geometry":{"type":"Point","coordinates":[-79.737701,42.133206]}},{"properties":{"geo_score":0.857,"zip code":"14737","ivr call volume":27,"id":"a6h8kwy3t8z9","geo_precision":"zip","state":"New York"},"type":"Feature","geometry":{"type":"Point","coordinates":[-78.486966,42.336454]}},{"properties":{"geo_score":0.857,"zip code":"14738","ivr call volume":18,"id":"a6h8kx95l4c3","geo_precision":"zip","state":"New York"},"type":"Feature","geometry":{"type":"Point","coordinates":[-79.096989,42.070615]}},{"properties":{"geo_score":0.857,"zip code":"14739","ivr call volume":9,"id":"a6h8kwvfhaa6","geo_precision":"zip","state":"New York"},"type":"Feature","geometry":{"type":"Point","coordinates":[-78.145566,42.178123]}},{"properties":{"geo_score":0.857,"zip code":"14740","ivr call volume":8,"id":"a6h8kx5tryyk","geo_precision":"zip","state":"New York"},"type":"Feature","geometry":{"type":"Point","coordinates":[-79.170519,42.21129]}},{"properties":{"geo_score":0.857,"zip code":"14743","ivr call volume":19,"id":"a6h8kwusw4ef","geo_precision":"zip","state":"New York"},"type":"Feature","geometry":{"type":"Point","coordinates":[-78.381685,42.180066]}},{"properties":{"geo_score":0.857,"zip code":"14747","ivr call volume":11,"id":"a6h8kwxlz1n1","geo_precision":"zip","state":"New York"},"type":"Feature","geometry":{"type":"Point","coordinates":[-79.069764,42.172004]}},{"properties":{"geo_score":0.857,"zip code":"14750","ivr call volume":37,"id":"a6h8kx45647y","geo_precision":"zip","state":"New York"},"type":"Feature","geometry":{"type":"Point","coordinates":[-79.354493,42.097835]}},{"properties":{"geo_score":0.857,"zip code":"14753","ivr call volume":7,"id":"a6h8kwvogk6d","geo_precision":"zip","state":"New York"},"type":"Feature","geometry":{"type":"Point","coordinates":[-78.545024,42.011175]}},{"properties":{"geo_score":0.857,"zip code":"14755","ivr call volume":11,"id":"a6h8kx59ukfj","geo_precision":"zip","state":"New York"},"type":"Feature","geometry":{"type":"Point","coordinates":[-78.716142,42.304508]}},{"properties":{"geo_score":0.857,"zip code":"14757","ivr call volume":74,"id":"a6h8kx5trsxj","geo_precision":"zip","state":"New York"},"type":"Feature","geometry":{"type":"Point","coordinates":[-79.448381,42.19228]}},{"properties":{"geo_score":0.857,"zip code":"14760","ivr call volume":168,"id":"a6h8kww6x33l","geo_precision":"zip","state":"New York"},"type":"Feature","geometry":{"type":"Point","coordinates":[-78.440853,42.073954]}},{"properties":{"geo_score":0.857,"zip code":"14767","ivr call volume":15,"id":"a6h8kx0yb30s","geo_precision":"zip","state":"New York"},"type":"Feature","geometry":{"type":"Point","coordinates":[-79.505101,42.191346]}},{"properties":{"geo_score":0.857,"zip code":"14770","ivr call volume":16,"id":"a6h8kx8se13t","geo_precision":"zip","state":"New York"},"type":"Feature","geometry":{"type":"Point","coordinates":[-78.338627,42.025899]}},{"properties":{"geo_score":0.857,"zip code":"14772","ivr call volume":41,"id":"a6h8kx8so3ou","geo_precision":"zip","state":"New York"},"type":"Feature","geometry":{"type":"Point","coordinates":[-79.015319,42.129505]}},{"properties":{"geo_score":0.857,"zip code":"14775","ivr call volume":19,"id":"a6h8kx0ty3wu","geo_precision":"zip","state":"New York"},"type":"Feature","geometry":{"type":"Point","coordinates":[-79.688658,42.227002]}},{"properties":{"geo_score":0.857,"zip code":"14777","ivr call volume":2,"id":"a6h8kx5kq1k6","geo_precision":"zip","state":"New York"},"type":"Feature","geometry":{"type":"Point","coordinates":[-78.227513,42.349232]}},{"properties":{"geo_score":0.857,"zip code":"14779","ivr call volume":40,"id":"a6h8kx99zl8q","geo_precision":"zip","state":"New York"},"type":"Feature","geometry":{"type":"Point","coordinates":[-78.801979,42.112285]}},{"properties":{"geo_score":0.857,"zip code":"14781","ivr call volume":2,"id":"a6h8kx0vuyxs","geo_precision":"zip","state":"New York"},"type":"Feature","geometry":{"type":"Point","coordinates":[-79.688104,42.130056]}},{"properties":{"geo_score":0.857,"zip code":"14782","ivr call volume":11,"id":"a6h8kx42frqc","geo_precision":"zip","state":"New York"},"type":"Feature","geometry":{"type":"Point","coordinates":[-79.315324,42.244503]}},{"properties":{"geo_score":0.857,"zip code":"14787","ivr call volume":27,"id":"a6h8kx7xluua","geo_precision":"zip","state":"New York"},"type":"Feature","geometry":{"type":"Point","coordinates":[-79.521436,42.35228]}},{"properties":{"geo_score":0.857,"zip code":"14801","ivr call volume":14,"id":"a6h8kwyklook","geo_precision":"zip","state":"New York"},"type":"Feature","geometry":{"type":"Point","coordinates":[-77.269423,42.082018]}},{"properties":{"geo_score":0.857,"zip code":"14802","ivr call volume":1,"id":"a6h8kwxp3g2t","geo_precision":"zip","state":"New York"},"type":"Feature","geometry":{"type":"Point","coordinates":[-77.783192,42.240535]}},{"properties":{"geo_score":0.857,"zip code":"14804","ivr call volume":1,"id":"a6h8kx96i767","geo_precision":"zip","state":"New York"},"type":"Feature","geometry":{"type":"Point","coordinates":[-77.883055,42.299513]}},{"properties":{"geo_score":0.857,"zip code":"14806","ivr call volume":10,"id":"a6h8kx7bnv6z","geo_precision":"zip","state":"New York"},"type":"Feature","geometry":{"type":"Point","coordinates":[-77.781384,42.088124]}},{"properties":{"geo_score":0.857,"zip code":"14807","ivr call volume":9,"id":"a6h8kx5gb8bn","geo_precision":"zip","state":"New York"},"type":"Feature","geometry":{"type":"Point","coordinates":[-77.653881,42.46979]}},{"properties":{"geo_score":0.857,"zip code":"14808","ivr call volume":5,"id":"a6h8kx79ett0","geo_precision":"zip","state":"New York"},"type":"Feature","geometry":{"type":"Point","coordinates":[-77.468518,42.562012]}},{"properties":{"geo_score":0.857,"zip code":"14809","ivr call volume":12,"id":"a6h8kx2prlef","geo_precision":"zip","state":"New York"},"type":"Feature","geometry":{"type":"Point","coordinates":[-77.508876,42.364237]}},{"properties":{"geo_score":0.857,"zip code":"14810","ivr call volume":74,"id":"a6h8kx3qot3b","geo_precision":"zip","state":"New York"},"type":"Feature","geometry":{"type":"Point","coordinates":[-77.332481,42.430349]}},{"properties":{"geo_score":0.857,"zip code":"14813","ivr call volume":12,"id":"a6h8kx0opn3v","geo_precision":"zip","state":"New York"},"type":"Feature","geometry":{"type":"Point","coordinates":[-77.893611,42.258125]}},{"properties":{"geo_score":0.857,"zip code":"14814","ivr call volume":28,"id":"a6h8kwwwrqtz","geo_precision":"zip","state":"New York"},"type":"Feature","geometry":{"type":"Point","coordinates":[-76.93164,42.156516]}},{"properties":{"geo_score":0.857,"zip code":"14818","ivr call volume":10,"id":"a6h8kx55g46l","geo_precision":"zip","state":"New York"},"type":"Feature","geometry":{"type":"Point","coordinates":[-76.770231,42.467017]}},{"properties":{"geo_score":0.857,"zip code":"14819","ivr call volume":3,"id":"a6h8kwyjzs4t","geo_precision":"zip","state":"New York"},"type":"Feature","geometry":{"type":"Point","coordinates":[-77.419427,42.223961]}},{"properties":{"geo_score":0.857,"zip code":"14821","ivr call volume":13,"id":"a6h8kww27l83","geo_precision":"zip","state":"New York"},"type":"Feature","geometry":{"type":"Point","coordinates":[-77.264144,42.222851]}},{"properties":{"geo_score":0.857,"zip code":"14822","ivr call volume":9,"id":"a6h8kx3gk4b9","geo_precision":"zip","state":"New York"},"type":"Feature","geometry":{"type":"Point","coordinates":[-77.82472,42.459511]}},{"properties":{"geo_score":0.857,"zip code":"14823","ivr call volume":20,"id":"a6h8kx8l5npy","geo_precision":"zip","state":"New York"},"type":"Feature","geometry":{"type":"Point","coordinates":[-77.550543,42.195905]}},{"properties":{"geo_score":0.857,"zip code":"14825","ivr call volume":12,"id":"a6h8kx3funjz","geo_precision":"zip","state":"New York"},"type":"Feature","geometry":{"type":"Point","coordinates":[-76.597169,42.068685]}},{"properties":{"geo_score":0.857,"zip code":"14826","ivr call volume":10,"id":"a6h8kwvltigo","geo_precision":"zip","state":"New York"},"type":"Feature","geometry":{"type":"Point","coordinates":[-77.565823,42.423125]}},{"properties":{"geo_score":0.857,"zip code":"14830","ivr call volume":235,"id":"a6h8kx8rhboc","geo_precision":"zip","state":"New York"},"type":"Feature","geometry":{"type":"Point","coordinates":[-77.063858,42.081185]}},{"properties":{"geo_score":0.857,"zip code":"14836","ivr call volume":3,"id":"a6h8kwwiwbds","geo_precision":"zip","state":"New York"},"type":"Feature","geometry":{"type":"Point","coordinates":[-77.900001,42.551454]}},{"properties":{"geo_score":0.857,"zip code":"14837","ivr call volume":15,"id":"a6h8kx91k31g","geo_precision":"zip","state":"New York"},"type":"Feature","geometry":{"type":"Point","coordinates":[-77.074691,42.420905]}},{"properties":{"geo_score":0.857,"zip code":"14839","ivr call volume":7,"id":"a6h8kxaflc4k","geo_precision":"zip","state":"New York"},"type":"Feature","geometry":{"type":"Point","coordinates":[-77.713603,42.153681]}},{"properties":{"geo_score":0.857,"zip code":"14840","ivr call volume":36,"id":"a6h8kwuyihwt","geo_precision":"zip","state":"New York"},"type":"Feature","geometry":{"type":"Point","coordinates":[-77.181085,42.454516]}},{"properties":{"geo_score":0.857,"zip code":"14843","ivr call volume":92,"id":"a6h8kx8fsen5","geo_precision":"zip","state":"New York"},"type":"Feature","geometry":{"type":"Point","coordinates":[-77.655824,42.302015]}},{"properties":{"geo_score":0.857,"zip code":"14847","ivr call volume":4,"id":"a6h8kxb5yi54","geo_precision":"zip","state":"New York"},"type":"Feature","geometry":{"type":"Point","coordinates":[-76.782176,42.572849]}},{"properties":{"geo_score":0.857,"zip code":"14850","ivr call volume":122,"id":"a6h8kx58mwdf","geo_precision":"zip","state":"New York"},"type":"Feature","geometry":{"type":"Point","coordinates":[-76.437994,42.455073]}},{"properties":{"geo_score":0.857,"zip code":"14853","ivr call volume":178,"id":"a6h8kwvjacmk","geo_precision":"zip","state":"New York"},"type":"Feature","geometry":{"type":"Point","coordinates":[-76.483703,42.447373]}},{"properties":{"geo_score":0.857,"zip code":"14855","ivr call volume":6,"id":"a6h8kx13ztpn","geo_precision":"zip","state":"New York"},"type":"Feature","geometry":{"type":"Point","coordinates":[-77.524153,42.163404]}},{"properties":{"geo_score":0.857,"zip code":"14858","ivr call volume":18,"id":"a6h8kwyp777n","geo_precision":"zip","state":"New York"},"type":"Feature","geometry":{"type":"Point","coordinates":[-77.154695,42.08563]}},{"properties":{"geo_score":0.857,"zip code":"14859","ivr call volume":26,"id":"a6h8kx7chlzd","geo_precision":"zip","state":"New York"},"type":"Feature","geometry":{"type":"Point","coordinates":[-76.616892,42.123685]}},{"properties":{"geo_score":0.857,"zip code":"14860","ivr call volume":1,"id":"a6h8kwvkf5qf","geo_precision":"zip","state":"New York"},"type":"Feature","geometry":{"type":"Point","coordinates":[-76.820511,42.571182]}},{"properties":{"geo_score":0.857,"zip code":"14867","ivr call volume":24,"id":"a6h8kwwqrbkd","geo_precision":"zip","state":"New York"},"type":"Feature","geometry":{"type":"Point","coordinates":[-76.632447,42.383684]}},{"properties":{"geo_score":0.857,"zip code":"14869","ivr call volume":16,"id":"a6h8kx7ipe1x","geo_precision":"zip","state":"New York"},"type":"Feature","geometry":{"type":"Point","coordinates":[-76.784676,42.312852]}},{"properties":{"geo_score":0.857,"zip code":"14873","ivr call volume":14,"id":"a6h8kx7vw93m","geo_precision":"zip","state":"New York"},"type":"Feature","geometry":{"type":"Point","coordinates":[-77.288868,42.523959]}},{"properties":{"geo_score":0.857,"zip code":"14874","ivr call volume":2,"id":"a6h8kx818kci","geo_precision":"zip","state":"New York"},"type":"Feature","geometry":{"type":"Point","coordinates":[-77.197141,42.520261]}},{"properties":{"geo_score":0.857,"zip code":"14879","ivr call volume":20,"id":"a6h8kx0mkjq9","geo_precision":"zip","state":"New York"},"type":"Feature","geometry":{"type":"Point","coordinates":[-77.126916,42.311185]}},{"properties":{"geo_score":0.857,"zip code":"14881","ivr call volume":20,"id":"a6h8kx08edty","geo_precision":"zip","state":"New York"},"type":"Feature","geometry":{"type":"Point","coordinates":[-76.362991,42.393962]}},{"properties":{"geo_score":0.857,"zip code":"14882","ivr call volume":31,"id":"a6h8kxapjdsb","geo_precision":"zip","state":"New York"},"type":"Feature","geometry":{"type":"Point","coordinates":[-76.539386,42.539516]}},{"properties":{"geo_score":0.857,"zip code":"14883","ivr call volume":18,"id":"a6h8kwyleen9","geo_precision":"zip","state":"New York"},"type":"Feature","geometry":{"type":"Point","coordinates":[-76.507442,42.255907]}},{"properties":{"geo_score":0.857,"zip code":"14885","ivr call volume":20,"id":"a6h8kx32an1q","geo_precision":"zip","state":"New York"},"type":"Feature","geometry":{"type":"Point","coordinates":[-77.6086,42.052848]}},{"properties":{"geo_score":0.857,"zip code":"14886","ivr call volume":34,"id":"a6h8kwvrvhkt","geo_precision":"zip","state":"New York"},"type":"Feature","geometry":{"type":"Point","coordinates":[-76.67606,42.505628]}},{"properties":{"geo_score":0.857,"zip code":"14891","ivr call volume":73,"id":"a6h8kx87k1nq","geo_precision":"zip","state":"New York"},"type":"Feature","geometry":{"type":"Point","coordinates":[-76.886626,42.342018]}},{"properties":{"geo_score":0.714,"zip code":"14892","ivr call volume":65,"id":"a6h8kxakyh5l","geo_precision":"zip","state":"New York"},"type":"Feature","geometry":{"type":"Point","coordinates":[-76.537167,41.997574]}},{"properties":{"geo_score":0.857,"zip code":"14895","ivr call volume":89,"id":"a6h8kx4bu41q","geo_precision":"zip","state":"New York"},"type":"Feature","geometry":{"type":"Point","coordinates":[-77.922223,42.086457]}},{"properties":{"geo_score":0.857,"zip code":"14897","ivr call volume":8,"id":"a6h8kwywuel7","geo_precision":"zip","state":"New York"},"type":"Feature","geometry":{"type":"Point","coordinates":[-77.763605,42.007846]}},{"properties":{"geo_score":0.857,"zip code":"14898","ivr call volume":7,"id":"a6h8kx3zwovq","geo_precision":"zip","state":"New York"},"type":"Feature","geometry":{"type":"Point","coordinates":[-77.438058,42.069469]}},{"properties":{"geo_score":0.857,"zip code":"14901","ivr call volume":368,"id":"a6h8kwyvct4i","geo_precision":"zip","state":"New York"},"type":"Feature","geometry":{"type":"Point","coordinates":[-76.71857,42.082585]}},{"properties":{"geo_score":0.857,"zip code":"14903","ivr call volume":124,"id":"a6h8kx1ccttt","geo_precision":"zip","state":"New York"},"type":"Feature","geometry":{"type":"Point","coordinates":[-76.868848,42.156464]}},{"properties":{"geo_score":0.857,"zip code":"14925","ivr call volume":65,"id":"a6h8kx4w94tt","geo_precision":"zip","state":"New York"},"type":"Feature","geometry":{"type":"Point","coordinates":[-76.750888,42.147285]}}],"is_temporal":false,"author":{"url":"","metadata":"","contact_name":"","contact_address":"","source":"","contact_phone":""},"source":"","pagination":{"sort":null,"start":0,"total":864,"limit":1000000},"state":"complete","tags":"","published":"2014-08-10T21:21:42-04:00","id":67886}