{"type":"FeatureCollection","data_type":"Dataset","url_type":null,"permissions":[{"permissions":{"download":true,"view":true},"group_id":"everyone"}],"classification":null,"title":"WY data v1","count":64,"stream_id":67896,"contributor":{"url":"http://geocommons.com/users/16194","name":"twisecar"},"data_attributes":null,"calculation_params":null,"icon_link":null,"link":"http://geocommons.com/overlays/67896.json","extent":[-111.113,40.918,-104.11,44.85],"geometry_types":["point"],"unique_name":null,"name":"WY data v1","feature_count":64,"description":"","next_feature":null,"is_raster":false,"short_classification":"Y","stats":{"geo_score":{"max":0.857,"mean":0.852531249999999,"variance":0.000628887896825397,"stdev":0.0250776373852362,"min":0.714,"median":0.857},"ivr call volume":{"max":470,"mean":44.953125,"variance":5989.60094246032,"stdev":77.392512186001,"min":1,"median":18}},"features":[{"properties":{"geo_score":0.857,"zip code":"82001","ivr call volume":70,"id":"a66d81bwokbr","geo_precision":"zip","state":"Wyoming"},"type":"Feature","geometry":{"type":"Point","coordinates":[-104.86216,41.149267]}},{"properties":{"geo_score":0.857,"zip code":"82005","ivr call volume":470,"id":"a66d81qpbse3","geo_precision":"zip","state":"Wyoming"},"type":"Feature","geometry":{"type":"Point","coordinates":[-104.820246,41.139981]}},{"properties":{"geo_score":0.857,"zip code":"82007","ivr call volume":8,"id":"a66d81g4vzdr","geo_precision":"zip","state":"Wyoming"},"type":"Feature","geometry":{"type":"Point","coordinates":[-104.666476,41.209351]}},{"properties":{"geo_score":0.857,"zip code":"82053","ivr call volume":4,"id":"a66d81oirfq7","geo_precision":"zip","state":"Wyoming"},"type":"Feature","geometry":{"type":"Point","coordinates":[-104.256899,41.169704]}},{"properties":{"geo_score":0.857,"zip code":"82058","ivr call volume":3,"id":"a66d81me4q3c","geo_precision":"zip","state":"Wyoming"},"type":"Feature","geometry":{"type":"Point","coordinates":[-105.974725,41.741356]}},{"properties":{"geo_score":0.857,"zip code":"82072","ivr call volume":157,"id":"a66d81ebx3al","geo_precision":"zip","state":"Wyoming"},"type":"Feature","geometry":{"type":"Point","coordinates":[-105.708717,41.582018]}},{"properties":{"geo_score":0.857,"zip code":"82082","ivr call volume":5,"id":"a66d81d7jjyq","geo_precision":"zip","state":"Wyoming"},"type":"Feature","geometry":{"type":"Point","coordinates":[-104.109675,41.311647]}},{"properties":{"geo_score":0.857,"zip code":"82190","ivr call volume":2,"id":"a66d81h5z7iq","geo_precision":"zip","state":"Wyoming"},"type":"Feature","geometry":{"type":"Point","coordinates":[-110.575485,44.415495]}},{"properties":{"geo_score":0.857,"zip code":"82201","ivr call volume":36,"id":"a66d81cvbo75","geo_precision":"zip","state":"Wyoming"},"type":"Feature","geometry":{"type":"Point","coordinates":[-104.919693,42.131914]}},{"properties":{"geo_score":0.857,"zip code":"82214","ivr call volume":5,"id":"a66d81rhth6f","geo_precision":"zip","state":"Wyoming"},"type":"Feature","geometry":{"type":"Point","coordinates":[-104.786912,42.256819]}},{"properties":{"geo_score":0.857,"zip code":"82227","ivr call volume":3,"id":"a66d81c4a5bu","geo_precision":"zip","state":"Wyoming"},"type":"Feature","geometry":{"type":"Point","coordinates":[-104.702397,42.73001]}},{"properties":{"geo_score":0.857,"zip code":"82240","ivr call volume":65,"id":"a66d81fa3yvz","geo_precision":"zip","state":"Wyoming"},"type":"Feature","geometry":{"type":"Point","coordinates":[-104.179395,42.049687]}},{"properties":{"geo_score":0.857,"zip code":"82301","ivr call volume":41,"id":"a66d81qws6bs","geo_precision":"zip","state":"Wyoming"},"type":"Feature","geometry":{"type":"Point","coordinates":[-107.55062,41.735238]}},{"properties":{"geo_score":0.857,"zip code":"82321","ivr call volume":10,"id":"a66d81e3olld","geo_precision":"zip","state":"Wyoming"},"type":"Feature","geometry":{"type":"Point","coordinates":[-107.569976,41.025579]}},{"properties":{"geo_score":0.857,"zip code":"82325","ivr call volume":19,"id":"a66d81btiwjo","geo_precision":"zip","state":"Wyoming"},"type":"Feature","geometry":{"type":"Point","coordinates":[-106.778928,41.217465]}},{"properties":{"geo_score":0.857,"zip code":"82327","ivr call volume":7,"id":"a66d81ji56k1","geo_precision":"zip","state":"Wyoming"},"type":"Feature","geometry":{"type":"Point","coordinates":[-106.803375,42.250238]}},{"properties":{"geo_score":0.857,"zip code":"82329","ivr call volume":3,"id":"a66d81e9qzdz","geo_precision":"zip","state":"Wyoming"},"type":"Feature","geometry":{"type":"Point","coordinates":[-106.180829,41.834011]}},{"properties":{"geo_score":0.857,"zip code":"82401","ivr call volume":33,"id":"a66d81jwchkg","geo_precision":"zip","state":"Wyoming"},"type":"Feature","geometry":{"type":"Point","coordinates":[-108.141457,44.008105]}},{"properties":{"geo_score":0.857,"zip code":"82410","ivr call volume":4,"id":"a66d81frmakz","geo_precision":"zip","state":"Wyoming"},"type":"Feature","geometry":{"type":"Point","coordinates":[-108.165824,44.346935]}},{"properties":{"geo_score":0.857,"zip code":"82411","ivr call volume":2,"id":"a66d81i3hzl0","geo_precision":"zip","state":"Wyoming"},"type":"Feature","geometry":{"type":"Point","coordinates":[-108.470326,44.436282]}},{"properties":{"geo_score":0.857,"zip code":"82414","ivr call volume":102,"id":"a66d81j4bjko","geo_precision":"zip","state":"Wyoming"},"type":"Feature","geometry":{"type":"Point","coordinates":[-109.962963,44.503001]}},{"properties":{"geo_score":0.857,"zip code":"82421","ivr call volume":2,"id":"a66d81ea43xc","geo_precision":"zip","state":"Wyoming"},"type":"Feature","geometry":{"type":"Point","coordinates":[-108.335432,44.702955]}},{"properties":{"geo_score":0.857,"zip code":"82426","ivr call volume":14,"id":"a66d81czs1dp","geo_precision":"zip","state":"Wyoming"},"type":"Feature","geometry":{"type":"Point","coordinates":[-108.130553,44.477394]}},{"properties":{"geo_score":0.857,"zip code":"82431","ivr call volume":25,"id":"a66d81f8lsi4","geo_precision":"zip","state":"Wyoming"},"type":"Feature","geometry":{"type":"Point","coordinates":[-108.202888,44.843566]}},{"properties":{"geo_score":0.857,"zip code":"82433","ivr call volume":9,"id":"a66d81hm6u0u","geo_precision":"zip","state":"Wyoming"},"type":"Feature","geometry":{"type":"Point","coordinates":[-108.990967,44.027455]}},{"properties":{"geo_score":0.857,"zip code":"82435","ivr call volume":57,"id":"a66d81o2pich","geo_precision":"zip","state":"Wyoming"},"type":"Feature","geometry":{"type":"Point","coordinates":[-108.678461,44.839396]}},{"properties":{"geo_score":0.857,"zip code":"82442","ivr call volume":6,"id":"a66d81iftl58","geo_precision":"zip","state":"Wyoming"},"type":"Feature","geometry":{"type":"Point","coordinates":[-107.530662,43.908687]}},{"properties":{"geo_score":0.857,"zip code":"82443","ivr call volume":34,"id":"a66d81clw9tu","geo_precision":"zip","state":"Wyoming"},"type":"Feature","geometry":{"type":"Point","coordinates":[-108.205932,43.678567]}},{"properties":{"geo_score":0.857,"zip code":"82501","ivr call volume":128,"id":"a66d81kj4cvh","geo_precision":"zip","state":"Wyoming"},"type":"Feature","geometry":{"type":"Point","coordinates":[-108.181482,42.760518]}},{"properties":{"geo_score":0.857,"zip code":"82512","ivr call volume":7,"id":"a66d81jj93ze","geo_precision":"zip","state":"Wyoming"},"type":"Feature","geometry":{"type":"Point","coordinates":[-109.274859,43.364124]}},{"properties":{"geo_score":0.857,"zip code":"82513","ivr call volume":20,"id":"a66d81phuw6q","geo_precision":"zip","state":"Wyoming"},"type":"Feature","geometry":{"type":"Point","coordinates":[-109.704749,43.549861]}},{"properties":{"geo_score":0.857,"zip code":"82520","ivr call volume":85,"id":"a66d81pu2712","geo_precision":"zip","state":"Wyoming"},"type":"Feature","geometry":{"type":"Point","coordinates":[-108.183704,42.542182]}},{"properties":{"geo_score":0.857,"zip code":"82601","ivr call volume":128,"id":"a66d81c8bmf2","geo_precision":"zip","state":"Wyoming"},"type":"Feature","geometry":{"type":"Point","coordinates":[-106.342805,42.898577]}},{"properties":{"geo_score":0.857,"zip code":"82615","ivr call volume":343,"id":"a66d81bkndy6","geo_precision":"zip","state":"Wyoming"},"type":"Feature","geometry":{"type":"Point","coordinates":[-106.999195,41.71694]}},{"properties":{"geo_score":0.857,"zip code":"82633","ivr call volume":51,"id":"a66d81qbcpq5","geo_precision":"zip","state":"Wyoming"},"type":"Feature","geometry":{"type":"Point","coordinates":[-105.5036,42.854689]}},{"properties":{"geo_score":0.857,"zip code":"82637","ivr call volume":41,"id":"a66d81epm8ay","geo_precision":"zip","state":"Wyoming"},"type":"Feature","geometry":{"type":"Point","coordinates":[-105.84417,42.902744]}},{"properties":{"geo_score":0.857,"zip code":"82639","ivr call volume":7,"id":"a66d81r38jon","geo_precision":"zip","state":"Wyoming"},"type":"Feature","geometry":{"type":"Point","coordinates":[-106.295027,43.698308]}},{"properties":{"geo_score":0.857,"zip code":"82649","ivr call volume":8,"id":"a66d81c2l3kq","geo_precision":"zip","state":"Wyoming"},"type":"Feature","geometry":{"type":"Point","coordinates":[-108.073427,43.268847]}},{"properties":{"geo_score":0.857,"zip code":"82701","ivr call volume":30,"id":"a66d81nl0s3d","geo_precision":"zip","state":"Wyoming"},"type":"Feature","geometry":{"type":"Point","coordinates":[-104.692462,43.700531]}},{"properties":{"geo_score":0.857,"zip code":"82711","ivr call volume":3,"id":"a66d81c372ec","geo_precision":"zip","state":"Wyoming"},"type":"Feature","geometry":{"type":"Point","coordinates":[-104.441353,44.68734]}},{"properties":{"geo_score":0.857,"zip code":"82716","ivr call volume":128,"id":"a66d81peyq5r","geo_precision":"zip","state":"Wyoming"},"type":"Feature","geometry":{"type":"Point","coordinates":[-105.379716,44.291369]}},{"properties":{"geo_score":0.857,"zip code":"82718","ivr call volume":1,"id":"a66d81b9p2c6","geo_precision":"zip","state":"Wyoming"},"type":"Feature","geometry":{"type":"Point","coordinates":[-105.549244,43.928249]}},{"properties":{"geo_score":0.857,"zip code":"82721","ivr call volume":4,"id":"a66d81ergjdd","geo_precision":"zip","state":"Wyoming"},"type":"Feature","geometry":{"type":"Point","coordinates":[-104.810526,44.35776]}},{"properties":{"geo_score":0.857,"zip code":"82723","ivr call volume":1,"id":"a66d81kjyj3f","geo_precision":"zip","state":"Wyoming"},"type":"Feature","geometry":{"type":"Point","coordinates":[-104.360224,44.04631]}},{"properties":{"geo_score":0.857,"zip code":"82729","ivr call volume":9,"id":"a66d81pvotjv","geo_precision":"zip","state":"Wyoming"},"type":"Feature","geometry":{"type":"Point","coordinates":[-104.420625,44.352274]}},{"properties":{"geo_score":0.857,"zip code":"82730","ivr call volume":8,"id":"a66d81j9z3vi","geo_precision":"zip","state":"Wyoming"},"type":"Feature","geometry":{"type":"Point","coordinates":[-104.620856,43.937319]}},{"properties":{"geo_score":0.857,"zip code":"82801","ivr call volume":119,"id":"a66d81r5zhc2","geo_precision":"zip","state":"Wyoming"},"type":"Feature","geometry":{"type":"Point","coordinates":[-107.129795,44.748581]}},{"properties":{"geo_score":0.857,"zip code":"82834","ivr call volume":51,"id":"a66d81dwi7wy","geo_precision":"zip","state":"Wyoming"},"type":"Feature","geometry":{"type":"Point","coordinates":[-106.561068,44.122611]}},{"properties":{"geo_score":0.857,"zip code":"82844","ivr call volume":18,"id":"a66d81cwz9xz","geo_precision":"zip","state":"Wyoming"},"type":"Feature","geometry":{"type":"Point","coordinates":[-107.185309,44.850012]}},{"properties":{"geo_score":0.714,"zip code":"82901","ivr call volume":110,"id":"a66d81ly60yi","geo_precision":"zip","state":"Wyoming"},"type":"Feature","geometry":{"type":"Point","coordinates":[-108.817058,40.918017]}},{"properties":{"geo_score":0.714,"zip code":"82930","ivr call volume":68,"id":"a66d81dybte4","geo_precision":"zip","state":"Wyoming"},"type":"Feature","geometry":{"type":"Point","coordinates":[-111.112964,41.199112]}},{"properties":{"geo_score":0.857,"zip code":"82932","ivr call volume":2,"id":"a66d81d5meyn","geo_precision":"zip","state":"Wyoming"},"type":"Feature","geometry":{"type":"Point","coordinates":[-109.418358,42.083362]}},{"properties":{"geo_score":0.857,"zip code":"82933","ivr call volume":10,"id":"a66d81e4czbc","geo_precision":"zip","state":"Wyoming"},"type":"Feature","geometry":{"type":"Point","coordinates":[-110.62739,41.216059]}},{"properties":{"geo_score":0.857,"zip code":"82935","ivr call volume":41,"id":"a66d81g3nwbf","geo_precision":"zip","state":"Wyoming"},"type":"Feature","geometry":{"type":"Point","coordinates":[-109.585694,41.549685]}},{"properties":{"geo_score":0.857,"zip code":"82937","ivr call volume":17,"id":"a66d81jeqv9h","geo_precision":"zip","state":"Wyoming"},"type":"Feature","geometry":{"type":"Point","coordinates":[-110.336268,41.316062]}},{"properties":{"geo_score":0.857,"zip code":"82941","ivr call volume":29,"id":"a66d81de3hya","geo_precision":"zip","state":"Wyoming"},"type":"Feature","geometry":{"type":"Point","coordinates":[-109.938968,42.849757]}},{"properties":{"geo_score":0.857,"zip code":"83001","ivr call volume":109,"id":"a66d81iz11g0","geo_precision":"zip","state":"Wyoming"},"type":"Feature","geometry":{"type":"Point","coordinates":[-110.739266,43.452793]}},{"properties":{"geo_score":0.857,"zip code":"83013","ivr call volume":1,"id":"a66d81fic6lk","geo_precision":"zip","state":"Wyoming"},"type":"Feature","geometry":{"type":"Point","coordinates":[-110.553181,43.950896]}},{"properties":{"geo_score":0.857,"zip code":"83101","ivr call volume":8,"id":"a66d81jow1f9","geo_precision":"zip","state":"Wyoming"},"type":"Feature","geometry":{"type":"Point","coordinates":[-110.059043,41.984949]}},{"properties":{"geo_score":0.857,"zip code":"83110","ivr call volume":43,"id":"a66d81j8yfk7","geo_precision":"zip","state":"Wyoming"},"type":"Feature","geometry":{"type":"Point","coordinates":[-110.619734,42.711296]}},{"properties":{"geo_score":0.857,"zip code":"83113","ivr call volume":19,"id":"a66d81kw7npf","geo_precision":"zip","state":"Wyoming"},"type":"Feature","geometry":{"type":"Point","coordinates":[-110.109325,42.553553]}},{"properties":{"geo_score":0.857,"zip code":"83114","ivr call volume":6,"id":"a66d81or1x14","geo_precision":"zip","state":"Wyoming"},"type":"Feature","geometry":{"type":"Point","coordinates":[-110.941119,42.247455]}},{"properties":{"geo_score":0.857,"zip code":"83120","ivr call volume":25,"id":"a66d81bc7zzu","geo_precision":"zip","state":"Wyoming"},"type":"Feature","geometry":{"type":"Point","coordinates":[-111.003953,43.026767]}},{"properties":{"geo_score":0.857,"zip code":"83123","ivr call volume":3,"id":"a66d81n57okr","geo_precision":"zip","state":"Wyoming"},"type":"Feature","geometry":{"type":"Point","coordinates":[-110.259052,42.28383]}}],"is_temporal":false,"author":{"url":"","metadata":"","contact_name":"","contact_address":"","source":"","contact_phone":""},"source":"","pagination":{"sort":null,"start":0,"total":64,"limit":1000000},"state":"complete","tags":"","published":"2014-08-10T21:23:13-04:00","id":67896}