{"type":"FeatureCollection","data_type":"Dataset","url_type":null,"permissions":[{"permissions":{"download":true,"view":true},"group_id":"everyone"}],"classification":null,"title":"ABLeague","count":34,"stream_id":67924,"contributor":{"url":"http://geocommons.com/users/12003","name":"LauraHale"},"data_attributes":null,"calculation_params":null,"icon_link":null,"link":"http://geocommons.com/overlays/67924.json","extent":[-118.326,-38.4304,153.412,45.5089],"geometry_types":["point"],"unique_name":null,"name":"ABLeague","feature_count":34,"description":"","next_feature":null,"is_raster":false,"short_classification":"Y","stats":{"latitude":{"max":45.508867,"mean":-19.3763436941177,"variance":896.238262875185,"stdev":29.9372387316396,"min":-38.4303993,"median":-33.716405},"longitude":{"max":153.411924,"mean":103.732425023529,"variance":8230.71610512983,"stdev":90.7232941704049,"min":-118.32583,"median":144.978128},"ableague":{"max":21,"mean":3.08823529411765,"variance":29.0525846702317,"stdev":5.3900449599453,"min":1,"median":1}},"features":[{"properties":{"city":"Adelaide","latitude":-34.92577,"country":"Australia","longitude":138.599732,"id":"a65jukgge4kn","ableague":3,"state":"South Australia"},"type":"Feature","geometry":{"type":"Point","coordinates":[138.599732,-34.92577]}},{"properties":{"city":"Bendigo","latitude":-36.755513,"country":"Australia","longitude":144.284263,"id":"a65juki0iqb1","ableague":1,"state":"Victoria"},"type":"Feature","geometry":{"type":"Point","coordinates":[144.284263,-36.755513]}},{"properties":{"city":"Berwick","latitude":-38.030467,"country":"Australia","longitude":145.344621,"id":"a65jukd411s3","ableague":1,"state":"Victoria"},"type":"Feature","geometry":{"type":"Point","coordinates":[145.344621,-38.030467]}},{"properties":{"city":"Brisbane","latitude":-27.46758,"country":"Australia","longitude":153.027892,"id":"a65jukcgh222","ableague":9,"state":"Queensland"},"type":"Feature","geometry":{"type":"Point","coordinates":[153.027892,-27.46758]}},{"properties":{"city":"Broadbeach Waters","latitude":-28.030491,"country":"Australia","longitude":153.411924,"id":"a65jukkqoqu0","ableague":1,"state":"Queensland"},"type":"Feature","geometry":{"type":"Point","coordinates":[153.411924,-28.030491]}},{"properties":{"city":"Canberra","latitude":-35.28204,"country":"Australia","longitude":149.12858,"id":"a65jukfmvtrp","ableague":4,"state":"Australian Capital Territory"},"type":"Feature","geometry":{"type":"Point","coordinates":[149.12858,-35.28204]}},{"properties":{"city":"Chicago","latitude":41.8781136,"country":"United States","longitude":-87.6297982,"id":"a65jukapmdl2","ableague":1,"state":"Illinois"},"type":"Feature","geometry":{"type":"Point","coordinates":[-87.6297982,41.8781136]}},{"properties":{"city":"Docklands","latitude":-37.821329,"country":"Australia","longitude":144.954355,"id":"a65jukg8kz5u","ableague":1,"state":"Victoria"},"type":"Feature","geometry":{"type":"Point","coordinates":[144.954355,-37.821329]}},{"properties":{"city":"Fitzroy","latitude":-37.800359,"country":"Australia","longitude":144.978128,"id":"a65jukd0ln0t","ableague":1,"state":"Victoria"},"type":"Feature","geometry":{"type":"Point","coordinates":[144.978128,-37.800359]}},{"properties":{"city":"Fremantle","latitude":-32.053128,"country":"Australia","longitude":115.745869,"id":"a65juknq9t9o","ableague":1,"state":"Western Australia"},"type":"Feature","geometry":{"type":"Point","coordinates":[115.745869,-32.053128]}},{"properties":{"city":"Gold Coast","latitude":-27.9852778,"country":"Australia","longitude":153.3919444,"id":"a65jukgmx8d1","ableague":2,"state":"Queensland"},"type":"Feature","geometry":{"type":"Point","coordinates":[153.3919444,-27.9852778]}},{"properties":{"city":"Gold Coast","latitude":-27.9852778,"country":"Australia","longitude":153.3919444,"id":"a65jukchtmf4","ableague":1,"state":"Queensland"},"type":"Feature","geometry":{"type":"Point","coordinates":[153.3919444,-27.9852778]}},{"properties":{"city":"Hollywood","latitude":34.09833,"country":"United States","longitude":-118.32583,"id":"a65jukdz713z","ableague":1,"state":"California"},"type":"Feature","geometry":{"type":"Point","coordinates":[-118.32583,34.09833]}},{"properties":{"city":"Hong Kong","latitude":22.2478599,"country":"Hong Kong","longitude":114.2033843,"id":"a65jukjkcpdh","ableague":1,"state":null},"type":"Feature","geometry":{"type":"Point","coordinates":[114.2033843,22.2478599]}},{"properties":{"city":"Lethbridge","latitude":-37.951971,"country":"Australia","longitude":144.131428,"id":"a65jukoeph9i","ableague":1,"state":"Victoria"},"type":"Feature","geometry":{"type":"Point","coordinates":[144.131428,-37.951971]}},{"properties":{"city":"Melbourne","latitude":-37.814251,"country":"Australia","longitude":144.963169,"id":"a65jukars7hm","ableague":21,"state":"Victoria"},"type":"Feature","geometry":{"type":"Point","coordinates":[144.963169,-37.814251]}},{"properties":{"city":"Melbourne","latitude":-37.814251,"country":"Australia","longitude":144.963169,"id":"a65juknvjz56","ableague":21,"state":"Victoria"},"type":"Feature","geometry":{"type":"Point","coordinates":[144.963169,-37.814251]}},{"properties":{"city":"Montreal","latitude":45.508867,"country":"Canada","longitude":-73.554242,"id":"a65juklrtv9a","ableague":1,"state":"Quebec"},"type":"Feature","geometry":{"type":"Point","coordinates":[-73.554242,45.508867]}},{"properties":{"city":"Mornington Peninsula","latitude":-38.4303993,"country":"Australia","longitude":144.9336544,"id":"a65jukn43t0o","ableague":1,"state":"Victoria"},"type":"Feature","geometry":{"type":"Point","coordinates":[144.9336544,-38.4303993]}},{"properties":{"city":"Newcastle","latitude":-32.926357,"country":"Australia","longitude":151.78122,"id":"a65jukkmjoi9","ableague":1,"state":"New South Wales"},"type":"Feature","geometry":{"type":"Point","coordinates":[151.78122,-32.926357]}},{"properties":{"city":"Newcastle","latitude":-32.926357,"country":"Australia","longitude":151.78122,"id":"a65jukflegwy","ableague":3,"state":"New South Wales"},"type":"Feature","geometry":{"type":"Point","coordinates":[151.78122,-32.926357]}},{"properties":{"city":"Northcote","latitude":-37.769354,"country":"Australia","longitude":144.999029,"id":"a65juklzr76q","ableague":1,"state":"Victoria"},"type":"Feature","geometry":{"type":"Point","coordinates":[144.999029,-37.769354]}},{"properties":{"city":"Nowra","latitude":-34.872698,"country":"Australia","longitude":150.60342,"id":"a65jukj1e0d9","ableague":1,"state":"New South Wales"},"type":"Feature","geometry":{"type":"Point","coordinates":[150.60342,-34.872698]}},{"properties":{"city":"Peakhurst","latitude":-33.959715,"country":"Australia","longitude":151.062187,"id":"a65juka06tas","ableague":1,"state":"New South Wales"},"type":"Feature","geometry":{"type":"Point","coordinates":[151.062187,-33.959715]}},{"properties":{"city":"Perth","latitude":-31.9554,"country":"Australia","longitude":115.85859,"id":"a65jukfq4cux","ableague":1,"state":"Western Australia"},"type":"Feature","geometry":{"type":"Point","coordinates":[115.85859,-31.9554]}},{"properties":{"city":"Spotswood","latitude":-37.82967,"country":"Australia","longitude":144.885078,"id":"a65jukcnjv0i","ableague":1,"state":"Victoria"},"type":"Feature","geometry":{"type":"Point","coordinates":[144.885078,-37.82967]}},{"properties":{"city":"St. Louis","latitude":38.646991,"country":"United States","longitude":-90.224967,"id":"a65jukkwej3c","ableague":1,"state":"Missouri"},"type":"Feature","geometry":{"type":"Point","coordinates":[-90.224967,38.646991]}},{"properties":{"city":"Sydney","latitude":-33.867139,"country":"Australia","longitude":151.207114,"id":"a65jukju2dms","ableague":16,"state":"New South Wales"},"type":"Feature","geometry":{"type":"Point","coordinates":[151.207114,-33.867139]}},{"properties":{"city":"Toronto","latitude":43.6525,"country":"Canada","longitude":-79.3816667,"id":"a65juki99ryl","ableague":1,"state":"Ontario"},"type":"Feature","geometry":{"type":"Point","coordinates":[-79.3816667,43.6525]}},{"properties":{"city":"Wagga Wagga","latitude":-35.109861,"country":"Australia","longitude":147.370515,"id":"a65juki421v7","ableague":1,"state":"New South Wales"},"type":"Feature","geometry":{"type":"Point","coordinates":[147.370515,-35.109861]}},{"properties":{"city":"Wahroonga","latitude":-33.716405,"country":"Australia","longitude":151.118119,"id":"a65juko2edvi","ableague":1,"state":"New South Wales"},"type":"Feature","geometry":{"type":"Point","coordinates":[151.118119,-33.716405]}},{"properties":{"city":"Warwick","latitude":-28.21652,"country":"Australia","longitude":152.034953,"id":"a65jukfydb1e","ableague":1,"state":"Queensland"},"type":"Feature","geometry":{"type":"Point","coordinates":[152.034953,-28.21652]}},{"properties":{"city":"Washington","latitude":38.8951118,"country":"United States","longitude":-77.0363658,"id":"a65jukcm2o4e","ableague":1,"state":"DC"},"type":"Feature","geometry":{"type":"Point","coordinates":[-77.0363658,38.8951118]}},{"properties":{"city":"Wollongong","latitude":-34.425878,"country":"Australia","longitude":150.899818,"id":"a65jukgcqaq0","ableague":1,"state":"New South Wales"},"type":"Feature","geometry":{"type":"Point","coordinates":[150.899818,-34.425878]}}],"is_temporal":false,"author":{"url":"","metadata":"","contact_name":"","contact_address":"","source":"","contact_phone":""},"source":"","pagination":{"sort":null,"start":0,"total":34,"limit":1000000},"state":"complete","tags":"abl","published":"2014-08-10T21:24:54-04:00","id":67924}