{"type":"FeatureCollection","data_type":"Dataset","url_type":null,"permissions":[{"permissions":{"download":true,"view":true},"group_id":"everyone"}],"classification":null,"title":"Reston Herndon Fairfax","count":9,"stream_id":68139,"contributor":{"url":"http://geocommons.com/users/17219","name":"Archstone"},"data_attributes":null,"calculation_params":null,"icon_link":null,"link":"http://geocommons.com/overlays/68139.json","extent":[-77.4495,38.84,-77.0741,39.0652],"geometry_types":["point"],"unique_name":null,"name":"Reston Herndon Fairfax","feature_count":9,"description":"","next_feature":null,"is_raster":false,"short_classification":"Y","stats":{"geo_score":{"max":0.902,"mean":0.671333333333333,"variance":0.04819675,"stdev":0.21953758220405,"min":0.37,"median":0.662}},"features":[{"properties":{"city":"Reston","st":"VA","zip":"20190","propname":"Archstone Charter Oak","geo_score":0.902,"id":"a67341f1vpyc","address":"11637 Charter Oak Ct.","geo_precision":"range"},"type":"Feature","geometry":{"type":"Point","coordinates":[-77.347307,38.95941]}},{"properties":{"city":"Herndon","st":"VA","zip":"20171","propname":"Archstone Dulles","geo_score":0.61,"id":"a67341i3bslq","address":"13800 Jefferson Park Dr.","geo_precision":"street"},"type":"Feature","geometry":{"type":"Point","coordinates":[-77.406697,38.946095]}},{"properties":{"city":"Fairfax","st":"VA","zip":"22030","propname":"Archstone Fairchase","geo_score":0.812,"id":"a67341kc4rnd","address":"4411 Dixie Hill Rd.","geo_precision":"range"},"type":"Feature","geometry":{"type":"Point","coordinates":[-77.361597,38.853149]}},{"properties":{"city":"Fairfax","st":"VA","zip":"22030","propname":"Archstone Monument Park","geo_score":0.37,"id":"a6734161vud3","address":"4457 Oakdale Crescent Ct.","geo_precision":"street"},"type":"Feature","geometry":{"type":"Point","coordinates":[-77.335236,38.839987]}},{"properties":{"city":"Reston","st":"VA","zip":"20194","propname":"Archstone Reston Landing","geo_score":0.902,"id":"a673418k9u23","address":"12000 Cameron Pond Dr.","geo_precision":"range"},"type":"Feature","geometry":{"type":"Point","coordinates":[-77.360523,38.967095]}},{"properties":{"city":"Arlington","st":"VA","zip":"22209","propname":"Archstone Rosslyn","geo_score":0.389,"id":"a673414z68vx","address":"1800 N. Oak St.","geo_precision":"street"},"type":"Feature","geometry":{"type":"Point","coordinates":[-77.074072,38.888138]}},{"properties":{"city":"Ashburn","st":"VA","zip":"20147","propname":"Archstone Stoneridge","geo_score":0.662,"id":"a67341k7jtsr","address":"19900 Broad Vista Ter.","geo_precision":"street"},"type":"Feature","geometry":{"type":"Point","coordinates":[-77.449483,39.065241]}},{"properties":{"city":"Vienna","st":"VA","zip":"22182","propname":"Archstone Tysons Corner","geo_score":0.902,"id":"a6734199s1fa","address":"1723 Gosnell Rd.","geo_precision":"range"},"type":"Feature","geometry":{"type":"Point","coordinates":[-77.238339,38.922107]}},{"properties":{"city":"Herndon","st":"VA","zip":"20171","propname":"Archstone Woodland Park","geo_score":0.493,"id":"a673417bwc9u","address":"2399 Glen Echo Rd.","geo_precision":"street"},"type":"Feature","geometry":{"type":"Point","coordinates":[-77.357996,38.999338]}}],"is_temporal":false,"author":{"url":"http://      Results by Relevance | View by Modified Date |  Alert Me|  RSS        Results 1-10 of about 1,536. Your search took 0.59 seconds.     1  2  3  4  5  Next>              National Apartment Directory  Community Directory  https://insidearchstone.com/de","metadata":"","contact_name":"Kim Ziereis","contact_address":"","source":"MRI Directory","contact_phone":"303-708-6962"},"source":"http://      Results by Relevance | View by Modified Date |  Alert Me|  RSS        Results 1-10 of about 1,536. Your search took 0.59 seconds.     1  2  3  4  5  Next>              National Apartment Directory  Community Directory  https://insidearchstone.com/de","pagination":{"sort":null,"start":0,"total":9,"limit":1000000},"state":"complete","tags":"maps,virginia","published":"2010-10-14T16:00:00Z","id":68139}