{"type":"FeatureCollection","data_type":"Dataset","url_type":null,"permissions":[{"permissions":{"download":true,"view":true},"group_id":"everyone"}],"classification":null,"title":"AVR cases","count":113,"stream_id":68411,"contributor":{"url":"http://geocommons.com/users/17322","name":"jbbutler"},"data_attributes":null,"calculation_params":null,"icon_link":null,"link":"http://geocommons.com/overlays/68411.json","extent":[-90.9077,42.5186,-87.9072,43.9479],"geometry_types":["point"],"unique_name":null,"name":"AVR cases","feature_count":113,"description":"","next_feature":null,"is_raster":false,"short_classification":"Y","stats":{"zipcode":{"max":null,"min":null,"median":null},"geo_score":{"max":0.714,"mean":0.707681415929203,"variance":0.00451146902654867,"stdev":0.0671674700025888,"min":0.0,"median":0.714}},"features":[{"properties":{"zipcode":"53050","geo_score":0.714,"id":"a6647zp2g9ck","geo_precision":"zip"},"type":"Feature","geometry":{"type":"Point","coordinates":[-88.560936,43.529993]}},{"properties":{"zipcode":"53137","geo_score":0.714,"id":"a6647zsv03r6","geo_precision":"zip"},"type":"Feature","geometry":{"type":"Point","coordinates":[-88.6726,43.008958]}},{"properties":{"zipcode":"53190","geo_score":0.714,"id":"a6647zpdbr5y","geo_precision":"zip"},"type":"Feature","geometry":{"type":"Point","coordinates":[-88.82733,42.789454]}},{"properties":{"zipcode":"53212","geo_score":0.714,"id":"a6647zqfpfd1","geo_precision":"zip"},"type":"Feature","geometry":{"type":"Point","coordinates":[-87.907178,43.074862]}},{"properties":{"zipcode":"53503","geo_score":0.714,"id":"a6647zi83nab","geo_precision":"zip"},"type":"Feature","geometry":{"type":"Point","coordinates":[-90.022346,43.171381]}},{"properties":{"zipcode":"53507","geo_score":0.714,"id":"a6647zh024x4","geo_precision":"zip"},"type":"Feature","geometry":{"type":"Point","coordinates":[-89.897387,43.008396]}},{"properties":{"zipcode":"53507","geo_score":0.714,"id":"a6647zmywc1u","geo_precision":"zip"},"type":"Feature","geometry":{"type":"Point","coordinates":[-89.897387,43.008396]}},{"properties":{"zipcode":"53511","geo_score":0.714,"id":"a6647zuznc7k","geo_precision":"zip"},"type":"Feature","geometry":{"type":"Point","coordinates":[-89.227614,42.542234]}},{"properties":{"zipcode":"53511","geo_score":0.714,"id":"a6647zsx6ijd","geo_precision":"zip"},"type":"Feature","geometry":{"type":"Point","coordinates":[-89.227614,42.542234]}},{"properties":{"zipcode":"53511","geo_score":0.714,"id":"a6647zw6jo37","geo_precision":"zip"},"type":"Feature","geometry":{"type":"Point","coordinates":[-89.227614,42.542234]}},{"properties":{"zipcode":"53511","geo_score":0.714,"id":"a6647znc9rwt","geo_precision":"zip"},"type":"Feature","geometry":{"type":"Point","coordinates":[-89.227614,42.542234]}},{"properties":{"zipcode":"53511","geo_score":0.714,"id":"a6647zimmsej","geo_precision":"zip"},"type":"Feature","geometry":{"type":"Point","coordinates":[-89.227614,42.542234]}},{"properties":{"zipcode":"53523","geo_score":0.714,"id":"a6647zjgqyxf","geo_precision":"zip"},"type":"Feature","geometry":{"type":"Point","coordinates":[-89.030945,42.971946]}},{"properties":{"zipcode":"53523","geo_score":0.714,"id":"a6647zxbgjrk","geo_precision":"zip"},"type":"Feature","geometry":{"type":"Point","coordinates":[-89.030945,42.971946]}},{"properties":{"zipcode":"53529","geo_score":0.714,"id":"a6647zkybeo0","geo_precision":"zip"},"type":"Feature","geometry":{"type":"Point","coordinates":[-89.56651,43.191937]}},{"properties":{"zipcode":"53529","geo_score":0.714,"id":"a6647zsnlz5g","geo_precision":"zip"},"type":"Feature","geometry":{"type":"Point","coordinates":[-89.56651,43.191937]}},{"properties":{"zipcode":"53530","geo_score":0.714,"id":"a6647zlk7ezk","geo_precision":"zip"},"type":"Feature","geometry":{"type":"Point","coordinates":[-89.985402,42.704725]}},{"properties":{"zipcode":"53530","geo_score":0.714,"id":"a6647zo34hc4","geo_precision":"zip"},"type":"Feature","geometry":{"type":"Point","coordinates":[-89.985402,42.704725]}},{"properties":{"zipcode":"53532","geo_score":0.714,"id":"a6647zji0mj8","geo_precision":"zip"},"type":"Feature","geometry":{"type":"Point","coordinates":[-89.402618,43.248603]}},{"properties":{"zipcode":"53533","geo_score":0.714,"id":"a6647zpdgnoe","geo_precision":"zip"},"type":"Feature","geometry":{"type":"Point","coordinates":[-90.073457,43.054717]}},{"properties":{"zipcode":"53534","geo_score":0.714,"id":"a6647zjsw9lg","geo_precision":"zip"},"type":"Feature","geometry":{"type":"Point","coordinates":[-89.0215,42.828895]}},{"properties":{"zipcode":"53534","geo_score":0.714,"id":"a6647zkc2hmc","geo_precision":"zip"},"type":"Feature","geometry":{"type":"Point","coordinates":[-89.0215,42.828895]}},{"properties":{"zipcode":"53536","geo_score":0.714,"id":"a6647zhiyga5","geo_precision":"zip"},"type":"Feature","geometry":{"type":"Point","coordinates":[-89.301784,42.824448]}},{"properties":{"zipcode":"53538","geo_score":0.714,"id":"a6647zh1cdnw","geo_precision":"zip"},"type":"Feature","geometry":{"type":"Point","coordinates":[-88.919276,42.846118]}},{"properties":{"zipcode":"53538","geo_score":0.714,"id":"a6647zi3fsmb","geo_precision":"zip"},"type":"Feature","geometry":{"type":"Point","coordinates":[-88.919276,42.846118]}},{"properties":{"zipcode":"53545","geo_score":0.714,"id":"a6647zj06ma4","geo_precision":"zip"},"type":"Feature","geometry":{"type":"Point","coordinates":[-89.129003,42.730842]}},{"properties":{"zipcode":"53545","geo_score":0.714,"id":"a6647zp3vl56","geo_precision":"zip"},"type":"Feature","geometry":{"type":"Point","coordinates":[-89.129003,42.730842]}},{"properties":{"zipcode":"53545","geo_score":0.714,"id":"a6647zkezmqc","geo_precision":"zip"},"type":"Feature","geometry":{"type":"Point","coordinates":[-89.129003,42.730842]}},{"properties":{"zipcode":"53545","geo_score":0.714,"id":"a6647zwhxxdd","geo_precision":"zip"},"type":"Feature","geometry":{"type":"Point","coordinates":[-89.129003,42.730842]}},{"properties":{"zipcode":"53545","geo_score":0.714,"id":"a6647zru830x","geo_precision":"zip"},"type":"Feature","geometry":{"type":"Point","coordinates":[-89.129003,42.730842]}},{"properties":{"zipcode":"53546","geo_score":0.714,"id":"a6647zkdr47g","geo_precision":"zip"},"type":"Feature","geometry":{"type":"Point","coordinates":[-88.947859,42.663574]}},{"properties":{"zipcode":"53548","geo_score":0.0,"id":"a6647zuupdkb","geo_precision":"unmatched"},"type":"Feature","geometry":null},{"properties":{"zipcode":"53551","geo_score":0.714,"id":"a6647zthcwcl","geo_precision":"zip"},"type":"Feature","geometry":{"type":"Point","coordinates":[-88.846773,43.100834]}},{"properties":{"zipcode":"53551","geo_score":0.714,"id":"a6647zj4hljp","geo_precision":"zip"},"type":"Feature","geometry":{"type":"Point","coordinates":[-88.846773,43.100834]}},{"properties":{"zipcode":"53551","geo_score":0.714,"id":"a6647zhbiuz3","geo_precision":"zip"},"type":"Feature","geometry":{"type":"Point","coordinates":[-88.846773,43.100834]}},{"properties":{"zipcode":"53551","geo_score":0.714,"id":"a6647zkv1ba7","geo_precision":"zip"},"type":"Feature","geometry":{"type":"Point","coordinates":[-88.846773,43.100834]}},{"properties":{"zipcode":"53555","geo_score":0.714,"id":"a6647zvfd9vy","geo_precision":"zip"},"type":"Feature","geometry":{"type":"Point","coordinates":[-89.580121,43.357765]}},{"properties":{"zipcode":"53561","geo_score":0.714,"id":"a6647zutzk9f","geo_precision":"zip"},"type":"Feature","geometry":{"type":"Point","coordinates":[-89.66396,43.364531]}},{"properties":{"zipcode":"53562","geo_score":0.714,"id":"a6647zof6cco","geo_precision":"zip"},"type":"Feature","geometry":{"type":"Point","coordinates":[-89.484009,43.104162]}},{"properties":{"zipcode":"53562","geo_score":0.714,"id":"a6647zpr9z8q","geo_precision":"zip"},"type":"Feature","geometry":{"type":"Point","coordinates":[-89.484009,43.104162]}},{"properties":{"zipcode":"53562","geo_score":0.714,"id":"a6647zp0l8vf","geo_precision":"zip"},"type":"Feature","geometry":{"type":"Point","coordinates":[-89.484009,43.104162]}},{"properties":{"zipcode":"53565","geo_score":0.714,"id":"a6647zhcyl9q","geo_precision":"zip"},"type":"Feature","geometry":{"type":"Point","coordinates":[-90.039847,42.825555]}},{"properties":{"zipcode":"53566","geo_score":0.714,"id":"a6647zhu9suc","geo_precision":"zip"},"type":"Feature","geometry":{"type":"Point","coordinates":[-89.647897,42.518621]}},{"properties":{"zipcode":"53566","geo_score":0.714,"id":"a6647zhgsrs3","geo_precision":"zip"},"type":"Feature","geometry":{"type":"Point","coordinates":[-89.647897,42.518621]}},{"properties":{"zipcode":"53566","geo_score":0.714,"id":"a6647zwn2m1c","geo_precision":"zip"},"type":"Feature","geometry":{"type":"Point","coordinates":[-89.647897,42.518621]}},{"properties":{"zipcode":"53569","geo_score":0.714,"id":"a6647zqgxilh","geo_precision":"zip"},"type":"Feature","geometry":{"type":"Point","coordinates":[-90.492475,43.031263]}},{"properties":{"zipcode":"53570","geo_score":0.714,"id":"a6647zr7o4l9","geo_precision":"zip"},"type":"Feature","geometry":{"type":"Point","coordinates":[-89.621013,42.74305]}},{"properties":{"zipcode":"53572","geo_score":0.714,"id":"a6647zihz2wx","geo_precision":"zip"},"type":"Feature","geometry":{"type":"Point","coordinates":[-89.655956,42.946943]}},{"properties":{"zipcode":"53575","geo_score":0.714,"id":"a6647zpxwpro","geo_precision":"zip"},"type":"Feature","geometry":{"type":"Point","coordinates":[-89.310118,42.874725]}},{"properties":{"zipcode":"53575","geo_score":0.714,"id":"a6647znmq4t1","geo_precision":"zip"},"type":"Feature","geometry":{"type":"Point","coordinates":[-89.310118,42.874725]}},{"properties":{"zipcode":"53578","geo_score":0.714,"id":"a6647zl81rt9","geo_precision":"zip"},"type":"Feature","geometry":{"type":"Point","coordinates":[-89.808407,43.360759]}},{"properties":{"zipcode":"53578","geo_score":0.714,"id":"a6647zog1p54","geo_precision":"zip"},"type":"Feature","geometry":{"type":"Point","coordinates":[-89.808407,43.360759]}},{"properties":{"zipcode":"53583","geo_score":0.714,"id":"a6647zi2smb6","geo_precision":"zip"},"type":"Feature","geometry":{"type":"Point","coordinates":[-89.887346,43.285267]}},{"properties":{"zipcode":"53589","geo_score":0.714,"id":"a6647zrazopt","geo_precision":"zip"},"type":"Feature","geometry":{"type":"Point","coordinates":[-89.122058,42.965557]}},{"properties":{"zipcode":"53589","geo_score":0.714,"id":"a6647zqzfsaz","geo_precision":"zip"},"type":"Feature","geometry":{"type":"Point","coordinates":[-89.122058,42.965557]}},{"properties":{"zipcode":"53589","geo_score":0.714,"id":"a6647zw7op9s","geo_precision":"zip"},"type":"Feature","geometry":{"type":"Point","coordinates":[-89.122058,42.965557]}},{"properties":{"zipcode":"53590","geo_score":0.714,"id":"a6647zvekgja","geo_precision":"zip"},"type":"Feature","geometry":{"type":"Point","coordinates":[-89.212336,43.266658]}},{"properties":{"zipcode":"53593","geo_score":0.714,"id":"a6647zr6cxm2","geo_precision":"zip"},"type":"Feature","geometry":{"type":"Point","coordinates":[-89.566512,42.995697]}},{"properties":{"zipcode":"53597","geo_score":0.714,"id":"a6647zh3dptb","geo_precision":"zip"},"type":"Feature","geometry":{"type":"Point","coordinates":[-89.322655,43.183972]}},{"properties":{"zipcode":"53704","geo_score":0.714,"id":"a6647zlf44xi","geo_precision":"zip"},"type":"Feature","geometry":{"type":"Point","coordinates":[-89.379563,43.118328]}},{"properties":{"zipcode":"53704","geo_score":0.714,"id":"a6647zo17qj5","geo_precision":"zip"},"type":"Feature","geometry":{"type":"Point","coordinates":[-89.379563,43.118328]}},{"properties":{"zipcode":"53705","geo_score":0.714,"id":"a6647zscp4ou","geo_precision":"zip"},"type":"Feature","geometry":{"type":"Point","coordinates":[-89.445676,43.077496]}},{"properties":{"zipcode":"53705","geo_score":0.714,"id":"a6647zibvcd6","geo_precision":"zip"},"type":"Feature","geometry":{"type":"Point","coordinates":[-89.445676,43.077496]}},{"properties":{"zipcode":"53711","geo_score":0.714,"id":"a6647zhuadp9","geo_precision":"zip"},"type":"Feature","geometry":{"type":"Point","coordinates":[-89.417973,43.021252]}},{"properties":{"zipcode":"53711","geo_score":0.714,"id":"a6647zizue00","geo_precision":"zip"},"type":"Feature","geometry":{"type":"Point","coordinates":[-89.417973,43.021252]}},{"properties":{"zipcode":"53711","geo_score":0.714,"id":"a6647zsc6ltz","geo_precision":"zip"},"type":"Feature","geometry":{"type":"Point","coordinates":[-89.417973,43.021252]}},{"properties":{"zipcode":"53711","geo_score":0.714,"id":"a6647zr5kaal","geo_precision":"zip"},"type":"Feature","geometry":{"type":"Point","coordinates":[-89.417973,43.021252]}},{"properties":{"zipcode":"53713","geo_score":0.714,"id":"a6647znhebky","geo_precision":"zip"},"type":"Feature","geometry":{"type":"Point","coordinates":[-89.469843,42.960832]}},{"properties":{"zipcode":"53714","geo_score":0.714,"id":"a6647zuexn18","geo_precision":"zip"},"type":"Feature","geometry":{"type":"Point","coordinates":[-89.312644,43.118663]}},{"properties":{"zipcode":"53714","geo_score":0.714,"id":"a6647zj0l1yr","geo_precision":"zip"},"type":"Feature","geometry":{"type":"Point","coordinates":[-89.312644,43.118663]}},{"properties":{"zipcode":"53714","geo_score":0.714,"id":"a6647zny1e9f","geo_precision":"zip"},"type":"Feature","geometry":{"type":"Point","coordinates":[-89.312644,43.118663]}},{"properties":{"zipcode":"53716","geo_score":0.714,"id":"a6647zujb1kt","geo_precision":"zip"},"type":"Feature","geometry":{"type":"Point","coordinates":[-89.246227,43.051664]}},{"properties":{"zipcode":"53716","geo_score":0.714,"id":"a6647zi6ztvq","geo_precision":"zip"},"type":"Feature","geometry":{"type":"Point","coordinates":[-89.246227,43.051664]}},{"properties":{"zipcode":"53716","geo_score":0.714,"id":"a6647zlede5e","geo_precision":"zip"},"type":"Feature","geometry":{"type":"Point","coordinates":[-89.246227,43.051664]}},{"properties":{"zipcode":"53716","geo_score":0.714,"id":"a6647zhrjw5v","geo_precision":"zip"},"type":"Feature","geometry":{"type":"Point","coordinates":[-89.246227,43.051664]}},{"properties":{"zipcode":"53716","geo_score":0.714,"id":"a6647zno2ftt","geo_precision":"zip"},"type":"Feature","geometry":{"type":"Point","coordinates":[-89.246227,43.051664]}},{"properties":{"zipcode":"53716","geo_score":0.714,"id":"a6647zki5ywp","geo_precision":"zip"},"type":"Feature","geometry":{"type":"Point","coordinates":[-89.246227,43.051664]}},{"properties":{"zipcode":"53716","geo_score":0.714,"id":"a6647zjgidj2","geo_precision":"zip"},"type":"Feature","geometry":{"type":"Point","coordinates":[-89.246227,43.051664]}},{"properties":{"zipcode":"53716","geo_score":0.714,"id":"a6647zk50xes","geo_precision":"zip"},"type":"Feature","geometry":{"type":"Point","coordinates":[-89.246227,43.051664]}},{"properties":{"zipcode":"53717","geo_score":0.714,"id":"a6647zhnquzq","geo_precision":"zip"},"type":"Feature","geometry":{"type":"Point","coordinates":[-89.656734,43.015966]}},{"properties":{"zipcode":"53719","geo_score":0.714,"id":"a6647ztzysnz","geo_precision":"zip"},"type":"Feature","geometry":{"type":"Point","coordinates":[-89.494568,43.03125]}},{"properties":{"zipcode":"53726","geo_score":0.714,"id":"a6647zq88drc","geo_precision":"zip"},"type":"Feature","geometry":{"type":"Point","coordinates":[-89.423861,43.06956]}},{"properties":{"zipcode":"53804","geo_score":0.714,"id":"a6647zrgf3tx","geo_precision":"zip"},"type":"Feature","geometry":{"type":"Point","coordinates":[-90.907665,42.838191]}},{"properties":{"zipcode":"53804","geo_score":0.714,"id":"a6647zrxnc78","geo_precision":"zip"},"type":"Feature","geometry":{"type":"Point","coordinates":[-90.907665,42.838191]}},{"properties":{"zipcode":"53805","geo_score":0.714,"id":"a6647ziqlnne","geo_precision":"zip"},"type":"Feature","geometry":{"type":"Point","coordinates":[-90.74846,43.222482]}},{"properties":{"zipcode":"53813","geo_score":0.714,"id":"a6647zx1mgxl","geo_precision":"zip"},"type":"Feature","geometry":{"type":"Point","coordinates":[-90.771238,42.784714]}},{"properties":{"zipcode":"53818","geo_score":0.714,"id":"a6647zot5pdj","geo_precision":"zip"},"type":"Feature","geometry":{"type":"Point","coordinates":[-90.526239,42.830269]}},{"properties":{"zipcode":"53818","geo_score":0.714,"id":"a6647zig9a18","geo_precision":"zip"},"type":"Feature","geometry":{"type":"Point","coordinates":[-90.526239,42.830269]}},{"properties":{"zipcode":"53818","geo_score":0.714,"id":"a6647zwq9l46","geo_precision":"zip"},"type":"Feature","geometry":{"type":"Point","coordinates":[-90.526239,42.830269]}},{"properties":{"zipcode":"53901","geo_score":0.714,"id":"a6647zw9djjx","geo_precision":"zip"},"type":"Feature","geometry":{"type":"Point","coordinates":[-89.443732,43.625536]}},{"properties":{"zipcode":"53901","geo_score":0.714,"id":"a6647zhgx17o","geo_precision":"zip"},"type":"Feature","geometry":{"type":"Point","coordinates":[-89.443732,43.625536]}},{"properties":{"zipcode":"53913","geo_score":0.714,"id":"a6647zpb68jr","geo_precision":"zip"},"type":"Feature","geometry":{"type":"Point","coordinates":[-89.770402,43.474428]}},{"properties":{"zipcode":"53913","geo_score":0.714,"id":"a6647zl6rqjz","geo_precision":"zip"},"type":"Feature","geometry":{"type":"Point","coordinates":[-89.770402,43.474428]}},{"properties":{"zipcode":"53913","geo_score":0.714,"id":"a6647ziifd84","geo_precision":"zip"},"type":"Feature","geometry":{"type":"Point","coordinates":[-89.770402,43.474428]}},{"properties":{"zipcode":"53913","geo_score":0.714,"id":"a6647zl21vjj","geo_precision":"zip"},"type":"Feature","geometry":{"type":"Point","coordinates":[-89.770402,43.474428]}},{"properties":{"zipcode":"53913","geo_score":0.714,"id":"a6647zs4665y","geo_precision":"zip"},"type":"Feature","geometry":{"type":"Point","coordinates":[-89.770402,43.474428]}},{"properties":{"zipcode":"53916","geo_score":0.714,"id":"a6647zq6ozij","geo_precision":"zip"},"type":"Feature","geometry":{"type":"Point","coordinates":[-88.886219,43.440824]}},{"properties":{"zipcode":"53916","geo_score":0.714,"id":"a6647zrjrpjh","geo_precision":"zip"},"type":"Feature","geometry":{"type":"Point","coordinates":[-88.886219,43.440824]}},{"properties":{"zipcode":"53925","geo_score":0.714,"id":"a6647zrh4f9k","geo_precision":"zip"},"type":"Feature","geometry":{"type":"Point","coordinates":[-89.166225,43.40221]}},{"properties":{"zipcode":"53936","geo_score":0.714,"id":"a6647zq5rd6r","geo_precision":"zip"},"type":"Feature","geometry":{"type":"Point","coordinates":[-89.72751,43.947894]}},{"properties":{"zipcode":"53946","geo_score":0.714,"id":"a6647zh391pa","geo_precision":"zip"},"type":"Feature","geometry":{"type":"Point","coordinates":[-88.981224,43.808593]}},{"properties":{"zipcode":"53946","geo_score":0.714,"id":"a6647zv02fc5","geo_precision":"zip"},"type":"Feature","geometry":{"type":"Point","coordinates":[-88.981224,43.808593]}},{"properties":{"zipcode":"53949","geo_score":0.714,"id":"a6647zlsrv9y","geo_precision":"zip"},"type":"Feature","geometry":{"type":"Point","coordinates":[-89.361509,43.744146]}},{"properties":{"zipcode":"53951","geo_score":0.714,"id":"a6647zu2jrqs","geo_precision":"zip"},"type":"Feature","geometry":{"type":"Point","coordinates":[-89.947624,43.335543]}},{"properties":{"zipcode":"53952","geo_score":0.714,"id":"a6647zprsyqj","geo_precision":"zip"},"type":"Feature","geometry":{"type":"Point","coordinates":[-89.463944,43.767789]}},{"properties":{"zipcode":"53952","geo_score":0.714,"id":"a6647zqwmsy0","geo_precision":"zip"},"type":"Feature","geometry":{"type":"Point","coordinates":[-89.463944,43.767789]}},{"properties":{"zipcode":"53954","geo_score":0.714,"id":"a6647zrn150x","geo_precision":"zip"},"type":"Feature","geometry":{"type":"Point","coordinates":[-89.31459,43.516772]}},{"properties":{"zipcode":"53955","geo_score":0.714,"id":"a6647zqa8zkm","geo_precision":"zip"},"type":"Feature","geometry":{"type":"Point","coordinates":[-89.394518,43.433273]}},{"properties":{"zipcode":"53955","geo_score":0.714,"id":"a6647zrhmzfa","geo_precision":"zip"},"type":"Feature","geometry":{"type":"Point","coordinates":[-89.394518,43.433273]}},{"properties":{"zipcode":"53959","geo_score":0.714,"id":"a6647zjw1tj7","geo_precision":"zip"},"type":"Feature","geometry":{"type":"Point","coordinates":[-89.966806,43.482108]}},{"properties":{"zipcode":"53965","geo_score":0.714,"id":"a6647zr5xqgt","geo_precision":"zip"},"type":"Feature","geometry":{"type":"Point","coordinates":[-89.854848,43.825807]}},{"properties":{"zipcode":"53965","geo_score":0.714,"id":"a6647zke8cfc","geo_precision":"zip"},"type":"Feature","geometry":{"type":"Point","coordinates":[-89.854848,43.825807]}},{"properties":{"zipcode":"53965","geo_score":0.714,"id":"a6647zu0enx0","geo_precision":"zip"},"type":"Feature","geometry":{"type":"Point","coordinates":[-89.854848,43.825807]}}],"is_temporal":false,"author":{"url":"","metadata":"","contact_name":"","contact_address":"","source":"","contact_phone":""},"source":"","pagination":{"sort":null,"start":0,"total":113,"limit":1000000},"state":"complete","tags":"","published":"2014-08-10T21:49:11-04:00","id":68411}