{"type":"FeatureCollection","data_type":"Dataset","url_type":null,"permissions":[{"permissions":{"download":true,"view":true},"group_id":"everyone"}],"classification":null,"title":"2012 Apps","count":95,"stream_id":68472,"contributor":{"url":"http://geocommons.com/users/9633","name":"weissman"},"data_attributes":null,"calculation_params":null,"icon_link":null,"link":"http://geocommons.com/overlays/68472.json","extent":[-113.757,33.9823,-72.1309,43.529],"geometry_types":["point"],"unique_name":null,"name":"2012 Apps","feature_count":95,"description":"","next_feature":null,"is_raster":false,"short_classification":"Y","stats":{"geo_score":{"max":1.0,"mean":0.932231578947368,"variance":0.00412507346024637,"stdev":0.0642267347780219,"min":0.857,"median":0.896}},"features":[{"properties":{"city":"Alexandria","zip":"22306","geo_score":0.869,"id":"a6cp07wfep5w","geo_precision":"zip","state":"Virginia"},"type":"Feature","geometry":{"type":"Point","coordinates":[-77.081367,38.757336]}},{"properties":{"city":"Alexandria","zip":"22308","geo_score":1.0,"id":"a6cp07zpx3qt","geo_precision":"zip","state":"Virginia"},"type":"Feature","geometry":{"type":"Point","coordinates":[-77.046921,38.804836]}},{"properties":{"city":"Alexandria","zip":"22314","geo_score":1.0,"id":"a6cp07ynwfjj","geo_precision":"zip","state":"Virginia"},"type":"Feature","geometry":{"type":"Point","coordinates":[-77.063587,38.811436]}},{"properties":{"city":"Alexandria","zip":"22306","geo_score":0.869,"id":"a6cp07zy82yp","geo_precision":"zip","state":"Virginia"},"type":"Feature","geometry":{"type":"Point","coordinates":[-77.081367,38.757336]}},{"properties":{"city":"Alexandria","zip":"22303","geo_score":1.0,"id":"a6cp07qz3j3m","geo_precision":"zip","state":"Virginia"},"type":"Feature","geometry":{"type":"Point","coordinates":[-77.046921,38.804836]}},{"properties":{"city":"Alexandria","zip":"22302","geo_score":0.896,"id":"a6cp07pa58bj","geo_precision":"zip","state":"Virginia"},"type":"Feature","geometry":{"type":"Point","coordinates":[-77.079422,38.837057]}},{"properties":{"city":"Annapolis","zip":"21401","geo_score":0.898,"id":"a6cp07uxoo9c","geo_precision":"zip","state":"Maryland"},"type":"Feature","geometry":{"type":"Point","coordinates":[-76.462738,39.020945]}},{"properties":{"city":"Arlington","zip":"22209","geo_score":0.889,"id":"a6cp07zrsva2","geo_precision":"zip","state":"Virginia"},"type":"Feature","geometry":{"type":"Point","coordinates":[-77.072478,38.896778]}},{"properties":{"city":"Arlington","zip":"22207","geo_score":1.0,"id":"a6cp084ubqry","geo_precision":"zip","state":"Virginia"},"type":"Feature","geometry":{"type":"Point","coordinates":[-77.122344,38.907416]}},{"properties":{"city":"Arlington","zip":"22206","geo_score":0.961,"id":"a6cp07zfhgcs","geo_precision":"zip","state":"Virginia"},"type":"Feature","geometry":{"type":"Point","coordinates":[-77.088312,38.841779]}},{"properties":{"city":"Arlington","zip":"22201","geo_score":1.0,"id":"a6cp07qqgv7f","geo_precision":"zip","state":"Virginia"},"type":"Feature","geometry":{"type":"Point","coordinates":[-77.099113,38.885484]}},{"properties":{"city":"Arlington","zip":"22203","geo_score":1.0,"id":"a6cp07t1807x","geo_precision":"zip","state":"Virginia"},"type":"Feature","geometry":{"type":"Point","coordinates":[-77.119515,38.874775]}},{"properties":{"city":"Arlington","zip":"22203","geo_score":1.0,"id":"a6cp07zk7ijs","geo_precision":"zip","state":"Virginia"},"type":"Feature","geometry":{"type":"Point","coordinates":[-77.119515,38.874775]}},{"properties":{"city":"Bethesda","zip":"20817","geo_score":0.868,"id":"a6cp083ik7tq","geo_precision":"zip","state":"Maryland"},"type":"Feature","geometry":{"type":"Point","coordinates":[-77.149702,39.019276]}},{"properties":{"city":"Broadlands","zip":"20148","geo_score":0.9,"id":"a6cp07w2xjcb","geo_precision":"zip","state":"Virginia"},"type":"Feature","geometry":{"type":"Point","coordinates":[-77.538603,38.982054]}},{"properties":{"city":"Brooklyn","zip":"11231","geo_score":0.875,"id":"a6cp07psixpp","geo_precision":"zip","state":"New York"},"type":"Feature","geometry":{"type":"Point","coordinates":[-74.009584,40.675103]}},{"properties":{"city":"Cantonsville","zip":"21228","geo_score":0.869,"id":"a6cp0835wgxn","geo_precision":"zip","state":"Maryland"},"type":"Feature","geometry":{"type":"Point","coordinates":[-76.738861,39.296773]}},{"properties":{"city":"Centreville","zip":"20120","geo_score":1.0,"id":"a6cp07y8yd4m","geo_precision":"zip","state":"Virginia"},"type":"Feature","geometry":{"type":"Point","coordinates":[-77.46701,38.84479]}},{"properties":{"city":"Chantilly","zip":"20151","geo_score":0.857,"id":"a6cp07pp04qt","geo_precision":"zip","state":"Virgnia"},"type":"Feature","geometry":{"type":"Point","coordinates":[-77.44566,38.88668]}},{"properties":{"city":"Charlottesville","zip":"22901","geo_score":0.867,"id":"a6cp07vzz0xb","geo_precision":"zip","state":"Virginia"},"type":"Feature","geometry":{"type":"Point","coordinates":[-78.466122,38.08597]}},{"properties":{"city":"Charlottesville","zip":"22901","geo_score":0.867,"id":"a6cp0832g90q","geo_precision":"zip","state":"Virginia"},"type":"Feature","geometry":{"type":"Point","coordinates":[-78.466122,38.08597]}},{"properties":{"city":"Charlottesville","zip":"22901","geo_score":0.867,"id":"a6cp07qo55ly","geo_precision":"zip","state":"Virginia"},"type":"Feature","geometry":{"type":"Point","coordinates":[-78.466122,38.08597]}},{"properties":{"city":"Charlottesville","zip":"22901","geo_score":0.867,"id":"a6cp0823wzlm","geo_precision":"zip","state":"Virginia"},"type":"Feature","geometry":{"type":"Point","coordinates":[-78.466122,38.08597]}},{"properties":{"city":"Charlottesville","zip":"22902","geo_score":1.0,"id":"a6cp0802nrk2","geo_precision":"zip","state":"Virginia"},"type":"Feature","geometry":{"type":"Point","coordinates":[-78.48045,38.026588]}},{"properties":{"city":"Charlottesville","zip":"22903","geo_score":0.876,"id":"a6cp0829soia","geo_precision":"zip","state":"Virginia"},"type":"Feature","geometry":{"type":"Point","coordinates":[-78.54418,38.051249]}},{"properties":{"city":"Charlottesville","zip":"22903","geo_score":0.876,"id":"a6cp07u7u2lg","geo_precision":"zip","state":"Virginia"},"type":"Feature","geometry":{"type":"Point","coordinates":[-78.54418,38.051249]}},{"properties":{"city":"Charlottesville","zip":"22911","geo_score":1.0,"id":"a6cp07uah5uw","geo_precision":"zip","state":"Virginia"},"type":"Feature","geometry":{"type":"Point","coordinates":[-78.408498,38.099507]}},{"properties":{"city":"Charlottesville","zip":"22911","geo_score":1.0,"id":"a6cp07z6qn2l","geo_precision":"zip","state":"Virginia"},"type":"Feature","geometry":{"type":"Point","coordinates":[-78.408498,38.099507]}},{"properties":{"city":"Charlottesville","zip":"22911","geo_score":1.0,"id":"a6cp0834gm2r","geo_precision":"zip","state":"Virginia"},"type":"Feature","geometry":{"type":"Point","coordinates":[-78.408498,38.099507]}},{"properties":{"city":"Charlottesville","zip":"22903","geo_score":0.876,"id":"a6cp081frnol","geo_precision":"zip","state":"Virginia"},"type":"Feature","geometry":{"type":"Point","coordinates":[-78.54418,38.051249]}},{"properties":{"city":"Charlottesville","zip":"22903","geo_score":0.876,"id":"a6cp083yp77o","geo_precision":"zip","state":"Virginia"},"type":"Feature","geometry":{"type":"Point","coordinates":[-78.54418,38.051249]}},{"properties":{"city":"Charlottesvilled","zip":"22901","geo_score":0.866,"id":"a6cp07zc5mei","geo_precision":"zip","state":"Virginia"},"type":"Feature","geometry":{"type":"Point","coordinates":[-78.466122,38.08597]}},{"properties":{"city":"Charlotteville","zip":"22902","geo_score":0.99,"id":"a6cp081kf1ea","geo_precision":"zip","state":"Virginia"},"type":"Feature","geometry":{"type":"Point","coordinates":[-78.48045,38.026588]}},{"properties":{"city":"Chesterfield","zip":"23832","geo_score":0.869,"id":"a6cp07qufhqr","geo_precision":"zip","state":"Virginia"},"type":"Feature","geometry":{"type":"Point","coordinates":[-77.528876,37.430982]}},{"properties":{"city":"Chevy Chase","zip":"20815","geo_score":0.871,"id":"a6cp0841euvv","geo_precision":"zip","state":"Maryland"},"type":"Feature","geometry":{"type":"Point","coordinates":[-77.096089,38.965944]}},{"properties":{"city":"Cockeysville","zip":"21030","geo_score":0.869,"id":"a6cp08019jp3","geo_precision":"zip","state":"Maryland"},"type":"Feature","geometry":{"type":"Point","coordinates":[-76.616636,39.476217]}},{"properties":{"city":"Culpeper","zip":"22701","geo_score":0.857,"id":"a6cp07r8d8j7","geo_precision":"zip","state":"Virginia"},"type":"Feature","geometry":{"type":"Point","coordinates":[-78.009442,38.410128]}},{"properties":{"city":"Fairfax","zip":"22030","geo_score":0.868,"id":"a6cp07zqbw0r","geo_precision":"zip","state":"Virginia"},"type":"Feature","geometry":{"type":"Point","coordinates":[-77.40471,38.839835]}},{"properties":{"city":"Fairfax","zip":"22030","geo_score":0.868,"id":"a6cp07r40gzw","geo_precision":"zip","state":"Virginia"},"type":"Feature","geometry":{"type":"Point","coordinates":[-77.40471,38.839835]}},{"properties":{"city":"Fairfax","zip":"22033","geo_score":1.0,"id":"a6cp08064ll3","geo_precision":"zip","state":"Virginia"},"type":"Feature","geometry":{"type":"Point","coordinates":[-77.378858,38.879466]}},{"properties":{"city":"Fairfax","zip":"22030","geo_score":0.868,"id":"a6cp082we2h0","geo_precision":"zip","state":"Virginia"},"type":"Feature","geometry":{"type":"Point","coordinates":[-77.40471,38.839835]}},{"properties":{"city":"Falls Church","zip":"22043","geo_score":0.87,"id":"a6cp07oez4ex","geo_precision":"zip","state":"Virginia"},"type":"Feature","geometry":{"type":"Point","coordinates":[-77.200814,38.912889]}},{"properties":{"city":"Falls Church","zip":"22043","geo_score":0.87,"id":"a6cp07p26aj9","geo_precision":"zip","state":"Virginia"},"type":"Feature","geometry":{"type":"Point","coordinates":[-77.200814,38.912889]}},{"properties":{"city":"Falls Church","zip":"22042","geo_score":0.87,"id":"a6cp07v55dp6","geo_precision":"zip","state":"Virginia"},"type":"Feature","geometry":{"type":"Point","coordinates":[-77.180258,38.865668]}},{"properties":{"city":"Falls Church","zip":"22046","geo_score":0.857,"id":"a6cp081gc932","geo_precision":"zip","state":"Virginia"},"type":"Feature","geometry":{"type":"Point","coordinates":[-77.200259,38.884278]}},{"properties":{"city":"Germantown","zip":"20874","geo_score":0.871,"id":"a6cp07yrchgj","geo_precision":"zip","state":"Maryland"},"type":"Feature","geometry":{"type":"Point","coordinates":[-77.243872,39.195384]}},{"properties":{"city":"Glen Allen","zip":"23059","geo_score":1.0,"id":"a6cp082wxnp0","geo_precision":"zip","state":"Virginia"},"type":"Feature","geometry":{"type":"Point","coordinates":[-77.554393,37.728404]}},{"properties":{"city":"Glen Allen","zip":"23059","geo_score":1.0,"id":"a6cp07xy2gir","geo_precision":"zip","state":"Virginia"},"type":"Feature","geometry":{"type":"Point","coordinates":[-77.554393,37.728404]}},{"properties":{"city":"Glen Allen","zip":"23059","geo_score":1.0,"id":"a6cp07tys9as","geo_precision":"zip","state":"Virginia"},"type":"Feature","geometry":{"type":"Point","coordinates":[-77.554393,37.728404]}},{"properties":{"city":"Greensboro","zip":"27408","geo_score":1.0,"id":"a6cp07xrql3i","geo_precision":"zip","state":"North Carolina"},"type":"Feature","geometry":{"type":"Point","coordinates":[-79.816254,36.103685]}},{"properties":{"city":"Haymarket","zip":"20169","geo_score":1.0,"id":"a6cp083ep1rl","geo_precision":"zip","state":"Virginia"},"type":"Feature","geometry":{"type":"Point","coordinates":[-77.644539,38.867441]}},{"properties":{"city":"Herndon","zip":"20170","geo_score":1.0,"id":"a6cp07rv9omj","geo_precision":"zip","state":"Virginia"},"type":"Feature","geometry":{"type":"Point","coordinates":[-77.367457,38.983887]}},{"properties":{"city":"Herndon","zip":"20171","geo_score":1.0,"id":"a6cp07rcoigg","geo_precision":"zip","state":"Virginia"},"type":"Feature","geometry":{"type":"Point","coordinates":[-77.39284,38.92518]}},{"properties":{"city":"King Of Prussia","zip":"19406","geo_score":0.875,"id":"a6cp080y4t8d","geo_precision":"zip","state":"Pennsylvania"},"type":"Feature","geometry":{"type":"Point","coordinates":[-75.372964,40.088442]}},{"properties":{"city":"Lebanon","zip":"03766","geo_score":0.879,"id":"a6cp07q4udvd","geo_precision":"zip","state":"New Hampshire"},"type":"Feature","geometry":{"type":"Point","coordinates":[-72.130921,43.528962]}},{"properties":{"city":"Leesburg","zip":"20176","geo_score":1.0,"id":"a6cp07qrkyn9","geo_precision":"zip","state":"Virginia"},"type":"Feature","geometry":{"type":"Point","coordinates":[-77.603458,39.119727]}},{"properties":{"city":"Leesburg","zip":"20175","geo_score":1.0,"id":"a6cp0839kbiz","geo_precision":"zip","state":"Virginia"},"type":"Feature","geometry":{"type":"Point","coordinates":[-77.605404,39.041987]}},{"properties":{"city":"Livonia","zip":"48150","geo_score":1.0,"id":"a6cp07s2yg5u","geo_precision":"zip","state":"Michigan"},"type":"Feature","geometry":{"type":"Point","coordinates":[-83.371753,42.369351]}},{"properties":{"city":"Marietta","zip":"30062","geo_score":1.0,"id":"a6cp080ngo9b","geo_precision":"zip","state":"Georgia"},"type":"Feature","geometry":{"type":"Point","coordinates":[-84.48803,33.982269]}},{"properties":{"city":"McLean","zip":"22102","geo_score":1.0,"id":"a6cp07py8jsr","geo_precision":"zip","state":"Virginia"},"type":"Feature","geometry":{"type":"Point","coordinates":[-77.229496,38.953033]}},{"properties":{"city":"McLean","zip":"22102","geo_score":1.0,"id":"a6cp07ts40kl","geo_precision":"zip","state":"Virginia"},"type":"Feature","geometry":{"type":"Point","coordinates":[-77.229496,38.953033]}},{"properties":{"city":"Midlothian","zip":"23114","geo_score":0.857,"id":"a6cp07scrxhm","geo_precision":"city","state":"Virginia"},"type":"Feature","geometry":{"type":"Point","coordinates":[-77.66258,37.454138]}},{"properties":{"city":"Midlothian","zip":"23113","geo_score":0.857,"id":"a6cp083e8zrw","geo_precision":"zip","state":"Virginia"},"type":"Feature","geometry":{"type":"Point","coordinates":[-77.71166,37.568203]}},{"properties":{"city":"Midlothian","zip":"23113","geo_score":0.857,"id":"a6cp07s06180","geo_precision":"zip","state":"Virginia"},"type":"Feature","geometry":{"type":"Point","coordinates":[-77.71166,37.568203]}},{"properties":{"city":"Mitchellville","zip":"20721","geo_score":0.879,"id":"a6cp07p2ucmy","geo_precision":"zip","state":"Maryland"},"type":"Feature","geometry":{"type":"Point","coordinates":[-76.787141,38.919357]}},{"properties":{"city":"New Hope","zip":"18938","geo_score":0.878,"id":"a6cp07ugza1p","geo_precision":"zip","state":"Pennsylvania"},"type":"Feature","geometry":{"type":"Point","coordinates":[-74.980724,40.35344]}},{"properties":{"city":"Oak Hill","zip":"20171","geo_score":0.857,"id":"a6cp07y1i2l5","geo_precision":"zip","state":"Virginia"},"type":"Feature","geometry":{"type":"Point","coordinates":[-77.39284,38.92518]}},{"properties":{"city":"Oakton","zip":"22124","geo_score":0.881,"id":"a6cp082cnadb","geo_precision":"zip","state":"Virginia"},"type":"Feature","geometry":{"type":"Point","coordinates":[-77.348319,38.890945]}},{"properties":{"city":"Potomac","zip":"20854","geo_score":0.876,"id":"a6cp07olrk43","geo_precision":"zip","state":"Maryland"},"type":"Feature","geometry":{"type":"Point","coordinates":[-77.15998,39.051498]}},{"properties":{"city":"Reston","zip":"20191","geo_score":1.0,"id":"a6cp083g2iw5","geo_precision":"zip","state":"Virginia"},"type":"Feature","geometry":{"type":"Point","coordinates":[-77.352718,38.93181]}},{"properties":{"city":"Reston","zip":"20194","geo_score":1.0,"id":"a6cp07t3ygox","geo_precision":"zip","state":"Virginia"},"type":"Feature","geometry":{"type":"Point","coordinates":[-77.341878,38.980742]}},{"properties":{"city":"Richmond","zip":"23233","geo_score":0.874,"id":"a6cp081m94ta","geo_precision":"zip","state":"Virginia"},"type":"Feature","geometry":{"type":"Point","coordinates":[-77.662213,37.577369]}},{"properties":{"city":"Richmond","zip":"23220","geo_score":1.0,"id":"a6cp080m4088","geo_precision":"zip","state":"Virginia"},"type":"Feature","geometry":{"type":"Point","coordinates":[-77.456602,37.552746]}},{"properties":{"city":"Richmond","zip":"23235","geo_score":1.0,"id":"a6cp07qfbvox","geo_precision":"zip","state":"Virginia"},"type":"Feature","geometry":{"type":"Point","coordinates":[-77.460262,37.553758]}},{"properties":{"city":"Richmond","zip":"23229","geo_score":1.0,"id":"a6cp07pgkrti","geo_precision":"zip","state":"Virginia"},"type":"Feature","geometry":{"type":"Point","coordinates":[-77.460262,37.553758]}},{"properties":{"city":"Richmond","zip":"23228","geo_score":1.0,"id":"a6cp07pgztsa","geo_precision":"zip","state":"Virginia"},"type":"Feature","geometry":{"type":"Point","coordinates":[-77.460262,37.553758]}},{"properties":{"city":"Richmond","zip":"23227","geo_score":1.0,"id":"a6cp07v0bxxb","geo_precision":"zip","state":"Virginia"},"type":"Feature","geometry":{"type":"Point","coordinates":[-77.460262,37.553758]}},{"properties":{"city":"Richmond","zip":"23226","geo_score":0.857,"id":"a6cp07vrmie2","geo_precision":"zip","state":"Virginia"},"type":"Feature","geometry":{"type":"Point","coordinates":[-77.539987,37.589035]}},{"properties":{"city":"Richmond","zip":"23220","geo_score":1.0,"id":"a6cp07qzr8h6","geo_precision":"zip","state":"Virginia"},"type":"Feature","geometry":{"type":"Point","coordinates":[-77.456602,37.552746]}},{"properties":{"city":"Richmond","zip":"23227","geo_score":1.0,"id":"a6cp081yad2n","geo_precision":"zip","state":"Virginia"},"type":"Feature","geometry":{"type":"Point","coordinates":[-77.460262,37.553758]}},{"properties":{"city":"Santa Clara","zip":"84765","geo_score":0.871,"id":"a6cp07pvkzcv","geo_precision":"zip","state":"Utah"},"type":"Feature","geometry":{"type":"Point","coordinates":[-113.757465,37.18109]}},{"properties":{"city":"South Riding","zip":"20152","geo_score":1.0,"id":"a6cp082mjehu","geo_precision":"zip","state":"Virginia"},"type":"Feature","geometry":{"type":"Point","coordinates":[-77.50388,38.920945]}},{"properties":{"city":"Springfield","zip":"22153","geo_score":1.0,"id":"a6cp07u6amry","geo_precision":"zip","state":"Virginia"},"type":"Feature","geometry":{"type":"Point","coordinates":[-77.181612,38.757015]}},{"properties":{"city":"Stafford","zip":"22554","geo_score":0.857,"id":"a6cp07xbrxqz","geo_precision":"zip","state":"Virginia"},"type":"Feature","geometry":{"type":"Point","coordinates":[-77.325259,38.464845]}},{"properties":{"city":"Stone Ridge","zip":"20105","geo_score":0.886,"id":"a6cp07w0ix3w","geo_precision":"zip","state":"Virginia"},"type":"Feature","geometry":{"type":"Point","coordinates":[-77.60375,38.957718]}},{"properties":{"city":"Vienna","zip":"22182","geo_score":1.0,"id":"a6cp07wlcd45","geo_precision":"zip","state":"Virginia"},"type":"Feature","geometry":{"type":"Point","coordinates":[-77.268022,38.935292]}},{"properties":{"city":"Vienna","zip":"22182","geo_score":1.0,"id":"a6cp07uj6doi","geo_precision":"zip","state":"Virginia"},"type":"Feature","geometry":{"type":"Point","coordinates":[-77.268022,38.935292]}},{"properties":{"city":"Vienna","zip":"22180","geo_score":0.87,"id":"a6cp084f5l2d","geo_precision":"zip","state":"Virginia"},"type":"Feature","geometry":{"type":"Point","coordinates":[-77.249426,38.921778]}},{"properties":{"city":"Washington","zip":"20001","geo_score":0.893,"id":"a6cp080lalz6","geo_precision":"zip","state":"District of Columbia"},"type":"Feature","geometry":{"type":"Point","coordinates":[-77.011365,38.916778]}},{"properties":{"city":"Washington","zip":"20001","geo_score":0.893,"id":"a6cp080foi6f","geo_precision":"zip","state":"District of Columbia"},"type":"Feature","geometry":{"type":"Point","coordinates":[-77.011365,38.916778]}},{"properties":{"city":"Washington","zip":"20009","geo_score":1.0,"id":"a6cp07op8d69","geo_precision":"zip","state":"District of Columbia"},"type":"Feature","geometry":{"type":"Point","coordinates":[-77.039798,38.919261]}},{"properties":{"city":"Washington","zip":"20009","geo_score":1.0,"id":"a6cp080ntwob","geo_precision":"zip","state":"District of Columbia"},"type":"Feature","geometry":{"type":"Point","coordinates":[-77.039798,38.919261]}},{"properties":{"city":"West Chester","zip":"19382","geo_score":1.0,"id":"a6cp084bmgxe","geo_precision":"zip","state":"Pennsylvania"},"type":"Feature","geometry":{"type":"Point","coordinates":[-75.630235,39.912284]}},{"properties":{"city":"Woodbridge","zip":"22191","geo_score":1.0,"id":"a6cp07up34kw","geo_precision":"zip","state":"Virginia"},"type":"Feature","geometry":{"type":"Point","coordinates":[-77.271644,38.625541]}},{"properties":{"city":"fairfax station","zip":"22039","geo_score":0.878,"id":"a6cp07pnzh8i","geo_precision":"zip","state":"Virginia"},"type":"Feature","geometry":{"type":"Point","coordinates":[-77.343875,38.800669]}}],"is_temporal":false,"author":{"url":"","metadata":"","contact_name":"","contact_address":"","source":"","contact_phone":""},"source":"","pagination":{"sort":null,"start":0,"total":95,"limit":1000000},"state":"complete","tags":"","published":"2014-08-10T21:50:23-04:00","id":68472}