{"type":"FeatureCollection","data_type":"Dataset","url_type":null,"permissions":[{"permissions":{"download":true,"view":true},"group_id":"everyone"}],"classification":null,"title":"2012 Inquires","count":664,"stream_id":68483,"contributor":{"url":"http://geocommons.com/users/9633","name":"weissman"},"data_attributes":null,"calculation_params":null,"icon_link":null,"link":"http://geocommons.com/overlays/68483.json","extent":[-123.939,25.9004,-70.755,47.0264],"geometry_types":["point"],"unique_name":null,"name":"2012 Inquires","feature_count":664,"description":"","next_feature":null,"is_raster":false,"short_classification":"Y","stats":{"geo_score":{"max":1.0,"mean":0.934644578313254,"variance":0.00550762009122465,"stdev":0.0742133417333073,"min":0.0,"median":0.948}},"features":[{"properties":{"city":"ALDIE","zip":"20105","geo_score":0.857,"id":"a6bkaapijj9y","geo_precision":"zip","state":"Virgnia"},"type":"Feature","geometry":{"type":"Point","coordinates":[-77.60375,38.957718]}},{"properties":{"city":"Albuquerque","zip":"87123","geo_score":1.0,"id":"a6bkaaqbqynl","geo_precision":"zip","state":"New Mexico"},"type":"Feature","geometry":{"type":"Point","coordinates":[-106.457841,35.069999]}},{"properties":{"city":"Aldie","zip":"20105","geo_score":1.0,"id":"a6bkaaegocm0","geo_precision":"zip","state":"Virginia"},"type":"Feature","geometry":{"type":"Point","coordinates":[-77.60375,38.957718]}},{"properties":{"city":"Aldie","zip":"20105","geo_score":1.0,"id":"a6bkaalrtvo0","geo_precision":"zip","state":"Virginia"},"type":"Feature","geometry":{"type":"Point","coordinates":[-77.60375,38.957718]}},{"properties":{"city":"Aldie","zip":"20105","geo_score":1.0,"id":"a6bkaaffanyp","geo_precision":"zip","state":"Virginia"},"type":"Feature","geometry":{"type":"Point","coordinates":[-77.60375,38.957718]}},{"properties":{"city":"Alexandria","zip":"22314","geo_score":1.0,"id":"a6bkaaslk33e","geo_precision":"zip","state":"Virginia"},"type":"Feature","geometry":{"type":"Point","coordinates":[-77.063587,38.811436]}},{"properties":{"city":"Alexandria","zip":"22315","geo_score":1.0,"id":"a6bkaahri22w","geo_precision":"zip","state":"Virginia"},"type":"Feature","geometry":{"type":"Point","coordinates":[-77.147646,38.756466]}},{"properties":{"city":"Alexandria","zip":"22315","geo_score":1.0,"id":"a6bkaadjidzh","geo_precision":"zip","state":"Virginia"},"type":"Feature","geometry":{"type":"Point","coordinates":[-77.147646,38.756466]}},{"properties":{"city":"Alexandria","zip":"22304","geo_score":0.87,"id":"a6bkaaqcrinv","geo_precision":"zip","state":"Virginia"},"type":"Feature","geometry":{"type":"Point","coordinates":[-77.109146,38.815391]}},{"properties":{"city":"Alexandria","zip":"22314","geo_score":1.0,"id":"a6bkaadhbymn","geo_precision":"zip","state":"Virginia"},"type":"Feature","geometry":{"type":"Point","coordinates":[-77.063587,38.811436]}},{"properties":{"city":"Alexandria","zip":"22302","geo_score":0.896,"id":"a6bkaaf6h7bz","geo_precision":"zip","state":"Virginia"},"type":"Feature","geometry":{"type":"Point","coordinates":[-77.079422,38.837057]}},{"properties":{"city":"Alexandria","zip":"22314","geo_score":1.0,"id":"a6bkaalnrigl","geo_precision":"zip","state":"Virginia"},"type":"Feature","geometry":{"type":"Point","coordinates":[-77.063587,38.811436]}},{"properties":{"city":"Alexandria","zip":"22302","geo_score":0.896,"id":"a6bkaartweav","geo_precision":"zip","state":"Virginia"},"type":"Feature","geometry":{"type":"Point","coordinates":[-77.079422,38.837057]}},{"properties":{"city":"Alexandria","zip":"22302","geo_score":0.896,"id":"a6bkaat7frnn","geo_precision":"zip","state":"Virginia"},"type":"Feature","geometry":{"type":"Point","coordinates":[-77.079422,38.837057]}},{"properties":{"city":"Alexandria","zip":"22302","geo_score":0.896,"id":"a6bkaamm4fvc","geo_precision":"zip","state":"Virginia"},"type":"Feature","geometry":{"type":"Point","coordinates":[-77.079422,38.837057]}},{"properties":{"city":"Alexandria","zip":"22315","geo_score":1.0,"id":"a6bkaalh9scf","geo_precision":"zip","state":"Virginia"},"type":"Feature","geometry":{"type":"Point","coordinates":[-77.147646,38.756466]}},{"properties":{"city":"Alexandria","zip":"22302","geo_score":0.896,"id":"a6bkaadqogn2","geo_precision":"zip","state":"Virginia"},"type":"Feature","geometry":{"type":"Point","coordinates":[-77.079422,38.837057]}},{"properties":{"city":"Alexandria","zip":"22314","geo_score":1.0,"id":"a6bkaalrc8hu","geo_precision":"zip","state":"Virginia"},"type":"Feature","geometry":{"type":"Point","coordinates":[-77.063587,38.811436]}},{"properties":{"city":"Alexandria","zip":"22303","geo_score":1.0,"id":"a6bkaajozxdc","geo_precision":"zip","state":"Virginia"},"type":"Feature","geometry":{"type":"Point","coordinates":[-77.046921,38.804836]}},{"properties":{"city":"Alexandria","zip":"22303","geo_score":1.0,"id":"a6bkaagor38t","geo_precision":"zip","state":"Virginia"},"type":"Feature","geometry":{"type":"Point","coordinates":[-77.046921,38.804836]}},{"properties":{"city":"Alexandria","zip":"22314","geo_score":1.0,"id":"a6bkaadd59aj","geo_precision":"zip","state":"Virginia"},"type":"Feature","geometry":{"type":"Point","coordinates":[-77.063587,38.811436]}},{"properties":{"city":"Alexandria","zip":"22314","geo_score":1.0,"id":"a6bkaajvws8e","geo_precision":"zip","state":"Virginia"},"type":"Feature","geometry":{"type":"Point","coordinates":[-77.063587,38.811436]}},{"properties":{"city":"Alexandria","zip":"22302","geo_score":0.896,"id":"a6bkaajw07d2","geo_precision":"zip","state":"Virginia"},"type":"Feature","geometry":{"type":"Point","coordinates":[-77.079422,38.837057]}},{"properties":{"city":"Alexandria","zip":"22302","geo_score":0.896,"id":"a6bkaahif7mo","geo_precision":"zip","state":"Virginia"},"type":"Feature","geometry":{"type":"Point","coordinates":[-77.079422,38.837057]}},{"properties":{"city":"Alexandria","zip":"22302","geo_score":0.896,"id":"a6bkaaerxm3s","geo_precision":"zip","state":"Virginia"},"type":"Feature","geometry":{"type":"Point","coordinates":[-77.079422,38.837057]}},{"properties":{"city":"Alexandria","zip":"22303","geo_score":1.0,"id":"a6bkaaor4rmc","geo_precision":"zip","state":"Virginia"},"type":"Feature","geometry":{"type":"Point","coordinates":[-77.046921,38.804836]}},{"properties":{"city":"Alexandria","zip":"22315","geo_score":1.0,"id":"a6bkaae3awc3","geo_precision":"zip","state":"Virginia"},"type":"Feature","geometry":{"type":"Point","coordinates":[-77.147646,38.756466]}},{"properties":{"city":"Alexandria","zip":"22306","geo_score":0.869,"id":"a6bkaaqo5sj5","geo_precision":"zip","state":"Virginia"},"type":"Feature","geometry":{"type":"Point","coordinates":[-77.081367,38.757336]}},{"properties":{"city":"Alexandria","zip":"22314","geo_score":1.0,"id":"a6bkaagg463a","geo_precision":"zip","state":"Virginia"},"type":"Feature","geometry":{"type":"Point","coordinates":[-77.063587,38.811436]}},{"properties":{"city":"Alexandria","zip":"22310","geo_score":1.0,"id":"a6bkaafhmf0z","geo_precision":"zip","state":"Virginia"},"type":"Feature","geometry":{"type":"Point","coordinates":[-77.046921,38.804836]}},{"properties":{"city":"Alexandria","zip":"22308","geo_score":1.0,"id":"a6bkaae1e7qv","geo_precision":"zip","state":"Virginia"},"type":"Feature","geometry":{"type":"Point","coordinates":[-77.046921,38.804836]}},{"properties":{"city":"Alexandria","zip":"22306","geo_score":0.869,"id":"a6bkaagx0jis","geo_precision":"zip","state":"Virginia"},"type":"Feature","geometry":{"type":"Point","coordinates":[-77.081367,38.757336]}},{"properties":{"city":"Alexandria","zip":"22305","geo_score":1.0,"id":"a6bkaaqq7umb","geo_precision":"zip","state":"Virginia"},"type":"Feature","geometry":{"type":"Point","coordinates":[-77.063959,38.835412]}},{"properties":{"city":"Alexandria","zip":"22309","geo_score":0.869,"id":"a6bkaah919gu","geo_precision":"zip","state":"Virginia"},"type":"Feature","geometry":{"type":"Point","coordinates":[-77.101923,38.724004]}},{"properties":{"city":"Alexandria","zip":"22306","geo_score":0.869,"id":"a6bkaaqi7hyq","geo_precision":"zip","state":"Virginia"},"type":"Feature","geometry":{"type":"Point","coordinates":[-77.081367,38.757336]}},{"properties":{"city":"Alexandria","zip":"22307","geo_score":1.0,"id":"a6bkaahp7gbd","geo_precision":"zip","state":"Virginia"},"type":"Feature","geometry":{"type":"Point","coordinates":[-77.046921,38.804836]}},{"properties":{"city":"Alexandria","zip":"22307","geo_score":1.0,"id":"a6bkaai8vxok","geo_precision":"zip","state":"Virginia"},"type":"Feature","geometry":{"type":"Point","coordinates":[-77.046921,38.804836]}},{"properties":{"city":"Alexandria","zip":"22301","geo_score":1.0,"id":"a6bkaaekzx1z","geo_precision":"zip","state":"Virginia"},"type":"Feature","geometry":{"type":"Point","coordinates":[-77.079622,38.823062]}},{"properties":{"city":"Allen","zip":"75013","geo_score":1.0,"id":"a6bkaal2cldm","geo_precision":"zip","state":"Texas"},"type":"Feature","geometry":{"type":"Point","coordinates":[-96.677328,33.118645]}},{"properties":{"city":"Ann Arbor","zip":"48104","geo_score":1.0,"id":"a6bkaahn8d2j","geo_precision":"zip","state":"Michigan"},"type":"Feature","geometry":{"type":"Point","coordinates":[-83.727826,42.270903]}},{"properties":{"city":"Annapolis","zip":"21401","geo_score":0.898,"id":"a6bkaag75l3z","geo_precision":"zip","state":"Maryland"},"type":"Feature","geometry":{"type":"Point","coordinates":[-76.462738,39.020945]}},{"properties":{"city":"Annapolis","zip":"21403","geo_score":0.876,"id":"a6bkaaj7q3x2","geo_precision":"zip","state":"Maryland"},"type":"Feature","geometry":{"type":"Point","coordinates":[-76.49496,38.940113]}},{"properties":{"city":"Annapolis","zip":"21401","geo_score":0.898,"id":"a6bkaas3caug","geo_precision":"zip","state":"Maryland"},"type":"Feature","geometry":{"type":"Point","coordinates":[-76.462738,39.020945]}},{"properties":{"city":"Annapolis","zip":"21403","geo_score":0.876,"id":"a6bkaar59rxw","geo_precision":"zip","state":"Maryland"},"type":"Feature","geometry":{"type":"Point","coordinates":[-76.49496,38.940113]}},{"properties":{"city":"Arlington","zip":"22201","geo_score":1.0,"id":"a6bkaae6l0ns","geo_precision":"zip","state":"Virginia"},"type":"Feature","geometry":{"type":"Point","coordinates":[-77.099113,38.885484]}},{"properties":{"city":"Arlington","zip":"22209","geo_score":0.889,"id":"a6bkaaptrr9o","geo_precision":"zip","state":"Virginia"},"type":"Feature","geometry":{"type":"Point","coordinates":[-77.072478,38.896778]}},{"properties":{"city":"Arlington","zip":"22202","geo_score":1.0,"id":"a6bkaakrc82i","geo_precision":"zip","state":"Virginia"},"type":"Feature","geometry":{"type":"Point","coordinates":[-77.059721,38.854462]}},{"properties":{"city":"Arlington","zip":"22202","geo_score":1.0,"id":"a6bkaarmpv7m","geo_precision":"zip","state":"Virginia"},"type":"Feature","geometry":{"type":"Point","coordinates":[-77.059721,38.854462]}},{"properties":{"city":"Arlington","zip":"22207","geo_score":1.0,"id":"a6bkaapzpmcs","geo_precision":"zip","state":"Virginia"},"type":"Feature","geometry":{"type":"Point","coordinates":[-77.122344,38.907416]}},{"properties":{"city":"Arlington","zip":"22207","geo_score":1.0,"id":"a6bkaateanv3","geo_precision":"zip","state":"Virginia"},"type":"Feature","geometry":{"type":"Point","coordinates":[-77.122344,38.907416]}},{"properties":{"city":"Arlington","zip":"22207","geo_score":1.0,"id":"a6bkaaf13wjx","geo_precision":"zip","state":"Virginia"},"type":"Feature","geometry":{"type":"Point","coordinates":[-77.122344,38.907416]}},{"properties":{"city":"Arlington","zip":"22209","geo_score":0.889,"id":"a6bkaagonow4","geo_precision":"zip","state":"Virginia"},"type":"Feature","geometry":{"type":"Point","coordinates":[-77.072478,38.896778]}},{"properties":{"city":"Arlington","zip":"22209","geo_score":0.889,"id":"a6bkaaj0hm4j","geo_precision":"zip","state":"Virginia"},"type":"Feature","geometry":{"type":"Point","coordinates":[-77.072478,38.896778]}},{"properties":{"city":"Arlington","zip":"22207","geo_score":1.0,"id":"a6bkaas6fjnc","geo_precision":"zip","state":"Virginia"},"type":"Feature","geometry":{"type":"Point","coordinates":[-77.122344,38.907416]}},{"properties":{"city":"Arlington","zip":"22209","geo_score":0.889,"id":"a6bkaan5zv3f","geo_precision":"zip","state":"Virginia"},"type":"Feature","geometry":{"type":"Point","coordinates":[-77.072478,38.896778]}},{"properties":{"city":"Arlington","zip":"22201","geo_score":1.0,"id":"a6bkaapv8r45","geo_precision":"zip","state":"Virginia"},"type":"Feature","geometry":{"type":"Point","coordinates":[-77.099113,38.885484]}},{"properties":{"city":"Arlington","zip":"22202","geo_score":1.0,"id":"a6bkaalz649n","geo_precision":"zip","state":"Virginia"},"type":"Feature","geometry":{"type":"Point","coordinates":[-77.059721,38.854462]}},{"properties":{"city":"Arlington","zip":"22202","geo_score":1.0,"id":"a6bkaara9xt4","geo_precision":"zip","state":"Virginia"},"type":"Feature","geometry":{"type":"Point","coordinates":[-77.059721,38.854462]}},{"properties":{"city":"Arlington","zip":"22202","geo_score":1.0,"id":"a6bkaakwjron","geo_precision":"zip","state":"Virginia"},"type":"Feature","geometry":{"type":"Point","coordinates":[-77.059721,38.854462]}},{"properties":{"city":"Arlington","zip":"22202","geo_score":1.0,"id":"a6bkaapfww9d","geo_precision":"zip","state":"Virginia"},"type":"Feature","geometry":{"type":"Point","coordinates":[-77.059721,38.854462]}},{"properties":{"city":"Arlington","zip":"22201","geo_score":1.0,"id":"a6bkaamsa70t","geo_precision":"zip","state":"Virginia"},"type":"Feature","geometry":{"type":"Point","coordinates":[-77.099113,38.885484]}},{"properties":{"city":"Arlington","zip":"22206","geo_score":0.961,"id":"a6bkaaq5he9a","geo_precision":"zip","state":"Virginia"},"type":"Feature","geometry":{"type":"Point","coordinates":[-77.088312,38.841779]}},{"properties":{"city":"Arlington","zip":"22206","geo_score":0.961,"id":"a6bkaajk67g7","geo_precision":"zip","state":"Virginia"},"type":"Feature","geometry":{"type":"Point","coordinates":[-77.088312,38.841779]}},{"properties":{"city":"Arlington","zip":"22206","geo_score":0.961,"id":"a6bkaam4n4d9","geo_precision":"zip","state":"Virginia"},"type":"Feature","geometry":{"type":"Point","coordinates":[-77.088312,38.841779]}},{"properties":{"city":"Arlington","zip":"22201","geo_score":1.0,"id":"a6bkaap6nt0k","geo_precision":"zip","state":"Virginia"},"type":"Feature","geometry":{"type":"Point","coordinates":[-77.099113,38.885484]}},{"properties":{"city":"Arlington","zip":"22201","geo_score":1.0,"id":"a6bkaaq7a05c","geo_precision":"zip","state":"Virginia"},"type":"Feature","geometry":{"type":"Point","coordinates":[-77.099113,38.885484]}},{"properties":{"city":"Arlington","zip":"22207","geo_score":1.0,"id":"a6bkaaskpi9a","geo_precision":"zip","state":"Virginia"},"type":"Feature","geometry":{"type":"Point","coordinates":[-77.122344,38.907416]}},{"properties":{"city":"Arlington","zip":"22201","geo_score":1.0,"id":"a6bkaaolvtaq","geo_precision":"zip","state":"Virginia"},"type":"Feature","geometry":{"type":"Point","coordinates":[-77.099113,38.885484]}},{"properties":{"city":"Arlington","zip":"22202","geo_score":1.0,"id":"a6bkaag0wg0z","geo_precision":"zip","state":"Virginia"},"type":"Feature","geometry":{"type":"Point","coordinates":[-77.059721,38.854462]}},{"properties":{"city":"Arlington","zip":"22201","geo_score":1.0,"id":"a6bkaas6pble","geo_precision":"zip","state":"Virginia"},"type":"Feature","geometry":{"type":"Point","coordinates":[-77.099113,38.885484]}},{"properties":{"city":"Arlington","zip":"22203","geo_score":1.0,"id":"a6bkaaifhd0z","geo_precision":"zip","state":"Virginia"},"type":"Feature","geometry":{"type":"Point","coordinates":[-77.119515,38.874775]}},{"properties":{"city":"Arlington","zip":"22203","geo_score":1.0,"id":"a6bkaagwmq0m","geo_precision":"zip","state":"Virginia"},"type":"Feature","geometry":{"type":"Point","coordinates":[-77.119515,38.874775]}},{"properties":{"city":"Arlington","zip":"22209","geo_score":0.889,"id":"a6bkaakw6nug","geo_precision":"zip","state":"Virginia"},"type":"Feature","geometry":{"type":"Point","coordinates":[-77.072478,38.896778]}},{"properties":{"city":"Arlington","zip":"22209","geo_score":0.889,"id":"a6bkaam75wka","geo_precision":"zip","state":"Virginia"},"type":"Feature","geometry":{"type":"Point","coordinates":[-77.072478,38.896778]}},{"properties":{"city":"Arlington","zip":"22201","geo_score":1.0,"id":"a6bkaamfykud","geo_precision":"zip","state":"Virginia"},"type":"Feature","geometry":{"type":"Point","coordinates":[-77.099113,38.885484]}},{"properties":{"city":"Arlington","zip":"22201","geo_score":1.0,"id":"a6bkaalq4gr6","geo_precision":"zip","state":"Virginia"},"type":"Feature","geometry":{"type":"Point","coordinates":[-77.099113,38.885484]}},{"properties":{"city":"Arlington","zip":"22205","geo_score":1.0,"id":"a6bkaagyawwb","geo_precision":"zip","state":"Virginia"},"type":"Feature","geometry":{"type":"Point","coordinates":[-77.140021,38.875811]}},{"properties":{"city":"Arlington","zip":"22204","geo_score":1.0,"id":"a6bkaaemza4b","geo_precision":"zip","state":"Virginia"},"type":"Feature","geometry":{"type":"Point","coordinates":[-77.100868,38.860335]}},{"properties":{"city":"Arlington","zip":"22204","geo_score":1.0,"id":"a6bkaaq7xxul","geo_precision":"zip","state":"Virginia"},"type":"Feature","geometry":{"type":"Point","coordinates":[-77.100868,38.860335]}},{"properties":{"city":"Arlington","zip":"22204","geo_score":1.0,"id":"a6bkaasupuwb","geo_precision":"zip","state":"Virginia"},"type":"Feature","geometry":{"type":"Point","coordinates":[-77.100868,38.860335]}},{"properties":{"city":"Arlington","zip":"22201","geo_score":1.0,"id":"a6bkaaj2i071","geo_precision":"zip","state":"Virginia"},"type":"Feature","geometry":{"type":"Point","coordinates":[-77.099113,38.885484]}},{"properties":{"city":"Arlington","zip":"22201","geo_score":1.0,"id":"a6bkaag70plv","geo_precision":"zip","state":"Virginia"},"type":"Feature","geometry":{"type":"Point","coordinates":[-77.099113,38.885484]}},{"properties":{"city":"Arlington","zip":"22201","geo_score":1.0,"id":"a6bkaal61io3","geo_precision":"zip","state":"Virginia"},"type":"Feature","geometry":{"type":"Point","coordinates":[-77.099113,38.885484]}},{"properties":{"city":"Arlington","zip":"22201","geo_score":1.0,"id":"a6bkaahz8jdq","geo_precision":"zip","state":"Virginia"},"type":"Feature","geometry":{"type":"Point","coordinates":[-77.099113,38.885484]}},{"properties":{"city":"Arlington","zip":"22201","geo_score":1.0,"id":"a6bkaamfk086","geo_precision":"zip","state":"Virginia"},"type":"Feature","geometry":{"type":"Point","coordinates":[-77.099113,38.885484]}},{"properties":{"city":"Arlington","zip":"22201","geo_score":1.0,"id":"a6bkaaqamu75","geo_precision":"zip","state":"Virginia"},"type":"Feature","geometry":{"type":"Point","coordinates":[-77.099113,38.885484]}},{"properties":{"city":"Arlington","zip":"22201","geo_score":1.0,"id":"a6bkaaj6gbfm","geo_precision":"zip","state":"Virginia"},"type":"Feature","geometry":{"type":"Point","coordinates":[-77.099113,38.885484]}},{"properties":{"city":"Arlington","zip":"22203","geo_score":1.0,"id":"a6bkaagt38d7","geo_precision":"zip","state":"Virginia"},"type":"Feature","geometry":{"type":"Point","coordinates":[-77.119515,38.874775]}},{"properties":{"city":"Arlington","zip":"22203","geo_score":1.0,"id":"a6bkaaogpwr0","geo_precision":"zip","state":"Virginia"},"type":"Feature","geometry":{"type":"Point","coordinates":[-77.119515,38.874775]}},{"properties":{"city":"Arlington","zip":"22203","geo_score":1.0,"id":"a6bkaastu14a","geo_precision":"zip","state":"Virginia"},"type":"Feature","geometry":{"type":"Point","coordinates":[-77.119515,38.874775]}},{"properties":{"city":"Arlington","zip":"22201","geo_score":1.0,"id":"a6bkaampxizg","geo_precision":"zip","state":"Virginia"},"type":"Feature","geometry":{"type":"Point","coordinates":[-77.099113,38.885484]}},{"properties":{"city":"Arlington","zip":"22201","geo_score":1.0,"id":"a6bkaam07xqt","geo_precision":"zip","state":"Virginia"},"type":"Feature","geometry":{"type":"Point","coordinates":[-77.099113,38.885484]}},{"properties":{"city":"Arlington","zip":"22203","geo_score":1.0,"id":"a6bkaaic3wpo","geo_precision":"zip","state":"Virginia"},"type":"Feature","geometry":{"type":"Point","coordinates":[-77.119515,38.874775]}},{"properties":{"city":"Arlington","zip":"22203","geo_score":1.0,"id":"a6bkaam2g6dp","geo_precision":"zip","state":"Virginia"},"type":"Feature","geometry":{"type":"Point","coordinates":[-77.119515,38.874775]}},{"properties":{"city":"Arlington","zip":"22201","geo_score":1.0,"id":"a6bkaaqbitrh","geo_precision":"zip","state":"Virginia"},"type":"Feature","geometry":{"type":"Point","coordinates":[-77.099113,38.885484]}},{"properties":{"city":"Arlington","zip":"22203","geo_score":1.0,"id":"a6bkaak6qyyl","geo_precision":"zip","state":"Virginia"},"type":"Feature","geometry":{"type":"Point","coordinates":[-77.119515,38.874775]}},{"properties":{"city":"Arlington","zip":"22201","geo_score":1.0,"id":"a6bkaaid1ozx","geo_precision":"zip","state":"Virginia"},"type":"Feature","geometry":{"type":"Point","coordinates":[-77.099113,38.885484]}},{"properties":{"city":"Ashburn","zip":"20148","geo_score":0.886,"id":"a6bkaag17p2d","geo_precision":"zip","state":"Virginia"},"type":"Feature","geometry":{"type":"Point","coordinates":[-77.538603,38.982054]}},{"properties":{"city":"Ashburn","zip":"20148","geo_score":0.886,"id":"a6bkaapq8504","geo_precision":"zip","state":"Virginia"},"type":"Feature","geometry":{"type":"Point","coordinates":[-77.538603,38.982054]}},{"properties":{"city":"Ashburn","zip":"20147","geo_score":1.0,"id":"a6bkaas7nsad","geo_precision":"zip","state":"Virginia"},"type":"Feature","geometry":{"type":"Point","coordinates":[-77.480542,39.037339]}},{"properties":{"city":"Ashburn","zip":"20148","geo_score":0.886,"id":"a6bkaaqyx20l","geo_precision":"zip","state":"Virginia"},"type":"Feature","geometry":{"type":"Point","coordinates":[-77.538603,38.982054]}},{"properties":{"city":"Ashburn","zip":"20148","geo_score":0.886,"id":"a6bkaaellruy","geo_precision":"zip","state":"Virginia"},"type":"Feature","geometry":{"type":"Point","coordinates":[-77.538603,38.982054]}},{"properties":{"city":"Ashburn","zip":"20147","geo_score":1.0,"id":"a6bkaaopbue2","geo_precision":"zip","state":"Virginia"},"type":"Feature","geometry":{"type":"Point","coordinates":[-77.480542,39.037339]}},{"properties":{"city":"Ashburn","zip":"20147","geo_score":0.857,"id":"a6bkaal4z992","geo_precision":"zip","state":"Virgnia"},"type":"Feature","geometry":{"type":"Point","coordinates":[-77.480542,39.037339]}},{"properties":{"city":"Ashburn","zip":"20148","geo_score":0.886,"id":"a6bkaajrezpx","geo_precision":"zip","state":"Virginia"},"type":"Feature","geometry":{"type":"Point","coordinates":[-77.538603,38.982054]}},{"properties":{"city":"Ashland","zip":"23005","geo_score":0.857,"id":"a6bkaajwkofl","geo_precision":"zip","state":"Virginia"},"type":"Feature","geometry":{"type":"Point","coordinates":[-77.439427,37.691255]}},{"properties":{"city":"Ashland","zip":"23005","geo_score":0.857,"id":"a6bkaagsur6o","geo_precision":"zip","state":"Virginia"},"type":"Feature","geometry":{"type":"Point","coordinates":[-77.439427,37.691255]}},{"properties":{"city":"Atlanta","zip":"30350","geo_score":1.0,"id":"a6bkaajrn52y","geo_precision":"zip","state":"Georgia"},"type":"Feature","geometry":{"type":"Point","coordinates":[-84.314224,33.9632]}},{"properties":{"city":"Atlanta","zip":"30338","geo_score":0.857,"id":"a6bkaahawqqo","geo_precision":"zip","state":"Georgia"},"type":"Feature","geometry":{"type":"Point","coordinates":[-84.334647,33.946213]}},{"properties":{"city":"Atlanta","zip":"30324","geo_score":1.0,"id":"a6bkaagtbe8g","geo_precision":"zip","state":"Georgia"},"type":"Feature","geometry":{"type":"Point","coordinates":[-84.366475,33.820104]}},{"properties":{"city":"Averne","zip":"11692","geo_score":0.98,"id":"a6bkaar1v6j1","geo_precision":"zip","state":"New York"},"type":"Feature","geometry":{"type":"Point","coordinates":[-73.793273,40.5923]}},{"properties":{"city":"BERLIN","zip":"21811","geo_score":0.857,"id":"a6bkaadp02wg","geo_precision":"zip","state":"Maryland"},"type":"Feature","geometry":{"type":"Point","coordinates":[-75.190744,38.314282]}},{"properties":{"city":"Baltimore","zip":"21224","geo_score":0.889,"id":"a6bkaaiktq7z","geo_precision":"zip","state":"Maryland"},"type":"Feature","geometry":{"type":"Point","coordinates":[-76.514963,39.284552]}},{"properties":{"city":"Baltimore","zip":"21201","geo_score":1.0,"id":"a6bkaas7nfmq","geo_precision":"zip","state":"Maryland"},"type":"Feature","geometry":{"type":"Point","coordinates":[-76.623489,39.296536]}},{"properties":{"city":"Baltimore","zip":"21202","geo_score":1.0,"id":"a6bkaahiwbfe","geo_precision":"zip","state":"Maryland"},"type":"Feature","geometry":{"type":"Point","coordinates":[-76.608438,39.295907]}},{"properties":{"city":"Bethesda","zip":"20817","geo_score":0.868,"id":"a6bkaapjiash","geo_precision":"zip","state":"Maryland"},"type":"Feature","geometry":{"type":"Point","coordinates":[-77.149702,39.019276]}},{"properties":{"city":"Bethesda","zip":"20817","geo_score":0.868,"id":"a6bkaasdia9e","geo_precision":"zip","state":"Maryland"},"type":"Feature","geometry":{"type":"Point","coordinates":[-77.149702,39.019276]}},{"properties":{"city":"Bethesda","zip":"20814","geo_score":0.857,"id":"a6bkaaelyn4q","geo_precision":"zip","state":"Maryland"},"type":"Feature","geometry":{"type":"Point","coordinates":[-77.122201,39.010665]}},{"properties":{"city":"Bluffton","zip":"29910","geo_score":0.857,"id":"a6bkaamve4ky","geo_precision":"zip","state":"South Carolina"},"type":"Feature","geometry":{"type":"Point","coordinates":[-80.964277,32.237978]}},{"properties":{"city":"Boca Raton","zip":"33486","geo_score":1.0,"id":"a6bkaaew2v4k","geo_precision":"zip","state":"Florida"},"type":"Feature","geometry":{"type":"Point","coordinates":[-80.117265,26.348293]}},{"properties":{"city":"Bristow","zip":"20136","geo_score":1.0,"id":"a6bkaam1ri4d","geo_precision":"zip","state":"Virginia"},"type":"Feature","geometry":{"type":"Point","coordinates":[-77.547383,38.734255]}},{"properties":{"city":"Bristow","zip":"20136","geo_score":1.0,"id":"a6bkaakdvtal","geo_precision":"zip","state":"Virginia"},"type":"Feature","geometry":{"type":"Point","coordinates":[-77.547383,38.734255]}},{"properties":{"city":"Broadlands","zip":"20148","geo_score":0.9,"id":"a6bkaao33rak","geo_precision":"zip","state":"Virginia"},"type":"Feature","geometry":{"type":"Point","coordinates":[-77.538603,38.982054]}},{"properties":{"city":"Broadlands","zip":"20148","geo_score":0.9,"id":"a6bkaaf7cbjf","geo_precision":"zip","state":"Virginia"},"type":"Feature","geometry":{"type":"Point","coordinates":[-77.538603,38.982054]}},{"properties":{"city":"Brooklyn","zip":"11225","geo_score":1.0,"id":"a6bkaam7e700","geo_precision":"zip","state":"New York"},"type":"Feature","geometry":{"type":"Point","coordinates":[-73.952295,40.661096]}},{"properties":{"city":"Brooklyn","zip":"11228","geo_score":0.869,"id":"a6bkaagr9smo","geo_precision":"zip","state":"New York"},"type":"Feature","geometry":{"type":"Point","coordinates":[-74.009584,40.621493]}},{"properties":{"city":"Broomfield","zip":"80020","geo_score":0.886,"id":"a6bkaaoar6mv","geo_precision":"zip","state":"Colorado"},"type":"Feature","geometry":{"type":"Point","coordinates":[-105.064706,39.856097]}},{"properties":{"city":"Bunker Hill","zip":"25413","geo_score":0.879,"id":"a6bkaamh88fo","geo_precision":"zip","state":"West Virginia"},"type":"Feature","geometry":{"type":"Point","coordinates":[-78.003887,39.32649]}},{"properties":{"city":"Burke","zip":"22015","geo_score":0.857,"id":"a6bkaafa2xmg","geo_precision":"zip","state":"Virginia"},"type":"Feature","geometry":{"type":"Point","coordinates":[-77.24665,38.79428]}},{"properties":{"city":"Burke","zip":"22015","geo_score":0.857,"id":"a6bkaajfxc19","geo_precision":"zip","state":"Virginia"},"type":"Feature","geometry":{"type":"Point","coordinates":[-77.24665,38.79428]}},{"properties":{"city":"Burke","zip":"22015","geo_score":0.857,"id":"a6bkaaplt35k","geo_precision":"zip","state":"Virginia"},"type":"Feature","geometry":{"type":"Point","coordinates":[-77.24665,38.79428]}},{"properties":{"city":"CHANTILLY","zip":"20152","geo_score":0.87,"id":"a6bkaal3i3kf","geo_precision":"zip","state":"Virginia"},"type":"Feature","geometry":{"type":"Point","coordinates":[-77.50388,38.920945]}},{"properties":{"city":"California","zip":"20619","geo_score":1.0,"id":"a6bkaagiyqmj","geo_precision":"zip","state":"Maryland"},"type":"Feature","geometry":{"type":"Point","coordinates":[-76.637383,38.324994]}},{"properties":{"city":"Camillus","zip":"13031","geo_score":0.873,"id":"a6bkaampg5jk","geo_precision":"zip","state":"New York"},"type":"Feature","geometry":{"type":"Point","coordinates":[-76.274929,43.047844]}},{"properties":{"city":"Cantonsville","zip":"21228","geo_score":0.869,"id":"a6bkaadhmg1c","geo_precision":"zip","state":"Maryland"},"type":"Feature","geometry":{"type":"Point","coordinates":[-76.738861,39.296773]}},{"properties":{"city":"Carlsbad","zip":"92011","geo_score":0.914,"id":"a6bkaasdsa88","geo_precision":"zip","state":"California"},"type":"Feature","geometry":{"type":"Point","coordinates":[-117.067528,32.610333]}},{"properties":{"city":"Cedar Bluff","zip":"24609","geo_score":0.886,"id":"a6bkaahfovzg","geo_precision":"zip","state":"Virginia"},"type":"Feature","geometry":{"type":"Point","coordinates":[-81.794562,37.031225]}},{"properties":{"city":"Centreville","zip":"20120","geo_score":1.0,"id":"a6bkaahbhxuw","geo_precision":"zip","state":"Virginia"},"type":"Feature","geometry":{"type":"Point","coordinates":[-77.46701,38.84479]}},{"properties":{"city":"Centreville","zip":"20121","geo_score":1.0,"id":"a6bkaai76jqh","geo_precision":"zip","state":"Virginia"},"type":"Feature","geometry":{"type":"Point","coordinates":[-77.45576,38.819513]}},{"properties":{"city":"Centreville","zip":"20121","geo_score":1.0,"id":"a6bkaadpgo57","geo_precision":"zip","state":"Virginia"},"type":"Feature","geometry":{"type":"Point","coordinates":[-77.45576,38.819513]}},{"properties":{"city":"Centreville","zip":"20121","geo_score":1.0,"id":"a6bkaat80uzh","geo_precision":"zip","state":"Virginia"},"type":"Feature","geometry":{"type":"Point","coordinates":[-77.45576,38.819513]}},{"properties":{"city":"Centreville","zip":"20121","geo_score":1.0,"id":"a6bkaahunrvz","geo_precision":"zip","state":"Virginia"},"type":"Feature","geometry":{"type":"Point","coordinates":[-77.45576,38.819513]}},{"properties":{"city":"Centreville","zip":"20120","geo_score":1.0,"id":"a6bkaaftrw2w","geo_precision":"zip","state":"Virginia"},"type":"Feature","geometry":{"type":"Point","coordinates":[-77.46701,38.84479]}},{"properties":{"city":"Chambersburg","zip":"17202","geo_score":0.81,"id":"a6bkaarjfion","geo_precision":"city","state":"Pennsylvania"},"type":"Feature","geometry":{"type":"Point","coordinates":[-80.243394,40.099516]}},{"properties":{"city":"Chantilly","zip":"20152","geo_score":0.87,"id":"a6bkaajgzhnw","geo_precision":"zip","state":"Virginia"},"type":"Feature","geometry":{"type":"Point","coordinates":[-77.50388,38.920945]}},{"properties":{"city":"Chantilly","zip":"20151","geo_score":0.857,"id":"a6bkaajcqm8l","geo_precision":"zip","state":"Virgnia"},"type":"Feature","geometry":{"type":"Point","coordinates":[-77.44566,38.88668]}},{"properties":{"city":"Chantilly","zip":"20151","geo_score":1.0,"id":"a6bkaamzatcv","geo_precision":"zip","state":"Virginia"},"type":"Feature","geometry":{"type":"Point","coordinates":[-77.44566,38.88668]}},{"properties":{"city":"Chantilly","zip":"20152","geo_score":0.87,"id":"a6bkaaj3jdc0","geo_precision":"zip","state":"Virginia"},"type":"Feature","geometry":{"type":"Point","coordinates":[-77.50388,38.920945]}},{"properties":{"city":"Chapel Hill","zip":"27516","geo_score":1.0,"id":"a6bkaaflml3u","geo_precision":"zip","state":"North Carolina"},"type":"Feature","geometry":{"type":"Point","coordinates":[-79.136862,35.946263]}},{"properties":{"city":"Charlotte","zip":"28210","geo_score":1.0,"id":"a6bkaamweacs","geo_precision":"zip","state":"North Carolina"},"type":"Feature","geometry":{"type":"Point","coordinates":[-80.851319,35.156753]}},{"properties":{"city":"Charlotte","zip":"28210","geo_score":1.0,"id":"a6bkaaspwthp","geo_precision":"zip","state":"North Carolina"},"type":"Feature","geometry":{"type":"Point","coordinates":[-80.851319,35.156753]}},{"properties":{"city":"Charlotte","zip":"28269","geo_score":1.0,"id":"a6bkaagprlcr","geo_precision":"zip","state":"North Carolina"},"type":"Feature","geometry":{"type":"Point","coordinates":[-80.798583,35.331981]}},{"properties":{"city":"Charlottesville","zip":"22903","geo_score":0.876,"id":"a6bkaamkaj5p","geo_precision":"zip","state":"Virginia"},"type":"Feature","geometry":{"type":"Point","coordinates":[-78.54418,38.051249]}},{"properties":{"city":"Charlottesville","zip":"22903","geo_score":0.876,"id":"a6bkaadtzkc7","geo_precision":"zip","state":"Virginia"},"type":"Feature","geometry":{"type":"Point","coordinates":[-78.54418,38.051249]}},{"properties":{"city":"Charlottesville","zip":"22903","geo_score":0.876,"id":"a6bkaajcy73v","geo_precision":"zip","state":"Virginia"},"type":"Feature","geometry":{"type":"Point","coordinates":[-78.54418,38.051249]}},{"properties":{"city":"Charlottesville","zip":"22903","geo_score":0.876,"id":"a6bkaakkhk6c","geo_precision":"zip","state":"Virginia"},"type":"Feature","geometry":{"type":"Point","coordinates":[-78.54418,38.051249]}},{"properties":{"city":"Charlottesville","zip":"22903","geo_score":0.876,"id":"a6bkaaiqr09q","geo_precision":"zip","state":"Virginia"},"type":"Feature","geometry":{"type":"Point","coordinates":[-78.54418,38.051249]}},{"properties":{"city":"Charlottesville","zip":"22903","geo_score":0.733,"id":"a6bkaajior7h","geo_precision":"zip","state":"Vermont"},"type":"Feature","geometry":{"type":"Point","coordinates":[-78.54418,38.051249]}},{"properties":{"city":"Charlottesville","zip":"22903","geo_score":0.876,"id":"a6bkaapknj4i","geo_precision":"zip","state":"Virginia"},"type":"Feature","geometry":{"type":"Point","coordinates":[-78.54418,38.051249]}},{"properties":{"city":"Charlottesville","zip":"22903","geo_score":0.876,"id":"a6bkaal0mn2e","geo_precision":"zip","state":"Virginia"},"type":"Feature","geometry":{"type":"Point","coordinates":[-78.54418,38.051249]}},{"properties":{"city":"Charlottesville","zip":"22902","geo_score":1.0,"id":"a6bkaaevlovf","geo_precision":"zip","state":"Virginia"},"type":"Feature","geometry":{"type":"Point","coordinates":[-78.48045,38.026588]}},{"properties":{"city":"Charlottesville","zip":"22901","geo_score":0.867,"id":"a6bkaapaau0s","geo_precision":"zip","state":"Virginia"},"type":"Feature","geometry":{"type":"Point","coordinates":[-78.466122,38.08597]}},{"properties":{"city":"Charlottesville","zip":"22902","geo_score":1.0,"id":"a6bkaah6rij3","geo_precision":"zip","state":"Virginia"},"type":"Feature","geometry":{"type":"Point","coordinates":[-78.48045,38.026588]}},{"properties":{"city":"Charlottesville","zip":"22902","geo_score":1.0,"id":"a6bkaah41rda","geo_precision":"zip","state":"Virginia"},"type":"Feature","geometry":{"type":"Point","coordinates":[-78.48045,38.026588]}},{"properties":{"city":"Charlottesville","zip":"22901","geo_score":0.867,"id":"a6bkaajbblvg","geo_precision":"zip","state":"Virginia"},"type":"Feature","geometry":{"type":"Point","coordinates":[-78.466122,38.08597]}},{"properties":{"city":"Charlottesville","zip":"22902","geo_score":1.0,"id":"a6bkaaif5txm","geo_precision":"zip","state":"Virginia"},"type":"Feature","geometry":{"type":"Point","coordinates":[-78.48045,38.026588]}},{"properties":{"city":"Charlottesville","zip":"22902","geo_score":1.0,"id":"a6bkaahwmm8t","geo_precision":"zip","state":"Virginia"},"type":"Feature","geometry":{"type":"Point","coordinates":[-78.48045,38.026588]}},{"properties":{"city":"Charlottesville","zip":"22901","geo_score":0.867,"id":"a6bkaahkwsnk","geo_precision":"zip","state":"Virginia"},"type":"Feature","geometry":{"type":"Point","coordinates":[-78.466122,38.08597]}},{"properties":{"city":"Charlottesville","zip":"22901","geo_score":0.867,"id":"a6bkaag8m0zi","geo_precision":"zip","state":"Virginia"},"type":"Feature","geometry":{"type":"Point","coordinates":[-78.466122,38.08597]}},{"properties":{"city":"Charlottesville","zip":"22903","geo_score":0.876,"id":"a6bkaannku5p","geo_precision":"zip","state":"Virginia"},"type":"Feature","geometry":{"type":"Point","coordinates":[-78.54418,38.051249]}},{"properties":{"city":"Charlottesville","zip":"22903","geo_score":0.876,"id":"a6bkaaq1p0is","geo_precision":"zip","state":"Virginia"},"type":"Feature","geometry":{"type":"Point","coordinates":[-78.54418,38.051249]}},{"properties":{"city":"Charlottesville","zip":"22903","geo_score":0.876,"id":"a6bkaapducj2","geo_precision":"zip","state":"Virginia"},"type":"Feature","geometry":{"type":"Point","coordinates":[-78.54418,38.051249]}},{"properties":{"city":"Charlottesville","zip":"22911","geo_score":1.0,"id":"a6bkaal522a4","geo_precision":"zip","state":"Virginia"},"type":"Feature","geometry":{"type":"Point","coordinates":[-78.408498,38.099507]}},{"properties":{"city":"Charlottesville","zip":"22911","geo_score":1.0,"id":"a6bkaaprvleh","geo_precision":"zip","state":"Virginia"},"type":"Feature","geometry":{"type":"Point","coordinates":[-78.408498,38.099507]}},{"properties":{"city":"Charlottesville","zip":"22911","geo_score":1.0,"id":"a6bkaajfxn86","geo_precision":"zip","state":"Virginia"},"type":"Feature","geometry":{"type":"Point","coordinates":[-78.408498,38.099507]}},{"properties":{"city":"Charlottesville","zip":"22911","geo_score":1.0,"id":"a6bkaadqftq4","geo_precision":"zip","state":"Virginia"},"type":"Feature","geometry":{"type":"Point","coordinates":[-78.408498,38.099507]}},{"properties":{"city":"Charlottesville","zip":"22901","geo_score":0.867,"id":"a6bkaaq4a9ve","geo_precision":"zip","state":"Virginia"},"type":"Feature","geometry":{"type":"Point","coordinates":[-78.466122,38.08597]}},{"properties":{"city":"Charlottesville","zip":"22901","geo_score":0.867,"id":"a6bkaam3fj4f","geo_precision":"zip","state":"Virginia"},"type":"Feature","geometry":{"type":"Point","coordinates":[-78.466122,38.08597]}},{"properties":{"city":"Charlottesville","zip":"22901","geo_score":0.867,"id":"a6bkaarzxkys","geo_precision":"zip","state":"Virginia"},"type":"Feature","geometry":{"type":"Point","coordinates":[-78.466122,38.08597]}},{"properties":{"city":"Charlottesville","zip":"22901","geo_score":0.867,"id":"a6bkaai6mhyp","geo_precision":"zip","state":"Virginia"},"type":"Feature","geometry":{"type":"Point","coordinates":[-78.466122,38.08597]}},{"properties":{"city":"Charlottesville","zip":"22901","geo_score":0.867,"id":"a6bkaaecjka6","geo_precision":"zip","state":"Virginia"},"type":"Feature","geometry":{"type":"Point","coordinates":[-78.466122,38.08597]}},{"properties":{"city":"Charlottesvilled","zip":"22901","geo_score":0.866,"id":"a6bkaascz74k","geo_precision":"zip","state":"Virginia"},"type":"Feature","geometry":{"type":"Point","coordinates":[-78.466122,38.08597]}},{"properties":{"city":"Charlotteville","zip":"22902","geo_score":0.99,"id":"a6bkaajand68","geo_precision":"zip","state":"Virginia"},"type":"Feature","geometry":{"type":"Point","coordinates":[-78.48045,38.026588]}},{"properties":{"city":"Cheltenham","zip":"20623","geo_score":1.0,"id":"a6bkaalq21r2","geo_precision":"zip","state":"Maryland"},"type":"Feature","geometry":{"type":"Point","coordinates":[-76.840572,38.745514]}},{"properties":{"city":"Chesapeake","zip":"23322","geo_score":0.886,"id":"a6bkaannktne","geo_precision":"zip","state":"Virginia"},"type":"Feature","geometry":{"type":"Point","coordinates":[-76.284384,36.628762]}},{"properties":{"city":"Chesapeake","zip":"23323","geo_score":0.871,"id":"a6bkaasl5d9g","geo_precision":"zip","state":"Virginia"},"type":"Feature","geometry":{"type":"Point","coordinates":[-76.361887,36.763482]}},{"properties":{"city":"Chesapeake","zip":"23322","geo_score":0.886,"id":"a6bkaap17pj6","geo_precision":"zip","state":"Virginia"},"type":"Feature","geometry":{"type":"Point","coordinates":[-76.284384,36.628762]}},{"properties":{"city":"Chesapeake","zip":"23322","geo_score":0.886,"id":"a6bkaaevugo2","geo_precision":"zip","state":"Virginia"},"type":"Feature","geometry":{"type":"Point","coordinates":[-76.284384,36.628762]}},{"properties":{"city":"Chesapeake","zip":"23320","geo_score":0.883,"id":"a6bkaaoqe2wl","geo_precision":"zip","state":"Virginia"},"type":"Feature","geometry":{"type":"Point","coordinates":[-76.368554,36.653761]}},{"properties":{"city":"Chesapeake","zip":"23320","geo_score":0.883,"id":"a6bkaakwrvr1","geo_precision":"zip","state":"Virginia"},"type":"Feature","geometry":{"type":"Point","coordinates":[-76.368554,36.653761]}},{"properties":{"city":"Chesapeake","zip":"23323","geo_score":0.871,"id":"a6bkaaq2u3wk","geo_precision":"zip","state":"Virginia"},"type":"Feature","geometry":{"type":"Point","coordinates":[-76.361887,36.763482]}},{"properties":{"city":"Chesapeake","zip":"23322","geo_score":0.886,"id":"a6bkaajfklk8","geo_precision":"zip","state":"Virginia"},"type":"Feature","geometry":{"type":"Point","coordinates":[-76.284384,36.628762]}},{"properties":{"city":"Chesterfield","zip":"23832","geo_score":0.869,"id":"a6bkaasd1r1f","geo_precision":"zip","state":"Virginia"},"type":"Feature","geometry":{"type":"Point","coordinates":[-77.528876,37.430982]}},{"properties":{"city":"Chesterfield","zip":"23832","geo_score":0.869,"id":"a6bkaaogu5wo","geo_precision":"zip","state":"Virginia"},"type":"Feature","geometry":{"type":"Point","coordinates":[-77.528876,37.430982]}},{"properties":{"city":"Chesterfield","zip":"23832","geo_score":0.869,"id":"a6bkaaho6qof","geo_precision":"zip","state":"Virginia"},"type":"Feature","geometry":{"type":"Point","coordinates":[-77.528876,37.430982]}},{"properties":{"city":"Chicago","zip":"60619","geo_score":1.0,"id":"a6bkaam3m5nu","geo_precision":"zip","state":"Illinois"},"type":"Feature","geometry":{"type":"Point","coordinates":[-87.68732,41.811929]}},{"properties":{"city":"Christiansburg","zip":"24073","geo_score":0.878,"id":"a6bkaaelrzhq","geo_precision":"zip","state":"Virginia"},"type":"Feature","geometry":{"type":"Point","coordinates":[-80.513666,37.153461]}},{"properties":{"city":"Cincinnati","zip":"45244","geo_score":0.901,"id":"a6bkaafz27u7","geo_precision":"zip","state":"Ohio"},"type":"Feature","geometry":{"type":"Point","coordinates":[-84.29966,39.097839]}},{"properties":{"city":"Cloverdale","zip":"24077","geo_score":1.0,"id":"a6bkaaig2liv","geo_precision":"zip","state":"Virginia"},"type":"Feature","geometry":{"type":"Point","coordinates":[-79.901331,37.372608]}},{"properties":{"city":"College Park","zip":"20740","geo_score":0.896,"id":"a6bkaato8zxs","geo_precision":"zip","state":"Maryland"},"type":"Feature","geometry":{"type":"Point","coordinates":[-76.925252,39.012332]}},{"properties":{"city":"Columbus","zip":"43212","geo_score":0.87,"id":"a6bkaag07gkk","geo_precision":"zip","state":"Ohio"},"type":"Feature","geometry":{"type":"Point","coordinates":[-83.061575,39.986731]}},{"properties":{"city":"Corona del Mar","zip":"92625","geo_score":1.0,"id":"a6bkaapxwfvv","geo_precision":"zip","state":"California"},"type":"Feature","geometry":{"type":"Point","coordinates":[-117.865325,33.599956]}},{"properties":{"city":"Cottonwood Heights","zip":"84121","geo_score":0.899,"id":"a6bkaal10kis","geo_precision":"zip","state":"Utah"},"type":"Feature","geometry":{"type":"Point","coordinates":[-111.777749,40.622557]}},{"properties":{"city":"Covington","zip":"24426","geo_score":0.867,"id":"a6bkaagn0c1q","geo_precision":"zip","state":"Virginia"},"type":"Feature","geometry":{"type":"Point","coordinates":[-80.237839,37.644847]}},{"properties":{"city":"Crofton","zip":"21114","geo_score":1.0,"id":"a6bkaagc1w1c","geo_precision":"zip","state":"Maryland"},"type":"Feature","geometry":{"type":"Point","coordinates":[-76.622577,39.06436]}},{"properties":{"city":"Crofton","zip":"21114","geo_score":1.0,"id":"a6bkaassu50o","geo_precision":"zip","state":"Maryland"},"type":"Feature","geometry":{"type":"Point","coordinates":[-76.622577,39.06436]}},{"properties":{"city":"Crofton","zip":"21114","geo_score":1.0,"id":"a6bkaamkao1o","geo_precision":"zip","state":"Maryland"},"type":"Feature","geometry":{"type":"Point","coordinates":[-76.622577,39.06436]}},{"properties":{"city":"Cross Junction","zip":"22625","geo_score":0.868,"id":"a6bkaapm0j5s","geo_precision":"zip","state":"Virginia"},"type":"Feature","geometry":{"type":"Point","coordinates":[-78.327228,39.332323]}},{"properties":{"city":"Crozet","zip":"22932","geo_score":0.87,"id":"a6bkaak14v3h","geo_precision":"zip","state":"Virginia"},"type":"Feature","geometry":{"type":"Point","coordinates":[-78.725298,38.046805]}},{"properties":{"city":"Culpeper","zip":"22701","geo_score":0.857,"id":"a6bkaaotgm5q","geo_precision":"zip","state":"Virginia"},"type":"Feature","geometry":{"type":"Point","coordinates":[-78.009442,38.410128]}},{"properties":{"city":"Culpeper","zip":"22701","geo_score":0.857,"id":"a6bkaaky502t","geo_precision":"zip","state":"Virginia"},"type":"Feature","geometry":{"type":"Point","coordinates":[-78.009442,38.410128]}},{"properties":{"city":"Danville","zip":"24541","geo_score":0.889,"id":"a6bkaadw1njn","geo_precision":"zip","state":"Virginia"},"type":"Feature","geometry":{"type":"Point","coordinates":[-79.472525,36.547083]}},{"properties":{"city":"Dayton","zip":"08810","geo_score":1.0,"id":"a6bkaadokygh","geo_precision":"zip","state":"New Jersey"},"type":"Feature","geometry":{"type":"Point","coordinates":[-74.494889,40.372306]}},{"properties":{"city":"Dayton","zip":"22821","geo_score":0.901,"id":"a6bkaanply6b","geo_precision":"zip","state":"Virginia"},"type":"Feature","geometry":{"type":"Point","coordinates":[-78.959196,38.410959]}},{"properties":{"city":"Dumfries","zip":"22026","geo_score":0.857,"id":"a6bkaalc7fuw","geo_precision":"zip","state":"Virginia"},"type":"Feature","geometry":{"type":"Point","coordinates":[-77.339706,38.610952]}},{"properties":{"city":"Dumfries","zip":"22025","geo_score":0.875,"id":"a6bkaai5ppa2","geo_precision":"zip","state":"Virginia"},"type":"Feature","geometry":{"type":"Point","coordinates":[-77.902218,38.960388]}},{"properties":{"city":"Earlysville","zip":"22836","geo_score":0.857,"id":"a6bkaamgotwx","geo_precision":"city","state":"Virginia"},"type":"Feature","geometry":{"type":"Point","coordinates":[-78.506832,38.166565]}},{"properties":{"city":"Earlysville","zip":"22936","geo_score":1.0,"id":"a6bkaaonkczo","geo_precision":"zip","state":"Virginia"},"type":"Feature","geometry":{"type":"Point","coordinates":[-78.506832,38.166565]}},{"properties":{"city":"Earlysville","zip":"22936","geo_score":1.0,"id":"a6bkaaookkie","geo_precision":"zip","state":"Virginia"},"type":"Feature","geometry":{"type":"Point","coordinates":[-78.506832,38.166565]}},{"properties":{"city":"Edgewater","zip":"21037","geo_score":0.87,"id":"a6bkaagwiofb","geo_precision":"zip","state":"Maryland"},"type":"Feature","geometry":{"type":"Point","coordinates":[-76.496348,38.906225]}},{"properties":{"city":"El Cajon","zip":"92020","geo_score":0.875,"id":"a6bkaatknjla","geo_precision":"zip","state":"California"},"type":"Feature","geometry":{"type":"Point","coordinates":[-116.863358,32.811163]}},{"properties":{"city":"Ellicott City","zip":"21043","geo_score":0.874,"id":"a6bkaam3g483","geo_precision":"zip","state":"Maryland"},"type":"Feature","geometry":{"type":"Point","coordinates":[-76.829974,39.269273]}},{"properties":{"city":"Ellicott City","zip":"21042","geo_score":1.0,"id":"a6bkaamvex88","geo_precision":"zip","state":"Maryland"},"type":"Feature","geometry":{"type":"Point","coordinates":[-76.897247,39.261897]}},{"properties":{"city":"Eureka","zip":"95503","geo_score":1.0,"id":"a6bkaaj4i6ge","geo_precision":"zip","state":"California"},"type":"Feature","geometry":{"type":"Point","coordinates":[-123.938685,40.787799]}},{"properties":{"city":"FAIRFAX","zip":"22033","geo_score":1.0,"id":"a6bkaakq8pwt","geo_precision":"zip","state":"Virginia"},"type":"Feature","geometry":{"type":"Point","coordinates":[-77.378858,38.879466]}},{"properties":{"city":"FAIRFAX","zip":"22031","geo_score":1.0,"id":"a6bkaajj976j","geo_precision":"zip","state":"Virginia"},"type":"Feature","geometry":{"type":"Point","coordinates":[-77.284195,38.853962]}},{"properties":{"city":"FALLS CHURCH","zip":"22042","geo_score":0.87,"id":"a6bkaaojhocx","geo_precision":"zip","state":"Virginia"},"type":"Feature","geometry":{"type":"Point","coordinates":[-77.180258,38.865668]}},{"properties":{"city":"Fairfax","zip":"22033","geo_score":1.0,"id":"a6bkaanl4szf","geo_precision":"zip","state":"Virginia"},"type":"Feature","geometry":{"type":"Point","coordinates":[-77.378858,38.879466]}},{"properties":{"city":"Fairfax","zip":"22033","geo_score":1.0,"id":"a6bkaal0os2n","geo_precision":"zip","state":"Virginia"},"type":"Feature","geometry":{"type":"Point","coordinates":[-77.378858,38.879466]}},{"properties":{"city":"Fairfax","zip":"22033","geo_score":1.0,"id":"a6bkaadm0oyy","geo_precision":"zip","state":"Virginia"},"type":"Feature","geometry":{"type":"Point","coordinates":[-77.378858,38.879466]}},{"properties":{"city":"Fairfax","zip":"22033","geo_score":1.0,"id":"a6bkaaebfmvb","geo_precision":"zip","state":"Virginia"},"type":"Feature","geometry":{"type":"Point","coordinates":[-77.378858,38.879466]}},{"properties":{"city":"Fairfax","zip":"22033","geo_score":1.0,"id":"a6bkaajt5yyd","geo_precision":"zip","state":"Virginia"},"type":"Feature","geometry":{"type":"Point","coordinates":[-77.378858,38.879466]}},{"properties":{"city":"Fairfax","zip":"22032","geo_score":1.0,"id":"a6bkaam6bx0y","geo_precision":"zip","state":"Virginia"},"type":"Feature","geometry":{"type":"Point","coordinates":[-77.287105,38.819712]}},{"properties":{"city":"Fairfax","zip":"22032","geo_score":1.0,"id":"a6bkaaghatlq","geo_precision":"zip","state":"Virginia"},"type":"Feature","geometry":{"type":"Point","coordinates":[-77.287105,38.819712]}},{"properties":{"city":"Fairfax","zip":"22032","geo_score":1.0,"id":"a6bkaaqlegg9","geo_precision":"zip","state":"Virginia"},"type":"Feature","geometry":{"type":"Point","coordinates":[-77.287105,38.819712]}},{"properties":{"city":"Fairfax","zip":"22032","geo_score":1.0,"id":"a6bkaaq7s4kn","geo_precision":"zip","state":"Virginia"},"type":"Feature","geometry":{"type":"Point","coordinates":[-77.287105,38.819712]}},{"properties":{"city":"Fairfax","zip":"22031","geo_score":1.0,"id":"a6bkaapi3ma5","geo_precision":"zip","state":"Virginia"},"type":"Feature","geometry":{"type":"Point","coordinates":[-77.284195,38.853962]}},{"properties":{"city":"Fairfax","zip":"22030","geo_score":0.868,"id":"a6bkaasnkgyn","geo_precision":"zip","state":"Virginia"},"type":"Feature","geometry":{"type":"Point","coordinates":[-77.40471,38.839835]}},{"properties":{"city":"Fairfax","zip":"22030","geo_score":0.868,"id":"a6bkaagy1ak2","geo_precision":"zip","state":"Virginia"},"type":"Feature","geometry":{"type":"Point","coordinates":[-77.40471,38.839835]}},{"properties":{"city":"Fairfax","zip":"22030","geo_score":0.868,"id":"a6bkaaow50t3","geo_precision":"zip","state":"Virginia"},"type":"Feature","geometry":{"type":"Point","coordinates":[-77.40471,38.839835]}},{"properties":{"city":"Fairfax","zip":"22030","geo_score":0.868,"id":"a6bkaak0y8wt","geo_precision":"zip","state":"Virginia"},"type":"Feature","geometry":{"type":"Point","coordinates":[-77.40471,38.839835]}},{"properties":{"city":"Fairfax","zip":"22030","geo_score":0.868,"id":"a6bkaaqc7nyi","geo_precision":"zip","state":"Virginia"},"type":"Feature","geometry":{"type":"Point","coordinates":[-77.40471,38.839835]}},{"properties":{"city":"Fairfax","zip":"22030","geo_score":0.868,"id":"a6bkaaim2uqo","geo_precision":"zip","state":"Virginia"},"type":"Feature","geometry":{"type":"Point","coordinates":[-77.40471,38.839835]}},{"properties":{"city":"Fairfax","zip":"22030","geo_score":0.868,"id":"a6bkaan643yh","geo_precision":"zip","state":"Virginia"},"type":"Feature","geometry":{"type":"Point","coordinates":[-77.40471,38.839835]}},{"properties":{"city":"Fairfax","zip":"22030","geo_score":0.868,"id":"a6bkaajsp5pc","geo_precision":"zip","state":"Virginia"},"type":"Feature","geometry":{"type":"Point","coordinates":[-77.40471,38.839835]}},{"properties":{"city":"Fairfax","zip":"22030","geo_score":0.868,"id":"a6bkaanmnhwd","geo_precision":"zip","state":"Virginia"},"type":"Feature","geometry":{"type":"Point","coordinates":[-77.40471,38.839835]}},{"properties":{"city":"Fairfax","zip":"22033","geo_score":1.0,"id":"a6bkaasr0x1j","geo_precision":"zip","state":"Virginia"},"type":"Feature","geometry":{"type":"Point","coordinates":[-77.378858,38.879466]}},{"properties":{"city":"Fairfax","zip":"22033","geo_score":1.0,"id":"a6bkaaptj5hs","geo_precision":"zip","state":"Virginia"},"type":"Feature","geometry":{"type":"Point","coordinates":[-77.378858,38.879466]}},{"properties":{"city":"Falls Church","zip":"22041","geo_score":0.87,"id":"a6bkaaidjdrj","geo_precision":"zip","state":"Virginia"},"type":"Feature","geometry":{"type":"Point","coordinates":[-77.150258,38.841501]}},{"properties":{"city":"Falls Church","zip":"22042","geo_score":0.87,"id":"a6bkaal52kuc","geo_precision":"zip","state":"Virginia"},"type":"Feature","geometry":{"type":"Point","coordinates":[-77.180258,38.865668]}},{"properties":{"city":"Falls Church","zip":"22042","geo_score":0.87,"id":"a6bkaadruwq9","geo_precision":"zip","state":"Virginia"},"type":"Feature","geometry":{"type":"Point","coordinates":[-77.180258,38.865668]}},{"properties":{"city":"Falls Church","zip":"22042","geo_score":0.87,"id":"a6bkaakl6orf","geo_precision":"zip","state":"Virginia"},"type":"Feature","geometry":{"type":"Point","coordinates":[-77.180258,38.865668]}},{"properties":{"city":"Falls Church","zip":"22043","geo_score":0.87,"id":"a6bkaaot94i0","geo_precision":"zip","state":"Virginia"},"type":"Feature","geometry":{"type":"Point","coordinates":[-77.200814,38.912889]}},{"properties":{"city":"Falls Church","zip":"22041","geo_score":0.87,"id":"a6bkaadeic0k","geo_precision":"zip","state":"Virginia"},"type":"Feature","geometry":{"type":"Point","coordinates":[-77.150258,38.841501]}},{"properties":{"city":"Falls Church","zip":"22043","geo_score":0.87,"id":"a6bkaajuzq1e","geo_precision":"zip","state":"Virginia"},"type":"Feature","geometry":{"type":"Point","coordinates":[-77.200814,38.912889]}},{"properties":{"city":"Falls Church","zip":"22046","geo_score":0.857,"id":"a6bkaat8l08t","geo_precision":"zip","state":"Virginia"},"type":"Feature","geometry":{"type":"Point","coordinates":[-77.200259,38.884278]}},{"properties":{"city":"Falls Church","zip":"22041","geo_score":0.87,"id":"a6bkaaq56lx9","geo_precision":"zip","state":"Virginia"},"type":"Feature","geometry":{"type":"Point","coordinates":[-77.150258,38.841501]}},{"properties":{"city":"Falls Church","zip":"22043","geo_score":0.87,"id":"a6bkaaq55abd","geo_precision":"zip","state":"Virginia"},"type":"Feature","geometry":{"type":"Point","coordinates":[-77.200814,38.912889]}},{"properties":{"city":"Falls Church","zip":"22042","geo_score":0.87,"id":"a6bkaaf4n2jb","geo_precision":"zip","state":"Virginia"},"type":"Feature","geometry":{"type":"Point","coordinates":[-77.180258,38.865668]}},{"properties":{"city":"Falls Church","zip":"22044","geo_score":1.0,"id":"a6bkaaf5cbnh","geo_precision":"zip","state":"Virginia"},"type":"Feature","geometry":{"type":"Point","coordinates":[-77.171091,38.882334]}},{"properties":{"city":"Falls Church","zip":"22043","geo_score":0.87,"id":"a6bkaarh7955","geo_precision":"zip","state":"Virginia"},"type":"Feature","geometry":{"type":"Point","coordinates":[-77.200814,38.912889]}},{"properties":{"city":"Falls Church","zip":"22042","geo_score":0.87,"id":"a6bkaarupg9y","geo_precision":"zip","state":"Virginia"},"type":"Feature","geometry":{"type":"Point","coordinates":[-77.180258,38.865668]}},{"properties":{"city":"Falls church","zip":"22046","geo_score":0.857,"id":"a6bkaaf8d588","geo_precision":"zip","state":"Virginia"},"type":"Feature","geometry":{"type":"Point","coordinates":[-77.200259,38.884278]}},{"properties":{"city":"Farifax","zip":"22031","geo_score":0.959,"id":"a6bkaamuazaq","geo_precision":"zip","state":"Virginia"},"type":"Feature","geometry":{"type":"Point","coordinates":[-77.284195,38.853962]}},{"properties":{"city":"Fayetteville","zip":"72704","geo_score":1.0,"id":"a6bkaaso7snm","geo_precision":"zip","state":"Arkansas"},"type":"Feature","geometry":{"type":"Point","coordinates":[-94.309322,36.087732]}},{"properties":{"city":"Fishersville","zip":"22939","geo_score":0.929,"id":"a6bkaahvtb01","geo_precision":"zip","state":"Virginia"},"type":"Feature","geometry":{"type":"Point","coordinates":[-78.943637,38.110968]}},{"properties":{"city":"Flushing","zip":"11355","geo_score":1.0,"id":"a6bkaankrp98","geo_precision":"zip","state":"New York"},"type":"Feature","geometry":{"type":"Point","coordinates":[-73.813903,40.750317]}},{"properties":{"city":"Forest","zip":"24551","geo_score":0.87,"id":"a6bkaaf6th6i","geo_precision":"zip","state":"Virginia"},"type":"Feature","geometry":{"type":"Point","coordinates":[-79.350585,37.417641]}},{"properties":{"city":"Fork Union","zip":"23055","geo_score":0.873,"id":"a6bkaaq1a6cb","geo_precision":"zip","state":"Virginia"},"type":"Feature","geometry":{"type":"Point","coordinates":[-78.235558,37.781531]}},{"properties":{"city":"Foxboro","zip":"02035","geo_score":0.948,"id":"a6bkaaft013k","geo_precision":"zip","state":"Massachusetts"},"type":"Feature","geometry":{"type":"Point","coordinates":[-71.270332,42.075099]}},{"properties":{"city":"Frederick","zip":"21702","geo_score":1.0,"id":"a6bkaalzx9ou","geo_precision":"zip","state":"Maryland"},"type":"Feature","geometry":{"type":"Point","coordinates":[-77.461211,39.492596]}},{"properties":{"city":"Fredericksburg","zip":"22401","geo_score":0.878,"id":"a6bkaajapuvr","geo_precision":"zip","state":"Virginia"},"type":"Feature","geometry":{"type":"Point","coordinates":[-77.37526,38.300683]}},{"properties":{"city":"Fredericksburg","zip":"22407","geo_score":1.0,"id":"a6bkaah2lhs5","geo_precision":"zip","state":"Virginia"},"type":"Feature","geometry":{"type":"Point","coordinates":[-77.606772,38.271969]}},{"properties":{"city":"Fredericksburg","zip":"22407","geo_score":1.0,"id":"a6bkaarfardu","geo_precision":"zip","state":"Virginia"},"type":"Feature","geometry":{"type":"Point","coordinates":[-77.606772,38.271969]}},{"properties":{"city":"Germantown","zip":"20876","geo_score":1.0,"id":"a6bkaaj55hr1","geo_precision":"zip","state":"Maryland"},"type":"Feature","geometry":{"type":"Point","coordinates":[-77.239729,39.210218]}},{"properties":{"city":"Germantown","zip":"20874","geo_score":0.871,"id":"a6bkaaidapx9","geo_precision":"zip","state":"Maryland"},"type":"Feature","geometry":{"type":"Point","coordinates":[-77.243872,39.195384]}},{"properties":{"city":"Germantown","zip":"20874","geo_score":0.871,"id":"a6bkaan640ee","geo_precision":"zip","state":"Maryland"},"type":"Feature","geometry":{"type":"Point","coordinates":[-77.243872,39.195384]}},{"properties":{"city":"Germantown","zip":"20874","geo_score":0.871,"id":"a6bkaaovu2uc","geo_precision":"zip","state":"Maryland"},"type":"Feature","geometry":{"type":"Point","coordinates":[-77.243872,39.195384]}},{"properties":{"city":"Glen Allen","zip":"23060","geo_score":0.893,"id":"a6bkaanzr7ar","geo_precision":"zip","state":"Virginia"},"type":"Feature","geometry":{"type":"Point","coordinates":[-77.458872,37.634867]}},{"properties":{"city":"Glen Allen","zip":"23059","geo_score":1.0,"id":"a6bkaalzpg47","geo_precision":"zip","state":"Virginia"},"type":"Feature","geometry":{"type":"Point","coordinates":[-77.554393,37.728404]}},{"properties":{"city":"Glen Allen","zip":"23060","geo_score":0.893,"id":"a6bkaaieqba6","geo_precision":"zip","state":"Virginia"},"type":"Feature","geometry":{"type":"Point","coordinates":[-77.458872,37.634867]}},{"properties":{"city":"Glen Allen","zip":"23095","geo_score":0.762,"id":"a6bkaagaarpk","geo_precision":"city","state":"Virginia"},"type":"Feature","geometry":{"type":"Point","coordinates":[-78.931134,37.709308]}},{"properties":{"city":"Glen Allen","zip":"23059","geo_score":1.0,"id":"a6bkaadzagrj","geo_precision":"zip","state":"Virginia"},"type":"Feature","geometry":{"type":"Point","coordinates":[-77.554393,37.728404]}},{"properties":{"city":"Glen Allen","zip":"23060","geo_score":0.893,"id":"a6bkaagruewf","geo_precision":"zip","state":"Virginia"},"type":"Feature","geometry":{"type":"Point","coordinates":[-77.458872,37.634867]}},{"properties":{"city":"Glen Allen","zip":"23060","geo_score":0.893,"id":"a6bkaanytyi0","geo_precision":"zip","state":"Virginia"},"type":"Feature","geometry":{"type":"Point","coordinates":[-77.458872,37.634867]}},{"properties":{"city":"Glen Allen","zip":"23059","geo_score":0.857,"id":"a6bkaagp56da","geo_precision":"zip","state":"Virgnia"},"type":"Feature","geometry":{"type":"Point","coordinates":[-77.554393,37.728404]}},{"properties":{"city":"Glen Allen","zip":"23059","geo_score":1.0,"id":"a6bkaatka93h","geo_precision":"zip","state":"Virginia"},"type":"Feature","geometry":{"type":"Point","coordinates":[-77.554393,37.728404]}},{"properties":{"city":"Glen Allen","zip":"23059","geo_score":1.0,"id":"a6bkaaiirb17","geo_precision":"zip","state":"Virginia"},"type":"Feature","geometry":{"type":"Point","coordinates":[-77.554393,37.728404]}},{"properties":{"city":"Glen Allen","zip":"23059","geo_score":1.0,"id":"a6bkaaryuevf","geo_precision":"zip","state":"Virginia"},"type":"Feature","geometry":{"type":"Point","coordinates":[-77.554393,37.728404]}},{"properties":{"city":"Glen Allen","zip":"23059","geo_score":1.0,"id":"a6bkaah2l3k2","geo_precision":"zip","state":"Virginia"},"type":"Feature","geometry":{"type":"Point","coordinates":[-77.554393,37.728404]}},{"properties":{"city":"Glen Allen","zip":"23059","geo_score":1.0,"id":"a6bkaah4g8nf","geo_precision":"zip","state":"Virginia"},"type":"Feature","geometry":{"type":"Point","coordinates":[-77.554393,37.728404]}},{"properties":{"city":"Glen Allen","zip":"23059","geo_score":1.0,"id":"a6bkaaepvttq","geo_precision":"zip","state":"Virginia"},"type":"Feature","geometry":{"type":"Point","coordinates":[-77.554393,37.728404]}},{"properties":{"city":"Glen Allen","zip":"23060","geo_score":0.893,"id":"a6bkaasaxalz","geo_precision":"zip","state":"Virginia"},"type":"Feature","geometry":{"type":"Point","coordinates":[-77.458872,37.634867]}},{"properties":{"city":"Glen Burnie","zip":"21061","geo_score":0.876,"id":"a6bkaaht4y13","geo_precision":"zip","state":"Maryland"},"type":"Feature","geometry":{"type":"Point","coordinates":[-76.649134,39.192608]}},{"properties":{"city":"Goochland","zip":"23063","geo_score":0.857,"id":"a6bkaasax0r4","geo_precision":"zip","state":"Virginia"},"type":"Feature","geometry":{"type":"Point","coordinates":[-78.008055,37.645703]}},{"properties":{"city":"Great Falls","zip":"22066","geo_score":0.886,"id":"a6bkaamkyt07","geo_precision":"zip","state":"Virginia"},"type":"Feature","geometry":{"type":"Point","coordinates":[-77.313595,38.999276]}},{"properties":{"city":"Great Falls","zip":"22066","geo_score":0.886,"id":"a6bkaajijpgp","geo_precision":"zip","state":"Virginia"},"type":"Feature","geometry":{"type":"Point","coordinates":[-77.313595,38.999276]}},{"properties":{"city":"Great Falls","zip":"22066","geo_score":0.886,"id":"a6bkaaeujqpb","geo_precision":"zip","state":"Virginia"},"type":"Feature","geometry":{"type":"Point","coordinates":[-77.313595,38.999276]}},{"properties":{"city":"Greensboro","zip":"27407","geo_score":0.857,"id":"a6bkaaos4v14","geo_precision":"zip","state":"North Carolina"},"type":"Feature","geometry":{"type":"Point","coordinates":[-79.896979,36.014858]}},{"properties":{"city":"Greensboro","zip":"27410","geo_score":0.876,"id":"a6bkaam79ypm","geo_precision":"zip","state":"North Carolina"},"type":"Feature","geometry":{"type":"Point","coordinates":[-79.887257,36.091803]}},{"properties":{"city":"Greensboro","zip":"27408","geo_score":1.0,"id":"a6bkaaryuk6q","geo_precision":"zip","state":"North Carolina"},"type":"Feature","geometry":{"type":"Point","coordinates":[-79.816254,36.103685]}},{"properties":{"city":"Greenville","zip":"29617","geo_score":1.0,"id":"a6bkaasdduy0","geo_precision":"zip","state":"South Carolina"},"type":"Feature","geometry":{"type":"Point","coordinates":[-82.465633,34.955463]}},{"properties":{"city":"Greenville","zip":"29601","geo_score":0.876,"id":"a6bkaamu4kae","geo_precision":"zip","state":"South Carolina"},"type":"Feature","geometry":{"type":"Point","coordinates":[-82.454845,34.936506]}},{"properties":{"city":"Hagerstown","zip":"21742","geo_score":1.0,"id":"a6bkaadunoy5","geo_precision":"zip","state":"Maryland"},"type":"Feature","geometry":{"type":"Point","coordinates":[-77.652779,39.642995]}},{"properties":{"city":"Hagerstown","zip":"21742","geo_score":1.0,"id":"a6bkaahnxbnq","geo_precision":"zip","state":"Maryland"},"type":"Feature","geometry":{"type":"Point","coordinates":[-77.652779,39.642995]}},{"properties":{"city":"Hamilton","zip":"20158","geo_score":1.0,"id":"a6bkaatuujmz","geo_precision":"zip","state":"Virginia"},"type":"Feature","geometry":{"type":"Point","coordinates":[-77.657328,39.138314]}},{"properties":{"city":"Hamilton","zip":"20158","geo_score":1.0,"id":"a6bkaap0r3sv","geo_precision":"zip","state":"Virginia"},"type":"Feature","geometry":{"type":"Point","coordinates":[-77.657328,39.138314]}},{"properties":{"city":"Hampton","zip":"23666","geo_score":0.857,"id":"a6bkaahssqvn","geo_precision":"zip","state":"Virginia"},"type":"Feature","geometry":{"type":"Point","coordinates":[-76.371056,37.048757]}},{"properties":{"city":"Hampton","zip":"23669","geo_score":1.0,"id":"a6bkaakqwlbm","geo_precision":"zip","state":"Virginia"},"type":"Feature","geometry":{"type":"Point","coordinates":[-76.353866,37.045715]}},{"properties":{"city":"Hampton","zip":"23669","geo_score":1.0,"id":"a6bkaag4si33","geo_precision":"zip","state":"Virginia"},"type":"Feature","geometry":{"type":"Point","coordinates":[-76.353866,37.045715]}},{"properties":{"city":"Hanahan","zip":"29410","geo_score":0.905,"id":"a6bkaagotm76","geo_precision":"zip","state":"South Carolina"},"type":"Feature","geometry":{"type":"Point","coordinates":[-80.018421,32.917674]}},{"properties":{"city":"Harrisburg","zip":"17102","geo_score":1.0,"id":"a6bkaamoip6z","geo_precision":"zip","state":"Pennsylvania"},"type":"Feature","geometry":{"type":"Point","coordinates":[-76.890695,40.272538]}},{"properties":{"city":"Harrisonburg","zip":"22801","geo_score":0.869,"id":"a6bkaasemhh9","geo_precision":"zip","state":"Virginia"},"type":"Feature","geometry":{"type":"Point","coordinates":[-78.768913,38.505401]}},{"properties":{"city":"Harrisonburg","zip":"22801","geo_score":0.869,"id":"a6bkaapwupjd","geo_precision":"zip","state":"Virginia"},"type":"Feature","geometry":{"type":"Point","coordinates":[-78.768913,38.505401]}},{"properties":{"city":"Harrisonburg","zip":"22801","geo_score":0.869,"id":"a6bkaafng576","geo_precision":"zip","state":"Virginia"},"type":"Feature","geometry":{"type":"Point","coordinates":[-78.768913,38.505401]}},{"properties":{"city":"Haymarket","zip":"20169","geo_score":1.0,"id":"a6bkaarbum6v","geo_precision":"zip","state":"Virginia"},"type":"Feature","geometry":{"type":"Point","coordinates":[-77.644539,38.867441]}},{"properties":{"city":"Hedgesville","zip":"25427","geo_score":0.857,"id":"a6bkaagf824f","geo_precision":"zip","state":"West Virginia"},"type":"Feature","geometry":{"type":"Point","coordinates":[-78.046945,39.530375]}},{"properties":{"city":"Henrico","zip":"23233","geo_score":0.882,"id":"a6bkaae3bvcf","geo_precision":"zip","state":"Virginia"},"type":"Feature","geometry":{"type":"Point","coordinates":[-77.662213,37.577369]}},{"properties":{"city":"Henrico","zip":"23294","geo_score":0.875,"id":"a6bkaancn36k","geo_precision":"zip","state":"Virginia"},"type":"Feature","geometry":{"type":"Point","coordinates":[-77.542483,37.630525]}},{"properties":{"city":"Hernando","zip":"38632","geo_score":0.857,"id":"a6bkaae8ohrk","geo_precision":"zip","state":"Mississippi"},"type":"Feature","geometry":{"type":"Point","coordinates":[-89.97009,34.753434]}},{"properties":{"city":"Herndon","zip":"20171","geo_score":1.0,"id":"a6bkaaqhou76","geo_precision":"zip","state":"Virginia"},"type":"Feature","geometry":{"type":"Point","coordinates":[-77.39284,38.92518]}},{"properties":{"city":"Herndon","zip":"20171","geo_score":1.0,"id":"a6bkaaqlypmp","geo_precision":"zip","state":"Virginia"},"type":"Feature","geometry":{"type":"Point","coordinates":[-77.39284,38.92518]}},{"properties":{"city":"Herndon","zip":"20171","geo_score":1.0,"id":"a6bkaagycgsg","geo_precision":"zip","state":"Virginia"},"type":"Feature","geometry":{"type":"Point","coordinates":[-77.39284,38.92518]}},{"properties":{"city":"Herndon","zip":"20171","geo_score":1.0,"id":"a6bkaak7lg86","geo_precision":"zip","state":"Virginia"},"type":"Feature","geometry":{"type":"Point","coordinates":[-77.39284,38.92518]}},{"properties":{"city":"Herndon","zip":"20170","geo_score":1.0,"id":"a6bkaanj1mg1","geo_precision":"zip","state":"Virginia"},"type":"Feature","geometry":{"type":"Point","coordinates":[-77.367457,38.983887]}},{"properties":{"city":"Herndon","zip":"20170","geo_score":1.0,"id":"a6bkaah9qoxk","geo_precision":"zip","state":"Virginia"},"type":"Feature","geometry":{"type":"Point","coordinates":[-77.367457,38.983887]}},{"properties":{"city":"Herndon","zip":"20171","geo_score":1.0,"id":"a6bkaaorctzz","geo_precision":"zip","state":"Virginia"},"type":"Feature","geometry":{"type":"Point","coordinates":[-77.39284,38.92518]}},{"properties":{"city":"Herndon","zip":"20171","geo_score":1.0,"id":"a6bkaao9d381","geo_precision":"zip","state":"Virginia"},"type":"Feature","geometry":{"type":"Point","coordinates":[-77.39284,38.92518]}},{"properties":{"city":"Herndon","zip":"20171","geo_score":1.0,"id":"a6bkaamhkgr8","geo_precision":"zip","state":"Virginia"},"type":"Feature","geometry":{"type":"Point","coordinates":[-77.39284,38.92518]}},{"properties":{"city":"Herndon","zip":"20171","geo_score":1.0,"id":"a6bkaan5160t","geo_precision":"zip","state":"Virginia"},"type":"Feature","geometry":{"type":"Point","coordinates":[-77.39284,38.92518]}},{"properties":{"city":"Herndon","zip":"20171","geo_score":1.0,"id":"a6bkaahh84bv","geo_precision":"zip","state":"Virginia"},"type":"Feature","geometry":{"type":"Point","coordinates":[-77.39284,38.92518]}},{"properties":{"city":"Herndon","zip":"20170","geo_score":1.0,"id":"a6bkaarftgqp","geo_precision":"zip","state":"Virginia"},"type":"Feature","geometry":{"type":"Point","coordinates":[-77.367457,38.983887]}},{"properties":{"city":"Houston","zip":"77059","geo_score":1.0,"id":"a6bkaaovo4gg","geo_precision":"zip","state":"Texas"},"type":"Feature","geometry":{"type":"Point","coordinates":[-95.120937,29.576505]}},{"properties":{"city":"Houston","zip":"77056","geo_score":1.0,"id":"a6bkaafrv6nl","geo_precision":"zip","state":"Texas"},"type":"Feature","geometry":{"type":"Point","coordinates":[-95.207161,29.698579]}},{"properties":{"city":"Hummelstown","zip":"17036","geo_score":0.857,"id":"a6bkaaom5ax6","geo_precision":"zip","state":"Pennsylvania"},"type":"Feature","geometry":{"type":"Point","coordinates":[-76.68247,40.240369]}},{"properties":{"city":"Huntingdon Valley","zip":"19006","geo_score":0.884,"id":"a6bkaalelie5","geo_precision":"zip","state":"Pennsylvania"},"type":"Feature","geometry":{"type":"Point","coordinates":[-75.054616,40.111777]}},{"properties":{"city":"Huntingdon Valley","zip":"19006","geo_score":0.884,"id":"a6bkaajapg1o","geo_precision":"zip","state":"Pennsylvania"},"type":"Feature","geometry":{"type":"Point","coordinates":[-75.054616,40.111777]}},{"properties":{"city":"Huntington Beach","zip":"92649","geo_score":1.0,"id":"a6bkaag2a16m","geo_precision":"zip","state":"California"},"type":"Feature","geometry":{"type":"Point","coordinates":[-117.769442,33.640302]}},{"properties":{"city":"Irvine","zip":"92614","geo_score":1.0,"id":"a6bkaar3xjgs","geo_precision":"zip","state":"California"},"type":"Feature","geometry":{"type":"Point","coordinates":[-117.827913,33.685319]}},{"properties":{"city":"Irving","zip":"75063","geo_score":1.0,"id":"a6bkaat26v5h","geo_precision":"zip","state":"Texas"},"type":"Feature","geometry":{"type":"Point","coordinates":[-96.777626,32.767268]}},{"properties":{"city":"Ivel","zip":"41642","geo_score":1.0,"id":"a6bkaahwi5na","geo_precision":"zip","state":"Kentucky"},"type":"Feature","geometry":{"type":"Point","coordinates":[-82.677517,37.469203]}},{"properties":{"city":"Jersey City","zip":"07306","geo_score":1.0,"id":"a6bkaah1m0dc","geo_precision":"zip","state":"New Jersey"},"type":"Feature","geometry":{"type":"Point","coordinates":[-74.068685,40.734951]}},{"properties":{"city":"Keswick","zip":"22947","geo_score":0.875,"id":"a6bkaaiwedsv","geo_precision":"zip","state":"Virginia"},"type":"Feature","geometry":{"type":"Point","coordinates":[-78.395565,38.012918]}},{"properties":{"city":"Knoxville","zip":"37919","geo_score":0.879,"id":"a6bkaadqjjwr","geo_precision":"zip","state":"Tennessee"},"type":"Feature","geometry":{"type":"Point","coordinates":[-84.03491,35.900081]}},{"properties":{"city":"Lacey","zip":"98503","geo_score":1.0,"id":"a6bkaans56ii","geo_precision":"zip","state":"Washington"},"type":"Feature","geometry":{"type":"Point","coordinates":[-122.796695,47.026418]}},{"properties":{"city":"Lakewood","zip":"90712","geo_score":1.0,"id":"a6bkaasnaj57","geo_precision":"zip","state":"California"},"type":"Feature","geometry":{"type":"Point","coordinates":[-118.14645,33.845624]}},{"properties":{"city":"Lansdowne","zip":"20176","geo_score":0.889,"id":"a6bkaaofkp60","geo_precision":"zip","state":"Virginia"},"type":"Feature","geometry":{"type":"Point","coordinates":[-77.603458,39.119727]}},{"properties":{"city":"League City","zip":"77573","geo_score":1.0,"id":"a6bkaaimjg0s","geo_precision":"zip","state":"Texas"},"type":"Feature","geometry":{"type":"Point","coordinates":[-95.052262,29.496451]}},{"properties":{"city":"Lebanon","zip":"03766","geo_score":0.879,"id":"a6bkaatpjpg4","geo_precision":"zip","state":"New Hampshire"},"type":"Feature","geometry":{"type":"Point","coordinates":[-72.130921,43.528962]}},{"properties":{"city":"Leesburg","zip":"20176","geo_score":1.0,"id":"a6bkaajyr107","geo_precision":"zip","state":"Virginia"},"type":"Feature","geometry":{"type":"Point","coordinates":[-77.603458,39.119727]}},{"properties":{"city":"Leesburg","zip":"20176","geo_score":1.0,"id":"a6bkaadt79hu","geo_precision":"zip","state":"Virginia"},"type":"Feature","geometry":{"type":"Point","coordinates":[-77.603458,39.119727]}},{"properties":{"city":"Leesburg","zip":"20176","geo_score":1.0,"id":"a6bkaatki3nc","geo_precision":"zip","state":"Virginia"},"type":"Feature","geometry":{"type":"Point","coordinates":[-77.603458,39.119727]}},{"properties":{"city":"Leesburg","zip":"20176","geo_score":1.0,"id":"a6bkaaibxn1m","geo_precision":"zip","state":"Virginia"},"type":"Feature","geometry":{"type":"Point","coordinates":[-77.603458,39.119727]}},{"properties":{"city":"Leesburg","zip":"20176","geo_score":1.0,"id":"a6bkaamdoydy","geo_precision":"zip","state":"Virginia"},"type":"Feature","geometry":{"type":"Point","coordinates":[-77.603458,39.119727]}},{"properties":{"city":"Leesburg","zip":"20176","geo_score":1.0,"id":"a6bkaaoo8eul","geo_precision":"zip","state":"Virginia"},"type":"Feature","geometry":{"type":"Point","coordinates":[-77.603458,39.119727]}},{"properties":{"city":"Leesburg","zip":"20175","geo_score":1.0,"id":"a6bkaahxzobk","geo_precision":"zip","state":"Virginia"},"type":"Feature","geometry":{"type":"Point","coordinates":[-77.605404,39.041987]}},{"properties":{"city":"Lexington","zip":"24450","geo_score":0.87,"id":"a6bkaakwkuk3","geo_precision":"zip","state":"Virginia"},"type":"Feature","geometry":{"type":"Point","coordinates":[-79.365036,37.85541]}},{"properties":{"city":"Lexington","zip":"24450","geo_score":0.87,"id":"a6bkaah88uma","geo_precision":"zip","state":"Virginia"},"type":"Feature","geometry":{"type":"Point","coordinates":[-79.365036,37.85541]}},{"properties":{"city":"Lexington","zip":"40502","geo_score":0.857,"id":"a6bkaagir9vs","geo_precision":"zip","state":"Kentucky"},"type":"Feature","geometry":{"type":"Point","coordinates":[-84.437714,37.872579]}},{"properties":{"city":"Lexington","zip":"24450","geo_score":0.87,"id":"a6bkaan1d6t1","geo_precision":"zip","state":"Virginia"},"type":"Feature","geometry":{"type":"Point","coordinates":[-79.365036,37.85541]}},{"properties":{"city":"Liverpool","zip":"13090","geo_score":1.0,"id":"a6bkaaj1eha2","geo_precision":"zip","state":"New York"},"type":"Feature","geometry":{"type":"Point","coordinates":[-76.223459,43.152767]}},{"properties":{"city":"Livonia","zip":"48150","geo_score":1.0,"id":"a6bkaafw23f3","geo_precision":"zip","state":"Michigan"},"type":"Feature","geometry":{"type":"Point","coordinates":[-83.371753,42.369351]}},{"properties":{"city":"Longmont","zip":"80503","geo_score":1.0,"id":"a6bkaaqp5qyc","geo_precision":"zip","state":"Colorado"},"type":"Feature","geometry":{"type":"Point","coordinates":[-105.212558,40.159043]}},{"properties":{"city":"Lorton","zip":"22079","geo_score":0.879,"id":"a6bkaas8sou0","geo_precision":"zip","state":"Virginia"},"type":"Feature","geometry":{"type":"Point","coordinates":[-77.20276,38.717337]}},{"properties":{"city":"Los Angeles","zip":"90005","geo_score":1.0,"id":"a6bkaagaghdu","geo_precision":"zip","state":"California"},"type":"Feature","geometry":{"type":"Point","coordinates":[-118.298662,33.786594]}},{"properties":{"city":"Louisa","zip":"23093","geo_score":0.87,"id":"a6bkaat9e895","geo_precision":"zip","state":"Virginia"},"type":"Feature","geometry":{"type":"Point","coordinates":[-77.98222,37.938197]}},{"properties":{"city":"Lynchburg","zip":"24502","geo_score":0.888,"id":"a6bkaaj0aqfl","geo_precision":"zip","state":"Virginia"},"type":"Feature","geometry":{"type":"Point","coordinates":[-79.237247,37.310699]}},{"properties":{"city":"Lynchburg","zip":"24501","geo_score":0.868,"id":"a6bkaafp6vsm","geo_precision":"zip","state":"Virginia"},"type":"Feature","geometry":{"type":"Point","coordinates":[-79.01391,37.374033]}},{"properties":{"city":"Lynchburg","zip":"24502","geo_score":0.888,"id":"a6bkaahc3jk0","geo_precision":"zip","state":"Virginia"},"type":"Feature","geometry":{"type":"Point","coordinates":[-79.237247,37.310699]}},{"properties":{"city":"Lynchburg","zip":"24503","geo_score":0.873,"id":"a6bkaana80ob","geo_precision":"zip","state":"Virginia"},"type":"Feature","geometry":{"type":"Point","coordinates":[-79.27864,37.504584]}},{"properties":{"city":"Madison","zip":"22727","geo_score":0.883,"id":"a6bkaafsn22n","geo_precision":"zip","state":"Virginia"},"type":"Feature","geometry":{"type":"Point","coordinates":[-78.171391,38.317908]}},{"properties":{"city":"Madison","zip":"22727","geo_score":0.883,"id":"a6bkaap8r8ch","geo_precision":"zip","state":"Virginia"},"type":"Feature","geometry":{"type":"Point","coordinates":[-78.171391,38.317908]}},{"properties":{"city":"Manassas","zip":"20111","geo_score":0.952,"id":"a6bkaamk0v11","geo_precision":"zip","state":"Virginia"},"type":"Feature","geometry":{"type":"Point","coordinates":[-77.469711,38.784004]}},{"properties":{"city":"Manassas","zip":"20110","geo_score":1.0,"id":"a6bkaah9vrzx","geo_precision":"zip","state":"Virginia"},"type":"Feature","geometry":{"type":"Point","coordinates":[-77.487762,38.749207]}},{"properties":{"city":"Manassas","zip":"20111","geo_score":0.952,"id":"a6bkaanufu3d","geo_precision":"zip","state":"Virginia"},"type":"Feature","geometry":{"type":"Point","coordinates":[-77.469711,38.784004]}},{"properties":{"city":"Manassas","zip":"20112","geo_score":0.952,"id":"a6bkaaeq5od3","geo_precision":"zip","state":"Virginia"},"type":"Feature","geometry":{"type":"Point","coordinates":[-77.427104,38.668375]}},{"properties":{"city":"Manassas","zip":"20112","geo_score":0.952,"id":"a6bkaafucq97","geo_precision":"zip","state":"Virginia"},"type":"Feature","geometry":{"type":"Point","coordinates":[-77.427104,38.668375]}},{"properties":{"city":"Manassas","zip":"20112","geo_score":0.952,"id":"a6bkaajrl7xb","geo_precision":"zip","state":"Virginia"},"type":"Feature","geometry":{"type":"Point","coordinates":[-77.427104,38.668375]}},{"properties":{"city":"Maplewood","zip":"07040","geo_score":0.879,"id":"a6bkaalo50xq","geo_precision":"zip","state":"New Jersey"},"type":"Feature","geometry":{"type":"Point","coordinates":[-74.257925,40.722601]}},{"properties":{"city":"Marshfield","zip":"02050","geo_score":0.871,"id":"a6bkaaqbovyv","geo_precision":"zip","state":"Massachusetts"},"type":"Feature","geometry":{"type":"Point","coordinates":[-70.75504,42.107046]}},{"properties":{"city":"Martinsville","zip":"24112","geo_score":0.857,"id":"a6bkaajzjayi","geo_precision":"zip","state":"Virginia"},"type":"Feature","geometry":{"type":"Point","coordinates":[-79.903929,36.69736]}},{"properties":{"city":"Matthews","zip":"28104","geo_score":1.0,"id":"a6bkaadz2vcy","geo_precision":"zip","state":"North Carolina"},"type":"Feature","geometry":{"type":"Point","coordinates":[-80.704424,35.089042]}},{"properties":{"city":"Matthews","zip":"28104","geo_score":1.0,"id":"a6bkaafo0s93","geo_precision":"zip","state":"North Carolina"},"type":"Feature","geometry":{"type":"Point","coordinates":[-80.704424,35.089042]}},{"properties":{"city":"McKenney","zip":"23872","geo_score":1.0,"id":"a6bkaaf5j1za","geo_precision":"zip","state":"Virginia"},"type":"Feature","geometry":{"type":"Point","coordinates":[-77.736044,37.010322]}},{"properties":{"city":"McLean","zip":"22102","geo_score":1.0,"id":"a6bkaaliebmb","geo_precision":"zip","state":"Virginia"},"type":"Feature","geometry":{"type":"Point","coordinates":[-77.229496,38.953033]}},{"properties":{"city":"McLean","zip":"22102","geo_score":1.0,"id":"a6bkaanr9ase","geo_precision":"zip","state":"Virginia"},"type":"Feature","geometry":{"type":"Point","coordinates":[-77.229496,38.953033]}},{"properties":{"city":"McLean","zip":"22101","geo_score":0.857,"id":"a6bkaasz958h","geo_precision":"zip","state":"Virgnia"},"type":"Feature","geometry":{"type":"Point","coordinates":[-77.18672,38.935202]}},{"properties":{"city":"McLean","zip":"22102","geo_score":0.857,"id":"a6bkaarf4seu","geo_precision":"zip","state":"Virgnia"},"type":"Feature","geometry":{"type":"Point","coordinates":[-77.229496,38.953033]}},{"properties":{"city":"McLean","zip":"22101","geo_score":1.0,"id":"a6bkaantq23y","geo_precision":"zip","state":"Virginia"},"type":"Feature","geometry":{"type":"Point","coordinates":[-77.18672,38.935202]}},{"properties":{"city":"McLean","zip":"22101","geo_score":1.0,"id":"a6bkaaqxom2e","geo_precision":"zip","state":"Virginia"},"type":"Feature","geometry":{"type":"Point","coordinates":[-77.18672,38.935202]}},{"properties":{"city":"McLean","zip":"22106","geo_score":1.0,"id":"a6bkaar6dof3","geo_precision":"zip","state":"Virginia"},"type":"Feature","geometry":{"type":"Point","coordinates":[-77.288755,38.831813]}},{"properties":{"city":"McLean","zip":"22101","geo_score":1.0,"id":"a6bkaarffg7t","geo_precision":"zip","state":"Virginia"},"type":"Feature","geometry":{"type":"Point","coordinates":[-77.18672,38.935202]}},{"properties":{"city":"McMurray","zip":"15317","geo_score":0.871,"id":"a6bkaadbva60","geo_precision":"zip","state":"Pennsylvania"},"type":"Feature","geometry":{"type":"Point","coordinates":[-80.174502,40.259515]}},{"properties":{"city":"Mclean","zip":"22102","geo_score":1.0,"id":"a6bkaasvmgl9","geo_precision":"zip","state":"Virginia"},"type":"Feature","geometry":{"type":"Point","coordinates":[-77.229496,38.953033]}},{"properties":{"city":"Mclean","zip":"22101","geo_score":1.0,"id":"a6bkaan23yuw","geo_precision":"zip","state":"Virginia"},"type":"Feature","geometry":{"type":"Point","coordinates":[-77.18672,38.935202]}},{"properties":{"city":"Mclean","zip":"22102","geo_score":1.0,"id":"a6bkaapfk7m3","geo_precision":"zip","state":"Virginia"},"type":"Feature","geometry":{"type":"Point","coordinates":[-77.229496,38.953033]}},{"properties":{"city":"Mechanicsville","zip":"23111","geo_score":0.875,"id":"a6bkaae6ewzr","geo_precision":"zip","state":"Virginia"},"type":"Feature","geometry":{"type":"Point","coordinates":[-77.386648,37.609312]}},{"properties":{"city":"Mechanicsville","zip":"23116","geo_score":1.0,"id":"a6bkaadyc5qv","geo_precision":"zip","state":"Virginia"},"type":"Feature","geometry":{"type":"Point","coordinates":[-77.329421,37.669086]}},{"properties":{"city":"Mechanicsville","zip":"23116","geo_score":1.0,"id":"a6bkaaftxja1","geo_precision":"zip","state":"Virginia"},"type":"Feature","geometry":{"type":"Point","coordinates":[-77.329421,37.669086]}},{"properties":{"city":"Mechanicsville","zip":"23116","geo_score":1.0,"id":"a6bkaat8slkh","geo_precision":"zip","state":"Virginia"},"type":"Feature","geometry":{"type":"Point","coordinates":[-77.329421,37.669086]}},{"properties":{"city":"Mechanicsville","zip":"23116","geo_score":1.0,"id":"a6bkaamvxbom","geo_precision":"zip","state":"Virginia"},"type":"Feature","geometry":{"type":"Point","coordinates":[-77.329421,37.669086]}},{"properties":{"city":"Mechanicsville","zip":"23116","geo_score":1.0,"id":"a6bkaasfv92h","geo_precision":"zip","state":"Virginia"},"type":"Feature","geometry":{"type":"Point","coordinates":[-77.329421,37.669086]}},{"properties":{"city":"Memphis","zip":"38132","geo_score":1.0,"id":"a6bkaagiffz6","geo_precision":"zip","state":"Tennessee"},"type":"Feature","geometry":{"type":"Point","coordinates":[-90.003349,35.068014]}},{"properties":{"city":"Midland","zip":"79705","geo_score":0.873,"id":"a6bkaanapb2v","geo_precision":"zip","state":"Texas"},"type":"Feature","geometry":{"type":"Point","coordinates":[-101.895688,32.027625]}},{"properties":{"city":"Midlothia","zip":"23113","geo_score":0.857,"id":"a6bkaagbv0cm","geo_precision":"zip","state":"Virginia"},"type":"Feature","geometry":{"type":"Point","coordinates":[-77.71166,37.568203]}},{"properties":{"city":"Midlothian","zip":"23113","geo_score":0.857,"id":"a6bkaaf0cybh","geo_precision":"zip","state":"Virginia"},"type":"Feature","geometry":{"type":"Point","coordinates":[-77.71166,37.568203]}},{"properties":{"city":"Midlothian","zip":"23113","geo_score":0.857,"id":"a6bkaakp5oth","geo_precision":"zip","state":"Virginia"},"type":"Feature","geometry":{"type":"Point","coordinates":[-77.71166,37.568203]}},{"properties":{"city":"Midlothian","zip":"23112","geo_score":1.0,"id":"a6bkaamzs5nf","geo_precision":"zip","state":"Virginia"},"type":"Feature","geometry":{"type":"Point","coordinates":[-77.66258,37.454138]}},{"properties":{"city":"Midlothian","zip":"23113","geo_score":0.857,"id":"a6bkaam1dd1w","geo_precision":"zip","state":"Virginia"},"type":"Feature","geometry":{"type":"Point","coordinates":[-77.71166,37.568203]}},{"properties":{"city":"Midlothian","zip":"23114","geo_score":0.857,"id":"a6bkaae4ga4w","geo_precision":"city","state":"Virginia"},"type":"Feature","geometry":{"type":"Point","coordinates":[-77.66258,37.454138]}},{"properties":{"city":"Midlothian","zip":"23114","geo_score":0.857,"id":"a6bkaaqr8t3a","geo_precision":"city","state":"Virginia"},"type":"Feature","geometry":{"type":"Point","coordinates":[-77.66258,37.454138]}},{"properties":{"city":"Midlothian","zip":"23112","geo_score":0.857,"id":"a6bkaaho4e2j","geo_precision":"zip","state":"Virgnia"},"type":"Feature","geometry":{"type":"Point","coordinates":[-77.66258,37.454138]}},{"properties":{"city":"Midlothian","zip":"23112","geo_score":1.0,"id":"a6bkaakxo20x","geo_precision":"zip","state":"Virginia"},"type":"Feature","geometry":{"type":"Point","coordinates":[-77.66258,37.454138]}},{"properties":{"city":"Mineral","zip":"23117","geo_score":0.886,"id":"a6bkaat7m7y6","geo_precision":"zip","state":"Virginia"},"type":"Feature","geometry":{"type":"Point","coordinates":[-77.879995,38.079582]}},{"properties":{"city":"Mineral","zip":"23117","geo_score":0.886,"id":"a6bkaampieck","geo_precision":"zip","state":"Virginia"},"type":"Feature","geometry":{"type":"Point","coordinates":[-77.879995,38.079582]}},{"properties":{"city":"Minnetonka","zip":"55305","geo_score":0.871,"id":"a6bkaat0jdtc","geo_precision":"zip","state":"Minnesota"},"type":"Feature","geometry":{"type":"Point","coordinates":[-93.43723,44.952763]}},{"properties":{"city":"Mitchellville","zip":"20721","geo_score":0.879,"id":"a6bkaaeti8ow","geo_precision":"zip","state":"Maryland"},"type":"Feature","geometry":{"type":"Point","coordinates":[-76.787141,38.919357]}},{"properties":{"city":"Mountain Brook","zip":"35223","geo_score":0.89,"id":"a6bkaafgjywj","geo_precision":"zip","state":"Alabama"},"type":"Feature","geometry":{"type":"Point","coordinates":[-86.775267,33.503161]}},{"properties":{"city":"Mountain View","zip":"94043","geo_score":1.0,"id":"a6bkaamm20pi","geo_precision":"zip","state":"California"},"type":"Feature","geometry":{"type":"Point","coordinates":[-121.705327,37.189396]}},{"properties":{"city":"Mt. Sinai","zip":"11766","geo_score":0.869,"id":"a6bkaaegcbhn","geo_precision":"zip","state":"New York"},"type":"Feature","geometry":{"type":"Point","coordinates":[-73.04205,40.947877]}},{"properties":{"city":"N. Chelmsford","zip":"01863","geo_score":0.959,"id":"a6bkaaqq8gta","geo_precision":"zip","state":"Massachusetts"},"type":"Feature","geometry":{"type":"Point","coordinates":[-71.399507,42.616758]}},{"properties":{"city":"NEW CARROLLTON","zip":"20784","geo_score":0.901,"id":"a6bkaadl0p8w","geo_precision":"zip","state":"Maryland"},"type":"Feature","geometry":{"type":"Point","coordinates":[-76.891362,38.949555]}},{"properties":{"city":"Nashua","zip":"03062","geo_score":1.0,"id":"a6bkaamxkxwh","geo_precision":"zip","state":"New Hampshire"},"type":"Feature","geometry":{"type":"Point","coordinates":[-71.49976,42.860117]}},{"properties":{"city":"Nashville","zip":"37211","geo_score":0.873,"id":"a6bkaajiy50n","geo_precision":"zip","state":"Tennessee"},"type":"Feature","geometry":{"type":"Point","coordinates":[-86.703609,36.012562]}},{"properties":{"city":"Natick","zip":"01760","geo_score":0.943,"id":"a6bkaalrg1vq","geo_precision":"zip","state":"Massachusetts"},"type":"Feature","geometry":{"type":"Point","coordinates":[-71.378671,42.277874]}},{"properties":{"city":"New Hope","zip":"18938","geo_score":0.878,"id":"a6bkaajarxf7","geo_precision":"zip","state":"Pennsylvania"},"type":"Feature","geometry":{"type":"Point","coordinates":[-74.980724,40.35344]}},{"properties":{"city":"New York","zip":"10001","geo_score":1.0,"id":"a6bkaao903qr","geo_precision":"zip","state":"New York"},"type":"Feature","geometry":{"type":"Point","coordinates":[-73.996328,40.750422]}},{"properties":{"city":"New York","zip":"10003","geo_score":1.0,"id":"a6bkaaszb0pv","geo_precision":"zip","state":"New York"},"type":"Feature","geometry":{"type":"Point","coordinates":[-73.988564,40.730223]}},{"properties":{"city":"New York","zip":"10005","geo_score":1.0,"id":"a6bkaasnwt4n","geo_precision":"zip","state":"New York"},"type":"Feature","geometry":{"type":"Point","coordinates":[-74.008654,40.706903]}},{"properties":{"city":"New York","zip":"10018","geo_score":1.0,"id":"a6bkaafn34ot","geo_precision":"zip","state":"New York"},"type":"Feature","geometry":{"type":"Point","coordinates":[-73.993172,40.755332]}},{"properties":{"city":"New York","zip":"10014","geo_score":1.0,"id":"a6bkaalwqvac","geo_precision":"zip","state":"New York"},"type":"Feature","geometry":{"type":"Point","coordinates":[-74.005095,40.738088]}},{"properties":{"city":"New York","zip":"10010","geo_score":1.0,"id":"a6bkaahhmypx","geo_precision":"zip","state":"New York"},"type":"Feature","geometry":{"type":"Point","coordinates":[-73.983542,40.739024]}},{"properties":{"city":"New York City","zip":"10014","geo_score":0.948,"id":"a6bkaaprolpn","geo_precision":"zip","state":"New York"},"type":"Feature","geometry":{"type":"Point","coordinates":[-74.005095,40.738088]}},{"properties":{"city":"New York City","zip":"10027","geo_score":0.948,"id":"a6bkaafaj9sr","geo_precision":"zip","state":"New York"},"type":"Feature","geometry":{"type":"Point","coordinates":[-73.9532,40.812242]}},{"properties":{"city":"Newport News","zip":"23606","geo_score":0.857,"id":"a6bkaarvggiz","geo_precision":"zip","state":"Virginia"},"type":"Feature","geometry":{"type":"Point","coordinates":[-76.504951,37.065147]}},{"properties":{"city":"Niceville","zip":"32578","geo_score":0.905,"id":"a6bkaapzdyv3","geo_precision":"zip","state":"Florida"},"type":"Feature","geometry":{"type":"Point","coordinates":[-86.409948,30.479087]}},{"properties":{"city":"Norfolk","zip":"23510","geo_score":1.0,"id":"a6bkaapikx5x","geo_precision":"zip","state":"Virginia"},"type":"Feature","geometry":{"type":"Point","coordinates":[-76.292412,36.881047]}},{"properties":{"city":"Norfolk","zip":"23508","geo_score":1.0,"id":"a6bkaagfvrkt","geo_precision":"zip","state":"Virginia"},"type":"Feature","geometry":{"type":"Point","coordinates":[-76.299963,36.884447]}},{"properties":{"city":"North Miami","zip":"33181","geo_score":0.929,"id":"a6bkaamony38","geo_precision":"zip","state":"Florida"},"type":"Feature","geometry":{"type":"Point","coordinates":[-80.155363,25.900437]}},{"properties":{"city":"Oak Hill","zip":"20171","geo_score":0.857,"id":"a6bkaakenauc","geo_precision":"zip","state":"Virginia"},"type":"Feature","geometry":{"type":"Point","coordinates":[-77.39284,38.92518]}},{"properties":{"city":"Oak Hill","zip":"20171","geo_score":0.857,"id":"a6bkaaddtyin","geo_precision":"zip","state":"Virginia"},"type":"Feature","geometry":{"type":"Point","coordinates":[-77.39284,38.92518]}},{"properties":{"city":"Oaks","zip":"19456","geo_score":1.0,"id":"a6bkaaqty6ih","geo_precision":"zip","state":"Pennsylvania"},"type":"Feature","geometry":{"type":"Point","coordinates":[-75.453631,40.133355]}},{"properties":{"city":"Oakton","zip":"22124","geo_score":0.881,"id":"a6bkaajqrxsf","geo_precision":"zip","state":"Virginia"},"type":"Feature","geometry":{"type":"Point","coordinates":[-77.348319,38.890945]}},{"properties":{"city":"Oakton","zip":"22124","geo_score":0.881,"id":"a6bkaam4fhv2","geo_precision":"zip","state":"Virginia"},"type":"Feature","geometry":{"type":"Point","coordinates":[-77.348319,38.890945]}},{"properties":{"city":"Orange","zip":"22960","geo_score":0.889,"id":"a6bkaanjqxcu","geo_precision":"zip","state":"Virginia"},"type":"Feature","geometry":{"type":"Point","coordinates":[-77.968053,38.154303]}},{"properties":{"city":"Owings","zip":"20736","geo_score":0.881,"id":"a6bkaahby7uj","geo_precision":"zip","state":"Maryland"},"type":"Feature","geometry":{"type":"Point","coordinates":[-76.582737,38.702618]}},{"properties":{"city":"Oxford","zip":"45056","geo_score":0.755,"id":"a6bkaaph85c4","geo_precision":"zip","state":"Ohio"},"type":"Feature","geometry":{"type":"Point","coordinates":[-84.8494,39.471719]}},{"properties":{"city":"PALMYRA","zip":"22963","geo_score":0.886,"id":"a6bkaapyduyv","geo_precision":"zip","state":"Virginia"},"type":"Feature","geometry":{"type":"Point","coordinates":[-78.201391,37.849309]}},{"properties":{"city":"PLAINSBORO","zip":"08536","geo_score":1.0,"id":"a6bkaamvk8ef","geo_precision":"zip","state":"New Jersey"},"type":"Feature","geometry":{"type":"Point","coordinates":[-74.582062,40.342197]}},{"properties":{"city":"PRINCETON","zip":"08540","geo_score":0.949,"id":"a6bkaal26ngx","geo_precision":"zip","state":"New Jersey"},"type":"Feature","geometry":{"type":"Point","coordinates":[-74.64795,40.363882]}},{"properties":{"city":"Palm Beach Gardens","zip":"33418","geo_score":0.902,"id":"a6bkaanl12ky","geo_precision":"zip","state":"Florida"},"type":"Feature","geometry":{"type":"Point","coordinates":[-80.430269,26.645895]}},{"properties":{"city":"Palmyra","zip":"22963","geo_score":0.886,"id":"a6bkaapijyfk","geo_precision":"zip","state":"Virginia"},"type":"Feature","geometry":{"type":"Point","coordinates":[-78.201391,37.849309]}},{"properties":{"city":"Palmyra","zip":"22963","geo_score":0.886,"id":"a6bkaaov3c28","geo_precision":"zip","state":"Virginia"},"type":"Feature","geometry":{"type":"Point","coordinates":[-78.201391,37.849309]}},{"properties":{"city":"Palmyra","zip":"22963","geo_score":0.886,"id":"a6bkaaoojfku","geo_precision":"zip","state":"Virginia"},"type":"Feature","geometry":{"type":"Point","coordinates":[-78.201391,37.849309]}},{"properties":{"city":"Palmyra","zip":"22963","geo_score":0.886,"id":"a6bkaamb72c5","geo_precision":"zip","state":"Virginia"},"type":"Feature","geometry":{"type":"Point","coordinates":[-78.201391,37.849309]}},{"properties":{"city":"Palmyra","zip":"22963","geo_score":0.886,"id":"a6bkaaql5b8x","geo_precision":"zip","state":"Virginia"},"type":"Feature","geometry":{"type":"Point","coordinates":[-78.201391,37.849309]}},{"properties":{"city":"Palmyra","zip":"22962","geo_score":0.816,"id":"a6bkaag5lj97","geo_precision":"city","state":"Virginia"},"type":"Feature","geometry":{"type":"Point","coordinates":[-76.351334,37.623746]}},{"properties":{"city":"Portland","zip":"97209","geo_score":1.0,"id":"a6bkaadpzau1","geo_precision":"zip","state":"Oregon"},"type":"Feature","geometry":{"type":"Point","coordinates":[-122.683826,45.53199]}},{"properties":{"city":"Potomac","zip":"20854","geo_score":0.876,"id":"a6bkaai24tq3","geo_precision":"zip","state":"Maryland"},"type":"Feature","geometry":{"type":"Point","coordinates":[-77.15998,39.051498]}},{"properties":{"city":"Potomac","zip":"20854","geo_score":0.876,"id":"a6bkaaqf3ion","geo_precision":"zip","state":"Maryland"},"type":"Feature","geometry":{"type":"Point","coordinates":[-77.15998,39.051498]}},{"properties":{"city":"Potomac","zip":"20854","geo_score":0.876,"id":"a6bkaatqp4tf","geo_precision":"zip","state":"Maryland"},"type":"Feature","geometry":{"type":"Point","coordinates":[-77.15998,39.051498]}},{"properties":{"city":"Potomac Falls","zip":"20165","geo_score":0.869,"id":"a6bkaalsobhb","geo_precision":"zip","state":"Virginia"},"type":"Feature","geometry":{"type":"Point","coordinates":[-77.386647,39.047157]}},{"properties":{"city":"Powhatan","zip":"23139","geo_score":0.893,"id":"a6bkaagfc7ix","geo_precision":"zip","state":"Virginia"},"type":"Feature","geometry":{"type":"Point","coordinates":[-77.893888,37.535427]}},{"properties":{"city":"Purcellville","zip":"20132","geo_score":1.0,"id":"a6bkaai9lx9s","geo_precision":"zip","state":"Virginia"},"type":"Feature","geometry":{"type":"Point","coordinates":[-77.734232,39.143614]}},{"properties":{"city":"Raleigh","zip":"27613","geo_score":1.0,"id":"a6bkaaovwj68","geo_precision":"zip","state":"North Carolina"},"type":"Feature","geometry":{"type":"Point","coordinates":[-78.705465,35.86952]}},{"properties":{"city":"Raleigh","zip":"27605","geo_score":1.0,"id":"a6bkaaiwe35s","geo_precision":"zip","state":"North Carolina"},"type":"Feature","geometry":{"type":"Point","coordinates":[-78.652475,35.789601]}},{"properties":{"city":"Raleigh","zip":"27609","geo_score":0.882,"id":"a6bkaaht0saa","geo_precision":"zip","state":"North Carolina"},"type":"Feature","geometry":{"type":"Point","coordinates":[-78.504445,35.925707]}},{"properties":{"city":"Randallstown","zip":"21133","geo_score":0.881,"id":"a6bkaas74qvf","geo_precision":"zip","state":"Maryland"},"type":"Feature","geometry":{"type":"Point","coordinates":[-76.767474,39.371773]}},{"properties":{"city":"Rapidan","zip":"22733","geo_score":0.878,"id":"a6bkaas5fbpd","geo_precision":"zip","state":"Virginia"},"type":"Feature","geometry":{"type":"Point","coordinates":[-78.028054,38.283465]}},{"properties":{"city":"Reston","zip":"20190","geo_score":1.0,"id":"a6bkaakex7p8","geo_precision":"zip","state":"Virginia"},"type":"Feature","geometry":{"type":"Point","coordinates":[-77.3418,38.96146]}},{"properties":{"city":"Reston","zip":"20190","geo_score":1.0,"id":"a6bkaalk057i","geo_precision":"zip","state":"Virginia"},"type":"Feature","geometry":{"type":"Point","coordinates":[-77.3418,38.96146]}},{"properties":{"city":"Reston","zip":"20194","geo_score":1.0,"id":"a6bkaae4s3fz","geo_precision":"zip","state":"Virginia"},"type":"Feature","geometry":{"type":"Point","coordinates":[-77.341878,38.980742]}},{"properties":{"city":"Reston","zip":"20194","geo_score":1.0,"id":"a6bkaan7vk1g","geo_precision":"zip","state":"Virginia"},"type":"Feature","geometry":{"type":"Point","coordinates":[-77.341878,38.980742]}},{"properties":{"city":"Reston","zip":"20191","geo_score":1.0,"id":"a6bkaalbpm9z","geo_precision":"zip","state":"Virginia"},"type":"Feature","geometry":{"type":"Point","coordinates":[-77.352718,38.93181]}},{"properties":{"city":"Reston","zip":"20191","geo_score":1.0,"id":"a6bkaasb6uad","geo_precision":"zip","state":"Virginia"},"type":"Feature","geometry":{"type":"Point","coordinates":[-77.352718,38.93181]}},{"properties":{"city":"Reston","zip":"20191","geo_score":1.0,"id":"a6bkaapjkja9","geo_precision":"zip","state":"Virginia"},"type":"Feature","geometry":{"type":"Point","coordinates":[-77.352718,38.93181]}},{"properties":{"city":"Reynoldsburg","zip":"43068","geo_score":0.881,"id":"a6bkaamhkg9g","geo_precision":"zip","state":"Ohio"},"type":"Feature","geometry":{"type":"Point","coordinates":[-82.883511,39.933953]}},{"properties":{"city":"Richmond","zip":"23227","geo_score":1.0,"id":"a6bkaae7ko4j","geo_precision":"zip","state":"Virginia"},"type":"Feature","geometry":{"type":"Point","coordinates":[-77.460262,37.553758]}},{"properties":{"city":"Richmond","zip":"23238","geo_score":1.0,"id":"a6bkaagccupa","geo_precision":"zip","state":"Virginia"},"type":"Feature","geometry":{"type":"Point","coordinates":[-77.460262,37.553758]}},{"properties":{"city":"Richmond","zip":"23236","geo_score":1.0,"id":"a6bkaasofi27","geo_precision":"zip","state":"Virginia"},"type":"Feature","geometry":{"type":"Point","coordinates":[-77.585993,37.474505]}},{"properties":{"city":"Richmond","zip":"23220","geo_score":1.0,"id":"a6bkaaenaai6","geo_precision":"zip","state":"Virginia"},"type":"Feature","geometry":{"type":"Point","coordinates":[-77.456602,37.552746]}},{"properties":{"city":"Richmond","zip":"23220","geo_score":1.0,"id":"a6bkaatbdyua","geo_precision":"zip","state":"Virginia"},"type":"Feature","geometry":{"type":"Point","coordinates":[-77.456602,37.552746]}},{"properties":{"city":"Richmond","zip":"23220","geo_score":1.0,"id":"a6bkaadn74jm","geo_precision":"zip","state":"Virginia"},"type":"Feature","geometry":{"type":"Point","coordinates":[-77.456602,37.552746]}},{"properties":{"city":"Richmond","zip":"23220","geo_score":1.0,"id":"a6bkaam1k8l0","geo_precision":"zip","state":"Virginia"},"type":"Feature","geometry":{"type":"Point","coordinates":[-77.456602,37.552746]}},{"properties":{"city":"Richmond","zip":"23220","geo_score":1.0,"id":"a6bkaag55xqo","geo_precision":"zip","state":"Virginia"},"type":"Feature","geometry":{"type":"Point","coordinates":[-77.456602,37.552746]}},{"properties":{"city":"Richmond","zip":"23221","geo_score":1.0,"id":"a6bkaat5lp2a","geo_precision":"zip","state":"Virginia"},"type":"Feature","geometry":{"type":"Point","coordinates":[-77.489706,37.553196]}},{"properties":{"city":"Richmond","zip":"23221","geo_score":1.0,"id":"a6bkaadrbz5t","geo_precision":"zip","state":"Virginia"},"type":"Feature","geometry":{"type":"Point","coordinates":[-77.489706,37.553196]}},{"properties":{"city":"Richmond","zip":"23223","geo_score":0.875,"id":"a6bkaanznmkj","geo_precision":"zip","state":"Virginia"},"type":"Feature","geometry":{"type":"Point","coordinates":[-77.399148,37.562924]}},{"properties":{"city":"Richmond","zip":"23223","geo_score":0.875,"id":"a6bkaapuofow","geo_precision":"zip","state":"Virginia"},"type":"Feature","geometry":{"type":"Point","coordinates":[-77.399148,37.562924]}},{"properties":{"city":"Richmond","zip":"23235","geo_score":1.0,"id":"a6bkaalw473l","geo_precision":"zip","state":"Virginia"},"type":"Feature","geometry":{"type":"Point","coordinates":[-77.460262,37.553758]}},{"properties":{"city":"Richmond","zip":"23225","geo_score":1.0,"id":"a6bkaaqmz2o7","geo_precision":"zip","state":"Virginia"},"type":"Feature","geometry":{"type":"Point","coordinates":[-77.500757,37.519396]}},{"properties":{"city":"Richmond","zip":"23225","geo_score":1.0,"id":"a6bkaaqnoqw0","geo_precision":"zip","state":"Virginia"},"type":"Feature","geometry":{"type":"Point","coordinates":[-77.500757,37.519396]}},{"properties":{"city":"Richmond","zip":"23225","geo_score":1.0,"id":"a6bkaajvkwc0","geo_precision":"zip","state":"Virginia"},"type":"Feature","geometry":{"type":"Point","coordinates":[-77.500757,37.519396]}},{"properties":{"city":"Richmond","zip":"23225","geo_score":1.0,"id":"a6bkaaq13evw","geo_precision":"zip","state":"Virginia"},"type":"Feature","geometry":{"type":"Point","coordinates":[-77.500757,37.519396]}},{"properties":{"city":"Richmond","zip":"23225","geo_score":1.0,"id":"a6bkaagpjcau","geo_precision":"zip","state":"Virginia"},"type":"Feature","geometry":{"type":"Point","coordinates":[-77.500757,37.519396]}},{"properties":{"city":"Richmond","zip":"23226","geo_score":0.857,"id":"a6bkaadjqstn","geo_precision":"zip","state":"Virginia"},"type":"Feature","geometry":{"type":"Point","coordinates":[-77.539987,37.589035]}},{"properties":{"city":"Richmond","zip":"23226","geo_score":0.857,"id":"a6bkaao3xilj","geo_precision":"zip","state":"Virginia"},"type":"Feature","geometry":{"type":"Point","coordinates":[-77.539987,37.589035]}},{"properties":{"city":"Richmond","zip":"23226","geo_score":0.857,"id":"a6bkaagl81pj","geo_precision":"zip","state":"Virginia"},"type":"Feature","geometry":{"type":"Point","coordinates":[-77.539987,37.589035]}},{"properties":{"city":"Richmond","zip":"23226","geo_score":0.857,"id":"a6bkaake6koz","geo_precision":"zip","state":"Virginia"},"type":"Feature","geometry":{"type":"Point","coordinates":[-77.539987,37.589035]}},{"properties":{"city":"Richmond","zip":"23226","geo_score":0.857,"id":"a6bkaao11ntu","geo_precision":"zip","state":"Virginia"},"type":"Feature","geometry":{"type":"Point","coordinates":[-77.539987,37.589035]}},{"properties":{"city":"Richmond","zip":"23294","geo_score":1.0,"id":"a6bkaaf28k3g","geo_precision":"zip","state":"Virginia"},"type":"Feature","geometry":{"type":"Point","coordinates":[-77.542483,37.630525]}},{"properties":{"city":"Richmond","zip":"23227","geo_score":1.0,"id":"a6bkaanc4wua","geo_precision":"zip","state":"Virginia"},"type":"Feature","geometry":{"type":"Point","coordinates":[-77.460262,37.553758]}},{"properties":{"city":"Richmond","zip":"23228","geo_score":1.0,"id":"a6bkaal10l5k","geo_precision":"zip","state":"Virginia"},"type":"Feature","geometry":{"type":"Point","coordinates":[-77.460262,37.553758]}},{"properties":{"city":"Richmond","zip":"23228","geo_score":1.0,"id":"a6bkaadcc4ro","geo_precision":"zip","state":"Virginia"},"type":"Feature","geometry":{"type":"Point","coordinates":[-77.460262,37.553758]}},{"properties":{"city":"Richmond","zip":"23235","geo_score":1.0,"id":"a6bkaajl451u","geo_precision":"zip","state":"Virginia"},"type":"Feature","geometry":{"type":"Point","coordinates":[-77.460262,37.553758]}},{"properties":{"city":"Richmond","zip":"23229","geo_score":1.0,"id":"a6bkaaf0ki5x","geo_precision":"zip","state":"Virginia"},"type":"Feature","geometry":{"type":"Point","coordinates":[-77.460262,37.553758]}},{"properties":{"city":"Richmond","zip":"23229","geo_score":1.0,"id":"a6bkaasyflto","geo_precision":"zip","state":"Virginia"},"type":"Feature","geometry":{"type":"Point","coordinates":[-77.460262,37.553758]}},{"properties":{"city":"Richmond","zip":"23231","geo_score":1.0,"id":"a6bkaaro5h23","geo_precision":"zip","state":"Virginia"},"type":"Feature","geometry":{"type":"Point","coordinates":[-77.460262,37.553758]}},{"properties":{"city":"Richmond","zip":"23231","geo_score":1.0,"id":"a6bkaaknewbv","geo_precision":"zip","state":"Virginia"},"type":"Feature","geometry":{"type":"Point","coordinates":[-77.460262,37.553758]}},{"properties":{"city":"Richmond","zip":"23233","geo_score":0.874,"id":"a6bkaag7fvrg","geo_precision":"zip","state":"Virginia"},"type":"Feature","geometry":{"type":"Point","coordinates":[-77.662213,37.577369]}},{"properties":{"city":"Richmond","zip":"22153","geo_score":0.896,"id":"a6bkaaomcmqg","geo_precision":"zip","state":"Virginia"},"type":"Feature","geometry":{"type":"Point","coordinates":[-77.181612,38.757015]}},{"properties":{"city":"Richmond","zip":"23233","geo_score":0.874,"id":"a6bkaan2donj","geo_precision":"zip","state":"Virginia"},"type":"Feature","geometry":{"type":"Point","coordinates":[-77.662213,37.577369]}},{"properties":{"city":"Richmond","zip":"23233","geo_score":0.874,"id":"a6bkaan2ubga","geo_precision":"zip","state":"Virginia"},"type":"Feature","geometry":{"type":"Point","coordinates":[-77.662213,37.577369]}},{"properties":{"city":"Richmond","zip":"23233","geo_score":0.874,"id":"a6bkaaouhxqu","geo_precision":"zip","state":"Virginia"},"type":"Feature","geometry":{"type":"Point","coordinates":[-77.662213,37.577369]}},{"properties":{"city":"Richmond","zip":"23233","geo_score":0.874,"id":"a6bkaatc82rx","geo_precision":"zip","state":"Virginia"},"type":"Feature","geometry":{"type":"Point","coordinates":[-77.662213,37.577369]}},{"properties":{"city":"Richmond","zip":"23234","geo_score":0.884,"id":"a6bkaaht1ood","geo_precision":"zip","state":"Virginia"},"type":"Feature","geometry":{"type":"Point","coordinates":[-77.507208,37.458481]}},{"properties":{"city":"Richmond","zip":"23234","geo_score":0.741,"id":"a6bkaaoc7gfv","geo_precision":"zip","state":"Virgnia"},"type":"Feature","geometry":{"type":"Point","coordinates":[-77.507208,37.458481]}},{"properties":{"city":"Richmond","zip":"23229","geo_score":1.0,"id":"a6bkaan8gu17","geo_precision":"zip","state":"Virginia"},"type":"Feature","geometry":{"type":"Point","coordinates":[-77.460262,37.553758]}},{"properties":{"city":"Ridgecrest","zip":"93555","geo_score":1.0,"id":"a6bkaasfjav3","geo_precision":"zip","state":"California"},"type":"Feature","geometry":{"type":"Point","coordinates":[-117.794007,35.540458]}},{"properties":{"city":"Roanoke","zip":"24015","geo_score":1.0,"id":"a6bkaafe5i6f","geo_precision":"zip","state":"Virginia"},"type":"Feature","geometry":{"type":"Point","coordinates":[-79.974559,37.253866]}},{"properties":{"city":"Roanoke","zip":"24015","geo_score":1.0,"id":"a6bkaagrhb81","geo_precision":"zip","state":"Virginia"},"type":"Feature","geometry":{"type":"Point","coordinates":[-79.974559,37.253866]}},{"properties":{"city":"Roanoke","zip":"24012","geo_score":0.878,"id":"a6bkaanmc8ja","geo_precision":"zip","state":"Virginia"},"type":"Feature","geometry":{"type":"Point","coordinates":[-79.865871,37.32597]}},{"properties":{"city":"Rochester","zip":"14610","geo_score":0.889,"id":"a6bkaadx5smw","geo_precision":"zip","state":"New York"},"type":"Feature","geometry":{"type":"Point","coordinates":[-77.550554,43.147563]}},{"properties":{"city":"Rock Hill","zip":"29730","geo_score":0.875,"id":"a6bkaaqc9v0w","geo_precision":"zip","state":"South Carolina"},"type":"Feature","geometry":{"type":"Point","coordinates":[-81.11536,34.821251]}},{"properties":{"city":"Rockville","zip":"20851","geo_score":0.878,"id":"a6bkaamz7pfc","geo_precision":"zip","state":"Maryland"},"type":"Feature","geometry":{"type":"Point","coordinates":[-77.118868,39.07872]}},{"properties":{"city":"Rockville","zip":"20850","geo_score":0.876,"id":"a6bkaaml3o1f","geo_precision":"zip","state":"Maryland"},"type":"Feature","geometry":{"type":"Point","coordinates":[-77.204425,39.080664]}},{"properties":{"city":"Rockville","zip":"20853","geo_score":1.0,"id":"a6bkaal7qwrc","geo_precision":"zip","state":"Maryland"},"type":"Feature","geometry":{"type":"Point","coordinates":[-77.0996,39.107357]}},{"properties":{"city":"Ruckersville","zip":"22968","geo_score":0.893,"id":"a6bkaaox6hz9","geo_precision":"zip","state":"Virginia"},"type":"Feature","geometry":{"type":"Point","coordinates":[-78.438622,38.183189]}},{"properties":{"city":"Ruther Glen","zip":"22546","geo_score":0.886,"id":"a6bkaarsrcxw","geo_precision":"zip","state":"Virginia"},"type":"Feature","geometry":{"type":"Point","coordinates":[-77.370814,37.957359]}},{"properties":{"city":"Saint Paul","zip":"24283","geo_score":0.881,"id":"a6bkaamxjstv","geo_precision":"zip","state":"Virginia"},"type":"Feature","geometry":{"type":"Point","coordinates":[-82.344867,36.918437]}},{"properties":{"city":"San Diego","zip":"92101","geo_score":1.0,"id":"a6bkaaqmo08j","geo_precision":"zip","state":"California"},"type":"Feature","geometry":{"type":"Point","coordinates":[-117.174366,32.7211]}},{"properties":{"city":"San Jose","zip":"95135","geo_score":1.0,"id":"a6bkaarp74hs","geo_precision":"zip","state":"California"},"type":"Feature","geometry":{"type":"Point","coordinates":[-121.723862,37.272289]}},{"properties":{"city":"Santa Clara","zip":"84765","geo_score":0.871,"id":"a6bkaaedw4xy","geo_precision":"zip","state":"Utah"},"type":"Feature","geometry":{"type":"Point","coordinates":[-113.757465,37.18109]}},{"properties":{"city":"Shreveport","zip":"71105","geo_score":0.857,"id":"a6bkaajag6g9","geo_precision":"zip","state":"Louisiana"},"type":"Feature","geometry":{"type":"Point","coordinates":[-93.481008,32.194048]}},{"properties":{"city":"Shreveport","zip":"71133","geo_score":1.0,"id":"a6bkaasba7bv","geo_precision":"zip","state":"Louisiana"},"type":"Feature","geometry":{"type":"Point","coordinates":[-93.75256,32.607556]}},{"properties":{"city":"Shrewsbury","zip":"17361","geo_score":1.0,"id":"a6bkaalizhhy","geo_precision":"zip","state":"Pennsylvania"},"type":"Feature","geometry":{"type":"Point","coordinates":[-76.687931,39.799799]}},{"properties":{"city":"Silver Springs","zip":"34488","geo_score":1.0,"id":"a6bkaaftadip","geo_precision":"zip","state":"Florida"},"type":"Feature","geometry":{"type":"Point","coordinates":[-81.95316,29.263549]}},{"properties":{"city":"South Riding","zip":"20152","geo_score":1.0,"id":"a6bkaaj02tku","geo_precision":"zip","state":"Virginia"},"type":"Feature","geometry":{"type":"Point","coordinates":[-77.50388,38.920945]}},{"properties":{"city":"South Riding","zip":"20152","geo_score":1.0,"id":"a6bkaat6cc23","geo_precision":"zip","state":"Virginia"},"type":"Feature","geometry":{"type":"Point","coordinates":[-77.50388,38.920945]}},{"properties":{"city":"South Riding","zip":"20152","geo_score":1.0,"id":"a6bkaas5bs1x","geo_precision":"zip","state":"Virginia"},"type":"Feature","geometry":{"type":"Point","coordinates":[-77.50388,38.920945]}},{"properties":{"city":"South Riding","zip":"20152","geo_score":1.0,"id":"a6bkaadxkcwz","geo_precision":"zip","state":"Virginia"},"type":"Feature","geometry":{"type":"Point","coordinates":[-77.50388,38.920945]}},{"properties":{"city":"Springfield","zip":"22153","geo_score":1.0,"id":"a6bkaankja50","geo_precision":"zip","state":"Virginia"},"type":"Feature","geometry":{"type":"Point","coordinates":[-77.181612,38.757015]}},{"properties":{"city":"Springfield","zip":"22153","geo_score":1.0,"id":"a6bkaak63lr7","geo_precision":"zip","state":"Virginia"},"type":"Feature","geometry":{"type":"Point","coordinates":[-77.181612,38.757015]}},{"properties":{"city":"Springfield","zip":"22151","geo_score":0.87,"id":"a6bkaakysb7s","geo_precision":"zip","state":"Virginia"},"type":"Feature","geometry":{"type":"Point","coordinates":[-77.220538,38.804002]}},{"properties":{"city":"Springfield","zip":"22150","geo_score":0.901,"id":"a6bkaaklal27","geo_precision":"zip","state":"Virginia"},"type":"Feature","geometry":{"type":"Point","coordinates":[-77.214983,38.776502]}},{"properties":{"city":"Springfield","zip":"22150","geo_score":0.901,"id":"a6bkaas2hx4n","geo_precision":"zip","state":"Virginia"},"type":"Feature","geometry":{"type":"Point","coordinates":[-77.214983,38.776502]}},{"properties":{"city":"St Louis","zip":"63103","geo_score":0.957,"id":"a6bkaanjen5e","geo_precision":"zip","state":"Missouri"},"type":"Feature","geometry":{"type":"Point","coordinates":[-90.216411,38.629901]}},{"properties":{"city":"Stafford","zip":"22554","geo_score":0.714,"id":"a6bkaak2lf8f","geo_precision":"zip","state":"West Virginia"},"type":"Feature","geometry":{"type":"Point","coordinates":[-77.325259,38.464845]}},{"properties":{"city":"Stafford","zip":"22554","geo_score":0.857,"id":"a6bkaaqmypkp","geo_precision":"zip","state":"Virginia"},"type":"Feature","geometry":{"type":"Point","coordinates":[-77.325259,38.464845]}},{"properties":{"city":"Stafford","zip":"22554","geo_score":0.857,"id":"a6bkaadiy2i0","geo_precision":"zip","state":"Virginia"},"type":"Feature","geometry":{"type":"Point","coordinates":[-77.325259,38.464845]}},{"properties":{"city":"Staunton","zip":"24401","geo_score":0.857,"id":"a6bkaaeqlbre","geo_precision":"zip","state":"Virginia"},"type":"Feature","geometry":{"type":"Point","coordinates":[-79.057807,38.166243]}},{"properties":{"city":"Staunton","zip":"24401","geo_score":0.857,"id":"a6bkaajfq18u","geo_precision":"zip","state":"Virginia"},"type":"Feature","geometry":{"type":"Point","coordinates":[-79.057807,38.166243]}},{"properties":{"city":"Sterling","zip":"20164","geo_score":1.0,"id":"a6bkaap0y1bf","geo_precision":"zip","state":"Virginia"},"type":"Feature","geometry":{"type":"Point","coordinates":[-77.399367,39.023047]}},{"properties":{"city":"Sterling","zip":"20166","geo_score":1.0,"id":"a6bkaapvq9p6","geo_precision":"zip","state":"Virginia"},"type":"Feature","geometry":{"type":"Point","coordinates":[-77.472333,38.981387]}},{"properties":{"city":"Sterling","zip":"20166","geo_score":1.0,"id":"a6bkaaprwyx5","geo_precision":"zip","state":"Virginia"},"type":"Feature","geometry":{"type":"Point","coordinates":[-77.472333,38.981387]}},{"properties":{"city":"Sterling","zip":"20166","geo_score":1.0,"id":"a6bkaaij5rxv","geo_precision":"zip","state":"Virginia"},"type":"Feature","geometry":{"type":"Point","coordinates":[-77.472333,38.981387]}},{"properties":{"city":"Stone Ridge","zip":"20105","geo_score":0.886,"id":"a6bkaaoffvy9","geo_precision":"zip","state":"Virginia"},"type":"Feature","geometry":{"type":"Point","coordinates":[-77.60375,38.957718]}},{"properties":{"city":"Stuarts Draft","zip":"24477","geo_score":0.881,"id":"a6bkaahkiseo","geo_precision":"zip","state":"Virginia"},"type":"Feature","geometry":{"type":"Point","coordinates":[-79.093361,38.01819]}},{"properties":{"city":"Suffolk","zip":"23435","geo_score":0.89,"id":"a6bkaaluqcc6","geo_precision":"zip","state":"Virginia"},"type":"Feature","geometry":{"type":"Point","coordinates":[-76.468836,36.819316]}},{"properties":{"city":"Sugar Land","zip":"77479","geo_score":0.889,"id":"a6bkaal9wqho","geo_precision":"zip","state":"Texas"},"type":"Feature","geometry":{"type":"Point","coordinates":[-95.556611,29.556625]}},{"properties":{"city":"Sumerduck","zip":"22742","geo_score":1.0,"id":"a6bkaalozmcc","geo_precision":"zip","state":"Virginia"},"type":"Feature","geometry":{"type":"Point","coordinates":[-77.706223,38.462651]}},{"properties":{"city":"Tampa","zip":"33626","geo_score":1.0,"id":"a6bkaaqy6fgm","geo_precision":"zip","state":"Florida"},"type":"Feature","geometry":{"type":"Point","coordinates":[-82.611596,28.066478]}},{"properties":{"city":"Tuscon","zip":"85713","geo_score":0.909,"id":"a6bkaahj8yu0","geo_precision":"zip","state":"Arizona"},"type":"Feature","geometry":{"type":"Point","coordinates":[-110.968425,32.199521]}},{"properties":{"city":"Tuttle","zip":"73089","geo_score":0.87,"id":"a6bkaap8sqjx","geo_precision":"zip","state":"Oklahoma"},"type":"Feature","geometry":{"type":"Point","coordinates":[-97.736708,35.235064]}},{"properties":{"city":"University Park","zip":"75205","geo_score":1.0,"id":"a6bkaajj0l18","geo_precision":"zip","state":"Texas"},"type":"Feature","geometry":{"type":"Point","coordinates":[-96.800279,32.850127]}},{"properties":{"city":"Vienna","zip":"22180","geo_score":0.87,"id":"a6bkaadqhu7e","geo_precision":"zip","state":"Virginia"},"type":"Feature","geometry":{"type":"Point","coordinates":[-77.249426,38.921778]}},{"properties":{"city":"Vienna","zip":"22180","geo_score":0.87,"id":"a6bkaagqemvc","geo_precision":"zip","state":"Virginia"},"type":"Feature","geometry":{"type":"Point","coordinates":[-77.249426,38.921778]}},{"properties":{"city":"Vienna","zip":"22180","geo_score":0.87,"id":"a6bkaaitfbi5","geo_precision":"zip","state":"Virginia"},"type":"Feature","geometry":{"type":"Point","coordinates":[-77.249426,38.921778]}},{"properties":{"city":"Vienna","zip":"22182","geo_score":1.0,"id":"a6bkaaoru53l","geo_precision":"zip","state":"Virginia"},"type":"Feature","geometry":{"type":"Point","coordinates":[-77.268022,38.935292]}},{"properties":{"city":"Vienna","zip":"22180","geo_score":0.87,"id":"a6bkaarunus5","geo_precision":"zip","state":"Virginia"},"type":"Feature","geometry":{"type":"Point","coordinates":[-77.249426,38.921778]}},{"properties":{"city":"Vienna,","zip":"22182","geo_score":1.0,"id":"a6bkaatpdcew","geo_precision":"zip","state":"Virginia"},"type":"Feature","geometry":{"type":"Point","coordinates":[-77.268022,38.935292]}},{"properties":{"city":"Virginia Beach","zip":"23455","geo_score":0.857,"id":"a6bkaagpaplm","geo_precision":"zip","state":"Virginia"},"type":"Feature","geometry":{"type":"Point","coordinates":[-76.129102,36.891814]}},{"properties":{"city":"Virginia Beach","zip":"23455","geo_score":0.857,"id":"a6bkaam5cttg","geo_precision":"zip","state":"Virginia"},"type":"Feature","geometry":{"type":"Point","coordinates":[-76.129102,36.891814]}},{"properties":{"city":"Virginia Beach","zip":"23456","geo_score":0.857,"id":"a6bkaarh1h8d","geo_precision":"zip","state":"Virginia"},"type":"Feature","geometry":{"type":"Point","coordinates":[-76.014653,36.764594]}},{"properties":{"city":"Virginia Beach","zip":"23451","geo_score":0.89,"id":"a6bkaae3429b","geo_precision":"zip","state":"Virginia"},"type":"Feature","geometry":{"type":"Point","coordinates":[-75.996319,36.841538]}},{"properties":{"city":"Virginia Beach","zip":"23456","geo_score":0.857,"id":"a6bkaajbw83m","geo_precision":"zip","state":"Virginia"},"type":"Feature","geometry":{"type":"Point","coordinates":[-76.014653,36.764594]}},{"properties":{"city":"Virginia Beach","zip":"23451","geo_score":0.89,"id":"a6bkaaq1zhe6","geo_precision":"zip","state":"Virginia"},"type":"Feature","geometry":{"type":"Point","coordinates":[-75.996319,36.841538]}},{"properties":{"city":"Virginia Beach","zip":"23452","geo_score":0.868,"id":"a6bkaaswlclv","geo_precision":"zip","state":"Virginia"},"type":"Feature","geometry":{"type":"Point","coordinates":[-76.100489,36.829593]}},{"properties":{"city":"Virginia Beach","zip":"23452","geo_score":0.868,"id":"a6bkaap7k62g","geo_precision":"zip","state":"Virginia"},"type":"Feature","geometry":{"type":"Point","coordinates":[-76.100489,36.829593]}},{"properties":{"city":"Virginia Beach","zip":"23453","geo_score":0.879,"id":"a6bkaakc5q6o","geo_precision":"zip","state":"Virginia"},"type":"Feature","geometry":{"type":"Point","coordinates":[-76.012986,36.842093]}},{"properties":{"city":"Virginia Beach","zip":"23453","geo_score":0.879,"id":"a6bkaahojwp6","geo_precision":"zip","state":"Virginia"},"type":"Feature","geometry":{"type":"Point","coordinates":[-76.012986,36.842093]}},{"properties":{"city":"Virginia Beach","zip":"23462","geo_score":0.857,"id":"a6bkaakgb9cb","geo_precision":"zip","state":"Virginia"},"type":"Feature","geometry":{"type":"Point","coordinates":[-76.097712,36.813204]}},{"properties":{"city":"Virginia Beach","zip":"23452","geo_score":0.868,"id":"a6bkaaka9rdy","geo_precision":"zip","state":"Virginia"},"type":"Feature","geometry":{"type":"Point","coordinates":[-76.100489,36.829593]}},{"properties":{"city":"WARRENTON","zip":"20186","geo_score":1.0,"id":"a6bkaae7m5ph","geo_precision":"zip","state":"Virginia"},"type":"Feature","geometry":{"type":"Point","coordinates":[-77.836115,38.689832]}},{"properties":{"city":"WOODSTOCK","zip":"22664","geo_score":0.873,"id":"a6bkaalt7p8a","geo_precision":"zip","state":"Virginia"},"type":"Feature","geometry":{"type":"Point","coordinates":[-78.580568,38.903444]}},{"properties":{"city":"Warrenton","zip":"20187","geo_score":1.0,"id":"a6bkaam2z9n3","geo_precision":"zip","state":"Virginia"},"type":"Feature","geometry":{"type":"Point","coordinates":[-77.741696,38.715296]}},{"properties":{"city":"Wash","zip":"20011","geo_score":0.893,"id":"a6bkaaspsq9n","geo_precision":"zip","state":"District of Columbia"},"type":"Feature","geometry":{"type":"Point","coordinates":[-77.024977,38.945944]}},{"properties":{"city":"Washington","zip":"20007","geo_score":0.886,"id":"a6bkaaq4b9ri","geo_precision":"zip","state":"District of Columbia"},"type":"Feature","geometry":{"type":"Point","coordinates":[-77.062478,38.904834]}},{"properties":{"city":"Washington","zip":"20001","geo_score":0.893,"id":"a6bkaatcsjv8","geo_precision":"zip","state":"District of Columbia"},"type":"Feature","geometry":{"type":"Point","coordinates":[-77.011365,38.916778]}},{"properties":{"city":"Washington","zip":"20001","geo_score":0.893,"id":"a6bkaajfsbr3","geo_precision":"zip","state":"District of Columbia"},"type":"Feature","geometry":{"type":"Point","coordinates":[-77.011365,38.916778]}},{"properties":{"city":"Washington","zip":"20001","geo_score":0.893,"id":"a6bkaajpvyws","geo_precision":"zip","state":"District of Columbia"},"type":"Feature","geometry":{"type":"Point","coordinates":[-77.011365,38.916778]}},{"properties":{"city":"Washington","zip":"20001","geo_score":0.893,"id":"a6bkaaloe16i","geo_precision":"zip","state":"District of Columbia"},"type":"Feature","geometry":{"type":"Point","coordinates":[-77.011365,38.916778]}},{"properties":{"city":"Washington","zip":"20002","geo_score":1.0,"id":"a6bkaadgnp3v","geo_precision":"zip","state":"District of Columbia"},"type":"Feature","geometry":{"type":"Point","coordinates":[-76.982147,38.908218]}},{"properties":{"city":"Washington","zip":"20002","geo_score":1.0,"id":"a6bkaamxf6td","geo_precision":"zip","state":"District of Columbia"},"type":"Feature","geometry":{"type":"Point","coordinates":[-76.982147,38.908218]}},{"properties":{"city":"Washington","zip":"20008","geo_score":0.868,"id":"a6bkaajqu083","geo_precision":"zip","state":"District of Columbia"},"type":"Feature","geometry":{"type":"Point","coordinates":[-77.065533,38.936222]}},{"properties":{"city":"Washington","zip":"20003","geo_score":1.0,"id":"a6bkaaj0kslt","geo_precision":"zip","state":"District of Columbia"},"type":"Feature","geometry":{"type":"Point","coordinates":[-76.988897,38.860315]}},{"properties":{"city":"Washington","zip":"20003","geo_score":1.0,"id":"a6bkaajwwzhd","geo_precision":"zip","state":"District of Columbia"},"type":"Feature","geometry":{"type":"Point","coordinates":[-76.988897,38.860315]}},{"properties":{"city":"Washington","zip":"20016","geo_score":1.0,"id":"a6bkaaeuip4m","geo_precision":"zip","state":"District of Columbia"},"type":"Feature","geometry":{"type":"Point","coordinates":[-77.091149,38.93826]}},{"properties":{"city":"Washington","zip":"20013","geo_score":1.0,"id":"a6bkaai3b06i","geo_precision":"zip","state":"District of Columbia"},"type":"Feature","geometry":{"type":"Point","coordinates":[-77.014647,38.893311]}},{"properties":{"city":"Washington","zip":"20007","geo_score":0.886,"id":"a6bkaanilhtc","geo_precision":"zip","state":"District of Columbia"},"type":"Feature","geometry":{"type":"Point","coordinates":[-77.062478,38.904834]}},{"properties":{"city":"Washington","zip":"20004","geo_score":1.0,"id":"a6bkaal6ssqk","geo_precision":"zip","state":"District of Columbia"},"type":"Feature","geometry":{"type":"Point","coordinates":[-77.019477,38.892247]}},{"properties":{"city":"Washington","zip":"20009","geo_score":1.0,"id":"a6bkaaez5u0g","geo_precision":"zip","state":"District of Columbia"},"type":"Feature","geometry":{"type":"Point","coordinates":[-77.039798,38.919261]}},{"properties":{"city":"Washington","zip":"20009","geo_score":1.0,"id":"a6bkaaklqqx4","geo_precision":"zip","state":"District of Columbia"},"type":"Feature","geometry":{"type":"Point","coordinates":[-77.039798,38.919261]}},{"properties":{"city":"Washington","zip":"20009","geo_score":1.0,"id":"a6bkaamoqswl","geo_precision":"zip","state":"District of Columbia"},"type":"Feature","geometry":{"type":"Point","coordinates":[-77.039798,38.919261]}},{"properties":{"city":"Washington","zip":"20007","geo_score":0.886,"id":"a6bkaan8dkp0","geo_precision":"zip","state":"District of Columbia"},"type":"Feature","geometry":{"type":"Point","coordinates":[-77.062478,38.904834]}},{"properties":{"city":"Washington","zip":"20009","geo_score":1.0,"id":"a6bkaadi370g","geo_precision":"zip","state":"District of Columbia"},"type":"Feature","geometry":{"type":"Point","coordinates":[-77.039798,38.919261]}},{"properties":{"city":"Washington","zip":"20009","geo_score":1.0,"id":"a6bkaaix1avz","geo_precision":"zip","state":"District of Columbia"},"type":"Feature","geometry":{"type":"Point","coordinates":[-77.039798,38.919261]}},{"properties":{"city":"Washington","zip":"20008","geo_score":0.868,"id":"a6bkaamvwpem","geo_precision":"zip","state":"District of Columbia"},"type":"Feature","geometry":{"type":"Point","coordinates":[-77.065533,38.936222]}},{"properties":{"city":"Waukegan","zip":"60085","geo_score":0.893,"id":"a6bkaatqn361","geo_precision":"zip","state":"Illinois"},"type":"Feature","geometry":{"type":"Point","coordinates":[-87.88424,42.348355]}},{"properties":{"city":"West Windsor","zip":"08550","geo_score":0.857,"id":"a6bkaanmg9hg","geo_precision":"zip","state":"New Jersey"},"type":"Feature","geometry":{"type":"Point","coordinates":[-74.609323,40.316775]}},{"properties":{"city":"Westerly","zip":"02891","geo_score":0.921,"id":"a6bkaapikhg1","geo_precision":"zip","state":"Rhode Island"},"type":"Feature","geometry":{"type":"Point","coordinates":[-71.838681,41.400377]}},{"properties":{"city":"Westport","zip":"02790","geo_score":0.933,"id":"a6bkaasctmtl","geo_precision":"zip","state":"Massachusetts"},"type":"Feature","geometry":{"type":"Point","coordinates":[-71.049486,41.638992]}},{"properties":{"city":"Westwood","zip":"07649","geo_score":0.857,"id":"a6bkaaj7kjwb","geo_precision":"zip","state":"New Jersey"},"type":"Feature","geometry":{"type":"Point","coordinates":[-74.026983,40.955347]}},{"properties":{"city":"Williamsburg","zip":"23185","geo_score":0.857,"id":"a6bkaadl2v3k","geo_precision":"zip","state":"Virginia"},"type":"Feature","geometry":{"type":"Point","coordinates":[-76.661345,37.262924]}},{"properties":{"city":"Williamsburg","zip":"23185","geo_score":0.857,"id":"a6bkaal9s0gw","geo_precision":"zip","state":"Virginia"},"type":"Feature","geometry":{"type":"Point","coordinates":[-76.661345,37.262924]}},{"properties":{"city":"Williamsburg","zip":"23185","geo_score":0.857,"id":"a6bkaat5h83i","geo_precision":"zip","state":"Virginia"},"type":"Feature","geometry":{"type":"Point","coordinates":[-76.661345,37.262924]}},{"properties":{"city":"Winchester","zip":"22602","geo_score":1.0,"id":"a6bkaafrs249","geo_precision":"zip","state":"Virginia"},"type":"Feature","geometry":{"type":"Point","coordinates":[-78.268988,39.150074]}},{"properties":{"city":"Winchester","zip":"22601","geo_score":0.9,"id":"a6bkaahw4m7z","geo_precision":"zip","state":"Virginia"},"type":"Feature","geometry":{"type":"Point","coordinates":[-78.399729,39.147049]}},{"properties":{"city":"Winchester","zip":"22601","geo_score":0.9,"id":"a6bkaaparfob","geo_precision":"zip","state":"Virginia"},"type":"Feature","geometry":{"type":"Point","coordinates":[-78.399729,39.147049]}},{"properties":{"city":"Winchester","zip":"37398","geo_score":0.941,"id":"a6bkaarqhr67","geo_precision":"zip","state":"Tennessee"},"type":"Feature","geometry":{"type":"Point","coordinates":[-86.177487,35.246193]}},{"properties":{"city":"Windermere","zip":"34786","geo_score":1.0,"id":"a6bkaae8mfbc","geo_precision":"zip","state":"Florida"},"type":"Feature","geometry":{"type":"Point","coordinates":[-81.543979,28.481031]}},{"properties":{"city":"Woodbridge","zip":"22193","geo_score":0.883,"id":"a6bkaafm3ttb","geo_precision":"zip","state":"Virginia"},"type":"Feature","geometry":{"type":"Point","coordinates":[-77.352206,38.635952]}},{"properties":{"city":"Woodbridge","zip":"22192","geo_score":0.929,"id":"a6bkaakahofb","geo_precision":"zip","state":"Virginia"},"type":"Feature","geometry":{"type":"Point","coordinates":[-77.297762,38.687894]}},{"properties":{"city":"Woodbridge","zip":"22191","geo_score":1.0,"id":"a6bkaaffq7p0","geo_precision":"zip","state":"Virginia"},"type":"Feature","geometry":{"type":"Point","coordinates":[-77.271644,38.625541]}},{"properties":{"city":"Woodbridge","zip":"22191","geo_score":1.0,"id":"a6bkaaf0p2h1","geo_precision":"zip","state":"Virginia"},"type":"Feature","geometry":{"type":"Point","coordinates":[-77.271644,38.625541]}},{"properties":{"city":"Woodbridge","zip":"22193","geo_score":0.883,"id":"a6bkaarbqbjh","geo_precision":"zip","state":"Virginia"},"type":"Feature","geometry":{"type":"Point","coordinates":[-77.352206,38.635952]}},{"properties":{"city":"Wyncote","zip":"19095","geo_score":0.871,"id":"a6bkaakqwp4p","geo_precision":"zip","state":"Pennsylvania"},"type":"Feature","geometry":{"type":"Point","coordinates":[-75.159898,40.083166]}},{"properties":{"city":"albany","zip":"31721","geo_score":0.875,"id":"a6bkaajg5x0a","geo_precision":"zip","state":"Georgia"},"type":"Feature","geometry":{"type":"Point","coordinates":[-84.696865,31.936827]}},{"properties":{"city":"alexandria","zip":"22310","geo_score":1.0,"id":"a6bkaapoafmb","geo_precision":"zip","state":"Virginia"},"type":"Feature","geometry":{"type":"Point","coordinates":[-77.046921,38.804836]}},{"properties":{"city":"asdad","zip":"51233","geo_score":0.0,"id":"a6bkaald7can","geo_precision":"unmatched","state":"Alaska"},"type":"Feature","geometry":null},{"properties":{"city":"ashburn","zip":"20147","geo_score":1.0,"id":"a6bkaakeegne","geo_precision":"zip","state":"Virginia"},"type":"Feature","geometry":{"type":"Point","coordinates":[-77.480542,39.037339]}},{"properties":{"city":"ashburn","zip":"20147","geo_score":1.0,"id":"a6bkaamnq3xm","geo_precision":"zip","state":"Virginia"},"type":"Feature","geometry":{"type":"Point","coordinates":[-77.480542,39.037339]}},{"properties":{"city":"bethesda","zip":"20817","geo_score":0.868,"id":"a6bkaammq2pn","geo_precision":"zip","state":"Maryland"},"type":"Feature","geometry":{"type":"Point","coordinates":[-77.149702,39.019276]}},{"properties":{"city":"buffalo","zip":"14214","geo_score":1.0,"id":"a6bkaar2441o","geo_precision":"zip","state":"New York"},"type":"Feature","geometry":{"type":"Point","coordinates":[-78.835256,42.940107]}},{"properties":{"city":"centreville","zip":"20121","geo_score":1.0,"id":"a6bkaamj7nil","geo_precision":"zip","state":"Virginia"},"type":"Feature","geometry":{"type":"Point","coordinates":[-77.45576,38.819513]}},{"properties":{"city":"charlotte","zip":"28211","geo_score":1.0,"id":"a6bkaaf0jrfx","geo_precision":"zip","state":"North Carolina"},"type":"Feature","geometry":{"type":"Point","coordinates":[-80.79076,35.169586]}},{"properties":{"city":"charlottesville","zip":"22901","geo_score":0.867,"id":"a6bkaah4apnt","geo_precision":"zip","state":"Virginia"},"type":"Feature","geometry":{"type":"Point","coordinates":[-78.466122,38.08597]}},{"properties":{"city":"charlottesville","zip":"22903","geo_score":0.876,"id":"a6bkaadgko4w","geo_precision":"zip","state":"Virginia"},"type":"Feature","geometry":{"type":"Point","coordinates":[-78.54418,38.051249]}},{"properties":{"city":"charlottesville","zip":"22901","geo_score":0.867,"id":"a6bkaaicxwmn","geo_precision":"zip","state":"Virginia"},"type":"Feature","geometry":{"type":"Point","coordinates":[-78.466122,38.08597]}},{"properties":{"city":"chespeake","zip":"23320","geo_score":0.883,"id":"a6bkaahncgki","geo_precision":"zip","state":"Virginia"},"type":"Feature","geometry":{"type":"Point","coordinates":[-76.368554,36.653761]}},{"properties":{"city":"clemson","zip":"29633","geo_score":1.0,"id":"a6bkaanar5dq","geo_precision":"zip","state":"South Carolina"},"type":"Feature","geometry":{"type":"Point","coordinates":[-82.710126,34.847372]}},{"properties":{"city":"clifton","zip":"20124","geo_score":1.0,"id":"a6bkaalw75b3","geo_precision":"zip","state":"Virginia"},"type":"Feature","geometry":{"type":"Point","coordinates":[-77.381808,38.781809]}},{"properties":{"city":"columbus","zip":"47201","geo_score":0.873,"id":"a6bkaarjfdxo","geo_precision":"zip","state":"Indiana"},"type":"Feature","geometry":{"type":"Point","coordinates":[-85.891338,39.191447]}},{"properties":{"city":"coralville","zip":"52241","geo_score":1.0,"id":"a6bkaam9m64e","geo_precision":"zip","state":"Iowa"},"type":"Feature","geometry":{"type":"Point","coordinates":[-91.6332,41.699942]}},{"properties":{"city":"crozet","zip":"22932","geo_score":0.87,"id":"a6bkaamt6k1m","geo_precision":"zip","state":"Virginia"},"type":"Feature","geometry":{"type":"Point","coordinates":[-78.725298,38.046805]}},{"properties":{"city":"ediosn","zip":"08837","geo_score":0.878,"id":"a6bkaaivmia5","geo_precision":"zip","state":"New Jersey"},"type":"Feature","geometry":{"type":"Point","coordinates":[-74.398206,40.513993]}},{"properties":{"city":"fairfax","zip":"22031","geo_score":1.0,"id":"a6bkaarql2a5","geo_precision":"zip","state":"Virginia"},"type":"Feature","geometry":{"type":"Point","coordinates":[-77.284195,38.853962]}},{"properties":{"city":"fairfax","zip":"22033","geo_score":1.0,"id":"a6bkaagdgt70","geo_precision":"zip","state":"Virginia"},"type":"Feature","geometry":{"type":"Point","coordinates":[-77.378858,38.879466]}},{"properties":{"city":"fairfax station","zip":"22039","geo_score":0.878,"id":"a6bkaalgyf95","geo_precision":"zip","state":"Virginia"},"type":"Feature","geometry":{"type":"Point","coordinates":[-77.343875,38.800669]}},{"properties":{"city":"falls church","zip":"22046","geo_score":0.857,"id":"a6bkaapktpku","geo_precision":"zip","state":"Virginia"},"type":"Feature","geometry":{"type":"Point","coordinates":[-77.200259,38.884278]}},{"properties":{"city":"jersey city","zip":"07306","geo_score":1.0,"id":"a6bkaamoc8bi","geo_precision":"zip","state":"New Jersey"},"type":"Feature","geometry":{"type":"Point","coordinates":[-74.068685,40.734951]}},{"properties":{"city":"linwood","zip":"08221","geo_score":0.879,"id":"a6bkaak5hsh3","geo_precision":"zip","state":"New Jersey"},"type":"Feature","geometry":{"type":"Point","coordinates":[-74.594323,39.334283]}},{"properties":{"city":"lynchburg","zip":"24502","geo_score":0.745,"id":"a6bkaaik90li","geo_precision":"zip","state":"Virgnia"},"type":"Feature","geometry":{"type":"Point","coordinates":[-79.237247,37.310699]}},{"properties":{"city":"middleburg","zip":"20117","geo_score":1.0,"id":"a6bkaagcmgrt","geo_precision":"zip","state":"Virginia"},"type":"Feature","geometry":{"type":"Point","coordinates":[-77.693844,39.029599]}},{"properties":{"city":"midlothian","zip":"23112","geo_score":1.0,"id":"a6bkaahso8j6","geo_precision":"zip","state":"Virginia"},"type":"Feature","geometry":{"type":"Point","coordinates":[-77.66258,37.454138]}},{"properties":{"city":"new york","zip":"10010","geo_score":1.0,"id":"a6bkaappxte5","geo_precision":"zip","state":"New York"},"type":"Feature","geometry":{"type":"Point","coordinates":[-73.983542,40.739024]}},{"properties":{"city":"palmyra","zip":"22963","geo_score":0.886,"id":"a6bkaap09uta","geo_precision":"zip","state":"Virginia"},"type":"Feature","geometry":{"type":"Point","coordinates":[-78.201391,37.849309]}},{"properties":{"city":"phoenix","zip":"85054","geo_score":1.0,"id":"a6bkaaholzzr","geo_precision":"zip","state":"Arizona"},"type":"Feature","geometry":{"type":"Point","coordinates":[-112.18717,33.276539]}},{"properties":{"city":"plainsboro","zip":"08536","geo_score":1.0,"id":"a6bkaadxj9c0","geo_precision":"zip","state":"New Jersey"},"type":"Feature","geometry":{"type":"Point","coordinates":[-74.582062,40.342197]}},{"properties":{"city":"prairie village","zip":"66208","geo_score":0.888,"id":"a6bkaagzoiys","geo_precision":"zip","state":"Kansas"},"type":"Feature","geometry":{"type":"Point","coordinates":[-94.616901,39.017783]}},{"properties":{"city":"richmond","zip":"23224","geo_score":1.0,"id":"a6bkaatirpjh","geo_precision":"zip","state":"Virginia"},"type":"Feature","geometry":{"type":"Point","coordinates":[-77.46726,37.497796]}},{"properties":{"city":"springfield","zip":"22150","geo_score":0.901,"id":"a6bkaaq91c2p","geo_precision":"zip","state":"Virginia"},"type":"Feature","geometry":{"type":"Point","coordinates":[-77.214983,38.776502]}},{"properties":{"city":"vienna","zip":"22180","geo_score":0.87,"id":"a6bkaaf9e4q1","geo_precision":"zip","state":"Virginia"},"type":"Feature","geometry":{"type":"Point","coordinates":[-77.249426,38.921778]}},{"properties":{"city":"woodbridge","zip":"22191","geo_score":1.0,"id":"a6bkaapr7qwv","geo_precision":"zip","state":"Virginia"},"type":"Feature","geometry":{"type":"Point","coordinates":[-77.271644,38.625541]}}],"is_temporal":false,"author":{"url":"","metadata":"","contact_name":"","contact_address":"","source":"","contact_phone":""},"source":"","pagination":{"sort":null,"start":0,"total":664,"limit":1000000},"state":"complete","tags":"","published":"2014-08-10T21:50:32-04:00","id":68483}