{"type":"FeatureCollection","data_type":"Dataset","url_type":null,"permissions":[{"permissions":{"download":true,"view":true},"group_id":"everyone"}],"classification":null,"title":"MCLAUGHLIN","count":30,"stream_id":68627,"contributor":{"url":"http://geocommons.com/users/11231","name":"ldegroot"},"data_attributes":null,"calculation_params":null,"icon_link":null,"link":"http://geocommons.com/overlays/68627.json","extent":[-122.387,37.3309,-121.764,38.5563],"geometry_types":["point"],"unique_name":null,"name":"MCLAUGHLIN","feature_count":30,"description":"","next_feature":null,"is_raster":false,"short_classification":"Y","stats":{"geo_score":{"max":1.0,"mean":0.939833333333333,"variance":0.020821867816092,"stdev":0.144297844114498,"min":0.333,"median":1.0},"amount":{"max":2500,"mean":251.833333333333,"variance":199687.040229885,"stdev":446.863558852011,"min":50,"median":100}},"features":[{"properties":{"name":"AFSCME Local 444 PAC (# 890966)","city":"Oakland","occupation":"State, County and Municipal Employees Union Pac","zip":"94621","date filed":null,"geo_score":0.535,"notes":"PAC","amount":500,"contributor code":"COM","id":"a65rvt15je1c","address":"8400 Enterprise Way, RM #1115","transaction date":"8/6/10","geo_precision":"street","state":"CA"},"type":"Feature","geometry":{"type":"Point","coordinates":[-122.195282,37.744032]}},{"properties":{"name":"Ali Taback","city":"Richmond","occupation":"Retired","zip":"94804","date filed":null,"geo_score":1.0,"notes":null,"amount":150,"contributor code":"IND","id":"a65rvswx8wkc","address":"5516 Plumas Ave","transaction date":"8/21/10","geo_precision":"range","state":"CA"},"type":"Feature","geometry":{"type":"Point","coordinates":[-122.314054,37.907791]}},{"properties":{"name":"Alicia Jrapko","city":"Oakland","occupation":"Researcher, Center for Applied Local Research","zip":"94609","date filed":null,"geo_score":1.0,"notes":null,"amount":100,"contributor code":"IND","id":"a65rvt4hzlii","address":"4525 Shafter Ave","transaction date":"9/16/10","geo_precision":"range","state":"CA"},"type":"Feature","geometry":{"type":"Point","coordinates":[-122.258911,37.833507]}},{"properties":{"name":"Bassam Limoun","city":"Santa Clara","occupation":"Sales Manager, Phaselink","zip":"95051","date filed":null,"geo_score":1.0,"notes":null,"amount":100,"contributor code":"IND","id":"a65rvsydo3jo","address":"440 Kiely Blvd","transaction date":"9/20/10","geo_precision":"range","state":"CA"},"type":"Feature","geometry":{"type":"Point","coordinates":[-121.974684,37.330882]}},{"properties":{"name":"Christopher Bowen","city":"Richmond","occupation":"Attorney, Contra Costa County","zip":"94805","date filed":null,"geo_score":0.333,"notes":null,"amount":100,"contributor code":"IND","id":"a65rvt0q2n8m","address":"PO Box 5047","transaction date":"8/12/10","geo_precision":"street","state":"CA"},"type":"Feature","geometry":{"type":"Point","coordinates":[-122.35586,37.955871]}},{"properties":{"name":"Fletcher Oaks","city":"Richmond","occupation":"Self Employed, Photographer","zip":"94804","date filed":null,"geo_score":1.0,"notes":null,"amount":50,"contributor code":"IND","id":"a65rvt9ago8k","address":"5839 Columbia Ave","transaction date":"7/18/10","geo_precision":"range","state":"CA"},"type":"Feature","geometry":{"type":"Point","coordinates":[-122.308385,37.904674]}},{"properties":{"name":"Gabriela Reardon","city":"Richmond","occupation":"Teacher, Oakland Unified School District","zip":"94804","date filed":null,"geo_score":1.0,"notes":null,"amount":100,"contributor code":"IND","id":"a65rvtavecp6","address":"5709 San Jose Ave","transaction date":"8/27/10","geo_precision":"range","state":"CA"},"type":"Feature","geometry":{"type":"Point","coordinates":[-122.30869,37.902948]}},{"properties":{"name":"Garret Brown","city":"El Cerrito","occupation":"Coordinator, Maquiladora Health and Support Network","zip":"94530","date filed":null,"geo_score":1.0,"notes":null,"amount":100,"contributor code":"IND","id":"a65rvt4i9p14","address":"828 Richmond St.","transaction date":"8/16/10","geo_precision":"range","state":"CA"},"type":"Feature","geometry":{"type":"Point","coordinates":[-122.302143,37.910102]}},{"properties":{"name":"Gretchen Blais","city":"Richmond","occupation":"Psychotheraphist, St. Mary's Center","zip":"94801","date filed":null,"geo_score":0.962,"notes":null,"amount":100,"contributor code":"IND","id":"a65rvt6wk9pr","address":"285 W Chanslor Ave","transaction date":"8/23/10","geo_precision":"range","state":"CA"},"type":"Feature","geometry":{"type":"Point","coordinates":[-122.373545,37.932668]}},{"properties":{"name":"Howard Sodja","city":"El Sobrante","occupation":"Retired","zip":"94803","date filed":null,"geo_score":1.0,"notes":null,"amount":100,"contributor code":"IND","id":"a65rvsyk6r4k","address":"4317 Santa Rita Rd","transaction date":"7/13/10","geo_precision":"range","state":"CA"},"type":"Feature","geometry":{"type":"Point","coordinates":[-122.300974,37.97095]}},{"properties":{"name":"Janet Schilling","city":"El Cerrito","occupation":"Dietician","zip":"94530","date filed":null,"geo_score":1.0,"notes":null,"amount":100,"contributor code":"IND","id":"a65rvsydej0v","address":"1604 Roger Ct.","transaction date":"8/21/10","geo_precision":"range","state":"CA"},"type":"Feature","geometry":{"type":"Point","coordinates":[-122.305677,37.924419]}},{"properties":{"name":"Joseph Feller","city":"Vellejo","occupation":"President, American Telecom West","zip":"94589","date filed":null,"geo_score":0.916,"notes":null,"amount":100,"contributor code":"IND","id":"a65rvsz3x191","address":"413 Cotta Court","transaction date":"9/20/10","geo_precision":"range","state":"CA"},"type":"Feature","geometry":{"type":"Point","coordinates":[-122.224389,38.146704]}},{"properties":{"name":"Kay Wallis","city":"Richmond","occupation":"Health Educator, UCSF","zip":"94804","date filed":null,"geo_score":1.0,"notes":null,"amount":2500,"contributor code":"IND","id":"a65rvt3lucpg","address":"5709 San Jose Ave","transaction date":"8/11/10","geo_precision":"range","state":"CA"},"type":"Feature","geometry":{"type":"Point","coordinates":[-122.30869,37.902948]}},{"properties":{"name":"Kerry Moriarty","city":"Richmond","occupation":"Union Rep, CTA","zip":"94804","date filed":null,"geo_score":1.0,"notes":null,"amount":50,"contributor code":"IND","id":"a65rvtb9agfy","address":"100 Murdock St.","transaction date":"7/18/10","geo_precision":"range","state":"CA"},"type":"Feature","geometry":{"type":"Point","coordinates":[-122.344878,37.932632]}},{"properties":{"name":"Lawrence Cooks","city":"Richmond","occupation":"Self Employed, Electircal Engineer","zip":"94804","date filed":null,"geo_score":0.932,"notes":null,"amount":100,"contributor code":"IND","id":"a65rvt9x6fw1","address":"5439 Sacramento","transaction date":"7/30/10","geo_precision":"range","state":"CA"},"type":"Feature","geometry":{"type":"Point","coordinates":[-122.31248,37.904504]}},{"properties":{"name":"Louise Harvey Clark","city":"Lafayette","occupation":"Retired","zip":"94549","date filed":null,"geo_score":0.951,"notes":null,"amount":100,"contributor code":"IND","id":"a65rvsyfde8b","address":"6 Blackthorn Rd.","transaction date":"8/10/10","geo_precision":"range","state":"CA"},"type":"Feature","geometry":{"type":"Point","coordinates":[-122.163648,37.892357]}},{"properties":{"name":"Margaret Pye","city":"San Carlos","occupation":"Treasurer, Green Party of San Mateo County","zip":"94070","date filed":null,"geo_score":1.0,"notes":null,"amount":500,"contributor code":"IND","id":"a65rvt75y6ol","address":"926 Laurel St.","transaction date":"9/6/10","geo_precision":"range","state":"CA"},"type":"Feature","geometry":{"type":"Point","coordinates":[-122.25606,37.502264]}},{"properties":{"name":"Martha Dragovich","city":"Martinez","occupation":"Retired","zip":"94553","date filed":null,"geo_score":0.902,"notes":null,"amount":100,"contributor code":"IND","id":"a65rvtclqbtl","address":"1040 Arlington Way","transaction date":"8/6/10","geo_precision":"range","state":"CA"},"type":"Feature","geometry":{"type":"Point","coordinates":[-122.138966,38.012614]}},{"properties":{"name":"Meredeth Benz","city":"Richmond","occupation":"Print Broker","zip":"94801","date filed":null,"geo_score":0.962,"notes":null,"amount":100,"contributor code":"IND","id":"a65rvt3l80jm","address":"41 Vine Ave","transaction date":"9/30/10","geo_precision":"range","state":"CA"},"type":"Feature","geometry":{"type":"Point","coordinates":[-122.387374,37.924163]}},{"properties":{"name":"Michael Esposito","city":"Richmond","occupation":"Retired","zip":"94804","date filed":null,"geo_score":1.0,"notes":null,"amount":500,"contributor code":"IND","id":"a65rvsyv0kg0","address":"5601 San Jose Ave","transaction date":"7/28/10","geo_precision":"range","state":"CA"},"type":"Feature","geometry":{"type":"Point","coordinates":[-122.309624,37.902536]}},{"properties":{"name":"Nicole Valentino","city":"Richmond","occupation":"Community Advocate, City of Richmond","zip":"94805","date filed":null,"geo_score":1.0,"notes":null,"amount":200,"contributor code":"IND","id":"a65rvt3fci5i","address":"960 Yuba St.","transaction date":"8/16/10","geo_precision":"range","state":"CA"},"type":"Feature","geometry":{"type":"Point","coordinates":[-122.323404,37.948677]}},{"properties":{"name":"Norman La Force","city":"El Cerrito","occupation":"Lawyer, Zunah North America","zip":"94530","date filed":null,"geo_score":1.0,"notes":null,"amount":200,"contributor code":"IND","id":"a65rvtb38ghn","address":"802 Balra Dr.","transaction date":"9/8/10","geo_precision":"range","state":"CA"},"type":"Feature","geometry":{"type":"Point","coordinates":[-122.294831,37.912456]}},{"properties":{"name":"Patricia Marsh","city":"Berkeley","occupation":"Self Employed, Musician","zip":"94703","date filed":null,"geo_score":1.0,"notes":null,"amount":250,"contributor code":"IND","id":"a65rvsysmd32","address":"1546 Virginia St.","transaction date":"8/26/10","geo_precision":"range","state":"CA"},"type":"Feature","geometry":{"type":"Point","coordinates":[-122.280999,37.875067]}},{"properties":{"name":"Robert Deering","city":"Davis","occupation":"Retired","zip":"95616","date filed":null,"geo_score":1.0,"notes":null,"amount":500,"contributor code":"IND","id":"a65rvt6xys25","address":"1202 Villanova Dr.","transaction date":"9/29/10","geo_precision":"range","state":"CA"},"type":"Feature","geometry":{"type":"Point","coordinates":[-121.763615,38.556259]}},{"properties":{"name":"Sandra Whisler","city":"Richmond","occupation":"Manager, PHLP","zip":"94804","date filed":null,"geo_score":0.902,"notes":null,"amount":100,"contributor code":"IND","id":"a65rvswj3vgu","address":"779 33rd St.","transaction date":"8/1/10","geo_precision":"range","state":"CA"},"type":"Feature","geometry":{"type":"Point","coordinates":[-122.335683,37.943288]}},{"properties":{"name":"Susan O'Sullivan","city":"Richmond","occupation":"omputer Anaylst, Sutter Health","zip":"94801","date filed":null,"geo_score":0.962,"notes":null,"amount":100,"contributor code":"IND","id":"a65rvsz8ossx","address":"270 Collins St.","transaction date":"8/21/10","geo_precision":"range","state":"CA"},"type":"Feature","geometry":{"type":"Point","coordinates":[-122.371022,37.934787]}},{"properties":{"name":"Suzanne Sanders","city":"Richmond","occupation":"Nurse, Kaiser Hospital Richmond","zip":"94804","date filed":null,"geo_score":0.902,"notes":null,"amount":200,"contributor code":"IND","id":"a65rvtay0t0l","address":"1159 34th St.","transaction date":"7/28/10","geo_precision":"range","state":"CA"},"type":"Feature","geometry":{"type":"Point","coordinates":[-122.334569,37.950524]}},{"properties":{"name":"Sylvia Hopkins","city":"Richmond","occupation":"Recreation Coordinator, City of Berkeley","zip":"94801","date filed":null,"geo_score":0.936,"notes":null,"amount":105,"contributor code":"IND","id":"a65rvt0plkrz","address":"114 W Bissel Ave","transaction date":"8/21/10","geo_precision":"range","state":"CA"},"type":"Feature","geometry":{"type":"Point","coordinates":[-122.370213,37.93376]}},{"properties":{"name":"Thomas Foster","city":"Berkeley","occupation":"Researcher, Center for Applied Local Research","zip":"94709","date filed":null,"geo_score":1.0,"notes":null,"amount":100,"contributor code":"IND","id":"a65rvszbda7n","address":"2010 Delaware St.","transaction date":"9/20/10","geo_precision":"range","state":"CA"},"type":"Feature","geometry":{"type":"Point","coordinates":[-122.270887,37.874527]}},{"properties":{"name":"United Teachers of Richmond PAC (#811678)","city":"Pinole","occupation":null,"zip":"94564","date filed":null,"geo_score":1.0,"notes":"PAC","amount":250,"contributor code":"COM","id":"a65rvsz3qimi","address":null,"transaction date":"9/30/10","geo_precision":"zip","state":"CA"},"type":"Feature","geometry":{"type":"Point","coordinates":[-122.243294,37.990772]}}],"is_temporal":false,"author":{"url":"","metadata":"","contact_name":"","contact_address":"","source":"","contact_phone":""},"source":"","pagination":{"sort":null,"start":0,"total":30,"limit":1000000},"state":"complete","tags":"2010,campaign,contributions,mayor,richmond","published":"2014-08-10T21:56:25-04:00","id":68627}