{"type":"FeatureCollection","data_type":"Dataset","url_type":null,"permissions":[{"permissions":{"download":true,"view":true},"group_id":"everyone"}],"classification":null,"title":"PDCs","count":22,"stream_id":68677,"contributor":{"url":"http://geocommons.com/users/17428","name":"Jobob"},"data_attributes":null,"calculation_params":null,"icon_link":null,"link":"http://geocommons.com/overlays/68677.json","extent":[-122.774,28.4216,-71.2363,45.472],"geometry_types":["point"],"unique_name":null,"name":"PDCs","feature_count":22,"description":"","next_feature":null,"is_raster":false,"short_classification":"Y","stats":{"geo_score":{"max":1.0,"mean":0.704636363636364,"variance":0.0927203376623376,"stdev":0.304500143944691,"min":0.0,"median":0.84}},"features":[{"properties":{"city":"Morrow","zip":"30260","country":"USA","geo_score":0.902,"segment":"East","id":"a6hhl5wn5814","depot":"Atlanta","address":"1149 Citizens Parkway","geo_precision":"range","state":"GA"},"type":"Feature","geometry":{"type":"Point","coordinates":[-84.349109,33.559831]}},{"properties":{"city":"Mansfield","zip":"02048-2038","country":"USA","geo_score":0.97,"segment":"East","id":"a6hhl5ow2cr8","depot":"Boston","address":"550 Forbes Boulevard","geo_precision":"range","state":"MA"},"type":"Feature","geometry":{"type":"Point","coordinates":[-71.23625,42.011942]}},{"properties":{"city":"Center Line","zip":"48015","country":"USA","geo_score":1.0,"segment":"National","id":"a6hhl61d2cdz","depot":"Center Line","address":"26311 Lawrence Ave","geo_precision":"range","state":"MI"},"type":"Feature","geometry":{"type":"Point","coordinates":[-83.032481,42.48705]}},{"properties":{"city":"Naperville","zip":"60540","country":"USA","geo_score":0.902,"segment":"West","id":"a6hhl5ykjufv","depot":"Chicago","address":"1980 High Grove Lane","geo_precision":"range","state":"il"},"type":"Feature","geometry":{"type":"Point","coordinates":[-88.203381,41.773449]}},{"properties":{"city":"Streetsboro","zip":"44241-5220","country":"USA","geo_score":1.0,"segment":"East","id":"a6hhl60cf7we","depot":"Cleveland","address":"9777 Mopar Drive","geo_precision":"range","state":"OH"},"type":"Feature","geometry":{"type":"Point","coordinates":[-81.374873,41.254548]}},{"properties":{"city":"Carrollton","zip":"75006-5608","country":"USA","geo_score":0.708,"segment":"West","id":"a6hhl5xsg1gl","depot":"Dallas","address":"2205 Belt Line Road","geo_precision":"street","state":"TX"},"type":"Feature","geometry":{"type":"Point","coordinates":[-96.868562,32.953311]}},{"properties":{"city":"Denver","zip":"80239-3414","country":"USA","geo_score":0.851,"segment":"West","id":"a6hhl5r9i1f2","depot":"Denver","address":"12225 East 39th Avenue","geo_precision":"range","state":"CO"},"type":"Feature","geometry":{"type":"Point","coordinates":[-104.846294,39.771076]}},{"properties":{"city":"Ontario","zip":"91761-7899","country":"USA","geo_score":1.0,"segment":"West","id":"a6hhl5qvvlf8","depot":"Los Angeles","address":"5141 Santa Ana Street","geo_precision":"range","state":"CA"},"type":"Feature","geometry":{"type":"Point","coordinates":[-117.540203,34.055398]}},{"properties":{"city":"Marysville","zip":null,"country":"USA","geo_score":0.512,"segment":"National","id":"a6hhl5q0zoxp","depot":"Marysville","address":"840 Huron Boulevard","geo_precision":"street","state":"MI"},"type":"Feature","geometry":{"type":"Point","coordinates":[-82.529266,43.268437]}},{"properties":{"city":"Toluca","zip":"CP 50000","country":"Mexico","geo_score":0.49,"segment":"West","id":"a6hhl5n4l43e","depot":"Mexico","address":"Industria Quimica s/n Zona Industial","geo_precision":"street","state":"Edo"},"type":"Feature","geometry":{"type":"Point","coordinates":[-86.061754,34.603629]}},{"properties":{"city":"Milwaukee","zip":"53207","country":"USA","geo_score":0.61,"segment":"National","id":"a6hhl5qytfsq","depot":"Milwaukee","address":"3280 S. Clement Ave","geo_precision":"street","state":"WI"},"type":"Feature","geometry":{"type":"Point","coordinates":[-87.896039,42.998661]}},{"properties":{"city":"Plymouth","zip":"55441","country":"USA","geo_score":1.0,"segment":"East","id":"a6hhl5xquzi9","depot":"Minneapolis","address":"13005 State Highway 55","geo_precision":"range","state":"MN"},"type":"Feature","geometry":{"type":"Point","coordinates":[-93.445245,45.003819]}},{"properties":{"city":"Mississagua","zip":"L5N1A8","country":"Canada","geo_score":0.0,"segment":"East","id":"a6hhl5s5cy6c","depot":"Mississauga","address":"6500 Mississauga","geo_precision":"unmatched","state":"Ontario"},"type":"Feature","geometry":null},{"properties":{"city":"Pointe Claire","zip":"H9R1B1","country":"Canada","geo_score":0.303,"segment":"East","id":"a6hhl5y4s9hc","depot":"Montreal","address":"3000 Trans Canada Hwy","geo_precision":"street","state":"Quebec"},"type":"Feature","geometry":{"type":"Point","coordinates":[-90.466442,35.382958]}},{"properties":{"city":"Tappan","zip":"10983","country":"USA","geo_score":0.84,"segment":"East","id":"a6hhl5scjufz","depot":"New York","address":"108 Route 303","geo_precision":"range","state":"NY"},"type":"Feature","geometry":{"type":"Point","coordinates":[-73.942584,41.01901]}},{"properties":{"city":"Orlando","zip":"32824-7033","country":"USA","geo_score":0.916,"segment":"East","id":"a6hhl5m9mrfq","depot":"Orlando","address":"10300 Boggy Creek Rd.","geo_precision":"range","state":"FL"},"type":"Feature","geometry":{"type":"Point","coordinates":[-81.350942,28.421583]}},{"properties":{"city":"Beaverton","zip":"97005","country":"USA","geo_score":0.483,"segment":"West","id":"a6hhl5sq3pa1","depot":"Portland","address":"10030 S.W. Allen Boulevard","geo_precision":"street","state":"OR"},"type":"Feature","geometry":{"type":"Point","coordinates":[-122.773876,45.471959]}},{"properties":{"city":"Red Deer","zip":"T4P3R2","country":"Canada","geo_score":0.638,"segment":"East","id":"a6hhl5nwjigm","depot":"Red Deer","address":"6777 Edgar Industrial Drive","geo_precision":"street","state":"Alberta"},"type":"Feature","geometry":{"type":"Point","coordinates":[-82.916045,42.465801]}},{"properties":{"city":"Warren","zip":"48091","country":"USA","geo_score":0.823,"segment":"National","id":"a6hhl5yea25i","depot":"Sherwood","address":"21555 Sherwood","geo_precision":"range","state":"MI"},"type":"Feature","geometry":{"type":"Point","coordinates":[-83.034747,42.454397]}},{"properties":{"city":"Hazelwood","zip":"63042","country":"USA","geo_score":0.634,"segment":"West","id":"a6hhl5uqu5xy","depot":"St. Louis","address":"5790 Campus Drive","geo_precision":"street","state":"MO"},"type":"Feature","geometry":{"type":"Point","coordinates":[-90.387581,38.774097]}},{"properties":{"city":"Mississagua","zip":"L5N1A8","country":"Canada","geo_score":0.0,"segment":"East","id":"a6hhl5tcierx","depot":"Toronto","address":"6500 Mississauga","geo_precision":"unmatched","state":"Ontario"},"type":"Feature","geometry":null},{"properties":{"city":"Warren","zip":"48091","country":"USA","geo_score":0.92,"segment":"National","id":"a6hhl5rtuekj","depot":"Warren","address":"21035 Sherwood","geo_precision":"range","state":"MI"},"type":"Feature","geometry":{"type":"Point","coordinates":[-83.034616,42.450732]}}],"is_temporal":false,"author":{"url":"","metadata":"","contact_name":"","contact_address":"","source":"","contact_phone":""},"source":"","pagination":{"sort":null,"start":0,"total":22,"limit":1000000},"state":"complete","tags":"","published":"2014-08-10T21:58:59-04:00","id":68677}