{"type":"FeatureCollection","data_type":"Dataset","url_type":null,"permissions":[{"permissions":{"download":true,"view":true},"group_id":"everyone"}],"classification":null,"title":"Jewish Synagogue (point), Arkansas","count":11,"stream_id":68875,"contributor":{"url":"http://geocommons.com/users/9631","name":"AGIO"},"data_attributes":null,"calculation_params":null,"icon_link":null,"link":"http://geocommons.com/overlays/68875.json","extent":[-94.3793,33.6285,-90.7063,36.3707],"geometry_types":["point"],"unique_name":null,"name":"Jewish Synagogue (point), Arkansas","feature_count":11,"description":"Jewish Synagogues in Arkansas\n\nThe Jewish Synagogues dataset is composed of Jewish places of worship and other Jewish religious institutions such as Jewish Community Centers.\n\nSome Jewish Synagogues were processed using information found through internet research and locations were determined based upon available sources of ortho imagery (USGS DOQQ's, NAIP, and state and local imagery). These records are indicated by a [CONTHOW] of &quot;ALT REF&quot;.\n\nAll data is non license restricted data.\n\nThe text fields in this dataset have been set to all upper case to facilitate consistent database engine search results.\n\nAll diacritics (e.g. the German umlaut or the Spanish tilde) have been replaced with their closest equivalent English character to facilitate use with database systems that may not support diacritics.\n\nThe currentness of this dataset is indicated by the [CONTDATE] attribute. Based upon this attribute, the oldest record dates from 2007/07/20 and the newest record dates from 2007/07/31","next_feature":null,"is_raster":false,"short_classification":"Y","stats":{"NAICSCODE":{"max":813110,"mean":813110.0,"variance":0.0,"stdev":0.0,"min":813110,"median":813110},"X":{"max":-90.706347,"mean":-92.8426314545454,"variance":1.57423879652361,"stdev":1.25468673242512,"min":-94.3793064,"median":-92.4032522},"Y":{"max":36.3706572,"mean":35.1491692181818,"variance":0.829155906105199,"stdev":0.910579983365107,"min":33.628514,"median":34.7931297},"ID":{"max":10284203,"mean":10281772.2727273,"variance":2005558.01818182,"stdev":1416.17725521271,"min":10280359,"median":10281602},"ZIPP4":{"max":8838,"mean":4175.9,"variance":4781730.1,"stdev":2186.71673977221,"min":2210,"median":3511},"GEOLINKID":{"max":126205826,"mean":96933343.2727273,"variance":426364398109834.0,"stdev":20648593.1266475,"min":39336306,"median":100021865}},"features":[{"properties":{"NAME":"MEIR CHAYIM TEMPLE","CITY":"MC GEHEE","CONTDATE":"2007/07/20 00:00:00 +0000","QC_QA":"TGS","METLNKID":null,"ADDRESS2":null,"ZIP":"71654","CONTHOW":"PHONE","NAICSCODE":813110,"DIRECTIONS":"LOCATED ON THE NORTHEAST SIDE OF N 4TH ST BETWEEN W OAK ST AND HOLLY ST","GEODATE":"2007/07/20 00:00:00 +0000","GEOHOW":"MANUAL","X":-91.3991151,"PHONE":"538-5355","Y":33.628514,"EMERGEXT":null,"ST_VERSION":"2006Q4","ID":10280359,"FEATTYPE":"POINT","ZIPP4":2210,"NAICSDESCR":"SYNAGOGUES","AREA":null,"STATE":"AR","EMERGPHONE":null,"ST_VENDOR":"NAVTEQ","GEOPREC":"BLOCKFACE","SECCLASS":"UNCLASSIFIED","PHONELOC":"NO","LOC_TYPE":"SYNAGOGUE","id":"a625ct0r2cmn","ADDRESS":"210 NORTH 4TH STREET","COUNTY":"DESHA","FIPS":"05041","EMERGTITLE":null,"GEOLINKID":100144054},"type":"Feature","geometry":{"type":"Point","coordinates":[-91.399115121918,33.6285139770844]}},{"properties":{"NAME":"CONGREGATION AGUDATH ACHIM","CITY":"LITTLE ROCK","CONTDATE":"2007/07/27 00:00:00 +0000","QC_QA":"TGS","METLNKID":null,"ADDRESS2":null,"ZIP":"72205","CONTHOW":"PHONE","NAICSCODE":813110,"DIRECTIONS":"LOCATED ON THE SOUTH SIDE OF W 5TH ST. .11 MILES WEST OF SOUTH RODNEY PARHAM ROAD.","GEODATE":"2007/07/27 00:00:00 +0000","GEOHOW":"MANUAL","X":-92.365217,"PHONE":"225-1683","Y":34.7492121,"EMERGEXT":null,"ST_VERSION":"2006Q4","ID":10280360,"FEATTYPE":"POINT","ZIPP4":null,"NAICSDESCR":"SYNAGOGUES","AREA":null,"STATE":"AR","EMERGPHONE":null,"ST_VENDOR":"NAVTEQ","GEOPREC":"BLOCKFACE","SECCLASS":"UNCLASSIFIED","PHONELOC":"YES","LOC_TYPE":"SYNAGOGUE","id":"a625ct9mxer4","ADDRESS":"7901 WEST  5TH  STREET","COUNTY":"PULASKI","FIPS":"05119","EMERGTITLE":null,"GEOLINKID":100464868},"type":"Feature","geometry":{"type":"Point","coordinates":[-92.3652170083522,34.7492120596907]}},{"properties":{"NAME":"TEMPLE ANSHE EMETH","CITY":"PINE BLUFF","CONTDATE":"2007/07/31 00:00:00 +0000","QC_QA":"TGS","METLNKID":null,"ADDRESS2":null,"ZIP":"71603","CONTHOW":"PHONE","NAICSCODE":813110,"DIRECTIONS":"LOCATED ON THE NORTH SIDE OF W 32ND AVE BETWEEN S BEECH ST AND S OAK ST","GEODATE":"2007/07/31 00:00:00 +0000","GEOHOW":"MANUAL","X":-92.0099754,"PHONE":"534-3853","Y":34.1977587,"EMERGEXT":null,"ST_VERSION":"2006Q4","ID":10280361,"FEATTYPE":"POINT","ZIPP4":6006,"NAICSDESCR":"SYNAGOGUES","AREA":null,"STATE":"AR","EMERGPHONE":"870-534-7831","ST_VENDOR":"NAVTEQ","GEOPREC":"ONENTITY","SECCLASS":"UNCLASSIFIED","PHONELOC":"NO","LOC_TYPE":"SYNAGOGUE","id":"a625ct3kqxql","ADDRESS":"717 WEST 32ND AVENUE","COUNTY":"JEFFERSON","FIPS":"05069","EMERGTITLE":"RABBI CELL PHONE","GEOLINKID":100125654},"type":"Feature","geometry":{"type":"Point","coordinates":[-92.0099753917833,34.1977587467182]}},{"properties":{"NAME":"TEMPLE B' NAI ISRAEL","CITY":"LITTLE ROCK","CONTDATE":"2007/07/20 00:00:00 +0000","QC_QA":"TGS","METLNKID":null,"ADDRESS2":null,"ZIP":"72212","CONTHOW":"PHONE","NAICSCODE":813110,"DIRECTIONS":"LOCATED ON THE WEST SIDE OF N RODNEY PARHAM RD BETWEEN ROCKY VALLEY DR AND VALLEY CLUB CIR","GEODATE":"2007/07/20 00:00:00 +0000","GEOHOW":"MANUAL","X":-92.4030521,"PHONE":"225-9700","Y":34.7864033,"EMERGEXT":null,"ST_VERSION":"2006Q4","ID":10280362,"FEATTYPE":"POINT","ZIPP4":2437,"NAICSDESCR":"SYNAGOGUES","AREA":null,"STATE":"AR","EMERGPHONE":null,"ST_VENDOR":"NAVTEQ","GEOPREC":"ONENTITY","SECCLASS":"UNCLASSIFIED","PHONELOC":"YES","LOC_TYPE":"SYNAGOGUE","id":"a625ct12myhi","ADDRESS":"3700 NORTH RODNEY PARHAM ROAD","COUNTY":"PULASKI","FIPS":"05119","EMERGTITLE":null,"GEOLINKID":99947108},"type":"Feature","geometry":{"type":"Point","coordinates":[-92.4030521378565,34.7864032499704]}},{"properties":{"NAME":"CONGREGATION HOUSE OF ISRAEL","CITY":"HOT SPRINGS","CONTDATE":null,"QC_QA":null,"METLNKID":null,"ADDRESS2":null,"ZIP":"71901","CONTHOW":null,"NAICSCODE":813110,"DIRECTIONS":null,"GEODATE":"2007/07/19 00:00:00 +0000","GEOHOW":"AUTO","X":-93.0574224,"PHONE":"623-5821","Y":34.5087648,"EMERGEXT":null,"ST_VERSION":"2006Q4","ID":10281518,"FEATTYPE":"POINT","ZIPP4":5203,"NAICSDESCR":"SYNAGOGUES","AREA":null,"STATE":"AR","EMERGPHONE":null,"ST_VENDOR":"NAVTEQ","GEOPREC":"BLOCKFACE","SECCLASS":"UNCLASSIFIED","PHONELOC":null,"LOC_TYPE":null,"id":"a625ct23ybdf","ADDRESS":"300 QUAPAW AVE","COUNTY":"GARLAND","FIPS":"05051","EMERGTITLE":null,"GEOLINKID":39336306},"type":"Feature","geometry":{"type":"Point","coordinates":[-93.0574224215813,34.5087648138737]}},{"properties":{"NAME":"TEMPLE ISRAEL","CITY":"JONESBORO","CONTDATE":"2007/07/30 00:00:00 +0000","QC_QA":"TGS","METLNKID":null,"ADDRESS2":null,"ZIP":"72401","CONTHOW":"PHONE","NAICSCODE":813110,"DIRECTIONS":"LOCATED ON THE SOUTH SIDE OF W OAK AVE BETWEEN S MADISON ST AND UNION ST","GEODATE":"2007/07/23 00:00:00 +0000","GEOHOW":"MANUAL","X":-90.706347,"PHONE":"932-9333","Y":35.8335557,"EMERGEXT":null,"ST_VERSION":"2006Q4","ID":10281602,"FEATTYPE":"POINT","ZIPP4":3511,"NAICSDESCR":"SYNAGOGUES","AREA":null,"STATE":"AR","EMERGPHONE":null,"ST_VENDOR":"NAVTEQ","GEOPREC":"BLOCKFACE","SECCLASS":"UNCLASSIFIED","PHONELOC":null,"LOC_TYPE":null,"id":"a625ct9n4bea","ADDRESS":"203 WEST OAK AVENUE","COUNTY":"CRAIGHEAD","FIPS":"05031","EMERGTITLE":null,"GEOLINKID":100021865},"type":"Feature","geometry":{"type":"Point","coordinates":[-90.7063470202823,35.8335557087651]}},{"properties":{"NAME":"UNITED HEBREW CONGREGATION","CITY":"FORT SMITH","CONTDATE":"2007/07/30 00:00:00 +0000","QC_QA":"TGS","METLNKID":null,"ADDRESS2":null,"ZIP":"72903","CONTHOW":"PHONE","NAICSCODE":813110,"DIRECTIONS":"LOCATED ON THE EAST SIDE OF N 47TH STREET APPROX. 0.15 MILES SOUTH OF PARK AVE","GEODATE":"2007/07/23 00:00:00 +0000","GEOHOW":"MANUAL","X":-94.3793064,"PHONE":"452-1468","Y":35.3760117,"EMERGEXT":null,"ST_VERSION":"2006Q4","ID":10281627,"FEATTYPE":"POINT","ZIPP4":2300,"NAICSDESCR":"SYNAGOGUES","AREA":null,"STATE":"AR","EMERGPHONE":null,"ST_VENDOR":"NAVTEQ","GEOPREC":"BLOCKFACE","SECCLASS":"UNCLASSIFIED","PHONELOC":null,"LOC_TYPE":null,"id":"a625ct7sshqb","ADDRESS":"126 NORTH 47TH STREET","COUNTY":"SEBASTIAN","FIPS":"05131","EMERGTITLE":null,"GEOLINKID":100063175},"type":"Feature","geometry":{"type":"Point","coordinates":[-94.3793064364245,35.3760116601594]}},{"properties":{"NAME":"TEMPLE SHALOM","CITY":"FAYETTEVILLE","CONTDATE":"2007/07/20 00:00:00 +0000","QC_QA":"TGS","METLNKID":null,"ADDRESS2":null,"ZIP":"72701","CONTHOW":"PHONE","NAICSCODE":813110,"DIRECTIONS":"LOCATED ON THE EAST SIDE OF N STORER AVE BETWEEN W CARAWAY ST AND W DOUGLAS ST","GEODATE":"2007/07/20 00:00:00 +0000","GEOHOW":"MANUAL","X":-94.1718176,"PHONE":"973-2702","Y":36.0723744,"EMERGEXT":null,"ST_VERSION":"2006Q4","ID":10282110,"FEATTYPE":"POINT","ZIPP4":3240,"NAICSDESCR":"SYNAGOGUES","AREA":null,"STATE":"AR","EMERGPHONE":null,"ST_VENDOR":"NAVTEQ","GEOPREC":"BLOCKFACE","SECCLASS":"UNCLASSIFIED","PHONELOC":"YES","LOC_TYPE":null,"id":"a625ct8jomk3","ADDRESS":"608 NORTH STORER AVENUE","COUNTY":"WASHINGTON","FIPS":"05143","EMERGTITLE":null,"GEOLINKID":100017438},"type":"Feature","geometry":{"type":"Point","coordinates":[-94.1718176454724,36.0723744314027]}},{"properties":{"NAME":"CHABAD OF NORTHWEST ARKANSAS","CITY":"ROGERS","CONTDATE":null,"QC_QA":null,"METLNKID":null,"ADDRESS2":null,"ZIP":"72758","CONTHOW":null,"NAICSCODE":813110,"DIRECTIONS":null,"GEODATE":"2007/07/24 00:00:00 +0000","GEOHOW":"AUTO","X":-94.1899907,"PHONE":"464-7999","Y":36.3244798,"EMERGEXT":null,"ST_VERSION":"2006Q4","ID":10283496,"FEATTYPE":"POINT","ZIPP4":8838,"NAICSDESCR":"SYNAGOGUES","AREA":null,"STATE":"AR","EMERGPHONE":null,"ST_VENDOR":"NAVTEQ","GEOPREC":"BLOCKFACE","SECCLASS":"UNCLASSIFIED","PHONELOC":null,"LOC_TYPE":"CHABAD HOUSE","id":"a625ctechjs5","ADDRESS":"5402 W REDBUD STREET","COUNTY":"BENTON","FIPS":"05007","EMERGTITLE":null,"GEOLINKID":99993996},"type":"Feature","geometry":{"type":"Point","coordinates":[-94.1899907167397,36.3244798185144]}},{"properties":{"NAME":"LUBAVITCH OF ARKANSAS","CITY":"LITTLE ROCK","CONTDATE":"2007/07/27 00:00:00 +0000","QC_QA":"TGS","METLNKID":null,"ADDRESS2":null,"ZIP":"72212","CONTHOW":"PHONE","NAICSCODE":813110,"DIRECTIONS":"LOCATED ON THE EAST SIDE OF FAIRVIEW ROAD. .02 MILES FROM SUMMIT ROAD.","GEODATE":"2007/07/27 00:00:00 +0000","GEOHOW":"MANUAL","X":-92.4032522,"PHONE":"217-0053","Y":34.7931297,"EMERGEXT":null,"ST_VERSION":"2006Q4","ID":10283497,"FEATTYPE":"POINT","ZIPP4":2408,"NAICSDESCR":"SYNAGOGUES","AREA":null,"STATE":"AR","EMERGPHONE":null,"ST_VENDOR":"NAVTEQ","GEOPREC":"BLOCKFACE","SECCLASS":"UNCLASSIFIED","PHONELOC":"YES","LOC_TYPE":"CHABAD HOUSE","id":"a625cte9mims","ADDRESS":"11905 FAIRVIEW ROAD","COUNTY":"PULASKI","FIPS":"05119","EMERGTITLE":null,"GEOLINKID":99946486},"type":"Feature","geometry":{"type":"Point","coordinates":[-92.4032521929531,34.7931296515002]}},{"properties":{"NAME":"CONGREGATION ETZ CHAIM","CITY":"BENTONVILLE","CONTDATE":"2007/07/27 00:00:00 +0000","QC_QA":"TGS","METLNKID":null,"ADDRESS2":null,"ZIP":"72712","CONTHOW":"PHONE","NAICSCODE":813110,"DIRECTIONS":"LOCATED ON THE SOUTHWEST CORNER OF EAST CENTRAL AVENUE AND SOUTHEAST MIBERLY LANE.","GEODATE":"2007/07/30 00:00:00 +0000","GEOHOW":"MANUAL","X":-94.1834501,"PHONE":"464-8001","Y":36.3706572,"EMERGEXT":null,"ST_VERSION":"2006Q4","ID":10284203,"FEATTYPE":"POINT","ZIPP4":5606,"NAICSDESCR":"SYNAGOGUES","AREA":null,"STATE":"AR","EMERGPHONE":null,"ST_VENDOR":"NAVTEQ","GEOPREC":"ONENTITY","SECCLASS":"UNCLASSIFIED","PHONELOC":"YES","LOC_TYPE":null,"id":"a625ctc9mr2p","ADDRESS":"2406 EAST CENTRAL AVENUE","COUNTY":"BENTON","FIPS":"05007","EMERGTITLE":null,"GEOLINKID":126205826},"type":"Feature","geometry":{"type":"Point","coordinates":[-94.1834501138638,36.3706571663746]}}],"is_temporal":true,"author":{"url":"http://www.geostor.arkansas.gov","metadata":"http://www.geostor.arkansas.gov","contact_name":"","contact_address":"","source":"AGIO (TechniGraphics, Inc.)","contact_phone":""},"source":"http://www.geostor.arkansas.gov","pagination":{"sort":null,"start":0,"total":11,"limit":1000000},"state":"complete","tags":"church,jewish,religion","published":"2008-01-22T17:00:00Z","id":68875}