{"type":"FeatureCollection","data_type":"Dataset","url_type":null,"permissions":[{"permissions":{"download":true,"view":true},"group_id":"everyone"}],"classification":null,"title":"outages time series","count":19,"stream_id":69015,"contributor":{"url":"http://geocommons.com/users/3117","name":"instructionaltech"},"data_attributes":null,"calculation_params":null,"icon_link":null,"link":"http://geocommons.com/overlays/69015.json","extent":[-76.9901,42.8549,-76.9809,42.866],"geometry_types":["point"],"unique_name":null,"name":"outages time series","feature_count":19,"description":"Outages reported for campus sept 2008 - test data","next_feature":null,"is_raster":false,"short_classification":"Y","stats":{"geo_score":{"max":0.878,"mean":0.760526315789474,"variance":0.0200292631578947,"stdev":0.141524779306999,"min":0.599,"median":0.878},"bg_long":{"max":-76.98095,"mean":-76.9838169473684,"variance":6.09052383040821e-06,"stdev":0.00246789866696512,"min":-76.990144,"median":-76.983874},"bg_lat":{"max":42.865973,"mean":42.8572690526316,"variance":7.83047716374271e-06,"stdev":0.00279829897683266,"min":42.85487,"median":42.856116}},"features":[{"properties":{"city":"Geneva","room code":"21","zip":"11456","date":{"end_time":"2010/09/01 01:00:01 -0400","original":"Wed Sep 01 00:00:00 -0500 2010","granularity":"sec","time":"2010/09/01 01:00:00 -0400"},"bg_long":-76.987032,"geo_score":0.599,"bg_lat":42.860285,"id":"a645k538y75o","address":"121 Hamilton Street","geo_precision":"zip","state":"NY"},"type":"Feature","geometry":{"type":"Point","coordinates":[-76.987032,42.860285]}},{"properties":{"city":"Geneva","room code":"13","zip":"11456","date":{"end_time":"2010/09/02 01:00:01 -0400","original":"Thu Sep 02 00:00:00 -0500 2010","granularity":"sec","time":"2010/09/02 01:00:00 -0400"},"bg_long":-76.986434,"geo_score":0.878,"bg_lat":42.855927,"id":"a645k55o87ca","address":"133 St. Clair Street","geo_precision":"zip","state":"NY"},"type":"Feature","geometry":{"type":"Point","coordinates":[-76.986434,42.855927]}},{"properties":{"city":"Geneva","room code":"NO","zip":"11456","date":{"end_time":"2010/10/01 01:00:01 -0400","original":"Fir Oct 01 00:00:00 -0500 2010","granularity":"sec","time":"2010/10/01 01:00:00 -0400"},"bg_long":-76.990144,"geo_score":0.599,"bg_lat":42.859578,"id":"a645k4tz4e19","address":"183 Hamilton Street","geo_precision":"zip","state":"NY"},"type":"Feature","geometry":{"type":"Point","coordinates":[-76.990144,42.859578]}},{"properties":{"city":"Geneva","room code":"BT","zip":"11456","date":{"end_time":"2010/10/01 01:00:01 -0400","original":"Fri Oct 01 00:00:00 -0500 2010","granularity":"sec","time":"2010/10/01 01:00:00 -0400"},"bg_long":-76.985287,"geo_score":0.599,"bg_lat":42.860103,"id":"a645k4wjk4gh","address":"287 Pulteney Street","geo_precision":"zip","state":"NY"},"type":"Feature","geometry":{"type":"Point","coordinates":[-76.985287,42.860103]}},{"properties":{"city":"Geneva","room code":"29","zip":"11456","date":{"end_time":"2010/09/03 01:00:01 -0400","original":"Fri Sep 03 00:00:00 -0500 2010","granularity":"sec","time":"2010/09/03 01:00:00 -0400"},"bg_long":-76.98521,"geo_score":0.599,"bg_lat":42.8599,"id":"a645k55nb4vv","address":"295 Pulteney Street","geo_precision":"zip","state":"NY"},"type":"Feature","geometry":{"type":"Point","coordinates":[-76.98521,42.8599]}},{"properties":{"city":"Geneva","room code":"BA","zip":"11456","date":{"end_time":"2010/09/27 01:00:01 -0400","original":"Mon Sep 27 00:00:00 -0500 2010","granularity":"sec","time":"2010/09/27 01:00:00 -0400"},"bg_long":-76.984485,"geo_score":0.599,"bg_lat":42.85798,"id":"a645k543c4st","address":"353 Pulteney","geo_precision":"zip","state":"NY"},"type":"Feature","geometry":{"type":"Point","coordinates":[-76.984485,42.85798]}},{"properties":{"city":"Geneva","room code":"38","zip":"11456","date":{"end_time":"2010/09/04 01:00:01 -0400","original":"Sat Sep 04 00:00:00 -0500 2010","granularity":"sec","time":"2010/09/04 01:00:00 -0400"},"bg_long":-76.985,"geo_score":0.878,"bg_lat":42.865973,"id":"a645k4s2xqpp","address":"380 S. Main Street","geo_precision":"zip","state":"NY"},"type":"Feature","geometry":{"type":"Point","coordinates":[-76.985,42.865973]}},{"properties":{"city":"Geneva","room code":"40","zip":"11456","date":{"end_time":"2010/09/05 01:00:01 -0400","original":"Sun Sep 05 00:00:00 -0500 2010","granularity":"sec","time":"2010/09/05 01:00:00 -0400"},"bg_long":-76.984158,"geo_score":0.599,"bg_lat":42.856116,"id":"a645k4xwky96","address":"402 Pulteney Street","geo_precision":"zip","state":"NY"},"type":"Feature","geometry":{"type":"Point","coordinates":[-76.984158,42.856116]}},{"properties":{"city":"Geneva","room code":"FN","zip":"11456","date":{"end_time":"2010/09/12 01:00:01 -0400","original":"Sun Sep 12 00:00:00 -0500 2010","granularity":"sec","time":"2010/09/12 01:00:00 -0400"},"bg_long":-76.983874,"geo_score":0.599,"bg_lat":42.855489,"id":"a645k4rhyywq","address":"408 Pulteney Street","geo_precision":"zip","state":"NY"},"type":"Feature","geometry":{"type":"Point","coordinates":[-76.983874,42.855489]}},{"properties":{"city":"Geneva","room code":"41","zip":"11456","date":{"end_time":"2010/09/12 01:00:01 -0400","original":"Sun Sep 12 00:00:00 -0500 2010","granularity":"sec","time":"2010/09/12 01:00:00 -0400"},"bg_long":-76.983872,"geo_score":0.599,"bg_lat":42.855439,"id":"a645k519okap","address":"412 Pulteney Street","geo_precision":"zip","state":"NY"},"type":"Feature","geometry":{"type":"Point","coordinates":[-76.983872,42.855439]}},{"properties":{"city":"Geneva","room code":"BL","zip":"11456","date":{"end_time":"2010/09/30 01:00:01 -0400","original":"Thu Sep 30 00:00:00 -0500 2010","granularity":"sec","time":"2010/09/30 01:00:00 -0400"},"bg_long":-76.982928,"geo_score":0.878,"bg_lat":42.856845,"id":"a645k4zftc5j","address":"42 St. Clair Street","geo_precision":"zip","state":"NY"},"type":"Feature","geometry":{"type":"Point","coordinates":[-76.982928,42.856845]}},{"properties":{"city":"Geneva","room code":"72","zip":"11456","date":{"end_time":"2010/09/26 01:00:01 -0400","original":"Sun Sep 26 00:00:00 -0500 2010","granularity":"sec","time":"2010/09/26 01:00:00 -0400"},"bg_long":-76.981539,"geo_score":0.878,"bg_lat":42.856168,"id":"a645k50odrxk","address":"720 S. Main Street","geo_precision":"zip","state":"NY"},"type":"Feature","geometry":{"type":"Point","coordinates":[-76.981539,42.856168]}},{"properties":{"city":"Geneva","room code":"73","zip":"11456","date":{"end_time":"2010/10/01 02:00:00 -0400","original":"Sat Sep 1800:00:00 -0500 2010","granularity":"hour","time":"2010/10/01 01:00:00 -0400"},"bg_long":-76.981487,"geo_score":0.878,"bg_lat":42.855874,"id":"a645k4q71lkb","address":"730 S. Main Street","geo_precision":"zip","state":"NY"},"type":"Feature","geometry":{"type":"Point","coordinates":[-76.981487,42.855874]}},{"properties":{"city":"Geneva","room code":"37","zip":"11456","date":{"end_time":"2010/09/19 01:00:01 -0400","original":"Sun Sep 19 00:00:00 -0500 2010","granularity":"sec","time":"2010/09/19 01:00:00 -0400"},"bg_long":-76.981123,"geo_score":0.878,"bg_lat":42.855912,"id":"a645k4u515um","address":"737 S. Main Street","geo_precision":"zip","state":"NY"},"type":"Feature","geometry":{"type":"Point","coordinates":[-76.981123,42.855912]}},{"properties":{"city":"Geneva","room code":"74","zip":"11456","date":{"end_time":"2010/09/19 01:00:01 -0400","original":"Sun Sep 19 00:00:00 -0500 2010","granularity":"sec","time":"2010/09/19 01:00:00 -0400"},"bg_long":-76.981404,"geo_score":0.878,"bg_lat":42.855401,"id":"a645k50jaa71","address":"746 S. Main Street","geo_precision":"zip","state":"NY"},"type":"Feature","geometry":{"type":"Point","coordinates":[-76.981404,42.855401]}},{"properties":{"city":"Geneva","room code":"BS","zip":"11456","date":{"end_time":"2010/09/30 01:00:01 -0400","original":"Thu Sep 30 00:00:00 -0500 2010","granularity":"sec","time":"2010/09/30 01:00:00 -0400"},"bg_long":-76.98135,"geo_score":0.878,"bg_lat":42.855106,"id":"a645k4txek7s","address":"756 S. Main Street","geo_precision":"zip","state":"NY"},"type":"Feature","geometry":{"type":"Point","coordinates":[-76.98135,42.855106]}},{"properties":{"city":"Geneva","room code":"FW","zip":"11456","date":{"end_time":"2010/09/26 01:00:01 -0400","original":"Sun Sep 26 00:00:00 -0500 2010","granularity":"sec","time":"2010/09/26 01:00:00 -0400"},"bg_long":-76.981308,"geo_score":0.878,"bg_lat":42.85487,"id":"a645k4vpnhzo","address":"764 S. Main Street","geo_precision":"zip","state":"NY"},"type":"Feature","geometry":{"type":"Point","coordinates":[-76.981308,42.85487]}},{"properties":{"city":"Geneva","room code":"75","zip":"11456","date":{"end_time":"2010/10/01 01:00:01 -0400","original":"Fri Oct 01 00:00:00 -0500 2010","granularity":"sec","time":"2010/10/01 01:00:00 -0400"},"bg_long":-76.98095,"geo_score":0.878,"bg_lat":42.854941,"id":"a645k4xir1m2","address":"775 S. Main Street","geo_precision":"zip","state":"NY"},"type":"Feature","geometry":{"type":"Point","coordinates":[-76.98095,42.854941]}},{"properties":{"city":"Geneva","room code":"99","zip":"11456","date":{"end_time":"2010/09/19 02:00:00 -0400","original":"Sun Sep  19 00:00:00 -0500 2010","granularity":"hour","time":"2010/09/19 01:00:00 -0400"},"bg_long":-76.984937,"geo_score":0.878,"bg_lat":42.856205,"id":"a645k55d3gbx","address":"99 St. Clair Street","geo_precision":"zip","state":"NY"},"type":"Feature","geometry":{"type":"Point","coordinates":[-76.984937,42.856205]}}],"is_temporal":true,"author":{"url":"","metadata":"","contact_name":"","contact_address":"","source":"hws","contact_phone":""},"source":"","pagination":{"sort":null,"start":0,"total":19,"limit":1000000},"state":"complete","tags":"access,data,infrastructure,internet","published":"2010-10-20T20:24:11Z","id":69015}