{"type":"FeatureCollection","data_type":"Dataset","url_type":null,"permissions":[{"permissions":{"download":true,"view":true},"group_id":"everyone"}],"classification":null,"title":"ARC Volunteer Opportunities, as of 11.14.08 Non-Specified","count":47,"stream_id":7007,"contributor":{"url":"http://geocommons.com/users/143","name":"jennifer"},"data_attributes":null,"calculation_params":null,"icon_link":null,"link":"http://geocommons.com/overlays/7007.json","extent":[-80.3957,37.1742,-76.8761,38.9526],"geometry_types":["point"],"unique_name":null,"name":"ARC Volunteer Opportunities, as of 11.14.08 Non-Specified","feature_count":47,"description":"","next_feature":null,"is_raster":false,"short_classification":"Y","stats":{"latitude":{"max":38.95261,"mean":38.7905675744681,"variance":0.119877906277684,"stdev":0.346233889556878,"min":37.17421,"median":38.890369},"longitude":{"max":-76.876091,"mean":-77.2591530212766,"variance":0.463680921959586,"stdev":0.680941203012115,"min":-80.395721,"median":-77.043083}},"features":[{"properties":{"city":"Fairfax","opportunity":"Communications Assistant","latitude":38.825619,"date":"--","street":"8550 Arlington Blvd","organization":"American Red Cross of the National Capital Area","longitude":-77.288963,"id":"a6754w7rfm2x","state":"VA","greatfor":""},"type":"Feature","geometry":{"type":"Point","coordinates":[-77.288963,38.825619]}},{"properties":{"city":"Washington","opportunity":"Donor Acknowledgement Assistant","latitude":38.890369,"date":"--","street":"2025 E Street, NW","organization":"American Red Cross-National Headquarters","longitude":-77.03199,"id":"a6754w16ugr9","state":"DC","greatfor":""},"type":"Feature","geometry":{"type":"Point","coordinates":[-77.03199,38.890369]}},{"properties":{"city":"Washington","opportunity":"IT Tester","latitude":38.890369,"date":"--","street":"2025 E Street, NW","organization":"American Red Cross-National Headquarters","longitude":-77.03199,"id":"a6754w40hyzn","state":"DC","greatfor":""},"type":"Feature","geometry":{"type":"Point","coordinates":[-77.03199,38.890369]}},{"properties":{"city":"Fairfax","opportunity":"Accounts Payable Clerk","latitude":38.825619,"date":"--","street":"8550 Arlington Blvd","organization":"American Red Cross of the National Capital Area","longitude":-77.288963,"id":"a6754w6f9zn4","state":"VA","greatfor":""},"type":"Feature","geometry":{"type":"Point","coordinates":[-77.288963,38.825619]}},{"properties":{"city":"Fairfax","opportunity":"Administrative Assistant for Public Support","latitude":38.825619,"date":"--","street":"8550 Arlington Blvd","organization":"American Red Cross of the National Capital Area","longitude":-77.288963,"id":"a6754w831mzg","state":"VA","greatfor":""},"type":"Feature","geometry":{"type":"Point","coordinates":[-77.288963,38.825619]}},{"properties":{"city":"Washington","opportunity":"Advertising Intern","latitude":38.890369,"date":"8/25/08 to 12/22/08","street":"2025 E Street, NW","organization":"American Red Cross-National Headquarters","longitude":-77.03199,"id":"a6754w6nehms","state":"DC","greatfor":""},"type":"Feature","geometry":{"type":"Point","coordinates":[-77.03199,38.890369]}},{"properties":{"city":"Washington","opportunity":"Celebrity and Entertainment Outreach Intern","latitude":38.890369,"date":"--","street":"2025 E Street, NW","organization":"American Red Cross-National Headquarters","longitude":-77.03199,"id":"a6754vvndxhb","state":"DC","greatfor":""},"type":"Feature","geometry":{"type":"Point","coordinates":[-77.03199,38.890369]}},{"properties":{"city":"Fairfax","opportunity":"Community Class Instructor/Intern","latitude":38.825619,"date":"--","street":"8550 Arlington Blvd","organization":"American Red Cross of the National Capital Area","longitude":-77.288963,"id":"a6754vyw7c5n","state":"VA","greatfor":""},"type":"Feature","geometry":{"type":"Point","coordinates":[-77.288963,38.825619]}},{"properties":{"city":"Fairfax","opportunity":"Customer Survey Associate","latitude":38.825619,"date":"--","street":"8550 Arlington Blvd","organization":"American Red Cross of the National Capital Area","longitude":-77.288963,"id":"a6754vw7i6sk","state":"VA","greatfor":""},"type":"Feature","geometry":{"type":"Point","coordinates":[-77.288963,38.825619]}},{"properties":{"city":"Hyattsville","opportunity":"Data Clerk","latitude":38.95261,"date":"--","street":"6206 Belcrest Rd.","organization":"American Red Cross of the National Capital Area","longitude":-76.94207,"id":"a6754w7vpfc6","state":"MD","greatfor":""},"type":"Feature","geometry":{"type":"Point","coordinates":[-76.94207,38.95261]}},{"properties":{"city":"Fairfax","opportunity":"Data Entry Specialist","latitude":38.825619,"date":"--","street":"8550 Arlington Blvd","organization":"American Red Cross of the National Capital Area","longitude":-77.288963,"id":"a6754w6qu47q","state":"VA","greatfor":""},"type":"Feature","geometry":{"type":"Point","coordinates":[-77.288963,38.825619]}},{"properties":{"city":"Fairfax","opportunity":"Disaster Duty Officer","latitude":38.825619,"date":"--","street":"8550 Arlington Blvd","organization":"American Red Cross of the National Capital Area","longitude":-77.288963,"id":"a6754w2gqfvj","state":"VA","greatfor":""},"type":"Feature","geometry":{"type":"Point","coordinates":[-77.288963,38.825619]}},{"properties":{"city":"Washington","opportunity":"Disaster Operations Center Receptionist","latitude":38.890369,"date":"--","street":"2025 E Street, NW","organization":"American Red Cross-National Headquarters","longitude":-77.03199,"id":"a6754w7qcgs7","state":"DC","greatfor":""},"type":"Feature","geometry":{"type":"Point","coordinates":[-77.03199,38.890369]}},{"properties":{"city":"Prince George's County","opportunity":"Disaster Responder","latitude":38.833618,"date":"","street":"","organization":"American Red Cross of the National Capital Area","longitude":-76.876091,"id":"a6754w7pz7nt","state":"MD","greatfor":""},"type":"Feature","geometry":{"type":"Point","coordinates":[-76.876091,38.833618]}},{"properties":{"city":"Montgomery","opportunity":"Disaster Responder","latitude":37.17421,"date":"","street":"","organization":"American Red Cross of the National Capital Area","longitude":-80.395721,"id":"a6754vxcgzb8","state":"VA","greatfor":""},"type":"Feature","geometry":{"type":"Point","coordinates":[-80.395721,37.17421]}},{"properties":{"city":"Washington","opportunity":"Disaster Services Invoice Evaluation Assistant","latitude":38.890369,"date":"--","street":"2025 E Street, NW","organization":"American Red Cross-National Headquarters","longitude":-77.03199,"id":"a6754vwazqiz","state":"DC","greatfor":""},"type":"Feature","geometry":{"type":"Point","coordinates":[-77.03199,38.890369]}},{"properties":{"city":"Fairfax","opportunity":"Emergency and International Services Office Manager","latitude":38.825619,"date":"--","street":"8550 Arlington Blvd","organization":"American Red Cross of the National Capital Area","longitude":-77.288963,"id":"a6754vyrqabm","state":"VA","greatfor":""},"type":"Feature","geometry":{"type":"Point","coordinates":[-77.288963,38.825619]}},{"properties":{"city":"Fairfax","opportunity":"Exercise Intern","latitude":38.825619,"date":"--","street":"8550 Arlington Blvd","organization":"American Red Cross of the National Capital Area","longitude":-77.288963,"id":"a6754vvry2cb","state":"VA","greatfor":""},"type":"Feature","geometry":{"type":"Point","coordinates":[-77.288963,38.825619]}},{"properties":{"city":"Fairfax","opportunity":"Fund Raising","latitude":38.825619,"date":"--","street":"8550 Arlington Blvd","organization":"American Red Cross of the National Capital Area","longitude":-77.288963,"id":"a6754vz0qf6f","state":"VA","greatfor":""},"type":"Feature","geometry":{"type":"Point","coordinates":[-77.288963,38.825619]}},{"properties":{"city":"Washington","opportunity":"Graphic Design Intern","latitude":38.890369,"date":"--","street":"2025 E Street, NW","organization":"American Red Cross-National Headquarters","longitude":-77.03199,"id":"a6754w6rw2ty","state":"DC","greatfor":""},"type":"Feature","geometry":{"type":"Point","coordinates":[-77.03199,38.890369]}},{"properties":{"city":"Montgomery","opportunity":"Health and Safety Instructor","latitude":37.17421,"date":"","street":"","organization":"American Red Cross of the National Capital Area","longitude":-80.395721,"id":"a6754w7xj5t9","state":"VA","greatfor":""},"type":"Feature","geometry":{"type":"Point","coordinates":[-80.395721,37.17421]}},{"properties":{"city":"Prince George's County","opportunity":"Health and Safety Instructor","latitude":38.833618,"date":"","street":"","organization":"American Red Cross of the National Capital Area","longitude":-76.876091,"id":"a6754w6s3m9w","state":"MD","greatfor":""},"type":"Feature","geometry":{"type":"Point","coordinates":[-76.876091,38.833618]}},{"properties":{"city":"Fairfax","opportunity":"Human Resources Coordinator/Specialist","latitude":38.825619,"date":"--","street":"8550 Arlington Blvd","organization":"American Red Cross of the National Capital Area","longitude":-77.288963,"id":"a6754w70amhh","state":"VA","greatfor":""},"type":"Feature","geometry":{"type":"Point","coordinates":[-77.288963,38.825619]}},{"properties":{"city":"Fairfax","opportunity":"Human Resources Generalist","latitude":38.825619,"date":"--","street":"8550 Arlington Blvd","organization":"American Red Cross of the National Capital Area","longitude":-77.288963,"id":"a6754vvl3g2f","state":"VA","greatfor":""},"type":"Feature","geometry":{"type":"Point","coordinates":[-77.288963,38.825619]}},{"properties":{"city":"Washington","opportunity":"IT Enterprise Architect, Information Security","latitude":38.890369,"date":"--","street":"2025 E Street, NW","organization":"American Red Cross-National Headquarters","longitude":-77.03199,"id":"a6754w7b8hzh","state":"DC","greatfor":""},"type":"Feature","geometry":{"type":"Point","coordinates":[-77.03199,38.890369]}},{"properties":{"city":"Washington","opportunity":"IT Project Manager","latitude":38.890369,"date":"--","street":"2025 E Street, NW","organization":"American Red Cross-National Headquarters","longitude":-77.03199,"id":"a6754w3s0ue1","state":"DC","greatfor":""},"type":"Feature","geometry":{"type":"Point","coordinates":[-77.03199,38.890369]}},{"properties":{"city":"Washington","opportunity":"IT Requirements Analyst II","latitude":38.890369,"date":"--","street":"2025 E Street, NW","organization":"American Red Cross-National Headquarters","longitude":-77.03199,"id":"a6754vyc0nhf","state":"DC","greatfor":""},"type":"Feature","geometry":{"type":"Point","coordinates":[-77.03199,38.890369]}},{"properties":{"city":"Washington","opportunity":"IT Senior Analyst, Metrics and Adhoc Systems","latitude":38.890369,"date":"--","street":"2025 E Street, NW","organization":"American Red Cross-National Headquarters","longitude":-77.03199,"id":"a6754w1a2dce","state":"DC","greatfor":""},"type":"Feature","geometry":{"type":"Point","coordinates":[-77.03199,38.890369]}},{"properties":{"city":"Washington","opportunity":"IT Service Delivery Manager","latitude":38.890369,"date":"--","street":"2025 E Street, NW","organization":"American Red Cross-National Headquarters","longitude":-77.03199,"id":"a6754vtxb3ze","state":"DC","greatfor":""},"type":"Feature","geometry":{"type":"Point","coordinates":[-77.03199,38.890369]}},{"properties":{"city":"Washington","opportunity":"IT Support Specialist","latitude":38.890369,"date":"--","street":"2025 E Street, NW","organization":"American Red Cross-National Headquarters","longitude":-77.03199,"id":"a6754w99uwt4","state":"DC","greatfor":""},"type":"Feature","geometry":{"type":"Point","coordinates":[-77.03199,38.890369]}},{"properties":{"city":"Washington","opportunity":"IT Technical Writer (Biomed)","latitude":38.890369,"date":"--","street":"2025 E Street, NW","organization":"American Red Cross-National Headquarters","longitude":-77.03199,"id":"a6754w5k751l","state":"DC","greatfor":""},"type":"Feature","geometry":{"type":"Point","coordinates":[-77.03199,38.890369]}},{"properties":{"city":"Washington","opportunity":"IT Technical Writer (Biomed)","latitude":38.890369,"date":"--","street":"2025 E Street, NW","organization":"American Red Cross-National Headquarters","longitude":-77.03199,"id":"a6754w7ehty5","state":"DC","greatfor":""},"type":"Feature","geometry":{"type":"Point","coordinates":[-77.03199,38.890369]}},{"properties":{"city":"Washington","opportunity":"IT Test Engineer IV","latitude":38.890369,"date":"--","street":"2025 E Street, NW","organization":"American Red Cross-National Headquarters","longitude":-77.03199,"id":"a6754w9b6f86","state":"DC","greatfor":""},"type":"Feature","geometry":{"type":"Point","coordinates":[-77.03199,38.890369]}},{"properties":{"city":"Washington","opportunity":"Information Technology Specialist","latitude":38.890369,"date":"--","street":"2025 E Street, NW","organization":"American Red Cross-National Headquarters","longitude":-77.03199,"id":"a6754w7nu2ua","state":"DC","greatfor":""},"type":"Feature","geometry":{"type":"Point","coordinates":[-77.03199,38.890369]}},{"properties":{"city":"Washington","opportunity":"Information Technology Training Specialist","latitude":38.890369,"date":"--","street":"2025 E Street, NW","organization":"American Red Cross-National Headquarters","longitude":-77.03199,"id":"a6754w2cs9u8","state":"DC","greatfor":""},"type":"Feature","geometry":{"type":"Point","coordinates":[-77.03199,38.890369]}},{"properties":{"city":"Arlington","opportunity":"Join Club Red, a Volunteer Group for Young Professionals!","latitude":38.890491,"date":"--","street":"4333 Arlington Boulevard","organization":"Arlington County Chapter (American Red Cross)","longitude":-77.086281,"id":"a6754vz9020w","state":"VA","greatfor":""},"type":"Feature","geometry":{"type":"Point","coordinates":[-77.086281,38.890491]}},{"properties":{"city":"Arlington","opportunity":"New Volunteer Orientation","latitude":38.890491,"date":"12/1/2008","street":"4333 Arlington Boulevard","organization":"Arlington County Chapter (American Red Cross)","longitude":-77.086281,"id":"a6754w0i7t9o","state":"VA","greatfor":""},"type":"Feature","geometry":{"type":"Point","coordinates":[-77.086281,38.890491]}},{"properties":{"city":"Arlington","opportunity":"New Volunteer Orientation","latitude":38.890491,"date":"12/16/2008","street":"4333 Arlington Boulevard","organization":"Arlington County Chapter (American Red Cross)","longitude":-77.086281,"id":"a6754vyztzm0","state":"VA","greatfor":""},"type":"Feature","geometry":{"type":"Point","coordinates":[-77.086281,38.890491]}},{"properties":{"city":"Arlington","opportunity":"New Volunteer Orientation","latitude":38.890491,"date":"11/17/2008","street":"4333 Arlington Boulevard","organization":"Arlington County Chapter (American Red Cross)","longitude":-77.086281,"id":"a6754w5l1tht","state":"VA","greatfor":""},"type":"Feature","geometry":{"type":"Point","coordinates":[-77.086281,38.890491]}},{"properties":{"city":"Fairfax","opportunity":"Operations Driver","latitude":38.825619,"date":"--","street":"8550 Arlington Blvd","organization":"American Red Cross of the National Capital Area","longitude":-77.288963,"id":"a6754w2uuw69","state":"VA","greatfor":""},"type":"Feature","geometry":{"type":"Point","coordinates":[-77.288963,38.825619]}},{"properties":{"city":"Fairfax","opportunity":"Payroll and Benefits Clerk","latitude":38.825619,"date":"--","street":"8550 Arlington Blvd","organization":"American Red Cross of the National Capital Area","longitude":-77.288963,"id":"a6754vuo9qw3","state":"VA","greatfor":""},"type":"Feature","geometry":{"type":"Point","coordinates":[-77.288963,38.825619]}},{"properties":{"city":"Fairfax","opportunity":"Planning Intern","latitude":38.825619,"date":"--","street":"8550 Arlington Blvd","organization":"American Red Cross of the National Capital Area","longitude":-77.288963,"id":"a6754w4af5am","state":"VA","greatfor":""},"type":"Feature","geometry":{"type":"Point","coordinates":[-77.288963,38.825619]}},{"properties":{"city":"Washington","opportunity":"Software Engineer III","latitude":38.890369,"date":"--","street":"2025 E Street, NW","organization":"American Red Cross-National Headquarters","longitude":-77.03199,"id":"a6754w40pvud","state":"DC","greatfor":""},"type":"Feature","geometry":{"type":"Point","coordinates":[-77.03199,38.890369]}},{"properties":{"city":"Fairfax","opportunity":"Special Events Assistant","latitude":38.825619,"date":"--","street":"8550 Arlington Blvd","organization":"American Red Cross of the National Capital Area","longitude":-77.288963,"id":"a6754w380db4","state":"VA","greatfor":""},"type":"Feature","geometry":{"type":"Point","coordinates":[-77.288963,38.825619]}},{"properties":{"city":"Washington","opportunity":"Test Engineer","latitude":38.890369,"date":"--","street":"2025 E Street, NW","organization":"American Red Cross-National Headquarters","longitude":-77.03199,"id":"a6754w8uexqw","state":"DC","greatfor":""},"type":"Feature","geometry":{"type":"Point","coordinates":[-77.03199,38.890369]}},{"properties":{"city":"Alexandria","opportunity":"Volunteer Health &amp; Safety Instructors in Alexandria!","latitude":38.804581,"date":"--","street":"123 North Alfred Street","organization":"Alexandria Chapter (American Red Cross)","longitude":-77.043083,"id":"a6754vtllqgn","state":"VA","greatfor":""},"type":"Feature","geometry":{"type":"Point","coordinates":[-77.043083,38.804581]}},{"properties":{"city":"Alexandria","opportunity":"Youth Leadership Program Educator","latitude":38.804581,"date":"12/1/08 to 5/31/09","street":"123 North Alfred Street","organization":"Alexandria Chapter (American Red Cross)","longitude":-77.043083,"id":"a6754vvjdpfq","state":"VA","greatfor":""},"type":"Feature","geometry":{"type":"Point","coordinates":[-77.043083,38.804581]}}],"is_temporal":false,"author":{"url":null,"metadata":null,"contact_name":"","contact_address":"","source":null,"contact_phone":""},"source":null,"pagination":{"sort":null,"start":0,"total":47,"limit":1000000},"state":"complete","tags":"cross,red","published":"2014-08-11T07:48:50-04:00","id":7007}