{"type":"FeatureCollection","data_type":"Dataset","url_type":null,"permissions":[{"permissions":{"download":true,"view":true},"group_id":"everyone"}],"classification":null,"title":"ARC Teen Volunteer Opportunities, USA, 11.14.08","count":10,"stream_id":7008,"contributor":{"url":"http://geocommons.com/users/143","name":"jennifer"},"data_attributes":null,"calculation_params":null,"icon_link":null,"link":"http://geocommons.com/overlays/7008.json","extent":[-77.3828,38.7611,-76.7294,39.112],"geometry_types":["point"],"unique_name":null,"name":"ARC Teen Volunteer Opportunities, USA, 11.14.08","feature_count":10,"description":"","next_feature":null,"is_raster":false,"short_classification":"Y","stats":{"latitude":{"max":39.111961,"mean":38.9083312,"variance":0.014317183481511,"stdev":0.119654433605742,"min":38.761131,"median":38.890491},"longitude":{"max":-76.729376,"mean":-77.1539147,"variance":0.0315047368293436,"stdev":0.177495737496267,"min":-77.382759,"median":-77.18605}},"features":[{"properties":{"city":"Springfield","opportunity":"Blood Services Donor Relations Volunteer-Springfield","latitude":38.761131,"date":"--","street":"","organization":"American Red Cross Greater Chesapeake &amp; Potomac Blood Region","longitude":-77.18605,"id":"a6ecxw213byv","state":"VA","greatfor":"Teens, 55+"},"type":"Feature","geometry":{"type":"Point","coordinates":[-77.18605,38.761131]}},{"properties":{"city":"Alexandria","opportunity":"Blood Services Donor Relations Volunteer-Alexandria-URGENTLY NEEDED","latitude":38.812191,"date":"--","street":"","organization":"American Red Cross Greater Chesapeake &amp; Potomac Blood Region","longitude":-77.126411,"id":"a6ecxvxbfvf6","state":"VA","greatfor":"Teens, 55+"},"type":"Feature","geometry":{"type":"Point","coordinates":[-77.126411,38.812191]}},{"properties":{"city":"Alexandria","opportunity":"Blood Services Donor Relations Volunteer-East Alexandria","latitude":38.818359,"date":"--","street":"","organization":"American Red Cross Greater Chesapeake &amp; Potomac Blood Region","longitude":-77.060432,"id":"a6ecxw8xqa6m","state":"VA","greatfor":"Teens, 55+"},"type":"Feature","geometry":{"type":"Point","coordinates":[-77.060432,38.818359]}},{"properties":{"city":"Merrifield","opportunity":"Blood Services Donor Relations Volunteer-Fairfax County","latitude":38.85992,"date":"--","street":"2720 Prosperity Avenue","organization":"American Red Cross Greater Chesapeake &amp; Potomac Blood Region","longitude":-77.242763,"id":"a6ecxw0sdx5q","state":"VA","greatfor":"Teens, 55+"},"type":"Feature","geometry":{"type":"Point","coordinates":[-77.242763,38.85992]}},{"properties":{"city":"Gaithersburg","opportunity":"Blood Services Donor Relations Volunteer-Gaithersburg","latitude":39.111961,"date":"--","street":"","organization":"American Red Cross Greater Chesapeake &amp; Potomac Blood Region","longitude":-77.245232,"id":"a6ecxvu7yxl1","state":"MD","greatfor":"Teens, 55+"},"type":"Feature","geometry":{"type":"Point","coordinates":[-77.245232,39.111961]}},{"properties":{"city":"Herndon","opportunity":"Blood Services Donor Relations Volunteer-Herndon-URGENTLY NEEDED!","latitude":38.983669,"date":"--","street":"","organization":"American Red Cross Greater Chesapeake &amp; Potomac Blood Region","longitude":-77.382759,"id":"a6ecxvxykeip","state":"VA","greatfor":"Teens, 55+"},"type":"Feature","geometry":{"type":"Point","coordinates":[-77.382759,38.983669]}},{"properties":{"city":"Prince George's County","opportunity":"Blood Services Donor Relations Volunteer-Prince George's County","latitude":38.93081,"date":"--","street":"","organization":"American Red Cross Greater Chesapeake &amp; Potomac Blood Region","longitude":-76.729376,"id":"a6ecxw0cnshk","state":"MD","greatfor":"Teens, 55+"},"type":"Feature","geometry":{"type":"Point","coordinates":[-76.729376,38.93081]}},{"properties":{"city":"Rockville","opportunity":"Blood Services Donor Relations Volunteer-Rockville","latitude":39.089161,"date":"--","street":"","organization":"American Red Cross Greater Chesapeake &amp; Potomac Blood Region","longitude":-77.19088,"id":"a6ecxvv759hz","state":"MD","greatfor":"Teens, 55+"},"type":"Feature","geometry":{"type":"Point","coordinates":[-77.19088,39.089161]}},{"properties":{"city":"Arlington","opportunity":"Join the Youth Team!","latitude":38.890491,"date":"--","street":"4333 Arlington Boulevard","organization":"Arlington County Chapter (American Red Cross)","longitude":-77.086281,"id":"a6ecxw11rtk6","state":"VA","greatfor":"Kids, Teens"},"type":"Feature","geometry":{"type":"Point","coordinates":[-77.086281,38.890491]}},{"properties":{"city":"Fairfax","opportunity":"Thrift Shop Volunteer","latitude":38.825619,"date":"--","street":"8550 Arlington Blvd","organization":"American Red Cross of the National Capital Area","longitude":-77.288963,"id":"a6ecxw0dvaxg","state":"VA","greatfor":"Teens, 55+, Groups"},"type":"Feature","geometry":{"type":"Point","coordinates":[-77.288963,38.825619]}}],"is_temporal":false,"author":{"url":null,"metadata":null,"contact_name":"","contact_address":"","source":null,"contact_phone":""},"source":null,"pagination":{"sort":null,"start":0,"total":10,"limit":1000000},"state":"complete","tags":"","published":"2014-08-11T07:48:51-04:00","id":7008}