{"type":"FeatureCollection","data_type":"Dataset","url_type":null,"permissions":[{"permissions":{"download":true,"view":true},"group_id":"everyone"}],"classification":null,"title":"Opposing","count":30,"stream_id":70225,"contributor":{"url":"http://geocommons.com/users/15859","name":"jessicalum"},"data_attributes":null,"calculation_params":null,"icon_link":null,"link":"http://geocommons.com/overlays/70225.json","extent":[-122.366,32.7948,-116.963,38.8074],"geometry_types":["point"],"unique_name":null,"name":"Opposing","feature_count":30,"description":"Donations opposing California Proposition 19, which would legalize and tax marijuana.","next_feature":null,"is_raster":false,"short_classification":"Y","stats":{"amount":{"max":49999.0,"mean":8536.63333333333,"variance":111454715.205747,"stdev":10557.2115260492,"min":100.0,"median":5000.0}},"features":[{"properties":{"city":"Sacramento","zip":"95814","amount":5000.0,"id":"a62ggemmhx9i","donor":"ASSOC. OF ORANGE COUNTY DEPUTY SHERIFFS ISSUES COMMITTEE"},"type":"Feature","geometry":{"type":"Point","coordinates":[-121.494174,38.582493]}},{"properties":{"city":"Sacramento","zip":"95814","amount":1000.0,"id":"a62ggelctn0a","donor":"Association of Calif. School Administrators Issues PAC"},"type":"Feature","geometry":{"type":"Point","coordinates":[-121.492217,38.58033]}},{"properties":{"city":"SACRAMENTO","zip":"95812","amount":16000.0,"id":"a62ggeksxz71","donor":"CALBUSPAC"},"type":"Feature","geometry":{"type":"Point","coordinates":[-121.49,38.58]}},{"properties":{"city":"SACRAMENTO","zip":"95814","amount":10000.0,"id":"a62ggettsukn","donor":"CALIF BEER &amp; BEVERAGE DISTRIBUTORS STATE ISSUES"},"type":"Feature","geometry":{"type":"Point","coordinates":[-121.488748,38.57668]}},{"properties":{"city":"ESCALON","zip":"95320","amount":7500.0,"id":"a62ggembhra5","donor":"CALIF CORRECTIONAL SUPERVISORS ORGANIZATION, INC."},"type":"Feature","geometry":{"type":"Point","coordinates":[-120.996603,37.797427]}},{"properties":{"city":"Sacramento","zip":"95818","amount":3000.0,"id":"a62ggeiaxasw","donor":"CALIF. ASSOCIATION OF HIGHWAY PATROLMEN PAC"},"type":"Feature","geometry":{"type":"Point","coordinates":[-121.485219,38.563363]}},{"properties":{"city":"BERNARDINO","zip":"92415","amount":1000.0,"id":"a62ggeo3jexn","donor":"CALIF. DISTRICT ATTORNEY INVESTIGATORS' ASSOC."},"type":"Feature","geometry":{"type":"Point","coordinates":[-117.27202,34.098556]}},{"properties":{"city":"SANTA CLARITA","zip":"91355","amount":20500.0,"id":"a62ggeqrcn6u","donor":"CALIF. NARCOTIC OFFICERS' ASSOC."},"type":"Feature","geometry":{"type":"Point","coordinates":[-118.588183,34.438122]}},{"properties":{"city":"SACRAMENTO","zip":"95815","amount":5000.0,"id":"a62ggeofgglv","donor":"CALIF. PEACE OFFICERS ASSOC."},"type":"Feature","geometry":{"type":"Point","coordinates":[-121.438552,38.598008]}},{"properties":{"city":"SACRAMENTO","zip":"95814","amount":49999.0,"id":"a62ggeuui9uw","donor":"CALIF. POLICE CHIEFS ASSOC."},"type":"Feature","geometry":{"type":"Point","coordinates":[-121.492797,38.578371]}},{"properties":{"city":"Sacramento","zip":"95814","amount":16000.0,"id":"a62ggerc57yj","donor":"Calif. Hospital Assoc. PAC"},"type":"Feature","geometry":{"type":"Point","coordinates":[-121.48982,38.578031]}},{"properties":{"city":"Woodside","zip":"94062","amount":100.0,"id":"a62ggerd1i5z","donor":"Christy Brown"},"type":"Feature","geometry":{"type":"Point","coordinates":[-122.253856,37.429939]}},{"properties":{"city":"BAKERSFIELD","zip":"93309","amount":5000.0,"id":"a62ggekp0s3d","donor":"Diane Lake"},"type":"Feature","geometry":{"type":"Point","coordinates":[-119.05763,35.351561]}},{"properties":{"city":"Elk Grove","zip":"95624","amount":10000.0,"id":"a62ggep3pnvv","donor":"GOLDEN STATE LEADERSHIP COUNCIL: JIM NIELSEN BALLOT MEASURE COMMITTEE"},"type":"Feature","geometry":{"type":"Point","coordinates":[-121.48982,38.578031]}},{"properties":{"city":"Anaheim","zip":"92869","amount":10000.0,"id":"a62ggevtbdxh","donor":"George Adams"},"type":"Feature","geometry":{"type":"Point","coordinates":[-117.795971,33.798177]}},{"properties":{"city":"Burlingame","zip":"94010","amount":10000.0,"id":"a62ggehuwkx3","donor":"Greg Munks for Sheriff 2010"},"type":"Feature","geometry":{"type":"Point","coordinates":[-122.366082,37.584103]}},{"properties":{"city":"West Sacramento","zip":"95605","amount":1000.0,"id":"a62ggegcwvfr","donor":"HENSEL PHELPS CONSTRUCTION CO., STE 13"},"type":"Feature","geometry":{"type":"Point","coordinates":[-121.526121,38.587433]}},{"properties":{"city":"Elk Grove","zip":"95624","amount":1000.0,"id":"a62ggekwtuiw","donor":"Jan Scully for Dist. Atty."},"type":"Feature","geometry":{"type":"Point","coordinates":[-121.371618,38.408799]}},{"properties":{"city":"Fresno","zip":"93712","amount":1000.0,"id":"a62ggei9tl93","donor":"Margaret Mims for Sheriff"},"type":"Feature","geometry":{"type":"Point","coordinates":[-119.78,36.73]}},{"properties":{"city":"LOS ANGELES","zip":"90012","amount":5000.0,"id":"a62ggeq5inc8","donor":"PEACE OFFICERS ASSOC. OF LOS ANGELES COUNTY FDTN"},"type":"Feature","geometry":{"type":"Point","coordinates":[-118.244329,34.055722]}},{"properties":{"city":"LOOMIS","zip":"95650","amount":1000.0,"id":"a62ggeuj1kkw","donor":"PLACER COUNTY DEPUTY SHERIFF'S ASSOCIATION PAC"},"type":"Feature","geometry":{"type":"Point","coordinates":[-121.159584,38.807413]}},{"properties":{"city":"San Dimas","zip":"91773","amount":5000.0,"id":"a62ggeu6ecg0","donor":"POPA INC., SPECIAL ISSUE COMMITTEE"},"type":"Feature","geometry":{"type":"Point","coordinates":[-117.81942,34.100995]}},{"properties":{"city":"Redlands","zip":"92374","amount":1000.0,"id":"a62ggenbdh8z","donor":"Ramos Gretchen"},"type":"Feature","geometry":{"type":"Point","coordinates":[-117.155887,34.060565]}},{"properties":{"city":"Westlake Village","zip":"91362","amount":2000.0,"id":"a62ggepc4kk2","donor":"Ronald Plotkin"},"type":"Feature","geometry":{"type":"Point","coordinates":[-118.805647,34.145839]}},{"properties":{"city":"LOS ANGELES","zip":"90017","amount":3000.0,"id":"a62ggej8p5gw","donor":"STEVE COOLEY FOR ATTORNEY GENERAL 2010"},"type":"Feature","geometry":{"type":"Point","coordinates":[-118.26728,34.05438]}},{"properties":{"city":"El Cajon","zip":"92019","amount":5000.0,"id":"a62ggeoxcxz6","donor":"SYCUAN BAND OF THE KUMEYAAY NATION"},"type":"Feature","geometry":{"type":"Point","coordinates":[-116.962527,32.794773]}},{"properties":{"city":"Highlands","zip":"92346","amount":25000.0,"id":"a62ggek3vgc0","donor":"San Manuel Band of Mission Indians"},"type":"Feature","geometry":{"type":"Point","coordinates":[-117.169722,34.109722]}},{"properties":{"city":"San Mateo","zip":"94403","amount":10000.0,"id":"a62gger1c5a7","donor":"San Mateo County Deputy Sheriff's Assoc. PAC"},"type":"Feature","geometry":{"type":"Point","coordinates":[-122.291704,37.552616]}},{"properties":{"city":"Santa Ana","zip":"92705","amount":25000.0,"id":"a62ggets2bt6","donor":"Sebastian Musco"},"type":"Feature","geometry":{"type":"Point","coordinates":[-117.867834,33.745573]}},{"properties":{"city":"Long Beach","zip":"90815","amount":1000.0,"id":"a62ggen1vjb1","donor":"Tina Johnson"},"type":"Feature","geometry":{"type":"Point","coordinates":[-118.11812,33.79633]}}],"is_temporal":false,"author":{"url":"http://www.sos.ca.gov","metadata":"","contact_name":"Jessica Lum","contact_address":"jessica.lum@missionlocal.org","source":"California Secretary of State Campaign Finance","contact_phone":""},"source":"http://www.sos.ca.gov","pagination":{"sort":null,"start":0,"total":30,"limit":1000000},"state":"complete","tags":"19,district,donation,francisco,marijuana,mission,political,proposition,san","published":"2010-10-26T04:37:22Z","id":70225}