{"type":"FeatureCollection","data_type":"Dataset","url_type":null,"permissions":[{"permissions":{"download":true,"view":true},"group_id":"everyone"}],"classification":null,"title":"buyers hair removal","count":211,"stream_id":70759,"contributor":{"url":"http://geocommons.com/users/17425","name":"maptastic"},"data_attributes":null,"calculation_params":null,"icon_link":null,"link":"http://geocommons.com/overlays/70759.json","extent":[-122.927,32.5823,-83.8898,48.0104],"geometry_types":["point"],"unique_name":null,"name":"buyers hair removal","feature_count":211,"description":"","next_feature":null,"is_raster":false,"short_classification":"Y","stats":{"latitude_deal":{"max":47.621353,"mean":39.0331176398105,"variance":53.8059154292688,"stdev":7.33525155869032,"min":32.773527,"median":32.798888},"longitude_cc":{"max":-83.889759,"mean":-119.157874260664,"variance":12.3788927117179,"stdev":3.51836506231487,"min":-122.927295,"median":-117.25285},"buyer_id":{"max":5039,"mean":2457.00473933649,"variance":2076605.09997743,"stdev":1441.04305972356,"min":162,"median":2154},"deal_id":{"max":135,"mean":77.2369668246446,"variance":1410.21024599412,"stdev":37.5527661563582,"min":12,"median":74},"distance between":{"max":1964.935339,"mean":38.7934795790569,"variance":31168.6631072094,"stdev":176.546489931716,"min":0.434793208,"median":8.228955632},"latitude_cc":{"max":48.010394,"mean":38.9449572559242,"variance":51.3484268418258,"stdev":7.1657816630027,"min":32.58227,"median":33.0174},"longitude_deal":{"max":-117.155004,"mean":-119.312580843602,"variance":6.21767497831469,"stdev":2.49352661471954,"min":-122.318939,"median":-117.245373}},"features":[{"properties":{"address1":"1543 Law Street Apt. 3","city":"San Diego","zip":"92109","latitude_deal":32.798888,"parent_category_deal":"Beauty and Spas","longitude_cc":-117.243581,"category_deal":"Hair Removal","buyer_id":162,"deal_id":12,"distance between":0.436455539,"latitude_cc":32.805023,"id":"a62uuoavqhb1","state":"CA","longitude_deal":-117.245373},"type":"Feature","geometry":{"type":"Point","coordinates":[-117.243581,32.805023]}},{"properties":{"address1":"1956 Reed Avenue","city":"San Diego","zip":"92109","latitude_deal":32.798888,"parent_category_deal":"Beauty and Spas","longitude_cc":-117.233168,"category_deal":"Hair Removal","buyer_id":163,"deal_id":12,"distance between":0.715357954,"latitude_cc":32.797491,"id":"a62uuon55rpr","state":"CA","longitude_deal":-117.245373},"type":"Feature","geometry":{"type":"Point","coordinates":[-117.233168,32.797491]}},{"properties":{"address1":"2050 GARNET STREET #3","city":"SAN DIEGO","zip":"92109","latitude_deal":32.798888,"parent_category_deal":"Beauty and Spas","longitude_cc":-117.232621,"category_deal":"Hair Removal","buyer_id":164,"deal_id":12,"distance between":0.766296942,"latitude_cc":32.801738,"id":"a62uuokkumc0","state":"CA","longitude_deal":-117.245373},"type":"Feature","geometry":{"type":"Point","coordinates":[-117.232621,32.801738]}},{"properties":{"address1":"2003 Oliver Ave","city":"San Diego","zip":"92109","latitude_deal":32.798888,"parent_category_deal":"Beauty and Spas","longitude_cc":-117.231761,"category_deal":"Hair Removal","buyer_id":165,"deal_id":12,"distance between":0.807132114,"latitude_cc":32.796531,"id":"a62uuomh822k","state":"CA","longitude_deal":-117.245373},"type":"Feature","geometry":{"type":"Point","coordinates":[-117.231761,32.796531]}},{"properties":{"address1":"5545 candlelight driv","city":"la jolla","zip":"92037","latitude_deal":32.798888,"parent_category_deal":"Beauty and Spas","longitude_cc":-117.257844,"category_deal":"Hair Removal","buyer_id":166,"deal_id":12,"distance between":1.382021389,"latitude_cc":32.815925,"id":"a62uuohlbg1f","state":"CA","longitude_deal":-117.245373},"type":"Feature","geometry":{"type":"Point","coordinates":[-117.257844,32.815925]}},{"properties":{"address1":"7520 Draper Avenue Unit 4","city":"La Jolla","zip":"92037","latitude_deal":32.798888,"parent_category_deal":"Beauty and Spas","longitude_cc":-117.276416,"category_deal":"Hair Removal","buyer_id":167,"deal_id":12,"distance between":3.369639247,"latitude_cc":32.840096,"id":"a62uuoa6p0r4","state":"CA","longitude_deal":-117.245373},"type":"Feature","geometry":{"type":"Point","coordinates":[-117.276416,32.840096]}},{"properties":{"address1":"5015 Narragansett","city":"San Diego","zip":"92107","latitude_deal":32.798888,"parent_category_deal":"Beauty and Spas","longitude_cc":-117.25285,"category_deal":"Hair Removal","buyer_id":168,"deal_id":12,"distance between":3.731424106,"latitude_cc":32.745247,"id":"a62uuolj3h5u","state":"CA","longitude_deal":-117.245373},"type":"Feature","geometry":{"type":"Point","coordinates":[-117.25285,32.745247]}},{"properties":{"address1":"5942 Riley St.","city":"San Diego","zip":"92110","latitude_deal":32.798888,"parent_category_deal":"Beauty and Spas","longitude_cc":-117.186817,"category_deal":"Hair Removal","buyer_id":169,"deal_id":12,"distance between":4.017849077,"latitude_cc":32.767931,"id":"a62uuojoqfm6","state":"CA","longitude_deal":-117.245373},"type":"Feature","geometry":{"type":"Point","coordinates":[-117.186817,32.767931]}},{"properties":{"address1":"8492-2 Via Sonoma","city":"La Jolla","zip":"92037","latitude_deal":32.798888,"parent_category_deal":"Beauty and Spas","longitude_cc":-117.231102,"category_deal":"Hair Removal","buyer_id":170,"deal_id":12,"distance between":4.318070808,"latitude_cc":32.860226,"id":"a62uuocj521n","state":"CA","longitude_deal":-117.245373},"type":"Feature","geometry":{"type":"Point","coordinates":[-117.231102,32.860226]}},{"properties":{"address1":"8677 Villa La Jolla Dr. PMB 1105","city":"La Jolla","zip":"92037","latitude_deal":32.798888,"parent_category_deal":"Beauty and Spas","longitude_cc":-117.233291,"category_deal":"Hair Removal","buyer_id":171,"deal_id":12,"distance between":4.696623139,"latitude_cc":32.866104,"id":"a62uuodefcga","state":"CA","longitude_deal":-117.245373},"type":"Feature","geometry":{"type":"Point","coordinates":[-117.233291,32.866104]}},{"properties":{"address1":"3440 Lebon Dr. #4304","city":"San Diego","zip":"92122","latitude_deal":32.798888,"parent_category_deal":"Beauty and Spas","longitude_cc":-117.224991,"category_deal":"Hair Removal","buyer_id":172,"deal_id":12,"distance between":4.874449438,"latitude_cc":32.86733,"id":"a62uuogu1mvh","state":"CA","longitude_deal":-117.245373},"type":"Feature","geometry":{"type":"Point","coordinates":[-117.224991,32.86733]}},{"properties":{"address1":"8465, Regents Road, Apt. 327","city":"San Diego","zip":"92122","latitude_deal":32.798888,"parent_category_deal":"Beauty and Spas","longitude_cc":-117.219704,"category_deal":"Hair Removal","buyer_id":173,"deal_id":12,"distance between":4.892777493,"latitude_cc":32.866341,"id":"a62uuohlsne3","state":"CA","longitude_deal":-117.245373},"type":"Feature","geometry":{"type":"Point","coordinates":[-117.219704,32.866341]}},{"properties":{"address1":"9118 regents road, H","city":"La Jolla","zip":"92037","latitude_deal":32.798888,"parent_category_deal":"Beauty and Spas","longitude_cc":-117.218456,"category_deal":"Hair Removal","buyer_id":174,"deal_id":12,"distance between":5.275130281,"latitude_cc":32.871813,"id":"a62uuofeyuku","state":"CA","longitude_deal":-117.245373},"type":"Feature","geometry":{"type":"Point","coordinates":[-117.218456,32.871813]}},{"properties":{"address1":"1021 scott street #128","city":"San Diego","zip":"92106","latitude_deal":32.798888,"parent_category_deal":"Beauty and Spas","longitude_cc":-117.231492,"category_deal":"Hair Removal","buyer_id":175,"deal_id":12,"distance between":5.519424169,"latitude_cc":32.719858,"id":"a62uuoadjq0i","state":"CA","longitude_deal":-117.245373},"type":"Feature","geometry":{"type":"Point","coordinates":[-117.231492,32.719858]}},{"properties":{"address1":"3922 8th Avenue #14","city":"San Diego","zip":"92103","latitude_deal":32.798888,"parent_category_deal":"Beauty and Spas","longitude_cc":-117.157554,"category_deal":"Hair Removal","buyer_id":176,"deal_id":12,"distance between":6.162176191,"latitude_cc":32.748861,"id":"a62uuoe3ceuw","state":"CA","longitude_deal":-117.245373},"type":"Feature","geometry":{"type":"Point","coordinates":[-117.157554,32.748861]}},{"properties":{"address1":"4605 georgia st apt 4","city":"san diego","zip":"92116","latitude_deal":32.798888,"parent_category_deal":"Beauty and Spas","longitude_cc":-117.144922,"category_deal":"Hair Removal","buyer_id":177,"deal_id":12,"distance between":6.391945621,"latitude_cc":32.761117,"id":"a62uuon3otjj","state":"CA","longitude_deal":-117.245373},"type":"Feature","geometry":{"type":"Point","coordinates":[-117.144922,32.761117]}},{"properties":{"address1":"517 W Maple St","city":"San Diego","zip":"92103","latitude_deal":32.798888,"parent_category_deal":"Beauty and Spas","longitude_cc":-117.167937,"category_deal":"Hair Removal","buyer_id":178,"deal_id":12,"distance between":6.439430404,"latitude_cc":32.732203,"id":"a62uuol56exh","state":"CA","longitude_deal":-117.245373},"type":"Feature","geometry":{"type":"Point","coordinates":[-117.167937,32.732203]}},{"properties":{"address1":"4353 Florida Street","city":"San Diego","zip":"92104","latitude_deal":32.798888,"parent_category_deal":"Beauty and Spas","longitude_cc":-117.143614,"category_deal":"Hair Removal","buyer_id":179,"deal_id":12,"distance between":6.602033027,"latitude_cc":32.75633,"id":"a62uuob9xm6d","state":"CA","longitude_deal":-117.245373},"type":"Feature","geometry":{"type":"Point","coordinates":[-117.143614,32.75633]}},{"properties":{"address1":"2500 Sixth Avenue, #508","city":"San Diego","zip":"92103","latitude_deal":32.798888,"parent_category_deal":"Beauty and Spas","longitude_cc":-117.159477,"category_deal":"Hair Removal","buyer_id":180,"deal_id":12,"distance between":6.828231106,"latitude_cc":32.731431,"id":"a62uuoemg470","state":"CA","longitude_deal":-117.245373},"type":"Feature","geometry":{"type":"Point","coordinates":[-117.159477,32.731431]}},{"properties":{"address1":"4462 Utah St.","city":"San Diego","zip":"92116","latitude_deal":32.798888,"parent_category_deal":"Beauty and Spas","longitude_cc":-117.132815,"category_deal":"Hair Removal","buyer_id":181,"deal_id":12,"distance between":7.111633977,"latitude_cc":32.758399,"id":"a62uuo9tq3ve","state":"CA","longitude_deal":-117.245373},"type":"Feature","geometry":{"type":"Point","coordinates":[-117.132815,32.758399]}},{"properties":{"address1":"1501 Front St.","city":"San Diego","zip":"92101","latitude_deal":32.798888,"parent_category_deal":"Beauty and Spas","longitude_cc":-117.164643,"category_deal":"Hair Removal","buyer_id":182,"deal_id":12,"distance between":7.137660447,"latitude_cc":32.721017,"id":"a62uuocr22m2","state":"CA","longitude_deal":-117.245373},"type":"Feature","geometry":{"type":"Point","coordinates":[-117.164643,32.721017]}},{"properties":{"address1":"2939 Laurel St. #401","city":"San Diego","zip":"92104","latitude_deal":32.798888,"parent_category_deal":"Beauty and Spas","longitude_cc":-117.130758,"category_deal":"Hair Removal","buyer_id":183,"deal_id":12,"distance between":8.118986174,"latitude_cc":32.731654,"id":"a62uuokdw2w2","state":"CA","longitude_deal":-117.245373},"type":"Feature","geometry":{"type":"Point","coordinates":[-117.130758,32.731654]}},{"properties":{"address1":"p o box 181512","city":"coronado","zip":"92178","latitude_deal":32.798888,"parent_category_deal":"Beauty and Spas","longitude_cc":-117.170959,"category_deal":"Hair Removal","buyer_id":184,"deal_id":12,"distance between":9.514052236,"latitude_cc":32.676231,"id":"a62uuodk5cmo","state":"CA","longitude_deal":-117.245373},"type":"Feature","geometry":{"type":"Point","coordinates":[-117.170959,32.676231]}},{"properties":{"address1":"5350 Saxon St.","city":"San Diego","zip":"92115","latitude_deal":32.798888,"parent_category_deal":"Beauty and Spas","longitude_cc":-117.083133,"category_deal":"Hair Removal","buyer_id":185,"deal_id":12,"distance between":9.56813692,"latitude_cc":32.774894,"id":"a62uuocogam8","state":"CA","longitude_deal":-117.245373},"type":"Feature","geometry":{"type":"Point","coordinates":[-117.083133,32.774894]}},{"properties":{"address1":"4584 50th St","city":"San Diego","zip":"92115","latitude_deal":32.798888,"parent_category_deal":"Beauty and Spas","longitude_cc":-117.086946,"category_deal":"Hair Removal","buyer_id":186,"deal_id":12,"distance between":9.577022327,"latitude_cc":32.760513,"id":"a62uuojdc7yf","state":"CA","longitude_deal":-117.245373},"type":"Feature","geometry":{"type":"Point","coordinates":[-117.086946,32.760513]}},{"properties":{"address1":"7541 Flower Meadow Dr","city":"San Diego","zip":"92126","latitude_deal":32.798888,"parent_category_deal":"Beauty and Spas","longitude_cc":-117.159754,"category_deal":"Hair Removal","buyer_id":187,"deal_id":12,"distance between":10.16090374,"latitude_cc":32.927172,"id":"a62uuod0535p","state":"CA","longitude_deal":-117.245373},"type":"Feature","geometry":{"type":"Point","coordinates":[-117.159754,32.927172]}},{"properties":{"address1":"7787 Margerum Ave. #236","city":"San Diego","zip":"92120","latitude_deal":32.798888,"parent_category_deal":"Beauty and Spas","longitude_cc":-117.067239,"category_deal":"Hair Removal","buyer_id":188,"deal_id":12,"distance between":10.36792572,"latitude_cc":32.808942,"id":"a62uuobwke8j","state":"CA","longitude_deal":-117.245373},"type":"Feature","geometry":{"type":"Point","coordinates":[-117.067239,32.808942]}},{"properties":{"address1":"9363 twin mountain circle","city":"San Diego","zip":"92126","latitude_deal":32.798888,"parent_category_deal":"Beauty and Spas","longitude_cc":-117.123722,"category_deal":"Hair Removal","buyer_id":189,"deal_id":12,"distance between":10.93893958,"latitude_cc":32.919825,"id":"a62uuogtlwoz","state":"CA","longitude_deal":-117.245373},"type":"Feature","geometry":{"type":"Point","coordinates":[-117.123722,32.919825]}},{"properties":{"address1":"1644 Bayview Hts Dr apt 7","city":"San Diego","zip":"92105","latitude_deal":32.798888,"parent_category_deal":"Beauty and Spas","longitude_cc":-117.080135,"category_deal":"Hair Removal","buyer_id":190,"deal_id":12,"distance between":10.97808884,"latitude_cc":32.721822,"id":"a62uuoi7czt7","state":"CA","longitude_deal":-117.245373},"type":"Feature","geometry":{"type":"Point","coordinates":[-117.080135,32.721822]}},{"properties":{"address1":"11757 Spruce Run Dr.","city":"San Diego","zip":"92131","latitude_deal":32.798888,"parent_category_deal":"Beauty and Spas","longitude_cc":-117.088563,"category_deal":"Hair Removal","buyer_id":191,"deal_id":12,"distance between":12.96250702,"latitude_cc":32.932501,"id":"a62uuofm1pnm","state":"CA","longitude_deal":-117.245373},"type":"Feature","geometry":{"type":"Point","coordinates":[-117.088563,32.932501]}},{"properties":{"address1":"8985 La Cartera st","city":"San Diego","zip":"92129","latitude_deal":32.798888,"parent_category_deal":"Beauty and Spas","longitude_cc":-117.136465,"category_deal":"Hair Removal","buyer_id":192,"deal_id":12,"distance between":13.74889831,"latitude_cc":32.975628,"id":"a62uuoiv0l2k","state":"CA","longitude_deal":-117.245373},"type":"Feature","geometry":{"type":"Point","coordinates":[-117.136465,32.975628]}},{"properties":{"address1":"11401 Eastview Court","city":"San Diego","zip":"92131","latitude_deal":32.798888,"parent_category_deal":"Beauty and Spas","longitude_cc":-117.061317,"category_deal":"Hair Removal","buyer_id":193,"deal_id":12,"distance between":13.84773548,"latitude_cc":32.926444,"id":"a62uuogb0m4d","state":"CA","longitude_deal":-117.245373},"type":"Feature","geometry":{"type":"Point","coordinates":[-117.061317,32.926444]}},{"properties":{"address1":"420 East H Street, Apartment 1401","city":"Chula Vista","zip":"91910","latitude_deal":32.798888,"parent_category_deal":"Beauty and Spas","longitude_cc":-117.046522,"category_deal":"Hair Removal","buyer_id":194,"deal_id":12,"distance between":15.97739637,"latitude_cc":32.639233,"id":"a62uuooclko1","state":"CA","longitude_deal":-117.245373},"type":"Feature","geometry":{"type":"Point","coordinates":[-117.046522,32.639233]}},{"properties":{"address1":"1678 Archer Road","city":"San Marcos","zip":"92078","latitude_deal":32.798888,"parent_category_deal":"Beauty and Spas","longitude_cc":-117.204313,"category_deal":"Hair Removal","buyer_id":195,"deal_id":12,"distance between":21.13398554,"latitude_cc":33.102832,"id":"a62uuogut3w8","state":"CA","longitude_deal":-117.245373},"type":"Feature","geometry":{"type":"Point","coordinates":[-117.204313,33.102832]}},{"properties":{"address1":"2525 Cranston Drive, Unit 2","city":"Escondido","zip":"92025","latitude_deal":32.798888,"parent_category_deal":"Beauty and Spas","longitude_cc":-117.070466,"category_deal":"Hair Removal","buyer_id":196,"deal_id":12,"distance between":22.52874649,"latitude_cc":33.090062,"id":"a62uuoniv4ss","state":"CA","longitude_deal":-117.245373},"type":"Feature","geometry":{"type":"Point","coordinates":[-117.070466,33.090062]}},{"properties":{"address1":"1799 Warpaint PL","city":"Escondido","zip":"92029","latitude_deal":32.798888,"parent_category_deal":"Beauty and Spas","longitude_cc":-117.099981,"category_deal":"Hair Removal","buyer_id":197,"deal_id":12,"distance between":22.72138537,"latitude_cc":33.104287,"id":"a62uuohm6nla","state":"CA","longitude_deal":-117.245373},"type":"Feature","geometry":{"type":"Point","coordinates":[-117.099981,33.104287]}},{"properties":{"address1":"645 Shenandoah Avenue","city":"San Marcos","zip":"92078","latitude_deal":32.798888,"parent_category_deal":"Beauty and Spas","longitude_cc":-117.179295,"category_deal":"Hair Removal","buyer_id":198,"deal_id":12,"distance between":23.03766316,"latitude_cc":33.127691,"id":"a62uuodfo6ds","state":"CA","longitude_deal":-117.245373},"type":"Feature","geometry":{"type":"Point","coordinates":[-117.179295,33.127691]}},{"properties":{"address1":"519 Rush Dr # 86","city":"San Marcos","zip":"92078","latitude_deal":32.798888,"parent_category_deal":"Beauty and Spas","longitude_cc":-117.167711,"category_deal":"Hair Removal","buyer_id":199,"deal_id":12,"distance between":23.1124277,"latitude_cc":33.127007,"id":"a62uuochbu9t","state":"CA","longitude_deal":-117.245373},"type":"Feature","geometry":{"type":"Point","coordinates":[-117.167711,33.127007]}},{"properties":{"address1":"605 Marazon Ln.","city":"Vista","zip":"92081","latitude_deal":32.798888,"parent_category_deal":"Beauty and Spas","longitude_cc":-117.271007,"category_deal":"Hair Removal","buyer_id":200,"deal_id":12,"distance between":26.79754873,"latitude_cc":33.186156,"id":"a62uuof3y6lw","state":"CA","longitude_deal":-117.245373},"type":"Feature","geometry":{"type":"Point","coordinates":[-117.271007,33.186156]}},{"properties":{"address1":"5060 La Jolla Blvd #2H","city":"San Diego","zip":"92109","latitude_deal":32.798888,"parent_category_deal":"Beauty and Spas","longitude_cc":-117.259529,"category_deal":"Hair Removal","buyer_id":1297,"deal_id":43,"distance between":0.954318347,"latitude_cc":32.805903,"id":"a62uuon6uogu","state":"CA","longitude_deal":-117.245373},"type":"Feature","geometry":{"type":"Point","coordinates":[-117.259529,32.805903]}},{"properties":{"address1":"4299 Avati Dr","city":"San Diego","zip":"92117","latitude_deal":32.798888,"parent_category_deal":"Beauty and Spas","longitude_cc":-117.214024,"category_deal":"Hair Removal","buyer_id":1298,"deal_id":43,"distance between":2.349450681,"latitude_cc":32.820386,"id":"a62uuo9ugs9u","state":"CA","longitude_deal":-117.245373},"type":"Feature","geometry":{"type":"Point","coordinates":[-117.214024,32.820386]}},{"properties":{"address1":"5345 Toscana Way #538","city":"San Diego","zip":"92122","latitude_deal":32.798888,"parent_category_deal":"Beauty and Spas","longitude_cc":-117.202007,"category_deal":"Hair Removal","buyer_id":1299,"deal_id":43,"distance between":5.476096348,"latitude_cc":32.869276,"id":"a62uuoeoefym","state":"CA","longitude_deal":-117.245373},"type":"Feature","geometry":{"type":"Point","coordinates":[-117.202007,32.869276]}},{"properties":{"address1":"6424 Lake Arrowhead Dr","city":"San Diego","zip":"92119","latitude_deal":32.798888,"parent_category_deal":"Beauty and Spas","longitude_cc":-117.012053,"category_deal":"Hair Removal","buyer_id":1300,"deal_id":43,"distance between":13.55018137,"latitude_cc":32.798743,"id":"a62uuoa8fzwb","state":"CA","longitude_deal":-117.245373},"type":"Feature","geometry":{"type":"Point","coordinates":[-117.012053,32.798743]}},{"properties":{"address1":"622 Bluffview Rd.","city":"Spring Valley","zip":"91977","latitude_deal":32.798888,"parent_category_deal":"Beauty and Spas","longitude_cc":-117.021576,"category_deal":"Hair Removal","buyer_id":1301,"deal_id":43,"distance between":14.90005934,"latitude_cc":32.693629,"id":"a62uuom4enze","state":"CA","longitude_deal":-117.245373},"type":"Feature","geometry":{"type":"Point","coordinates":[-117.021576,32.693629]}},{"properties":{"address1":"1350 N. Puente St.","city":"Brea","zip":"92821","latitude_deal":32.798888,"parent_category_deal":"Beauty and Spas","longitude_cc":-117.915507,"category_deal":"Hair Removal","buyer_id":1302,"deal_id":43,"distance between":87.80057338,"latitude_cc":33.939843,"id":"a62uuoo5ziiv","state":"CA","longitude_deal":-117.245373},"type":"Feature","geometry":{"type":"Point","coordinates":[-117.915507,33.939843]}},{"properties":{"address1":"780 camino de la reina apt 345","city":"san diego","zip":"92108","latitude_deal":32.773527,"parent_category_deal":"Beauty and Spas","longitude_cc":-117.156988,"category_deal":"Hair Removal","buyer_id":2094,"deal_id":74,"distance between":0.434793208,"latitude_cc":32.767459,"id":"a62uuob3wcv8","state":"CA","longitude_deal":-117.155004},"type":"Feature","geometry":{"type":"Point","coordinates":[-117.156988,32.767459]}},{"properties":{"address1":"1889 Linbrook Dr","city":"San Diego","zip":"92111","latitude_deal":32.773527,"parent_category_deal":"Beauty and Spas","longitude_cc":-117.167274,"category_deal":"Hair Removal","buyer_id":2095,"deal_id":74,"distance between":0.809069783,"latitude_cc":32.779068,"id":"a62uuoe2vmqc","state":"CA","longitude_deal":-117.155004},"type":"Feature","geometry":{"type":"Point","coordinates":[-117.167274,32.779068]}},{"properties":{"address1":"4605 georgia st apt 4","city":"san diego","zip":"92116","latitude_deal":32.773527,"parent_category_deal":"Beauty and Spas","longitude_cc":-117.144922,"category_deal":"Hair Removal","buyer_id":2096,"deal_id":74,"distance between":1.03837374,"latitude_cc":32.761117,"id":"a62uuopqztu9","state":"CA","longitude_deal":-117.155004},"type":"Feature","geometry":{"type":"Point","coordinates":[-117.144922,32.761117]}},{"properties":{"address1":"4568 Georgia st. #6","city":"San Diego","zip":"92116","latitude_deal":32.773527,"parent_category_deal":"Beauty and Spas","longitude_cc":-117.145192,"category_deal":"Hair Removal","buyer_id":2097,"deal_id":74,"distance between":1.076423134,"latitude_cc":32.760311,"id":"a62uuoomzv5c","state":"CA","longitude_deal":-117.155004},"type":"Feature","geometry":{"type":"Point","coordinates":[-117.145192,32.760311]}},{"properties":{"address1":"7312 Fulwood Ln","city":"San Diego","zip":"92111","latitude_deal":32.773527,"parent_category_deal":"Beauty and Spas","longitude_cc":-117.164532,"category_deal":"Hair Removal","buyer_id":2098,"deal_id":74,"distance between":1.197668742,"latitude_cc":32.7889,"id":"a62uuon50xkf","state":"CA","longitude_deal":-117.155004},"type":"Feature","geometry":{"type":"Point","coordinates":[-117.164532,32.7889]}},{"properties":{"address1":"2236 River Run Dr. Unit 226","city":"san Diego","zip":"92108","latitude_deal":32.773527,"parent_category_deal":"Beauty and Spas","longitude_cc":-117.134215,"category_deal":"Hair Removal","buyer_id":2099,"deal_id":74,"distance between":1.229333877,"latitude_cc":32.776854,"id":"a62uuoonybmc","state":"CA","longitude_deal":-117.155004},"type":"Feature","geometry":{"type":"Point","coordinates":[-117.134215,32.776854]}},{"properties":{"address1":"4420 hotel circle ct., #235","city":"san diego","zip":"92108","latitude_deal":32.773527,"parent_category_deal":"Beauty and Spas","longitude_cc":-117.174573,"category_deal":"Hair Removal","buyer_id":2100,"deal_id":74,"distance between":1.55202662,"latitude_cc":32.758235,"id":"a62uuocmu33x","state":"CA","longitude_deal":-117.155004},"type":"Feature","geometry":{"type":"Point","coordinates":[-117.174573,32.758235]}},{"properties":{"address1":"6202 Friars Rd Apt 109","city":"san diego","zip":"92108","latitude_deal":32.773527,"parent_category_deal":"Beauty and Spas","longitude_cc":-117.182039,"category_deal":"Hair Removal","buyer_id":2101,"deal_id":74,"distance between":1.648881399,"latitude_cc":32.76626,"id":"a62uuojv4lsw","state":"CA","longitude_deal":-117.155004},"type":"Feature","geometry":{"type":"Point","coordinates":[-117.182039,32.76626]}},{"properties":{"address1":"4462 Utah St.","city":"San Diego","zip":"92116","latitude_deal":32.773527,"parent_category_deal":"Beauty and Spas","longitude_cc":-117.132815,"category_deal":"Hair Removal","buyer_id":2102,"deal_id":74,"distance between":1.659591369,"latitude_cc":32.758399,"id":"a62uuojzhd78","state":"CA","longitude_deal":-117.155004},"type":"Feature","geometry":{"type":"Point","coordinates":[-117.132815,32.758399]}},{"properties":{"address1":"4029 Lark Street","city":"San Diego","zip":"92103","latitude_deal":32.773527,"parent_category_deal":"Beauty and Spas","longitude_cc":-117.175785,"category_deal":"Hair Removal","buyer_id":2103,"deal_id":74,"distance between":2.002433228,"latitude_cc":32.750405,"id":"a62uuogiupn3","state":"CA","longitude_deal":-117.155004},"type":"Feature","geometry":{"type":"Point","coordinates":[-117.175785,32.750405]}},{"properties":{"address1":"3343 armstrong st","city":"san diego","zip":"92111","latitude_deal":32.773527,"parent_category_deal":"Beauty and Spas","longitude_cc":-117.162154,"category_deal":"Hair Removal","buyer_id":2104,"deal_id":74,"distance between":2.210920175,"latitude_cc":32.804958,"id":"a62uuoovkv55","state":"CA","longitude_deal":-117.155004},"type":"Feature","geometry":{"type":"Point","coordinates":[-117.162154,32.804958]}},{"properties":{"address1":"Dubiel","city":"san diego","zip":"92111","latitude_deal":32.773527,"parent_category_deal":"Beauty and Spas","longitude_cc":-117.170269,"category_deal":"Hair Removal","buyer_id":2105,"deal_id":74,"distance between":2.22201913,"latitude_cc":32.803017,"id":"a62uuofcxabm","state":"CA","longitude_deal":-117.155004},"type":"Feature","geometry":{"type":"Point","coordinates":[-117.170269,32.803017]}},{"properties":{"address1":"7620 Stalmer Street","city":"San Diego","zip":"92111","latitude_deal":32.773527,"parent_category_deal":"Beauty and Spas","longitude_cc":-117.157783,"category_deal":"Hair Removal","buyer_id":2106,"deal_id":74,"distance between":2.378930675,"latitude_cc":32.80788,"id":"a62uuoah7478","state":"CA","longitude_deal":-117.155004},"type":"Feature","geometry":{"type":"Point","coordinates":[-117.157783,32.80788]}},{"properties":{"address1":"3073 west canyon ave","city":"san diego","zip":"92123","latitude_deal":32.773527,"parent_category_deal":"Beauty and Spas","longitude_cc":-117.11828,"category_deal":"Hair Removal","buyer_id":2107,"deal_id":74,"distance between":2.85272151,"latitude_cc":32.800944,"id":"a62uuoceuxx1","state":"CA","longitude_deal":-117.155004},"type":"Feature","geometry":{"type":"Point","coordinates":[-117.11828,32.800944]}},{"properties":{"address1":"5550 Genesee Ct. E. Apt.# 204","city":"San Diego","zip":"92111","latitude_deal":32.773527,"parent_category_deal":"Beauty and Spas","longitude_cc":-117.178994,"category_deal":"Hair Removal","buyer_id":2108,"deal_id":74,"distance between":3.133333931,"latitude_cc":32.814148,"id":"a62uuoofmg27","state":"CA","longitude_deal":-117.155004},"type":"Feature","geometry":{"type":"Point","coordinates":[-117.178994,32.814148]}},{"properties":{"address1":"3145 Ivy Street","city":"San Diego","zip":"92104","latitude_deal":32.773527,"parent_category_deal":"Beauty and Spas","longitude_cc":-117.126858,"category_deal":"Hair Removal","buyer_id":2109,"deal_id":74,"distance between":3.517618381,"latitude_cc":32.728451,"id":"a62uuocl2337","state":"CA","longitude_deal":-117.155004},"type":"Feature","geometry":{"type":"Point","coordinates":[-117.126858,32.728451]}},{"properties":{"address1":"4754 Mt. Durban Drive","city":"San Diego","zip":"92117","latitude_deal":32.773527,"parent_category_deal":"Beauty and Spas","longitude_cc":-117.191416,"category_deal":"Hair Removal","buyer_id":2110,"deal_id":74,"distance between":3.701291522,"latitude_cc":32.817494,"id":"a62uuokvbg5h","state":"CA","longitude_deal":-117.155004},"type":"Feature","geometry":{"type":"Point","coordinates":[-117.191416,32.817494]}},{"properties":{"address1":"2207 boundary street","city":"san diego","zip":"92104","latitude_deal":32.773527,"parent_category_deal":"Beauty and Spas","longitude_cc":-117.116322,"category_deal":"Hair Removal","buyer_id":2111,"deal_id":74,"distance between":3.77699294,"latitude_cc":32.729593,"id":"a62uuoisf8q0","state":"CA","longitude_deal":-117.155004},"type":"Feature","geometry":{"type":"Point","coordinates":[-117.116322,32.729593]}},{"properties":{"address1":"8877 Spectrum Center Blvd #11303","city":"San Diego","zip":"92123","latitude_deal":32.773527,"parent_category_deal":"Beauty and Spas","longitude_cc":-117.137644,"category_deal":"Hair Removal","buyer_id":2112,"deal_id":74,"distance between":3.781506759,"latitude_cc":32.826279,"id":"a62uuobjrm6h","state":"CA","longitude_deal":-117.155004},"type":"Feature","geometry":{"type":"Point","coordinates":[-117.137644,32.826279]}},{"properties":{"address1":"948 g st #21","city":"san diego","zip":"92101","latitude_deal":32.773527,"parent_category_deal":"Beauty and Spas","longitude_cc":-117.156041,"category_deal":"Hair Removal","buyer_id":2113,"deal_id":74,"distance between":4.199515325,"latitude_cc":32.71275,"id":"a62uuok0ewzr","state":"CA","longitude_deal":-117.155004},"type":"Feature","geometry":{"type":"Point","coordinates":[-117.156041,32.71275]}},{"properties":{"address1":"5505 Montezuma Rd. #812","city":"San Diego","zip":"92115","latitude_deal":32.773527,"parent_category_deal":"Beauty and Spas","longitude_cc":-117.075984,"category_deal":"Hair Removal","buyer_id":2114,"deal_id":74,"distance between":4.595114649,"latitude_cc":32.77055,"id":"a62uuoj3kezh","state":"CA","longitude_deal":-117.155004},"type":"Feature","geometry":{"type":"Point","coordinates":[-117.075984,32.77055]}},{"properties":{"address1":"2003 Oliver Ave","city":"San Diego","zip":"92109","latitude_deal":32.773527,"parent_category_deal":"Beauty and Spas","longitude_cc":-117.231761,"category_deal":"Hair Removal","buyer_id":2115,"deal_id":74,"distance between":4.733211987,"latitude_cc":32.796531,"id":"a62uuob9p0r7","state":"CA","longitude_deal":-117.155004},"type":"Feature","geometry":{"type":"Point","coordinates":[-117.231761,32.796531]}},{"properties":{"address1":"5416 Rebolla Lane","city":"San Diego","zip":"92124","latitude_deal":32.773527,"parent_category_deal":"Beauty and Spas","longitude_cc":-117.109237,"category_deal":"Hair Removal","buyer_id":2116,"deal_id":74,"distance between":4.75586018,"latitude_cc":32.83061,"id":"a62uuoh3pgi4","state":"CA","longitude_deal":-117.155004},"type":"Feature","geometry":{"type":"Point","coordinates":[-117.109237,32.83061]}},{"properties":{"address1":"1552 la playa av, #3306","city":"san diego","zip":"92109","latitude_deal":32.773527,"parent_category_deal":"Beauty and Spas","longitude_cc":-117.238095,"category_deal":"Hair Removal","buyer_id":2117,"deal_id":74,"distance between":4.939529036,"latitude_cc":32.788733,"id":"a62uuoj5p9t7","state":"CA","longitude_deal":-117.155004},"type":"Feature","geometry":{"type":"Point","coordinates":[-117.238095,32.788733]}},{"properties":{"address1":"1938 Diamond Street","city":"San Diego","zip":"92109","latitude_deal":32.773527,"parent_category_deal":"Beauty and Spas","longitude_cc":-117.235472,"category_deal":"Hair Removal","buyer_id":2118,"deal_id":74,"distance between":5.128251485,"latitude_cc":32.804077,"id":"a62uuopaoowp","state":"CA","longitude_deal":-117.155004},"type":"Feature","geometry":{"type":"Point","coordinates":[-117.235472,32.804077]}},{"properties":{"address1":"3994 Riviera Drive #B","city":"San Diego","zip":"92109","latitude_deal":32.773527,"parent_category_deal":"Beauty and Spas","longitude_cc":-117.24152,"category_deal":"Hair Removal","buyer_id":2119,"deal_id":74,"distance between":5.183281737,"latitude_cc":32.791904,"id":"a62uuonf4ou7","state":"CA","longitude_deal":-117.155004},"type":"Feature","geometry":{"type":"Point","coordinates":[-117.24152,32.791904]}},{"properties":{"address1":"1459 Hornblend St Apt 2","city":"San Diego","zip":"92109","latitude_deal":32.773527,"parent_category_deal":"Beauty and Spas","longitude_cc":-117.243166,"category_deal":"Hair Removal","buyer_id":2120,"deal_id":74,"distance between":5.39535818,"latitude_cc":32.798121,"id":"a62uuo9nclwn","state":"CA","longitude_deal":-117.155004},"type":"Feature","geometry":{"type":"Point","coordinates":[-117.243166,32.798121]}},{"properties":{"address1":"4454 Everts St Apt C","city":"San Diego","zip":"92109","latitude_deal":32.773527,"parent_category_deal":"Beauty and Spas","longitude_cc":-117.248103,"category_deal":"Hair Removal","buyer_id":2121,"deal_id":74,"distance between":5.652126556,"latitude_cc":32.79733,"id":"a62uuoc4gwat","state":"CA","longitude_deal":-117.155004},"type":"Feature","geometry":{"type":"Point","coordinates":[-117.248103,32.79733]}},{"properties":{"address1":"1021 scott street #128","city":"San Diego","zip":"92106","latitude_deal":32.773527,"parent_category_deal":"Beauty and Spas","longitude_cc":-117.231492,"category_deal":"Hair Removal","buyer_id":2122,"deal_id":74,"distance between":5.78829847,"latitude_cc":32.719858,"id":"a62uuoln0oi8","state":"CA","longitude_deal":-117.155004},"type":"Feature","geometry":{"type":"Point","coordinates":[-117.231492,32.719858]}},{"properties":{"address1":"1049 Felspar, Unit 8","city":"San Diego","zip":"92109","latitude_deal":32.773527,"parent_category_deal":"Beauty and Spas","longitude_cc":-117.251179,"category_deal":"Hair Removal","buyer_id":2123,"deal_id":74,"distance between":5.843173432,"latitude_cc":32.798331,"id":"a62uuodty9b9","state":"CA","longitude_deal":-117.155004},"type":"Feature","geometry":{"type":"Point","coordinates":[-117.251179,32.798331]}},{"properties":{"address1":"5015 Narragansett Ave.","city":"San Diego","zip":"92107","latitude_deal":32.773527,"parent_category_deal":"Beauty and Spas","longitude_cc":-117.25285,"category_deal":"Hair Removal","buyer_id":2124,"deal_id":74,"distance between":6.011367364,"latitude_cc":32.745247,"id":"a62uuodau60h","state":"CA","longitude_deal":-117.155004},"type":"Feature","geometry":{"type":"Point","coordinates":[-117.25285,32.745247]}},{"properties":{"address1":"5812 Corral Way","city":"La Jolla","zip":"92037","latitude_deal":32.773527,"parent_category_deal":"Beauty and Spas","longitude_cc":-117.260766,"category_deal":"Hair Removal","buyer_id":2125,"deal_id":74,"distance between":6.951291045,"latitude_cc":32.820634,"id":"a62uuojsds3y","state":"CA","longitude_deal":-117.155004},"type":"Feature","geometry":{"type":"Point","coordinates":[-117.260766,32.820634]}},{"properties":{"address1":"7682 volclay drive","city":"san diego","zip":"92119","latitude_deal":32.773527,"parent_category_deal":"Beauty and Spas","longitude_cc":-117.043997,"category_deal":"Hair Removal","buyer_id":2126,"deal_id":74,"distance between":7.017188698,"latitude_cc":32.813625,"id":"a62uuogt2dxu","state":"CA","longitude_deal":-117.155004},"type":"Feature","geometry":{"type":"Point","coordinates":[-117.043997,32.813625]}},{"properties":{"address1":"4157 Camino Islay","city":"San Diego","zip":"92122","latitude_deal":32.773527,"parent_category_deal":"Beauty and Spas","longitude_cc":-117.215015,"category_deal":"Hair Removal","buyer_id":2127,"deal_id":74,"distance between":7.129565393,"latitude_cc":32.863556,"id":"a62uuonppvm5","state":"CA","longitude_deal":-117.155004},"type":"Feature","geometry":{"type":"Point","coordinates":[-117.215015,32.863556]}},{"properties":{"address1":"4421 Dale Avenue","city":"La MEsa","zip":"91941","latitude_deal":32.773527,"parent_category_deal":"Beauty and Spas","longitude_cc":-117.030653,"category_deal":"Hair Removal","buyer_id":2128,"deal_id":74,"distance between":7.286525736,"latitude_cc":32.75978,"id":"a62uuojkkta2","state":"CA","longitude_deal":-117.155004},"type":"Feature","geometry":{"type":"Point","coordinates":[-117.030653,32.75978]}},{"properties":{"address1":"6066 Creighton Way","city":"SAN DIEGO","zip":"92114","latitude_deal":32.773527,"parent_category_deal":"Beauty and Spas","longitude_cc":-117.067999,"category_deal":"Hair Removal","buyer_id":2129,"deal_id":74,"distance between":7.296327204,"latitude_cc":32.697393,"id":"a62uuolqnaq4","state":"CA","longitude_deal":-117.155004},"type":"Feature","geometry":{"type":"Point","coordinates":[-117.067999,32.697393]}},{"properties":{"address1":"6602 La Jolla Blvd","city":"La Jolla","zip":"92037","latitude_deal":32.773527,"parent_category_deal":"Beauty and Spas","longitude_cc":-117.277093,"category_deal":"Hair Removal","buyer_id":2130,"deal_id":74,"distance between":8.01719834,"latitude_cc":32.827691,"id":"a62uuojxejmn","state":"CA","longitude_deal":-117.155004},"type":"Feature","geometry":{"type":"Point","coordinates":[-117.277093,32.827691]}},{"properties":{"address1":"4105 Creekside Ct.","city":"National City","zip":"91950","latitude_deal":32.773527,"parent_category_deal":"Beauty and Spas","longitude_cc":-117.087717,"category_deal":"Hair Removal","buyer_id":2131,"deal_id":74,"distance between":8.110896315,"latitude_cc":32.670681,"id":"a62uuodjilly","state":"CA","longitude_deal":-117.155004},"type":"Feature","geometry":{"type":"Point","coordinates":[-117.087717,32.670681]}},{"properties":{"address1":"1230 pearl street","city":"san diego","zip":"92037","latitude_deal":32.773527,"parent_category_deal":"Beauty and Spas","longitude_cc":-117.26965,"category_deal":"Hair Removal","buyer_id":2132,"deal_id":74,"distance between":8.138686296,"latitude_cc":32.841286,"id":"a62uuog7rora","state":"CA","longitude_deal":-117.155004},"type":"Feature","geometry":{"type":"Point","coordinates":[-117.26965,32.841286]}},{"properties":{"address1":"6160 Blain Pl","city":"La Mesa","zip":"91942","latitude_deal":32.773527,"parent_category_deal":"Beauty and Spas","longitude_cc":-117.013774,"category_deal":"Hair Removal","buyer_id":2133,"deal_id":74,"distance between":8.283430452,"latitude_cc":32.790135,"id":"a62uuolw8ty8","state":"CA","longitude_deal":-117.155004},"type":"Feature","geometry":{"type":"Point","coordinates":[-117.013774,32.790135]}},{"properties":{"address1":"PO Box 12034","city":"La Jolla","zip":"92039","latitude_deal":32.773527,"parent_category_deal":"Beauty and Spas","longitude_cc":-117.27227,"category_deal":"Hair Removal","buyer_id":2134,"deal_id":74,"distance between":8.314933357,"latitude_cc":32.84259,"id":"a62uuogubkxk","state":"CA","longitude_deal":-117.155004},"type":"Feature","geometry":{"type":"Point","coordinates":[-117.27227,32.84259]}},{"properties":{"address1":"110 N 2nd Ave. unit 34","city":"Chula Vista","zip":"91910","latitude_deal":32.773527,"parent_category_deal":"Beauty and Spas","longitude_cc":-117.08212,"category_deal":"Hair Removal","buyer_id":2135,"deal_id":74,"distance between":9.116067398,"latitude_cc":32.656698,"id":"a62uuo9gynga","state":"CA","longitude_deal":-117.155004},"type":"Feature","geometry":{"type":"Point","coordinates":[-117.08212,32.656698]}},{"properties":{"address1":"2352 Fulham Way","city":"San Diego","zip":"92139","latitude_deal":32.773527,"parent_category_deal":"Beauty and Spas","longitude_cc":-117.036055,"category_deal":"Hair Removal","buyer_id":2136,"deal_id":74,"distance between":9.299594512,"latitude_cc":32.683502,"id":"a62uuo9adszd","state":"CA","longitude_deal":-117.155004},"type":"Feature","geometry":{"type":"Point","coordinates":[-117.036055,32.683502]}},{"properties":{"address1":"10639 Dabney Dr. #65","city":"San Diego","zip":"92126","latitude_deal":32.773527,"parent_category_deal":"Beauty and Spas","longitude_cc":-117.159303,"category_deal":"Hair Removal","buyer_id":2137,"deal_id":74,"distance between":9.489822215,"latitude_cc":32.910834,"id":"a62uuoi4u5e9","state":"CA","longitude_deal":-117.155004},"type":"Feature","geometry":{"type":"Point","coordinates":[-117.159303,32.910834]}},{"properties":{"address1":"11110 Briarcliff Drive","city":"San Diego","zip":"92131","latitude_deal":32.773527,"parent_category_deal":"Beauty and Spas","longitude_cc":-117.09274,"category_deal":"Hair Removal","buyer_id":2138,"deal_id":74,"distance between":10.16959532,"latitude_cc":32.911111,"id":"a62uuobg3ep5","state":"CA","longitude_deal":-117.155004},"type":"Feature","geometry":{"type":"Point","coordinates":[-117.09274,32.911111]}},{"properties":{"address1":"9363 twin mountain circle","city":"San Diego","zip":"92126","latitude_deal":32.773527,"parent_category_deal":"Beauty and Spas","longitude_cc":-117.123722,"category_deal":"Hair Removal","buyer_id":2139,"deal_id":74,"distance between":10.26952234,"latitude_cc":32.919825,"id":"a62uuoej06bu","state":"CA","longitude_deal":-117.155004},"type":"Feature","geometry":{"type":"Point","coordinates":[-117.123722,32.919825]}},{"properties":{"address1":"4623 Torrey Cir Apt Q109","city":"San Diego","zip":"92130","latitude_deal":32.773527,"parent_category_deal":"Beauty and Spas","longitude_cc":-117.215793,"category_deal":"Hair Removal","buyer_id":2140,"deal_id":74,"distance between":10.60029517,"latitude_cc":32.918205,"id":"a62uuoer4f9a","state":"CA","longitude_deal":-117.155004},"type":"Feature","geometry":{"type":"Point","coordinates":[-117.215793,32.918205]}},{"properties":{"address1":"11225 Corte Belleza","city":"San Diego","zip":"92130","latitude_deal":32.773527,"parent_category_deal":"Beauty and Spas","longitude_cc":-117.215441,"category_deal":"Hair Removal","buyer_id":2141,"deal_id":74,"distance between":10.8582348,"latitude_cc":32.92226,"id":"a62uuolrujmf","state":"CA","longitude_deal":-117.155004},"type":"Feature","geometry":{"type":"Point","coordinates":[-117.215441,32.92226]}},{"properties":{"address1":"11385 pegasus ave","city":"san diego","zip":"92126","latitude_deal":32.773527,"parent_category_deal":"Beauty and Spas","longitude_cc":-117.128391,"category_deal":"Hair Removal","buyer_id":2142,"deal_id":74,"distance between":10.88994038,"latitude_cc":32.929553,"id":"a62uuop29q81","state":"CA","longitude_deal":-117.155004},"type":"Feature","geometry":{"type":"Point","coordinates":[-117.128391,32.929553]}},{"properties":{"address1":"11780 Westview Parkway #76","city":"San Diego","zip":"92126","latitude_deal":32.773527,"parent_category_deal":"Beauty and Spas","longitude_cc":-117.121238,"category_deal":"Hair Removal","buyer_id":2143,"deal_id":74,"distance between":10.93302052,"latitude_cc":32.929207,"id":"a62uuocaf2fp","state":"CA","longitude_deal":-117.155004},"type":"Feature","geometry":{"type":"Point","coordinates":[-117.121238,32.929207]}},{"properties":{"address1":"11757 Spruce Run Dr.","city":"San Diego","zip":"92131","latitude_deal":32.773527,"parent_category_deal":"Beauty and Spas","longitude_cc":-117.088563,"category_deal":"Hair Removal","buyer_id":2144,"deal_id":74,"distance between":11.64079683,"latitude_cc":32.932501,"id":"a62uuobjq16g","state":"CA","longitude_deal":-117.155004},"type":"Feature","geometry":{"type":"Point","coordinates":[-117.088563,32.932501]}},{"properties":{"address1":"11954 cypress canyon rd. unit 1","city":"san diego","zip":"92131","latitude_deal":32.773527,"parent_category_deal":"Beauty and Spas","longitude_cc":-117.084363,"category_deal":"Hair Removal","buyer_id":2145,"deal_id":74,"distance between":11.75720791,"latitude_cc":32.933017,"id":"a62uuoghprq1","state":"CA","longitude_deal":-117.155004},"type":"Feature","geometry":{"type":"Point","coordinates":[-117.084363,32.933017]}},{"properties":{"address1":"1505 Stone Edge Circle","city":"El Cajon","zip":"92021","latitude_deal":32.773527,"parent_category_deal":"Beauty and Spas","longitude_cc":-116.956425,"category_deal":"Hair Removal","buyer_id":2146,"deal_id":74,"distance between":11.97092309,"latitude_cc":32.819971,"id":"a62uuocnd6h6","state":"CA","longitude_deal":-117.155004},"type":"Feature","geometry":{"type":"Point","coordinates":[-116.956425,32.819971]}},{"properties":{"address1":"1505 Stone Edge Circle","city":"El Cajon","zip":"92021","latitude_deal":32.773527,"parent_category_deal":"Beauty and Spas","longitude_cc":-116.956425,"category_deal":"Hair Removal","buyer_id":2147,"deal_id":74,"distance between":11.97092309,"latitude_cc":32.819971,"id":"a62uuo9u2z0x","state":"CA","longitude_deal":-117.155004},"type":"Feature","geometry":{"type":"Point","coordinates":[-116.956425,32.819971]}},{"properties":{"address1":"9573 Benavente St","city":"San Diego","zip":"92129","latitude_deal":32.773527,"parent_category_deal":"Beauty and Spas","longitude_cc":-117.113797,"category_deal":"Hair Removal","buyer_id":2148,"deal_id":74,"distance between":12.13703466,"latitude_cc":32.945753,"id":"a62uuogxrijy","state":"CA","longitude_deal":-117.155004},"type":"Feature","geometry":{"type":"Point","coordinates":[-117.113797,32.945753]}},{"properties":{"address1":"12249 Meadow Grass Court","city":"San Diego","zip":"92128","latitude_deal":32.773527,"parent_category_deal":"Beauty and Spas","longitude_cc":-117.080704,"category_deal":"Hair Removal","buyer_id":2149,"deal_id":74,"distance between":12.36178154,"latitude_cc":32.941211,"id":"a62uuo9s261a","state":"CA","longitude_deal":-117.155004},"type":"Feature","geometry":{"type":"Point","coordinates":[-117.080704,32.941211]}},{"properties":{"address1":"12249 Meadow Grass Court","city":"San Diego","zip":"92128","latitude_deal":32.773527,"parent_category_deal":"Beauty and Spas","longitude_cc":-117.080704,"category_deal":"Hair Removal","buyer_id":2150,"deal_id":74,"distance between":12.36178154,"latitude_cc":32.941211,"id":"a62uuoo7aqpd","state":"CA","longitude_deal":-117.155004},"type":"Feature","geometry":{"type":"Point","coordinates":[-117.080704,32.941211]}},{"properties":{"address1":"12515 EL CAMINO REAL UNIT E","city":"SAN DIEGO","zip":"92130","latitude_deal":32.773527,"parent_category_deal":"Beauty and Spas","longitude_cc":-117.239039,"category_deal":"Hair Removal","buyer_id":2151,"deal_id":74,"distance between":12.75323679,"latitude_cc":32.944085,"id":"a62uuooc5661","state":"CA","longitude_deal":-117.155004},"type":"Feature","geometry":{"type":"Point","coordinates":[-117.239039,32.944085]}},{"properties":{"address1":"12191 Cuyamaca College Drive East #706","city":"El Cajon","zip":"92019","latitude_deal":32.773527,"parent_category_deal":"Beauty and Spas","longitude_cc":-116.93823,"category_deal":"Hair Removal","buyer_id":2152,"deal_id":74,"distance between":12.7648222,"latitude_cc":32.743487,"id":"a62uuoc1l82y","state":"CA","longitude_deal":-117.155004},"type":"Feature","geometry":{"type":"Point","coordinates":[-116.93823,32.743487]}},{"properties":{"address1":"2658 Del Mar Heights Rd. #305","city":"Del Mar","zip":"92014","latitude_deal":32.773527,"parent_category_deal":"Beauty and Spas","longitude_cc":-117.246233,"category_deal":"Hair Removal","buyer_id":2153,"deal_id":74,"distance between":13.23636434,"latitude_cc":32.949115,"id":"a62uuoky5iec","state":"CA","longitude_deal":-117.155004},"type":"Feature","geometry":{"type":"Point","coordinates":[-117.246233,32.949115]}},{"properties":{"address1":"259 donax ave unit d","city":"imperial beach","zip":"91932","latitude_deal":32.773527,"parent_category_deal":"Beauty and Spas","longitude_cc":-117.128345,"category_deal":"Hair Removal","buyer_id":2154,"deal_id":74,"distance between":13.30458243,"latitude_cc":32.58227,"id":"a62uuokf2shr","state":"CA","longitude_deal":-117.155004},"type":"Feature","geometry":{"type":"Point","coordinates":[-117.128345,32.58227]}},{"properties":{"address1":"2364 Calle Sabroso 28","city":"Chula Vista","zip":"91914","latitude_deal":32.773527,"parent_category_deal":"Beauty and Spas","longitude_cc":-116.967533,"category_deal":"Hair Removal","buyer_id":2155,"deal_id":74,"distance between":13.35342539,"latitude_cc":32.661824,"id":"a62uuoe65gd7","state":"CA","longitude_deal":-117.155004},"type":"Feature","geometry":{"type":"Point","coordinates":[-116.967533,32.661824]}},{"properties":{"address1":"425 stratford ct, unit 5","city":"del mar","zip":"92014","latitude_deal":32.773527,"parent_category_deal":"Beauty and Spas","longitude_cc":-117.262393,"category_deal":"Hair Removal","buyer_id":2156,"deal_id":74,"distance between":13.57959646,"latitude_cc":32.948154,"id":"a62uuoc80e0t","state":"CA","longitude_deal":-117.155004},"type":"Feature","geometry":{"type":"Point","coordinates":[-117.262393,32.948154]}},{"properties":{"address1":"15718 Circo Diegueno","city":"Del Mar","zip":"92014","latitude_deal":32.773527,"parent_category_deal":"Beauty and Spas","longitude_cc":-117.256016,"category_deal":"Hair Removal","buyer_id":2157,"deal_id":74,"distance between":14.35784411,"latitude_cc":32.963233,"id":"a62uuohtzt7r","state":"CA","longitude_deal":-117.155004},"type":"Feature","geometry":{"type":"Point","coordinates":[-117.256016,32.963233]}},{"properties":{"address1":"12174 wilsey way","city":"poway","zip":"92064","latitude_deal":32.773527,"parent_category_deal":"Beauty and Spas","longitude_cc":-117.065878,"category_deal":"Hair Removal","buyer_id":2158,"deal_id":74,"distance between":14.68495988,"latitude_cc":32.972458,"id":"a62uuobdt9px","state":"CA","longitude_deal":-117.155004},"type":"Feature","geometry":{"type":"Point","coordinates":[-117.065878,32.972458]}},{"properties":{"address1":"709 s nardo ave","city":"solana beach","zip":"92075","latitude_deal":32.773527,"parent_category_deal":"Beauty and Spas","longitude_cc":-117.261331,"category_deal":"Hair Removal","buyer_id":2159,"deal_id":74,"distance between":15.93147648,"latitude_cc":32.986126,"id":"a62uuocyxtno","state":"CA","longitude_deal":-117.155004},"type":"Feature","geometry":{"type":"Point","coordinates":[-117.261331,32.986126]}},{"properties":{"address1":"P.O. Box 976","city":"Rancho Santa Fe","zip":"92067","latitude_deal":32.773527,"parent_category_deal":"Beauty and Spas","longitude_cc":-117.1935,"category_deal":"Hair Removal","buyer_id":2160,"deal_id":74,"distance between":16.99654101,"latitude_cc":33.0174,"id":"a62uuohs13xp","state":"CA","longitude_deal":-117.155004},"type":"Feature","geometry":{"type":"Point","coordinates":[-117.1935,33.0174]}},{"properties":{"address1":"10307 Craftsman Way Unit 211","city":"San Diego","zip":"92127","latitude_deal":32.773527,"parent_category_deal":"Beauty and Spas","longitude_cc":-117.118329,"category_deal":"Hair Removal","buyer_id":2161,"deal_id":74,"distance between":17.20083889,"latitude_cc":33.020578,"id":"a62uuooshij7","state":"CA","longitude_deal":-117.155004},"type":"Feature","geometry":{"type":"Point","coordinates":[-117.118329,33.020578]}},{"properties":{"address1":"10408 Cherry Blossom Lane","city":"San Diego","zip":"92127","latitude_deal":32.773527,"parent_category_deal":"Beauty and Spas","longitude_cc":-117.112993,"category_deal":"Hair Removal","buyer_id":2162,"deal_id":74,"distance between":17.5249941,"latitude_cc":33.024717,"id":"a62uuok8ydty","state":"CA","longitude_deal":-117.155004},"type":"Feature","geometry":{"type":"Point","coordinates":[-117.112993,33.024717]}},{"properties":{"address1":"728 Pebble Beach Drive","city":"San Marcos","zip":"92069","latitude_deal":32.773527,"parent_category_deal":"Beauty and Spas","longitude_cc":-117.154434,"category_deal":"Hair Removal","buyer_id":2163,"deal_id":74,"distance between":27.02623186,"latitude_cc":33.164701,"id":"a62uuomg2w1b","state":"CA","longitude_deal":-117.155004},"type":"Feature","geometry":{"type":"Point","coordinates":[-117.154434,33.164701]}},{"properties":{"address1":"383 Alamo Way","city":"Oceanside","zip":"92057","latitude_deal":32.773527,"parent_category_deal":"Beauty and Spas","longitude_cc":-117.313484,"category_deal":"Hair Removal","buyer_id":2164,"deal_id":74,"distance between":33.32715924,"latitude_cc":33.23723,"id":"a62uuofk6csh","state":"CA","longitude_deal":-117.155004},"type":"Feature","geometry":{"type":"Point","coordinates":[-117.313484,33.23723]}},{"properties":{"address1":"13628 Sylmar Drive","city":"Moreno Valley","zip":"92553","latitude_deal":32.773527,"parent_category_deal":"Beauty and Spas","longitude_cc":-117.248454,"category_deal":"Hair Removal","buyer_id":2165,"deal_id":74,"distance between":79.53644938,"latitude_cc":33.922078,"id":"a62uuobuis0i","state":"CA","longitude_deal":-117.155004},"type":"Feature","geometry":{"type":"Point","coordinates":[-117.248454,33.922078]}},{"properties":{"address1":"905 Pennslvania ave","city":"colton","zip":"92324","latitude_deal":32.773527,"parent_category_deal":"Beauty and Spas","longitude_cc":-117.327188,"category_deal":"Hair Removal","buyer_id":2166,"deal_id":74,"distance between":90.47970367,"latitude_cc":34.075211,"id":"a62uuoj76dml","state":"CA","longitude_deal":-117.155004},"type":"Feature","geometry":{"type":"Point","coordinates":[-117.327188,34.075211]}},{"properties":{"address1":"1386 glen oaks blvd","city":"pasadena","zip":"91105","latitude_deal":32.773527,"parent_category_deal":"Beauty and Spas","longitude_cc":-118.179374,"category_deal":"Hair Removal","buyer_id":2167,"deal_id":74,"distance between":112.3447962,"latitude_cc":34.156971,"id":"a62uuookmdwq","state":"CA","longitude_deal":-117.155004},"type":"Feature","geometry":{"type":"Point","coordinates":[-118.179374,34.156971]}},{"properties":{"address1":"2283 Lusardi Dr.","city":"San Jose","zip":"95148","latitude_deal":32.773527,"parent_category_deal":"Beauty and Spas","longitude_cc":-121.789309,"category_deal":"Hair Removal","buyer_id":2168,"deal_id":74,"distance between":408.7210235,"latitude_cc":37.31468,"id":"a62uuom4kwgl","state":"CA","longitude_deal":-117.155004},"type":"Feature","geometry":{"type":"Point","coordinates":[-121.789309,37.31468]}},{"properties":{"address1":"360 Murindo Place","city":"San Ramon","zip":"94583","latitude_deal":32.773527,"parent_category_deal":"Beauty and Spas","longitude_cc":-121.990325,"category_deal":"Hair Removal","buyer_id":2169,"deal_id":74,"distance between":439.6828264,"latitude_cc":37.767794,"id":"a62uuoe2ozcp","state":"CA","longitude_deal":-117.155004},"type":"Feature","geometry":{"type":"Point","coordinates":[-121.990325,37.767794]}},{"properties":{"address1":"8445 Quail Oaks Dr.","city":"Granite Bay","zip":"95746","latitude_deal":32.773527,"parent_category_deal":"Beauty and Spas","longitude_cc":-121.218155,"category_deal":"Hair Removal","buyer_id":2170,"deal_id":74,"distance between":471.2795044,"latitude_cc":38.747226,"id":"a62uuoij66qr","state":"CA","longitude_deal":-117.155004},"type":"Feature","geometry":{"type":"Point","coordinates":[-121.218155,38.747226]}},{"properties":{"address1":"375 Bellevue Way SE, Apt 15","city":"BELLEVUE","zip":"98004","latitude_deal":47.621353,"parent_category_deal":"Beauty and Spas","longitude_cc":-122.201607,"category_deal":"Hair Removal","buyer_id":3282,"deal_id":101,"distance between":1.256069647,"latitude_cc":47.606783,"id":"a62uuom1cc67","state":"WA","longitude_deal":-122.185477},"type":"Feature","geometry":{"type":"Point","coordinates":[-122.201607,47.606783]}},{"properties":{"address1":"1002 W. Lk. Samm. NE","city":"Bellevue","zip":"98008","latitude_deal":47.621353,"parent_category_deal":"Beauty and Spas","longitude_cc":-122.118191,"category_deal":"Hair Removal","buyer_id":3283,"deal_id":101,"distance between":3.185958331,"latitude_cc":47.613032,"id":"a62uuoplc04c","state":"WA","longitude_deal":-122.185477},"type":"Feature","geometry":{"type":"Point","coordinates":[-122.118191,47.613032]}},{"properties":{"address1":"16610 NE 50th Way","city":"Redmond","zip":"98052","latitude_deal":47.621353,"parent_category_deal":"Beauty and Spas","longitude_cc":-122.119709,"category_deal":"Hair Removal","buyer_id":3284,"deal_id":101,"distance between":3.868733437,"latitude_cc":47.655583,"id":"a62uuonqsz5b","state":"WA","longitude_deal":-122.185477},"type":"Feature","geometry":{"type":"Point","coordinates":[-122.119709,47.655583]}},{"properties":{"address1":"738 Kirkland Circle E202","city":"kirkland","zip":"98033","latitude_deal":47.621353,"parent_category_deal":"Beauty and Spas","longitude_cc":-122.194829,"category_deal":"Hair Removal","buyer_id":3285,"deal_id":101,"distance between":3.92043089,"latitude_cc":47.677746,"id":"a62uuofyjh4x","state":"WA","longitude_deal":-122.185477},"type":"Feature","geometry":{"type":"Point","coordinates":[-122.194829,47.677746]}},{"properties":{"address1":"132 7th ave","city":"kirkland","zip":"98033","latitude_deal":47.621353,"parent_category_deal":"Beauty and Spas","longitude_cc":-122.20759,"category_deal":"Hair Removal","buyer_id":3286,"deal_id":101,"distance between":4.216889376,"latitude_cc":47.680542,"id":"a62uuomxf56i","state":"WA","longitude_deal":-122.185477},"type":"Feature","geometry":{"type":"Point","coordinates":[-122.20759,47.680542]}},{"properties":{"address1":"16625 Redmond Way M114","city":"Redmond","zip":"98052","latitude_deal":47.621353,"parent_category_deal":"Beauty and Spas","longitude_cc":-122.118509,"category_deal":"Hair Removal","buyer_id":3287,"deal_id":101,"distance between":4.732346124,"latitude_cc":47.672891,"id":"a62uuogg2317","state":"WA","longitude_deal":-122.185477},"type":"Feature","geometry":{"type":"Point","coordinates":[-122.118509,47.672891]}},{"properties":{"address1":"3308 43rd ave ne","city":"seattle","zip":"98105","latitude_deal":47.621353,"parent_category_deal":"Beauty and Spas","longitude_cc":-122.279326,"category_deal":"Hair Removal","buyer_id":3288,"deal_id":101,"distance between":4.873001935,"latitude_cc":47.652588,"id":"a62uuodyd7y8","state":"WA","longitude_deal":-122.185477},"type":"Feature","geometry":{"type":"Point","coordinates":[-122.279326,47.652588]}},{"properties":{"address1":"5035 47th Ave NE","city":"SEattle","zip":"98105","latitude_deal":47.621353,"parent_category_deal":"Beauty and Spas","longitude_cc":-122.277556,"category_deal":"Hair Removal","buyer_id":3289,"deal_id":101,"distance between":5.264259017,"latitude_cc":47.66559,"id":"a62uuocwp7bn","state":"WA","longitude_deal":-122.185477},"type":"Feature","geometry":{"type":"Point","coordinates":[-122.277556,47.66559]}},{"properties":{"address1":"11644 100th Ave NE #307","city":"Kirkland","zip":"98034","latitude_deal":47.621353,"parent_category_deal":"Beauty and Spas","longitude_cc":-122.207735,"category_deal":"Hair Removal","buyer_id":3290,"deal_id":101,"distance between":5.833366979,"latitude_cc":47.704443,"id":"a62uuoncre4a","state":"WA","longitude_deal":-122.185477},"type":"Feature","geometry":{"type":"Point","coordinates":[-122.207735,47.704443]}},{"properties":{"address1":"5567,173rd Ave SE","city":"Bellevue","zip":"98006","latitude_deal":47.621353,"parent_category_deal":"Beauty and Spas","longitude_cc":-122.110129,"category_deal":"Hair Removal","buyer_id":3291,"deal_id":101,"distance between":5.875150173,"latitude_cc":47.553173,"id":"a62uuobfb14k","state":"WA","longitude_deal":-122.185477},"type":"Feature","geometry":{"type":"Point","coordinates":[-122.110129,47.553173]}},{"properties":{"address1":"1511 E Mercer St #1","city":"Seattle","zip":"98112","latitude_deal":47.621353,"parent_category_deal":"Beauty and Spas","longitude_cc":-122.312377,"category_deal":"Hair Removal","buyer_id":3292,"deal_id":101,"distance between":5.912893419,"latitude_cc":47.624303,"id":"a62uuob14opz","state":"WA","longitude_deal":-122.185477},"type":"Feature","geometry":{"type":"Point","coordinates":[-122.312377,47.624303]}},{"properties":{"address1":"1511 E Mercer St #1","city":"Seattle","zip":"98112","latitude_deal":47.621353,"parent_category_deal":"Beauty and Spas","longitude_cc":-122.312377,"category_deal":"Hair Removal","buyer_id":3293,"deal_id":101,"distance between":5.912893419,"latitude_cc":47.624303,"id":"a62uuoasznbb","state":"WA","longitude_deal":-122.185477},"type":"Feature","geometry":{"type":"Point","coordinates":[-122.312377,47.624303]}},{"properties":{"address1":"4734 S. Brandon St.","city":"Seattle","zip":"98118","latitude_deal":47.621353,"parent_category_deal":"Beauty and Spas","longitude_cc":-122.27356,"category_deal":"Hair Removal","buyer_id":3294,"deal_id":101,"distance between":6.226814175,"latitude_cc":47.553579,"id":"a62uuodfa0pc","state":"WA","longitude_deal":-122.185477},"type":"Feature","geometry":{"type":"Point","coordinates":[-122.27356,47.553579]}},{"properties":{"address1":"1201 Summit Ave APT 513","city":"Seattle","zip":"98101","latitude_deal":47.621353,"parent_category_deal":"Beauty and Spas","longitude_cc":-122.324393,"category_deal":"Hair Removal","buyer_id":3295,"deal_id":101,"distance between":6.503844924,"latitude_cc":47.611721,"id":"a62uuoa96j7t","state":"WA","longitude_deal":-122.185477},"type":"Feature","geometry":{"type":"Point","coordinates":[-122.324393,47.611721]}},{"properties":{"address1":"po box 2509","city":"seattle","zip":"98111","latitude_deal":47.621353,"parent_category_deal":"Beauty and Spas","longitude_cc":-122.329437,"category_deal":"Hair Removal","buyer_id":3296,"deal_id":101,"distance between":6.816893335,"latitude_cc":47.603561,"id":"a62uuooobai0","state":"WA","longitude_deal":-122.185477},"type":"Feature","geometry":{"type":"Point","coordinates":[-122.329437,47.603561]}},{"properties":{"address1":"5027 9th ave ne","city":"Seattle","zip":"98105","latitude_deal":47.621353,"parent_category_deal":"Beauty and Spas","longitude_cc":-122.318616,"category_deal":"Hair Removal","buyer_id":3297,"deal_id":101,"distance between":6.91176586,"latitude_cc":47.665644,"id":"a62uuok3gj9g","state":"WA","longitude_deal":-122.185477},"type":"Feature","geometry":{"type":"Point","coordinates":[-122.318616,47.665644]}},{"properties":{"address1":"7322 Rainier Ave S #603","city":"Seattle","zip":"98118","latitude_deal":47.621353,"parent_category_deal":"Beauty and Spas","longitude_cc":-122.27006,"category_deal":"Hair Removal","buyer_id":3298,"deal_id":101,"distance between":7.050411764,"latitude_cc":47.536748,"id":"a62uuoarwe3f","state":"WA","longitude_deal":-122.185477},"type":"Feature","geometry":{"type":"Point","coordinates":[-122.27006,47.536748]}},{"properties":{"address1":"4529 Bagley Ave N","city":"Seattle","zip":"98103","latitude_deal":47.621353,"parent_category_deal":"Beauty and Spas","longitude_cc":-122.332674,"category_deal":"Hair Removal","buyer_id":3299,"deal_id":101,"distance between":7.399892816,"latitude_cc":47.661795,"id":"a62uuohplo53","state":"WA","longitude_deal":-122.185477},"type":"Feature","geometry":{"type":"Point","coordinates":[-122.332674,47.661795]}},{"properties":{"address1":"1233 Taylor Avenue N APT 303","city":"Seattle","zip":"98109","latitude_deal":47.621353,"parent_category_deal":"Beauty and Spas","longitude_cc":-122.34647,"category_deal":"Hair Removal","buyer_id":3300,"deal_id":101,"distance between":7.522316769,"latitude_cc":47.630355,"id":"a62uuobn8mr7","state":"WA","longitude_deal":-122.185477},"type":"Feature","geometry":{"type":"Point","coordinates":[-122.34647,47.630355]}},{"properties":{"address1":"2216 n 60th st","city":"seattle","zip":"98103","latitude_deal":47.621353,"parent_category_deal":"Beauty and Spas","longitude_cc":-122.332043,"category_deal":"Hair Removal","buyer_id":3301,"deal_id":101,"distance between":7.681087019,"latitude_cc":47.672442,"id":"a62uuogjondx","state":"WA","longitude_deal":-122.185477},"type":"Feature","geometry":{"type":"Point","coordinates":[-122.332043,47.672442]}},{"properties":{"address1":"400 Blaine St. #B","city":"Seattle","zip":"98109","latitude_deal":47.621353,"parent_category_deal":"Beauty and Spas","longitude_cc":-122.349563,"category_deal":"Hair Removal","buyer_id":3302,"deal_id":101,"distance between":7.69721096,"latitude_cc":47.634881,"id":"a62uuoa2d7j8","state":"WA","longitude_deal":-122.185477},"type":"Feature","geometry":{"type":"Point","coordinates":[-122.349563,47.634881]}},{"properties":{"address1":"1420 NW Gilman Blvd Ste 2-2158","city":"Issaquah","zip":"98027","latitude_deal":47.621353,"parent_category_deal":"Beauty and Spas","longitude_cc":-122.058782,"category_deal":"Hair Removal","buyer_id":3303,"deal_id":101,"distance between":7.878771066,"latitude_cc":47.545846,"id":"a62uuohg6wr9","state":"WA","longitude_deal":-122.185477},"type":"Feature","geometry":{"type":"Point","coordinates":[-122.058782,47.545846]}},{"properties":{"address1":"222 Queen Anne Ave N #503","city":"Seattle","zip":"98109","latitude_deal":47.621353,"parent_category_deal":"Beauty and Spas","longitude_cc":-122.356552,"category_deal":"Hair Removal","buyer_id":3304,"deal_id":101,"distance between":7.96726555,"latitude_cc":47.620113,"id":"a62uuoludqxh","state":"WA","longitude_deal":-122.185477},"type":"Feature","geometry":{"type":"Point","coordinates":[-122.356552,47.620113]}},{"properties":{"address1":"921 1st Ave W #109","city":"Seattle","zip":"98119","latitude_deal":47.621353,"parent_category_deal":"Beauty and Spas","longitude_cc":-122.358096,"category_deal":"Hair Removal","buyer_id":3305,"deal_id":101,"distance between":8.048635553,"latitude_cc":47.627296,"id":"a62uuofuryl5","state":"WA","longitude_deal":-122.185477},"type":"Feature","geometry":{"type":"Point","coordinates":[-122.358096,47.627296]}},{"properties":{"address1":"24540 NE 11th St","city":"Redmond","zip":"98074","latitude_deal":47.621353,"parent_category_deal":"Beauty and Spas","longitude_cc":-122.012236,"category_deal":"Hair Removal","buyer_id":3306,"deal_id":101,"distance between":8.069277235,"latitude_cc":47.619083,"id":"a62uuoaeb8zf","state":"WA","longitude_deal":-122.185477},"type":"Feature","geometry":{"type":"Point","coordinates":[-122.012236,47.619083]}},{"properties":{"address1":"3621 Francis Ave N, Unit A","city":"Seattle","zip":"98103","latitude_deal":47.621353,"parent_category_deal":"Beauty and Spas","longitude_cc":-122.353631,"category_deal":"Hair Removal","buyer_id":3307,"deal_id":101,"distance between":8.120420673,"latitude_cc":47.652592,"id":"a62uuon8adnw","state":"WA","longitude_deal":-122.185477},"type":"Feature","geometry":{"type":"Point","coordinates":[-122.353631,47.652592]}},{"properties":{"address1":"312 N 39th St #B204","city":"Seattle","zip":"98103","latitude_deal":47.621353,"parent_category_deal":"Beauty and Spas","longitude_cc":-122.355331,"category_deal":"Hair Removal","buyer_id":3308,"deal_id":101,"distance between":8.228955632,"latitude_cc":47.654325,"id":"a62uuob64gbs","state":"WA","longitude_deal":-122.185477},"type":"Feature","geometry":{"type":"Point","coordinates":[-122.355331,47.654325]}},{"properties":{"address1":"10061 65th Ave S","city":"Seattle","zip":"98178","latitude_deal":47.621353,"parent_category_deal":"Beauty and Spas","longitude_cc":-122.252545,"category_deal":"Hair Removal","buyer_id":3309,"deal_id":101,"distance between":8.240838749,"latitude_cc":47.510994,"id":"a62uuoi31l4x","state":"WA","longitude_deal":-122.185477},"type":"Feature","geometry":{"type":"Point","coordinates":[-122.252545,47.510994]}},{"properties":{"address1":"3314 NE 123rd St","city":"Seattle","zip":"98125","latitude_deal":47.621353,"parent_category_deal":"Beauty and Spas","longitude_cc":-122.292452,"category_deal":"Hair Removal","buyer_id":3310,"deal_id":101,"distance between":8.298719568,"latitude_cc":47.717468,"id":"a62uuo9qi6i7","state":"WA","longitude_deal":-122.185477},"type":"Feature","geometry":{"type":"Point","coordinates":[-122.292452,47.717468]}},{"properties":{"address1":"10216 63rd Ave. S.","city":"Seattle","zip":"98178","latitude_deal":47.621353,"parent_category_deal":"Beauty and Spas","longitude_cc":-122.254523,"category_deal":"Hair Removal","buyer_id":3311,"deal_id":101,"distance between":8.373384519,"latitude_cc":47.50947,"id":"a62uuoh7qd41","state":"WA","longitude_deal":-122.185477},"type":"Feature","geometry":{"type":"Point","coordinates":[-122.254523,47.50947]}},{"properties":{"address1":"22433 NE Marketplace Drive L1081","city":"redmond","zip":"98052","latitude_deal":47.621353,"parent_category_deal":"Beauty and Spas","longitude_cc":-122.040634,"category_deal":"Hair Removal","buyer_id":3312,"deal_id":101,"distance between":8.411413345,"latitude_cc":47.694182,"id":"a62uuonomuce","state":"WA","longitude_deal":-122.185477},"type":"Feature","geometry":{"type":"Point","coordinates":[-122.040634,47.694182]}},{"properties":{"address1":"119 n. 55th st","city":"seattle","zip":"98103","latitude_deal":47.621353,"parent_category_deal":"Beauty and Spas","longitude_cc":-122.356708,"category_deal":"Hair Removal","buyer_id":3313,"deal_id":101,"distance between":8.611382013,"latitude_cc":47.668541,"id":"a62uuok8c6ez","state":"WA","longitude_deal":-122.185477},"type":"Feature","geometry":{"type":"Point","coordinates":[-122.356708,47.668541]}},{"properties":{"address1":"10609 62nd Ave. S.","city":"Seattle","zip":"98178","latitude_deal":47.621353,"parent_category_deal":"Beauty and Spas","longitude_cc":-122.256565,"category_deal":"Hair Removal","buyer_id":3314,"deal_id":101,"distance between":8.630385426,"latitude_cc":47.506015,"id":"a62uuoal632h","state":"WA","longitude_deal":-122.185477},"type":"Feature","geometry":{"type":"Point","coordinates":[-122.256565,47.506015]}},{"properties":{"address1":"3438 11th Ave W,","city":"Seattle","zip":"98119","latitude_deal":47.621353,"parent_category_deal":"Beauty and Spas","longitude_cc":-122.371364,"category_deal":"Hair Removal","buyer_id":3315,"deal_id":101,"distance between":8.905050899,"latitude_cc":47.651744,"id":"a62uuohv098p","state":"WA","longitude_deal":-122.185477},"type":"Feature","geometry":{"type":"Point","coordinates":[-122.371364,47.651744]}},{"properties":{"address1":"727 N 85th ST #303","city":"Seattle","zip":"98103","latitude_deal":47.621353,"parent_category_deal":"Beauty and Spas","longitude_cc":-122.349074,"category_deal":"Hair Removal","buyer_id":3316,"deal_id":101,"distance between":8.986795775,"latitude_cc":47.690462,"id":"a62uuonceico","state":"WA","longitude_deal":-122.185477},"type":"Feature","geometry":{"type":"Point","coordinates":[-122.349074,47.690462]}},{"properties":{"address1":"940 N 89th St","city":"Seattle","zip":"98103","latitude_deal":47.621353,"parent_category_deal":"Beauty and Spas","longitude_cc":-122.346106,"category_deal":"Hair Removal","buyer_id":3317,"deal_id":101,"distance between":8.991141468,"latitude_cc":47.69367,"id":"a62uuo9fq8y7","state":"AL","longitude_deal":-122.185477},"type":"Feature","geometry":{"type":"Point","coordinates":[-122.346106,47.69367]}},{"properties":{"address1":"4515 NE 5th Pl","city":"Renton","zip":"98059","latitude_deal":47.621353,"parent_category_deal":"Beauty and Spas","longitude_cc":-122.158308,"category_deal":"Hair Removal","buyer_id":3318,"deal_id":101,"distance between":9.090709439,"latitude_cc":47.491059,"id":"a62uuogdwbe5","state":"WA","longitude_deal":-122.185477},"type":"Feature","geometry":{"type":"Point","coordinates":[-122.158308,47.491059]}},{"properties":{"address1":"9057 Greenwood Ave N #405","city":"Seattle","zip":"98103","latitude_deal":47.621353,"parent_category_deal":"Beauty and Spas","longitude_cc":-122.35555,"category_deal":"Hair Removal","buyer_id":3319,"deal_id":101,"distance between":9.417588109,"latitude_cc":47.69523,"id":"a62uuok0jm6w","state":"WA","longitude_deal":-122.185477},"type":"Feature","geometry":{"type":"Point","coordinates":[-122.35555,47.69523]}},{"properties":{"address1":"12218 48th Ave S","city":"Seattle","zip":"98178","latitude_deal":47.621353,"parent_category_deal":"Beauty and Spas","longitude_cc":-122.273712,"category_deal":"Hair Removal","buyer_id":3320,"deal_id":101,"distance between":9.729926606,"latitude_cc":47.493731,"id":"a62uuomck4g7","state":"WA","longitude_deal":-122.185477},"type":"Feature","geometry":{"type":"Point","coordinates":[-122.273712,47.493731]}},{"properties":{"address1":"2045 NE Katsura st","city":"Issaquah","zip":"98029","latitude_deal":47.621353,"parent_category_deal":"Beauty and Spas","longitude_cc":-122.004329,"category_deal":"Hair Removal","buyer_id":3321,"deal_id":101,"distance between":9.801256794,"latitude_cc":47.549268,"id":"a62uuochxsmf","state":"WA","longitude_deal":-122.185477},"type":"Feature","geometry":{"type":"Point","coordinates":[-122.004329,47.549268]}},{"properties":{"address1":"1203 NW 85TH ST APT 101","city":"Seattle","zip":"98117","latitude_deal":47.621353,"parent_category_deal":"Beauty and Spas","longitude_cc":-122.371619,"category_deal":"Hair Removal","buyer_id":3322,"deal_id":101,"distance between":9.894367298,"latitude_cc":47.690552,"id":"a62uuoa7sv2y","state":"WA","longitude_deal":-122.185477},"type":"Feature","geometry":{"type":"Point","coordinates":[-122.371619,47.690552]}},{"properties":{"address1":"4406 SE 4th Pl.","city":"Renton","zip":"98059","latitude_deal":47.621353,"parent_category_deal":"Beauty and Spas","longitude_cc":-122.159606,"category_deal":"Hair Removal","buyer_id":3323,"deal_id":101,"distance between":9.932543312,"latitude_cc":47.478655,"id":"a62uuoluod5d","state":"WA","longitude_deal":-122.185477},"type":"Feature","geometry":{"type":"Point","coordinates":[-122.159606,47.478655]}},{"properties":{"address1":"3417c 33rd Ave W","city":"Seattle","zip":"98199","latitude_deal":47.621353,"parent_category_deal":"Beauty and Spas","longitude_cc":-122.399762,"category_deal":"Hair Removal","buyer_id":3324,"deal_id":101,"distance between":10.18246641,"latitude_cc":47.650873,"id":"a62uuohv2x8g","state":"WA","longitude_deal":-122.185477},"type":"Feature","geometry":{"type":"Point","coordinates":[-122.399762,47.650873]}},{"properties":{"address1":"4100 SW Edmunds St #110","city":"Seattle","zip":"98116","latitude_deal":47.621353,"parent_category_deal":"Beauty and Spas","longitude_cc":-122.384284,"category_deal":"Hair Removal","buyer_id":3325,"deal_id":101,"distance between":10.20546519,"latitude_cc":47.559374,"id":"a62uuoegppjf","state":"WA","longitude_deal":-122.185477},"type":"Feature","geometry":{"type":"Point","coordinates":[-122.384284,47.559374]}},{"properties":{"address1":"4526 California Ave SW","city":"Seattle","zip":"98116","latitude_deal":47.621353,"parent_category_deal":"Beauty and Spas","longitude_cc":-122.386654,"category_deal":"Hair Removal","buyer_id":3326,"deal_id":101,"distance between":10.21629754,"latitude_cc":47.562551,"id":"a62uuoilg0ri","state":"WA","longitude_deal":-122.185477},"type":"Feature","geometry":{"type":"Point","coordinates":[-122.386654,47.562551]}},{"properties":{"address1":"4318 35th Ave. W.","city":"Seattle","zip":"98199","latitude_deal":47.621353,"parent_category_deal":"Beauty and Spas","longitude_cc":-122.402228,"category_deal":"Hair Removal","buyer_id":3327,"deal_id":101,"distance between":10.41786856,"latitude_cc":47.658876,"id":"a62uuoaatq9l","state":"WA","longitude_deal":-122.185477},"type":"Feature","geometry":{"type":"Point","coordinates":[-122.402228,47.658876]}},{"properties":{"address1":"15808 Saybrook Dr NE","city":"Woodinville","zip":"98077","latitude_deal":47.621353,"parent_category_deal":"Beauty and Spas","longitude_cc":-122.036391,"category_deal":"Hair Removal","buyer_id":3328,"deal_id":101,"distance between":10.80467412,"latitude_cc":47.741277,"id":"a62uuogszlyt","state":"WA","longitude_deal":-122.185477},"type":"Feature","geometry":{"type":"Point","coordinates":[-122.036391,47.741277]}},{"properties":{"address1":"12725 7th Avenue NW","city":"Seattle","zip":"98177","latitude_deal":47.621353,"parent_category_deal":"Beauty and Spas","longitude_cc":-122.365175,"category_deal":"Hair Removal","buyer_id":3329,"deal_id":101,"distance between":10.87498314,"latitude_cc":47.722019,"id":"a62uuoapc0vd","state":"WA","longitude_deal":-122.185477},"type":"Feature","geometry":{"type":"Point","coordinates":[-122.365175,47.722019]}},{"properties":{"address1":"5026 S. 146th Street","city":"Tukwila","zip":"98168","latitude_deal":47.621353,"parent_category_deal":"Beauty and Spas","longitude_cc":-122.27195,"category_deal":"Hair Removal","buyer_id":3330,"deal_id":101,"distance between":11.05280952,"latitude_cc":47.472404,"id":"a62uuolvy5ox","state":"WA","longitude_deal":-122.185477},"type":"Feature","geometry":{"type":"Point","coordinates":[-122.27195,47.472404]}},{"properties":{"address1":"1702 NE 179th St A201","city":"Shoreline","zip":"98155","latitude_deal":47.621353,"parent_category_deal":"Beauty and Spas","longitude_cc":-122.311477,"category_deal":"Hair Removal","buyer_id":3331,"deal_id":101,"distance between":11.16187509,"latitude_cc":47.758854,"id":"a62uuo9chnke","state":"WA","longitude_deal":-122.185477},"type":"Feature","geometry":{"type":"Point","coordinates":[-122.311477,47.758854]}},{"properties":{"address1":"14017 284th cir ne","city":"duvall","zip":"98019","latitude_deal":47.621353,"parent_category_deal":"Beauty and Spas","longitude_cc":-121.956244,"category_deal":"Hair Removal","buyer_id":3332,"deal_id":101,"distance between":12.87521014,"latitude_cc":47.725768,"id":"a62uuodbmlcv","state":"WA","longitude_deal":-122.185477},"type":"Feature","geometry":{"type":"Point","coordinates":[-121.956244,47.725768]}},{"properties":{"address1":"31827 NE Big Rock Rd","city":"Duvall","zip":"98019","latitude_deal":47.621353,"parent_category_deal":"Beauty and Spas","longitude_cc":-121.913387,"category_deal":"Hair Removal","buyer_id":3333,"deal_id":101,"distance between":13.91525809,"latitude_cc":47.704928,"id":"a62uuofzs059","state":"WA","longitude_deal":-122.185477},"type":"Feature","geometry":{"type":"Point","coordinates":[-121.913387,47.704928]}},{"properties":{"address1":"23935 20th ave s","city":"Des Moines","zip":"98198","latitude_deal":47.621353,"parent_category_deal":"Beauty and Spas","longitude_cc":-122.308075,"category_deal":"Hair Removal","buyer_id":3334,"deal_id":101,"distance between":17.15465611,"latitude_cc":47.387278,"id":"a62uuolmkbm2","state":"WA","longitude_deal":-122.185477},"type":"Feature","geometry":{"type":"Point","coordinates":[-122.308075,47.387278]}},{"properties":{"address1":"30006 201st Pl. SE","city":"Kent","zip":"98042","latitude_deal":47.621353,"parent_category_deal":"Beauty and Spas","longitude_cc":-122.072213,"category_deal":"Hair Removal","buyer_id":3335,"deal_id":101,"distance between":20.62044687,"latitude_cc":47.33288,"id":"a62uuoldjlf9","state":"WA","longitude_deal":-122.185477},"type":"Feature","geometry":{"type":"Point","coordinates":[-122.072213,47.33288]}},{"properties":{"address1":"2236 SW 309th Street","city":"Federal Way","zip":"98023","latitude_deal":47.621353,"parent_category_deal":"Beauty and Spas","longitude_cc":-122.363411,"category_deal":"Hair Removal","buyer_id":3336,"deal_id":101,"distance between":22.08535887,"latitude_cc":47.325181,"id":"a62uuofqa04a","state":"WA","longitude_deal":-122.185477},"type":"Feature","geometry":{"type":"Point","coordinates":[-122.363411,47.325181]}},{"properties":{"address1":"5309 So 382nd St","city":"Auburn","zip":"98001","latitude_deal":47.621353,"parent_category_deal":"Beauty and Spas","longitude_cc":-122.267913,"category_deal":"Hair Removal","buyer_id":3337,"deal_id":101,"distance between":25.31936237,"latitude_cc":47.25915,"id":"a62uuo9tktog","state":"WA","longitude_deal":-122.185477},"type":"Feature","geometry":{"type":"Point","coordinates":[-122.267913,47.25915]}},{"properties":{"address1":"10405 228th Ave CT E","city":"Buckley","zip":"98321","latitude_deal":47.621353,"parent_category_deal":"Beauty and Spas","longitude_cc":-122.124044,"category_deal":"Hair Removal","buyer_id":3338,"deal_id":101,"distance between":31.87180467,"latitude_cc":47.161923,"id":"a62uuok50z0j","state":"WA","longitude_deal":-122.185477},"type":"Feature","geometry":{"type":"Point","coordinates":[-122.124044,47.161923]}},{"properties":{"address1":"4741 Brillshire Ln SE","city":"Lacey","zip":"98503","latitude_deal":47.621353,"parent_category_deal":"Beauty and Spas","longitude_cc":-122.830892,"category_deal":"Hair Removal","buyer_id":3339,"deal_id":101,"distance between":52.28752376,"latitude_cc":47.003878,"id":"a62uuooos9bu","state":"WA","longitude_deal":-122.185477},"type":"Feature","geometry":{"type":"Point","coordinates":[-122.830892,47.003878]}},{"properties":{"address1":"2015 87th CT SW","city":"Olympia","zip":"98512","latitude_deal":47.621353,"parent_category_deal":"Beauty and Spas","longitude_cc":-122.927295,"category_deal":"Hair Removal","buyer_id":3340,"deal_id":101,"distance between":57.39024993,"latitude_cc":46.960413,"id":"a62uuof6qnd4","state":"WA","longitude_deal":-122.185477},"type":"Feature","geometry":{"type":"Point","coordinates":[-122.927295,46.960413]}},{"properties":{"address1":"802 Kingfisher Terrace","city":"Sunnyvale","zip":"94087","latitude_deal":47.621353,"parent_category_deal":"Beauty and Spas","longitude_cc":-122.017057,"category_deal":"Hair Removal","buyer_id":3341,"deal_id":101,"distance between":709.4776791,"latitude_cc":37.353206,"id":"a62uuo9p8tx9","state":"CA","longitude_deal":-122.185477},"type":"Feature","geometry":{"type":"Point","coordinates":[-122.017057,37.353206]}},{"properties":{"address1":"8104 lavender heights ct","city":"las vegas","zip":"89143","latitude_deal":47.621353,"parent_category_deal":"Beauty and Spas","longitude_cc":-115.283409,"category_deal":"Hair Removal","buyer_id":3342,"deal_id":101,"distance between":857.3958492,"latitude_cc":36.30878,"id":"a62uuoe4jvsd","state":"NV","longitude_deal":-122.185477},"type":"Feature","geometry":{"type":"Point","coordinates":[-115.283409,36.30878]}},{"properties":{"address1":"1827 Hornblend St","city":"San Diego","zip":"92109","latitude_deal":47.621353,"parent_category_deal":"Beauty and Spas","longitude_cc":-117.236254,"category_deal":"Hair Removal","buyer_id":3343,"deal_id":101,"distance between":1056.226201,"latitude_cc":32.799643,"id":"a62uuoay6fvu","state":"CA","longitude_deal":-122.185477},"type":"Feature","geometry":{"type":"Point","coordinates":[-117.236254,32.799643]}},{"properties":{"address1":"175 Fairfield Pike","city":"Yellow Springs","zip":"45387","latitude_deal":47.621353,"parent_category_deal":"Beauty and Spas","longitude_cc":-83.889759,"category_deal":"Hair Removal","buyer_id":3344,"deal_id":101,"distance between":1964.935339,"latitude_cc":39.81139,"id":"a62uuohl7sjk","state":"OH","longitude_deal":-122.185477},"type":"Feature","geometry":{"type":"Point","coordinates":[-83.889759,39.81139]}},{"properties":{"address1":"2907 14th Ave S","city":"Seattle","zip":"98144","latitude_deal":47.551194,"parent_category_deal":"Beauty and Spas","longitude_cc":-122.314815,"category_deal":"Hair Removal","buyer_id":5014,"deal_id":135,"distance between":1.836004427,"latitude_cc":47.577622,"id":"a62uuodd8t3q","state":"WA","longitude_deal":-122.318939},"type":"Feature","geometry":{"type":"Point","coordinates":[-122.314815,47.577622]}},{"properties":{"address1":"PO BOX 18371","city":"Seattle","zip":"98118","latitude_deal":47.551194,"parent_category_deal":"Beauty and Spas","longitude_cc":-122.276474,"category_deal":"Hair Removal","buyer_id":5015,"deal_id":135,"distance between":2.088792904,"latitude_cc":47.54158,"id":"a62uuoipck4q","state":"WA","longitude_deal":-122.318939},"type":"Feature","geometry":{"type":"Point","coordinates":[-122.276474,47.54158]}},{"properties":{"address1":"1765 14th Ave S","city":"Seattle","zip":"98144","latitude_deal":47.551194,"parent_category_deal":"Beauty and Spas","longitude_cc":-122.314984,"category_deal":"Hair Removal","buyer_id":5016,"deal_id":135,"distance between":2.518937282,"latitude_cc":47.587555,"id":"a62uuojlx4zn","state":"WA","longitude_deal":-122.318939},"type":"Feature","geometry":{"type":"Point","coordinates":[-122.314984,47.587555]}},{"properties":{"address1":"7533 29th Ave SW","city":"Seattle","zip":"98126","latitude_deal":47.551194,"parent_category_deal":"Beauty and Spas","longitude_cc":-122.369989,"category_deal":"Hair Removal","buyer_id":5017,"deal_id":135,"distance between":2.634352578,"latitude_cc":47.534875,"id":"a62uuolk2gox","state":"WA","longitude_deal":-122.318939},"type":"Feature","geometry":{"type":"Point","coordinates":[-122.369989,47.534875]}},{"properties":{"address1":"306B 20th Ave S","city":"Seattle","zip":"98144","latitude_deal":47.551194,"parent_category_deal":"Beauty and Spas","longitude_cc":-122.306217,"category_deal":"Hair Removal","buyer_id":5018,"deal_id":135,"distance between":3.414695916,"latitude_cc":47.599867,"id":"a62uuol3862d","state":"WA","longitude_deal":-122.318939},"type":"Feature","geometry":{"type":"Point","coordinates":[-122.306217,47.599867]}},{"properties":{"address1":"133 31st Avenue","city":"seattle","zip":"98122","latitude_deal":47.551194,"parent_category_deal":"Beauty and Spas","longitude_cc":-122.292705,"category_deal":"Hair Removal","buyer_id":5019,"deal_id":135,"distance between":3.730623611,"latitude_cc":47.602208,"id":"a62uuoopv7ep","state":"WA","longitude_deal":-122.318939},"type":"Feature","geometry":{"type":"Point","coordinates":[-122.292705,47.602208]}},{"properties":{"address1":"982 20th ave","city":"seattle","zip":"98122","latitude_deal":47.551194,"parent_category_deal":"Beauty and Spas","longitude_cc":-122.306089,"category_deal":"Hair Removal","buyer_id":5020,"deal_id":135,"distance between":4.168605123,"latitude_cc":47.610904,"id":"a62uuongo0yi","state":"WA","longitude_deal":-122.318939},"type":"Feature","geometry":{"type":"Point","coordinates":[-122.306089,47.610904]}},{"properties":{"address1":"3000 60th Ave SW #404","city":"Seattle","zip":"98116","latitude_deal":47.551194,"parent_category_deal":"Beauty and Spas","longitude_cc":-122.409182,"category_deal":"Hair Removal","buyer_id":5021,"deal_id":135,"distance between":4.583163545,"latitude_cc":47.577511,"id":"a62uuoahh40w","state":"WA","longitude_deal":-122.318939},"type":"Feature","geometry":{"type":"Point","coordinates":[-122.409182,47.577511]}},{"properties":{"address1":"2801 1st Ave #515","city":"Seattle","zip":"98121","latitude_deal":47.551194,"parent_category_deal":"Beauty and Spas","longitude_cc":-122.351745,"category_deal":"Hair Removal","buyer_id":5022,"deal_id":135,"distance between":4.755198573,"latitude_cc":47.616366,"id":"a62uuofyjlgp","state":"WA","longitude_deal":-122.318939},"type":"Feature","geometry":{"type":"Point","coordinates":[-122.351745,47.616366]}},{"properties":{"address1":"1504 143rd SW","city":"Seattle","zip":"98166","latitude_deal":47.551194,"parent_category_deal":"Beauty and Spas","longitude_cc":-122.349213,"category_deal":"Hair Removal","buyer_id":5023,"deal_id":135,"distance between":6.734387223,"latitude_cc":47.455891,"id":"a62uuodljn3u","state":"WA","longitude_deal":-122.318939},"type":"Feature","geometry":{"type":"Point","coordinates":[-122.349213,47.455891]}},{"properties":{"address1":"3652 Interlake Ave N #7","city":"Seattle","zip":"98103","latitude_deal":47.551194,"parent_category_deal":"Beauty and Spas","longitude_cc":-122.341148,"category_deal":"Hair Removal","buyer_id":5024,"deal_id":135,"distance between":7.017267073,"latitude_cc":47.651651,"id":"a62uuoog9nlo","state":"WA","longitude_deal":-122.318939},"type":"Feature","geometry":{"type":"Point","coordinates":[-122.341148,47.651651]}},{"properties":{"address1":"3238 23rd ave w","city":"Seattle","zip":"98199","latitude_deal":47.551194,"parent_category_deal":"Beauty and Spas","longitude_cc":-122.385854,"category_deal":"Hair Removal","buyer_id":5025,"deal_id":135,"distance between":7.455570297,"latitude_cc":47.649219,"id":"a62uuobjnkvx","state":"WA","longitude_deal":-122.318939},"type":"Feature","geometry":{"type":"Point","coordinates":[-122.385854,47.649219]}},{"properties":{"address1":"722 N 42 Street","city":"Seattle","zip":"98103","latitude_deal":47.551194,"parent_category_deal":"Beauty and Spas","longitude_cc":-122.349554,"category_deal":"Hair Removal","buyer_id":5026,"deal_id":135,"distance between":7.50845052,"latitude_cc":47.657892,"id":"a62uuolkuks9","state":"WA","longitude_deal":-122.318939},"type":"Feature","geometry":{"type":"Point","coordinates":[-122.349554,47.657892]}},{"properties":{"address1":"6000 140th AVE SE","city":"Bellevue","zip":"98006","latitude_deal":47.551194,"parent_category_deal":"Beauty and Spas","longitude_cc":-122.153503,"category_deal":"Hair Removal","buyer_id":5027,"deal_id":135,"distance between":7.717158739,"latitude_cc":47.548348,"id":"a62uuooh272k","state":"WA","longitude_deal":-122.318939},"type":"Feature","geometry":{"type":"Point","coordinates":[-122.153503,47.548348]}},{"properties":{"address1":"4738 15th Ave NE","city":"Seattle","zip":"98105","latitude_deal":47.551194,"parent_category_deal":"Beauty and Spas","longitude_cc":-122.311747,"category_deal":"Hair Removal","buyer_id":5028,"deal_id":135,"distance between":7.78895273,"latitude_cc":47.663826,"id":"a62uuogn5jcw","state":"WA","longitude_deal":-122.318939},"type":"Feature","geometry":{"type":"Point","coordinates":[-122.311747,47.663826]}},{"properties":{"address1":"7100 Greenwood Ave N #304","city":"Seattle","zip":"98103","latitude_deal":47.551194,"parent_category_deal":"Beauty and Spas","longitude_cc":-122.355289,"category_deal":"Hair Removal","buyer_id":5029,"deal_id":135,"distance between":9.086158654,"latitude_cc":47.680403,"id":"a62uuoj4lgsu","state":"WA","longitude_deal":-122.318939},"type":"Feature","geometry":{"type":"Point","coordinates":[-122.355289,47.680403]}},{"properties":{"address1":"928 n 73rd st","city":"seattle","zip":"98103","latitude_deal":47.551194,"parent_category_deal":"Beauty and Spas","longitude_cc":-122.34579,"category_deal":"Hair Removal","buyer_id":5030,"deal_id":135,"distance between":9.119662873,"latitude_cc":47.681944,"id":"a62uuog8b4il","state":"WA","longitude_deal":-122.318939},"type":"Feature","geometry":{"type":"Point","coordinates":[-122.34579,47.681944]}},{"properties":{"address1":"339 NW 79th St.","city":"Seattle","zip":"98117","latitude_deal":47.551194,"parent_category_deal":"Beauty and Spas","longitude_cc":-122.361748,"category_deal":"Hair Removal","buyer_id":5031,"deal_id":135,"distance between":9.530880518,"latitude_cc":47.686091,"id":"a62uuonr6bax","state":"WA","longitude_deal":-122.318939},"type":"Feature","geometry":{"type":"Point","coordinates":[-122.361748,47.686091]}},{"properties":{"address1":"9042-A Mary Ave NW","city":"Seattle","zip":"98117","latitude_deal":47.551194,"parent_category_deal":"Beauty and Spas","longitude_cc":-122.375247,"category_deal":"Hair Removal","buyer_id":5032,"deal_id":135,"distance between":10.30144956,"latitude_cc":47.695385,"id":"a62uuob64mzw","state":"WA","longitude_deal":-122.318939},"type":"Feature","geometry":{"type":"Point","coordinates":[-122.375247,47.695385]}},{"properties":{"address1":"16818 25th ave ne","city":"lake forest park","zip":"98155","latitude_deal":47.551194,"parent_category_deal":"Beauty and Spas","longitude_cc":-122.302808,"category_deal":"Hair Removal","buyer_id":5033,"deal_id":135,"distance between":13.78367343,"latitude_cc":47.750401,"id":"a62uuok5aadg","state":"WA","longitude_deal":-122.318939},"type":"Feature","geometry":{"type":"Point","coordinates":[-122.302808,47.750401]}},{"properties":{"address1":"11108 SE 298th St","city":"Auburn","zip":"98092","latitude_deal":47.551194,"parent_category_deal":"Beauty and Spas","longitude_cc":-122.193234,"category_deal":"Hair Removal","buyer_id":5034,"deal_id":135,"distance between":16.02042477,"latitude_cc":47.335464,"id":"a62uuoc3rs3d","state":"WA","longitude_deal":-122.318939},"type":"Feature","geometry":{"type":"Point","coordinates":[-122.193234,47.335464]}},{"properties":{"address1":"10623 229th Place SW","city":"Edmonds","zip":"98020","latitude_deal":47.551194,"parent_category_deal":"Beauty and Spas","longitude_cc":-122.375211,"category_deal":"Hair Removal","buyer_id":5035,"deal_id":135,"distance between":16.79218616,"latitude_cc":47.79127,"id":"a62uuogoxfgq","state":"WA","longitude_deal":-122.318939},"type":"Feature","geometry":{"type":"Point","coordinates":[-122.375211,47.79127]}},{"properties":{"address1":"141 NE Max William Loop","city":"Poulsbo","zip":"98370","latitude_deal":47.551194,"parent_category_deal":"Beauty and Spas","longitude_cc":-122.646579,"category_deal":"Hair Removal","buyer_id":5036,"deal_id":135,"distance between":21.07520017,"latitude_cc":47.761778,"id":"a62uuok47zih","state":"WA","longitude_deal":-122.318939},"type":"Feature","geometry":{"type":"Point","coordinates":[-122.646579,47.761778]}},{"properties":{"address1":"5514 80th ave ct w","city":"university place","zip":"98467","latitude_deal":47.551194,"parent_category_deal":"Beauty and Spas","longitude_cc":-122.544707,"category_deal":"Hair Removal","buyer_id":5037,"deal_id":135,"distance between":26.00533822,"latitude_cc":47.20724,"id":"a62uuons851w","state":"WA","longitude_deal":-122.318939},"type":"Feature","geometry":{"type":"Point","coordinates":[-122.544707,47.20724]}},{"properties":{"address1":"512 Winton Avenue","city":"Everett","zip":"98201","latitude_deal":47.551194,"parent_category_deal":"Beauty and Spas","longitude_cc":-122.195315,"category_deal":"Hair Removal","buyer_id":5038,"deal_id":135,"distance between":32.24107912,"latitude_cc":48.010394,"id":"a62uuofkeeu8","state":"WA","longitude_deal":-122.318939},"type":"Feature","geometry":{"type":"Point","coordinates":[-122.195315,48.010394]}},{"properties":{"address1":"1086 Bell Hill Place","city":"Dupont","zip":"98327","latitude_deal":47.551194,"parent_category_deal":"Beauty and Spas","longitude_cc":-122.62372,"category_deal":"Hair Removal","buyer_id":5039,"deal_id":135,"distance between":34.24676804,"latitude_cc":47.100612,"id":"a62uuo9rhana","state":"WA","longitude_deal":-122.318939},"type":"Feature","geometry":{"type":"Point","coordinates":[-122.62372,47.100612]}}],"is_temporal":false,"author":{"url":"","metadata":"","contact_name":"","contact_address":"","source":"","contact_phone":""},"source":"","pagination":{"sort":null,"start":0,"total":211,"limit":1000000},"state":"complete","tags":"","published":"2014-08-10T11:54:56-04:00","id":70759}