{"type":"FeatureCollection","data_type":"Dataset","url_type":null,"permissions":[{"permissions":{"download":true,"view":true},"group_id":"everyone"}],"classification":null,"title":"deals massage","count":6,"stream_id":70768,"contributor":{"url":"http://geocommons.com/users/17425","name":"maptastic"},"data_attributes":null,"calculation_params":null,"icon_link":null,"link":"http://geocommons.com/overlays/70768.json","extent":[-122.383,32.7088,-117.159,47.6669],"geometry_types":["point"],"unique_name":null,"name":"deals massage","feature_count":6,"description":"","next_feature":null,"is_raster":false,"short_classification":"Y","stats":{"latitude":{"max":47.666945,"mean":37.7167155,"variance":59.1104818408559,"stdev":7.68833413951656,"min":32.708824,"median":32.799168},"deal_id":{"max":162,"mean":95.6666666666667,"variance":2709.86666666667,"stdev":52.0563796922785,"min":23,"median":110},"longitude":{"max":-117.159028,"mean":-118.921026,"variance":7.09710557195879,"stdev":2.66403933378597,"min":-122.382757,"median":-117.244166}},"features":[{"properties":{"address1":"1414 Garnet Ave","city":"San Diego","deal":"$22 for a One-Hour Healing Massage by Student Massage Practitioners ($45 value)","category":"Massage","parent_category":"Beauty and Spas","zip":"92109","latitude":32.799168,"deal_id":23,"merchant":"IPSB Massage Therapy Center","longitude":-117.244166,"id":"a6fgwxfktz4e","state":"CA"},"type":"Feature","geometry":{"type":"Point","coordinates":[-117.244166,32.799168]}},{"properties":{"address1":"1414 Garnet Ave","city":"San Diego","deal":"$22 for a One-Hour Healing Massage by Student Massage Practitioners ($45 value)","category":"Massage","parent_category":"Beauty and Spas","zip":"92109","latitude":32.799168,"deal_id":64,"merchant":"IPSB Massage Therapy Center","longitude":-117.244166,"id":"a6fgwx9h7kht","state":"CA"},"type":"Feature","geometry":{"type":"Point","coordinates":[-117.244166,32.799168]}},{"properties":{"address1":"5401 Leary Ave NW","city":"Seattle","deal":"$55 for a 1-Hour Hot Stone Massage ($120 Value)","category":"Massage","parent_category":"Beauty and Spas","zip":"98107","latitude":47.666945,"deal_id":73,"merchant":"Massage Heights","longitude":-122.382757,"id":"a6fgwxcmwz9b","state":"WA"},"type":"Feature","geometry":{"type":"Point","coordinates":[-122.382757,47.666945]}},{"properties":{"address1":"910 Lenora Ave Suite 160","city":"Seattle","deal":"$37 for a One Hour Massage Plus Chiropractic Exam ($100 Value)","category":"Massage","parent_category":"Beauty and Spas","zip":"98121","latitude":47.617364,"deal_id":110,"merchant":"Align Chiropractic","longitude":-122.337011,"id":"a6fgwxfry570","state":"WA"},"type":"Feature","geometry":{"type":"Point","coordinates":[-122.337011,47.617364]}},{"properties":{"address1":"345 Sixth Ave","city":"San Diego","deal":"$30 for 1 Hour Swedish, Deep Tissue or Prenatal Massage ($80 Value)","category":"Massage","parent_category":"Beauty and Spas","zip":"92101","latitude":32.708824,"deal_id":142,"merchant":"DCOMPRESSDOWNTOWN","longitude":-117.159028,"id":"a6fgwxb3xo1k","state":"CA"},"type":"Feature","geometry":{"type":"Point","coordinates":[-117.159028,32.708824]}},{"properties":{"address1":"345 Sixth Ave","city":"San Diego","deal":"$30 for 1 Hour Swedish, Deep Tissue or Prenatal Massage ($80 Value)","category":"Massage","parent_category":"Beauty and Spas","zip":"92101","latitude":32.708824,"deal_id":162,"merchant":"DCOMPRESSDOWNTOWN","longitude":-117.159028,"id":"a6fgwxb238no","state":"CA"},"type":"Feature","geometry":{"type":"Point","coordinates":[-117.159028,32.708824]}}],"is_temporal":false,"author":{"url":"","metadata":"","contact_name":"","contact_address":"","source":"","contact_phone":""},"source":"","pagination":{"sort":null,"start":0,"total":6,"limit":1000000},"state":"complete","tags":"","published":"2014-08-10T11:55:23-04:00","id":70768}