{"type":"FeatureCollection","data_type":"Dataset","url_type":null,"permissions":[{"permissions":{"download":true,"view":true},"group_id":"everyone"}],"classification":null,"title":"deals hair removal","count":5,"stream_id":70765,"contributor":{"url":"http://geocommons.com/users/17425","name":"maptastic"},"data_attributes":null,"calculation_params":null,"icon_link":null,"link":"http://geocommons.com/overlays/70765.json","extent":[-122.319,32.7735,-117.155,47.6214],"geometry_types":["point"],"unique_name":null,"name":"deals hair removal","feature_count":5,"description":"","next_feature":null,"is_raster":false,"short_classification":"Y","stats":{"latitude":{"max":47.621353,"mean":38.70877,"variance":65.6757794761405,"stdev":8.10405944426252,"min":32.773527,"median":32.798888},"deal_id":{"max":135,"mean":73.0,"variance":2312.5,"stdev":48.0884601541784,"min":12,"median":74},"longitude":{"max":-117.155004,"mean":-119.2300332,"variance":7.6148713740032,"stdev":2.75950563942225,"min":-122.318939,"median":-117.245373}},"features":[{"properties":{"address1":"1356 Garnet Avenue","city":"San Diego","deal":"$21 for a Professional Brazilian Wax ($45 Value)","category":"Hair Removal","parent_category":"Beauty and Spas","zip":"92109","latitude":32.798888,"deal_id":12,"merchant":"Viva Brazil","longitude":-117.245373,"id":"a645j0wuey51","state":"CA"},"type":"Feature","geometry":{"type":"Point","coordinates":[-117.245373,32.798888]}},{"properties":{"address1":"1356 Garnet Avenue","city":"San Diego","deal":"$21 for a Custom Brazilian Wax ($45 Value)","category":"Hair Removal","parent_category":"Beauty and Spas","zip":"92109","latitude":32.798888,"deal_id":43,"merchant":"Viva Brazil","longitude":-117.245373,"id":"a645j0xhdf76","state":"CA"},"type":"Feature","geometry":{"type":"Point","coordinates":[-117.245373,32.798888]}},{"properties":{"address1":"7851 Mission Center Ct","city":"San Diego","deal":"$20 for a Brazilian Wax ($50 Value)","category":"Hair Removal","parent_category":"Beauty and Spas","zip":"92108","latitude":32.773527,"deal_id":74,"merchant":"AHN Skin &amp; Beauty","longitude":-117.155004,"id":"a645j10vybrt","state":"CA"},"type":"Feature","geometry":{"type":"Point","coordinates":[-117.155004,32.773527]}},{"properties":{"address1":"1240 116th Ave., NE Suite 110","city":"Bellevue","deal":"$99 for Three Laser Hair Removal Treatments ($375 Value)","category":"Hair Removal","parent_category":"Beauty and Spas","zip":"98004","latitude":47.621353,"deal_id":101,"merchant":"Avanti Skin &amp; Laser Lipo Clinics","longitude":-122.185477,"id":"a645j0sjs5vk","state":"WA"},"type":"Feature","geometry":{"type":"Point","coordinates":[-122.185477,47.621353]}},{"properties":{"address1":"5701 Airport Way S","city":"Seattle","deal":"$30 for $60 Worth of Waxing","category":"Hair Removal","parent_category":"Beauty and Spas","zip":"98108","latitude":47.551194,"deal_id":135,"merchant":"Wax Sabbath Spa","longitude":-122.318939,"id":"a645j14k5mey","state":"WA"},"type":"Feature","geometry":{"type":"Point","coordinates":[-122.318939,47.551194]}}],"is_temporal":false,"author":{"url":"","metadata":"","contact_name":"","contact_address":"","source":"","contact_phone":""},"source":"","pagination":{"sort":null,"start":0,"total":5,"limit":1000000},"state":"complete","tags":"","published":"2014-08-10T11:55:22-04:00","id":70765}