{"type":"FeatureCollection","data_type":"Dataset","url_type":null,"permissions":[{"permissions":{"download":true,"view":true},"group_id":"everyone"}],"classification":null,"title":"Pawn Shops, Atlanta GA 2008","count":85,"stream_id":7087,"contributor":{"url":"http://geocommons.com/users/2943","name":"Margot"},"data_attributes":null,"calculation_params":null,"icon_link":null,"link":"http://geocommons.com/overlays/7087.json","extent":[-84.5658,33.6265,-84.2793,33.9164],"geometry_types":["point"],"unique_name":null,"name":"Pawn Shops, Atlanta GA 2008","feature_count":85,"description":"Data was found for pawn shops in Atlanta, GA USA on Insiderpages.com and cut and pasted into a new spreadsheet. Batchgeocode.com was used to geocode the data. It was then uploaded into geocommons. The data was spot checked within a ten mile radius of Atlanta GA USA. Several addresses were not included because they didn't geocode properly. ","next_feature":null,"is_raster":false,"short_classification":"Y","stats":{"zip":{"max":30354,"mean":30270.3176470588,"variance":11582.6478991597,"stdev":107.62271088929,"min":30032,"median":30316},"latitude":{"max":33.91644,"mean":33.7923074235294,"variance":0.00717132281317558,"stdev":0.0846836632012077,"min":33.626465,"median":33.800815},"longitude":{"max":-84.279299,"mean":-84.4103315294117,"variance":0.00508602673594255,"stdev":0.0713163847649511,"min":-84.565788,"median":-84.404173}},"features":[{"properties":{"city":"Hapeville","storename":"A 1 Pawn Inc","zip":30354,"latitude":33.657526,"longitude":-84.366383,"id":"a630mlv21rpt","address":"529 N Central Ave","state":"GA"},"type":"Feature","geometry":{"type":"Point","coordinates":[-84.366383,33.657526]}},{"properties":{"city":"Hapeville","storename":"A 1 Pawn Inc","zip":30354,"latitude":33.657526,"longitude":-84.406357,"id":"a630mm0ukkhi","address":"529 N Central Ave","state":"GA"},"type":"Feature","geometry":{"type":"Point","coordinates":[-84.406357,33.657526]}},{"properties":{"city":"Marietta","storename":"A1 Action Cash Inc","zip":30060,"latitude":33.902188,"longitude":-84.279299,"id":"a630mlr0ehw3","address":"431 Pat Mell Rd Se","state":"GA"},"type":"Feature","geometry":{"type":"Point","coordinates":[-84.279299,33.902188]}},{"properties":{"city":"East Point","storename":"Abe's Pawn","zip":30344,"latitude":33.670288,"longitude":-84.442698,"id":"a630mm287ups","address":"3130 Washington Rd","state":"GA"},"type":"Feature","geometry":{"type":"Point","coordinates":[-84.442698,33.670288]}},{"properties":{"city":"Smyrna","storename":"Anchor Financial","zip":30080,"latitude":33.888933,"longitude":-84.474789,"id":"a630mlxeecgo","address":"2620 Cobb Pkwy Se","state":"GA"},"type":"Feature","geometry":{"type":"Point","coordinates":[-84.474789,33.888933]}},{"properties":{"city":"Smyrna","storename":"Anchor Financial","zip":30080,"latitude":33.888933,"longitude":-84.475769,"id":"a630mlptvwhr","address":"2620 Cobb Pkwy Se","state":"GA"},"type":"Feature","geometry":{"type":"Point","coordinates":[-84.475769,33.888933]}},{"properties":{"city":"Atlanta","storename":"Ashley's Personal Shopping","zip":30311,"latitude":33.725704,"longitude":-84.349304,"id":"a630mlu7epys","address":"26 Belmonte Cir Sw","state":"GA"},"type":"Feature","geometry":{"type":"Point","coordinates":[-84.349304,33.725704]}},{"properties":{"city":"Atlanta","storename":"Ashley's Personal Shopping","zip":30311,"latitude":33.725704,"longitude":-84.444997,"id":"a630mlmmuo07","address":"26 Belmonte Cir Sw","state":"GA"},"type":"Feature","geometry":{"type":"Point","coordinates":[-84.444997,33.725704]}},{"properties":{"city":"Chamblee","storename":"Bankers Title Loans","zip":30341,"latitude":33.883083,"longitude":-84.533865,"id":"a630mlosng1k","address":"4835 Buford Hwy","state":"GA"},"type":"Feature","geometry":{"type":"Point","coordinates":[-84.533865,33.883083]}},{"properties":{"city":"Atlanta","storename":"Beverly Bremer Silver Shop","zip":30305,"latitude":33.840699,"longitude":-84.352131,"id":"a630mlvtmmkk","address":"3164 Peachtree Rd Nw # A","state":"GA"},"type":"Feature","geometry":{"type":"Point","coordinates":[-84.352131,33.840699]}},{"properties":{"city":"Atlanta","storename":"Blair Village Pawn Shop","zip":30315,"latitude":33.704831,"longitude":-84.407894,"id":"a630mlqnp1ur","address":"1805 Jonesboro Rd Se","state":"GA"},"type":"Feature","geometry":{"type":"Point","coordinates":[-84.407894,33.704831]}},{"properties":{"city":"Decatur","storename":"Candler Road Pawn Shop","zip":30032,"latitude":33.735596,"longitude":-84.444997,"id":"a630mlv9jigg","address":"1890 Candler Rd","state":"GA"},"type":"Feature","geometry":{"type":"Point","coordinates":[-84.444997,33.735596]}},{"properties":{"city":"Atlanta","storename":"Car Title Loans","zip":30324,"latitude":33.807466,"longitude":-84.366453,"id":"a630mlmnorrz","address":"1874 Piedmont Rd Ne","state":"GA"},"type":"Feature","geometry":{"type":"Point","coordinates":[-84.366453,33.807466]}},{"properties":{"city":"Atlanta","storename":"Car Title Loans","zip":30324,"latitude":33.807466,"longitude":-84.36633,"id":"a630mlz08tzb","address":"1874 Piedmont Rd Ne","state":"GA"},"type":"Feature","geometry":{"type":"Point","coordinates":[-84.36633,33.807466]}},{"properties":{"city":"Decatur","storename":"Cash &amp; Ride Pawn","zip":30033,"latitude":33.797175,"longitude":-84.306054,"id":"a630mlxnr991","address":"1694 Scott Blvd # A","state":"GA"},"type":"Feature","geometry":{"type":"Point","coordinates":[-84.306054,33.797175]}},{"properties":{"city":"Decatur","storename":"Cash America Pawn","zip":30032,"latitude":33.738638,"longitude":-84.286037,"id":"a630mltf6wix","address":"3181 Glenwood Rd","state":"GA"},"type":"Feature","geometry":{"type":"Point","coordinates":[-84.286037,33.738638]}},{"properties":{"city":"Atlanta","storename":"Cash America Pawn","zip":30311,"latitude":33.705116,"longitude":-84.378608,"id":"a630mlwhyk80","address":"1829 Delowe Dr Sw","state":"GA"},"type":"Feature","geometry":{"type":"Point","coordinates":[-84.378608,33.705116]}},{"properties":{"city":"Atlanta","storename":"Cash America Pawn","zip":30345,"latitude":33.865517,"longitude":-84.306359,"id":"a630mlwr1s66","address":"4230 Buford Hwy Ne","state":"GA"},"type":"Feature","geometry":{"type":"Point","coordinates":[-84.306359,33.865517]}},{"properties":{"city":"Atlanta","storename":"Cash America Pawn","zip":30316,"latitude":33.721289,"longitude":-84.349634,"id":"a630mlpiif3e","address":"1202 Moreland Ave Se","state":"GA"},"type":"Feature","geometry":{"type":"Point","coordinates":[-84.349634,33.721289]}},{"properties":{"city":"Atlanta","storename":"Cash America Pawn","zip":30354,"latitude":33.64938,"longitude":-84.362462,"id":"a630mlxl2l4p","address":"3850 Jonesboro Rd Se","state":"GA"},"type":"Feature","geometry":{"type":"Point","coordinates":[-84.362462,33.64938]}},{"properties":{"city":"Atlanta","storename":"Cash America Pawn","zip":30318,"latitude":33.775836,"longitude":-84.389137,"id":"a630mlug4lno","address":"2619 Bankhead Hwy Nw","state":"GA"},"type":"Feature","geometry":{"type":"Point","coordinates":[-84.389137,33.775836]}},{"properties":{"city":"Atlanta","storename":"Chapes","zip":30326,"latitude":33.846587,"longitude":-84.327622,"id":"a630mlva1atj","address":"3355 Lenox Rd Ne # 600","state":"GA"},"type":"Feature","geometry":{"type":"Point","coordinates":[-84.327622,33.846587]}},{"properties":{"city":"Smyrna","storename":"Crossings","zip":30080,"latitude":33.873628,"longitude":-84.303749,"id":"a630mlqnul5l","address":"3260 S Cobb Dr Se","state":"GA"},"type":"Feature","geometry":{"type":"Point","coordinates":[-84.303749,33.873628]}},{"properties":{"city":"Atlanta","storename":"Cumberland Mall","zip":30339,"latitude":33.879858,"longitude":-84.466214,"id":"a630mlta3iq0","address":"1000 Cumberland Mall Se","state":"GA"},"type":"Feature","geometry":{"type":"Point","coordinates":[-84.466214,33.879858]}},{"properties":{"city":"Smyrna","storename":"Cumberland Mall","zip":30080,"latitude":33.860045,"longitude":-84.360804,"id":"a630mlxr13oz","address":"Ih 285 &amp; 75","state":"GA"},"type":"Feature","geometry":{"type":"Point","coordinates":[-84.360804,33.860045]}},{"properties":{"city":"Atlanta","storename":"Cumberland Mall","zip":30339,"latitude":33.879858,"longitude":-84.465228,"id":"a630mlq4elbt","address":"1000 Cumberland Mall Se","state":"GA"},"type":"Feature","geometry":{"type":"Point","coordinates":[-84.465228,33.879858]}},{"properties":{"city":"Atlanta","storename":"Cumberland Place Shpg Ctr","zip":30339,"latitude":33.880363,"longitude":-84.465118,"id":"a630mlmxxigi","address":"2997 Cumberland Blvd Se","state":"GA"},"type":"Feature","geometry":{"type":"Point","coordinates":[-84.465118,33.880363]}},{"properties":{"city":"East Point","storename":"Delowe Pawn Shop","zip":30344,"latitude":33.689526,"longitude":-84.396486,"id":"a630mlsj0z8q","address":"2111 Headland Dr","state":"GA"},"type":"Feature","geometry":{"type":"Point","coordinates":[-84.396486,33.689526]}},{"properties":{"city":"Atlanta","storename":"East Point Pawn Shop Inc","zip":30344,"latitude":33.670005,"longitude":-84.409654,"id":"a630mlrcx5t6","address":"1636 Willingham Dr","state":"GA"},"type":"Feature","geometry":{"type":"Point","coordinates":[-84.409654,33.670005]}},{"properties":{"city":"Atlanta","storename":"El Pawn","zip":30318,"latitude":33.800815,"longitude":-84.284323,"id":"a630mlnulb3v","address":"1708 Howell Mill Rd Nw","state":"GA"},"type":"Feature","geometry":{"type":"Point","coordinates":[-84.284323,33.800815]}},{"properties":{"city":"Atlanta","storename":"Fulton Loan Office Inc","zip":30313,"latitude":33.745299,"longitude":-84.290693,"id":"a630mluur6q9","address":"343 Peters St Sw","state":"GA"},"type":"Feature","geometry":{"type":"Point","coordinates":[-84.290693,33.745299]}},{"properties":{"city":"Atlanta","storename":"Fulton Loan Office Inc","zip":30313,"latitude":33.745299,"longitude":-84.404173,"id":"a630mm0gbaoo","address":"343 Peters St Sw","state":"GA"},"type":"Feature","geometry":{"type":"Point","coordinates":[-84.404173,33.745299]}},{"properties":{"city":"Atlanta","storename":"Georgia Title Pawn","zip":30315,"latitude":33.680976,"longitude":-84.462952,"id":"a630mltx3193","address":"244 Cleveland Ave Sw","state":"GA"},"type":"Feature","geometry":{"type":"Point","coordinates":[-84.462952,33.680976]}},{"properties":{"city":"Atlanta","storename":"Greenbriar Mall","zip":30331,"latitude":33.689732,"longitude":-84.458088,"id":"a630mlvhukya","address":"2841 Greenbriar Pkwy Sw","state":"GA"},"type":"Feature","geometry":{"type":"Point","coordinates":[-84.458088,33.689732]}},{"properties":{"city":"Atlanta","storename":"Grip Mail Marketing","zip":30339,"latitude":33.87631,"longitude":-84.530651,"id":"a630mlrfvuxe","address":"1827 Powers Ferry Rd # 16 300","state":"GA"},"type":"Feature","geometry":{"type":"Point","coordinates":[-84.530651,33.87631]}},{"properties":{"city":"Hapeville","storename":"Hapeville Pawn Shop","zip":30354,"latitude":33.661381,"longitude":-84.406357,"id":"a630mm2nc8pj","address":"3400 Dogwood Dr","state":"GA"},"type":"Feature","geometry":{"type":"Point","coordinates":[-84.406357,33.661381]}},{"properties":{"city":"Atlanta","storename":"House of Couture Boutique","zip":30303,"latitude":33.75203,"longitude":-84.402101,"id":"a630mlwta2lv","address":"217 Mitchell Street","state":"GA"},"type":"Feature","geometry":{"type":"Point","coordinates":[-84.402101,33.75203]}},{"properties":{"city":"Decatur","storename":"Jason's Pawn Shop","zip":30033,"latitude":33.790397,"longitude":-84.407299,"id":"a630mlmxez9i","address":"2104 N Decatur Rd","state":"GA"},"type":"Feature","geometry":{"type":"Point","coordinates":[-84.407299,33.790397]}},{"properties":{"city":"Atlanta","storename":"Jerry's Pawn Shop","zip":30303,"latitude":33.753839,"longitude":-84.485619,"id":"a630mm04zofs","address":"21 Decatur St Se","state":"GA"},"type":"Feature","geometry":{"type":"Point","coordinates":[-84.485619,33.753839]}},{"properties":{"city":"Atlanta","storename":"Lakewood Avenue Pawn Shop","zip":30315,"latitude":33.707242,"longitude":-84.458902,"id":"a630mltb1u3m","address":"1711 Lakewood Ave Se","state":"GA"},"type":"Feature","geometry":{"type":"Point","coordinates":[-84.458902,33.707242]}},{"properties":{"city":"Atlanta","storename":"Lenox Mall Georgia","zip":30326,"latitude":33.848774,"longitude":-84.367923,"id":"a630mm050y7t","address":"3393 Peachtree Rd Ne","state":"GA"},"type":"Feature","geometry":{"type":"Point","coordinates":[-84.367923,33.848774]}},{"properties":{"city":"Atlanta","storename":"Lenox Square","zip":30326,"latitude":33.848774,"longitude":-84.364767,"id":"a630mm12phpy","address":"3393 Peachtree Rd Ne","state":"GA"},"type":"Feature","geometry":{"type":"Point","coordinates":[-84.364767,33.848774]}},{"properties":{"city":"Atlanta","storename":"Lenox Square","zip":30326,"latitude":33.848774,"longitude":-84.364767,"id":"a630mlo59iph","address":"3393 Peachtree Rd Ne","state":"GA"},"type":"Feature","geometry":{"type":"Point","coordinates":[-84.364767,33.848774]}},{"properties":{"city":"Marietta","storename":"Lighthouse Financial Group","zip":30060,"latitude":33.906376,"longitude":-84.490363,"id":"a630mltsde6a","address":"1871 Cobb Pkwy S # 400","state":"GA"},"type":"Feature","geometry":{"type":"Point","coordinates":[-84.490363,33.906376]}},{"properties":{"city":"Mableton","storename":"Lithia Springs Shopping Ctr","zip":30126,"latitude":33.817219,"longitude":-84.389749,"id":"a630mlwhnhdx","address":"560 Thornton Rd","state":"GA"},"type":"Feature","geometry":{"type":"Point","coordinates":[-84.389749,33.817219]}},{"properties":{"city":"Smyrna","storename":"Mail Advantage Inc","zip":30082,"latitude":33.880827,"longitude":-84.473355,"id":"a630mlw2bmci","address":"2976 Ask Kay Dr Se # D","state":"GA"},"type":"Feature","geometry":{"type":"Point","coordinates":[-84.473355,33.880827]}},{"properties":{"city":"Atlanta","storename":"Mall Concepts","zip":30339,"latitude":33.879858,"longitude":-84.465228,"id":"a630mlw9b3xz","address":"1000 Cumberland Mall Se","state":"GA"},"type":"Feature","geometry":{"type":"Point","coordinates":[-84.465228,33.879858]}},{"properties":{"city":"Atlanta","storename":"Mall Concepts","zip":30339,"latitude":33.879906,"longitude":-84.465228,"id":"a630mm1sxaqx","address":"1000 Cumberland Mall Se","state":"GA"},"type":"Feature","geometry":{"type":"Point","coordinates":[-84.465228,33.879906]}},{"properties":{"city":"Atlanta","storename":"Mall West End","zip":30310,"latitude":33.740526,"longitude":-84.288297,"id":"a630mlnlcnez","address":"850 Oak St Sw","state":"GA"},"type":"Feature","geometry":{"type":"Point","coordinates":[-84.288297,33.740526]}},{"properties":{"city":"Forest Park","storename":"Metro Flea Market","zip":30297,"latitude":33.642192,"longitude":-84.355497,"id":"a630mlyfx458","address":"4140 Jonesboro Rd","state":"GA"},"type":"Feature","geometry":{"type":"Point","coordinates":[-84.355497,33.642192]}},{"properties":{"city":"Doraville","storename":"Metro Pawn Shop","zip":30340,"latitude":33.898874,"longitude":-84.495132,"id":"a630mlqc2gpc","address":"5368 Buford Hwy Ne","state":"GA"},"type":"Feature","geometry":{"type":"Point","coordinates":[-84.495132,33.898874]}},{"properties":{"city":"Atlanta","storename":"Metro Pawn Shop Ii","zip":30329,"latitude":33.843723,"longitude":-84.376671,"id":"a630mlqyjcpi","address":"3375 Buford Hwy Ne # 1010","state":"GA"},"type":"Feature","geometry":{"type":"Point","coordinates":[-84.376671,33.843723]}},{"properties":{"city":"Atlanta","storename":"Moreland Title Pawns","zip":30316,"latitude":33.715809,"longitude":-84.380104,"id":"a630mlzflu1p","address":"1250 Custer Ave Se","state":"GA"},"type":"Feature","geometry":{"type":"Point","coordinates":[-84.380104,33.715809]}},{"properties":{"city":"Atlanta","storename":"Neil Saunders Diamonds Inc","zip":30326,"latitude":33.847271,"longitude":-84.359079,"id":"a630mls8ccbr","address":"3348 Peachtree Rd Ne","state":"GA"},"type":"Feature","geometry":{"type":"Point","coordinates":[-84.359079,33.847271]}},{"properties":{"city":"Atlanta","storename":"Parkside Shopping Ctr","zip":30328,"latitude":33.91644,"longitude":-84.545342,"id":"a630mlr4uoat","address":"5920 Roswell Rd Ne","state":"GA"},"type":"Feature","geometry":{"type":"Point","coordinates":[-84.545342,33.91644]}},{"properties":{"city":"Forest Park","storename":"Pawn Mart Inc","zip":30297,"latitude":33.626465,"longitude":-84.355497,"id":"a630mlodq23k","address":"4679 Jonesboro Rd","state":"GA"},"type":"Feature","geometry":{"type":"Point","coordinates":[-84.355497,33.626465]}},{"properties":{"city":"Atlanta","storename":"Peachtree Decorative Arts Plz","zip":30309,"latitude":33.817128,"longitude":-84.36633,"id":"a630mlrpi42w","address":"2300 Peachtree Rd Nw # A102","state":"GA"},"type":"Feature","geometry":{"type":"Point","coordinates":[-84.36633,33.817128]}},{"properties":{"city":"Atlanta","storename":"Phipps Plaza","zip":30326,"latitude":33.852166,"longitude":-84.364767,"id":"a630mlq7qi6u","address":"3500 Peachtree Rd Ne","state":"GA"},"type":"Feature","geometry":{"type":"Point","coordinates":[-84.364767,33.852166]}},{"properties":{"city":"Atlanta","storename":"Phipps Plaza","zip":30326,"latitude":33.852166,"longitude":-84.360804,"id":"a630mlmojjaj","address":"3500 Peachtree Rd Ne","state":"GA"},"type":"Feature","geometry":{"type":"Point","coordinates":[-84.360804,33.852166]}},{"properties":{"city":"Atlanta","storename":"Piedmont Pawn Shop","zip":30324,"latitude":33.806693,"longitude":-84.416005,"id":"a630mlyk9esg","address":"1867 Piedmont Ave Ne","state":"GA"},"type":"Feature","geometry":{"type":"Point","coordinates":[-84.416005,33.806693]}},{"properties":{"city":"Atlanta","storename":"Plantation Shopping Ctr","zip":30339,"latitude":33.88363,"longitude":-84.289519,"id":"a630mm2gl20m","address":"2350 Spring Rd Se","state":"GA"},"type":"Feature","geometry":{"type":"Point","coordinates":[-84.289519,33.88363]}},{"properties":{"city":"Atlanta","storename":"Plaza Fiesta","zip":30345,"latitude":33.863188,"longitude":-84.481404,"id":"a630mlpfu3xt","address":"4166 Buford Hwy Ne","state":"GA"},"type":"Feature","geometry":{"type":"Point","coordinates":[-84.481404,33.863188]}},{"properties":{"city":"Atlanta","storename":"Rapid Car Title Pawns","zip":30318,"latitude":33.78446,"longitude":-84.407299,"id":"a630mlvsweoc","address":"1099 Northside Dr Nw","state":"GA"},"type":"Feature","geometry":{"type":"Point","coordinates":[-84.407299,33.78446]}},{"properties":{"city":"Atlanta","storename":"Rapid Car Title Pawns","zip":30318,"latitude":33.78446,"longitude":-84.472515,"id":"a630mlpum6m1","address":"1099 Northside Dr Nw","state":"GA"},"type":"Feature","geometry":{"type":"Point","coordinates":[-84.472515,33.78446]}},{"properties":{"city":"Atlanta","storename":"Real Estate Pawn","zip":30315,"latitude":33.720176,"longitude":-84.393494,"id":"a630mlorqmfy","address":"1275 Pryor Rd Sw","state":"GA"},"type":"Feature","geometry":{"type":"Point","coordinates":[-84.393494,33.720176]}},{"properties":{"city":"Atlanta","storename":"Real Estate Pawn","zip":30315,"latitude":33.720176,"longitude":-84.347449,"id":"a630mly4j2hz","address":"1275 Pryor Rd Sw","state":"GA"},"type":"Feature","geometry":{"type":"Point","coordinates":[-84.347449,33.720176]}},{"properties":{"city":"Atlanta","storename":"Savings Plus Direct Mail Adv","zip":30342,"latitude":33.890531,"longitude":-84.474789,"id":"a630mlppaay3","address":"270 E Belle Isle Rd Ne","state":"GA"},"type":"Feature","geometry":{"type":"Point","coordinates":[-84.474789,33.890531]}},{"properties":{"city":"Marietta","storename":"Sharrus Pawn Palace","zip":30060,"latitude":33.911367,"longitude":-84.490397,"id":"a630mm0xgnre","address":"1709 S Cobb Dr Se","state":"GA"},"type":"Feature","geometry":{"type":"Point","coordinates":[-84.490397,33.911367]}},{"properties":{"city":"Smyrna","storename":"Smyrna Pawn Brokers","zip":30080,"latitude":33.894346,"longitude":-84.379018,"id":"a630mlpe7n35","address":"630 Windy Hill Rd Se","state":"GA"},"type":"Feature","geometry":{"type":"Point","coordinates":[-84.379018,33.894346]}},{"properties":{"city":"Smyrna","storename":"Title Exchange &amp; Pawn","zip":30080,"latitude":33.898837,"longitude":-84.301973,"id":"a630mlnrqxyn","address":"1995 Windy Hill Rd Se # 12","state":"GA"},"type":"Feature","geometry":{"type":"Point","coordinates":[-84.301973,33.898837]}},{"properties":{"city":"Atlanta","storename":"Title Max","zip":30354,"latitude":33.649937,"longitude":-84.365807,"id":"a630mlyur4la","address":"3819 Jonesboro Rd Se # B","state":"GA"},"type":"Feature","geometry":{"type":"Point","coordinates":[-84.365807,33.649937]}},{"properties":{"city":"Atlanta","storename":"Title Max","zip":30311,"latitude":33.705742,"longitude":-84.458902,"id":"a630mlqin1jy","address":"2132 Campbellton Rd Sw # G","state":"GA"},"type":"Feature","geometry":{"type":"Point","coordinates":[-84.458902,33.705742]}},{"properties":{"city":"Atlanta","storename":"Title Max","zip":30311,"latitude":33.705742,"longitude":-84.45745,"id":"a630mlycly1n","address":"2132 Campbellton Rd Sw # G","state":"GA"},"type":"Feature","geometry":{"type":"Point","coordinates":[-84.45745,33.705742]}},{"properties":{"city":"Atlanta","storename":"Title Max Mlk","zip":30311,"latitude":33.75297,"longitude":-84.394741,"id":"a630mlvu26c5","address":"3024 Martin L King Jr Dr # A","state":"GA"},"type":"Feature","geometry":{"type":"Point","coordinates":[-84.394741,33.75297]}},{"properties":{"city":"Atlanta","storename":"Title Maxer","zip":30313,"latitude":33.748771,"longitude":-84.402101,"id":"a630mlw68bqz","address":"210 Walker St Sw","state":"GA"},"type":"Feature","geometry":{"type":"Point","coordinates":[-84.402101,33.748771]}},{"properties":{"city":"Atlanta","storename":"Title Maxer","zip":30313,"latitude":33.748771,"longitude":-84.404173,"id":"a630mm281ono","address":"210 Walker St Sw","state":"GA"},"type":"Feature","geometry":{"type":"Point","coordinates":[-84.404173,33.748771]}},{"properties":{"city":"Smyrna","storename":"Titlebucks","zip":30080,"latitude":33.881703,"longitude":-84.533908,"id":"a630mlzmzdb9","address":"2930 S Cobb Dr Se","state":"GA"},"type":"Feature","geometry":{"type":"Point","coordinates":[-84.533908,33.881703]}},{"properties":{"city":"Atlanta","storename":"Titlemax","zip":30315,"latitude":33.704757,"longitude":-84.407894,"id":"a630mls25b58","address":"1820 Metropolitan Pkwy Sw","state":"GA"},"type":"Feature","geometry":{"type":"Point","coordinates":[-84.407894,33.704757]}},{"properties":{"city":"Marietta","storename":"Titlemax","zip":30060,"latitude":33.906339,"longitude":-84.542001,"id":"a630mlo6wwjx","address":"1873 Cobb Pkwy S","state":"GA"},"type":"Feature","geometry":{"type":"Point","coordinates":[-84.542001,33.906339]}},{"properties":{"city":"Atlanta","storename":"Titlemax","zip":30315,"latitude":33.704757,"longitude":-84.489171,"id":"a630mm19g5wy","address":"1820 Metropolitan Pkwy Sw","state":"GA"},"type":"Feature","geometry":{"type":"Point","coordinates":[-84.489171,33.704757]}},{"properties":{"city":"Marietta","storename":"Titlemax","zip":30060,"latitude":33.903139,"longitude":-84.565788,"id":"a630mlq8238f","address":"2052 S Cobb Dr Se","state":"GA"},"type":"Feature","geometry":{"type":"Point","coordinates":[-84.565788,33.903139]}},{"properties":{"city":"Atlanta","storename":"Titlemax Candler","zip":30317,"latitude":33.743918,"longitude":-84.416061,"id":"a630mlqnggwi","address":"307 Candler Rd Se","state":"GA"},"type":"Feature","geometry":{"type":"Point","coordinates":[-84.416061,33.743918]}},{"properties":{"city":"Atlanta","storename":"Titlemax Of Atlanta","zip":30324,"latitude":33.817553,"longitude":-84.553851,"id":"a630mm0bjj8w","address":"2280 Cheshire Bridge Rd Ne # B","state":"GA"},"type":"Feature","geometry":{"type":"Point","coordinates":[-84.553851,33.817553]}},{"properties":{"city":"Atlanta","storename":"Titlemax Of Atlanta","zip":30316,"latitude":33.720739,"longitude":-84.393494,"id":"a630mlnpodqi","address":"1231 Moreland Ave Se","state":"GA"},"type":"Feature","geometry":{"type":"Point","coordinates":[-84.393494,33.720739]}},{"properties":{"city":"Atlanta","storename":"Titlemax Of Chamblee","zip":30341,"latitude":33.898077,"longitude":-84.534486,"id":"a630mlzvl3oj","address":"5513 Peachtree Industrial Blvd","state":"GA"},"type":"Feature","geometry":{"type":"Point","coordinates":[-84.534486,33.898077]}}],"is_temporal":false,"author":{"url":"http://www.insiderpages.com/s/GA/Atlanta/PawnShops","metadata":"http://none","contact_name":"","contact_address":"","source":"Insiderpages.com","contact_phone":""},"source":"http://www.insiderpages.com/s/GA/Atlanta/PawnShops","pagination":{"sort":null,"start":0,"total":85,"limit":1000000},"state":"complete","tags":"atlanta,guns,hunting,knives,pawn,retail,shops","published":"2008-11-18T12:00:00Z","id":7087}