{"type":"FeatureCollection","data_type":"Dataset","url_type":null,"permissions":[{"permissions":{"download":true,"view":true},"group_id":"everyone"}],"classification":null,"title":"buys102","count":92,"stream_id":72282,"contributor":{"url":"http://geocommons.com/users/17425","name":"maptastic"},"data_attributes":null,"calculation_params":null,"icon_link":null,"link":"http://geocommons.com/overlays/72282.json","extent":[-122.098,32.5799,-74.1551,41.6136],"geometry_types":["point"],"unique_name":null,"name":"buys102","feature_count":92,"description":"","next_feature":null,"is_raster":false,"short_classification":"Y","stats":{"latitude_deal":{"max":32.83797,"mean":32.83797,"variance":1.27620164222421e-27,"stdev":3.57239645367674e-14,"min":32.83797,"median":32.83797},"longitude_cc":{"max":-74.155053,"mean":-116.083180912088,"variance":48.443359869677,"stdev":6.96012642627107,"min":-122.098143,"median":-117.170269},"deal_id":{"max":102,"mean":102.0,"variance":0.0,"stdev":0.0,"min":102,"median":102},"distance between":{"max":2423.746139,"mean":100.650234289615,"variance":155442.722030559,"stdev":394.262250324018,"min":0.321452344,"median":12.60219146},"latitude_cc":{"max":41.613564,"mean":33.3592671648352,"variance":3.07927143469405,"stdev":1.75478529589635,"min":32.579871,"median":32.860492},"longitude_deal":{"max":-117.271615,"mean":-117.271615,"variance":3.45084924057428e-26,"stdev":1.8576461559119e-13,"min":-117.271615,"median":-117.271615}},"features":[{"properties":{"address1":null,"city":null,"zip":null,"latitude_deal":null,"parent_category_deal":null,"longitude_cc":null,"category_deal":null,"deal_id":null,"distance between":null,"latitude_cc":null,"id":"a67vwkj8eakq","state":null,"longitude_deal":null},"type":"Feature","geometry":null},{"properties":{"address1":"1910 Avenida Del Mexico","city":"San Diego","zip":"92154","latitude_deal":32.83797,"parent_category_deal":"Beauty and Spas","longitude_cc":-117.092077,"category_deal":"Laser Hair Removal","deal_id":102,"distance between":20.46244205,"latitude_cc":32.583222,"id":"a67vwkjic65b","state":"CA","longitude_deal":-117.271615},"type":"Feature","geometry":{"type":"Point","coordinates":[-117.092077,32.583222]}},{"properties":{"address1":"5451 La Jolla Mesa","city":"La Jolla","zip":"92037","latitude_deal":32.83797,"parent_category_deal":"Beauty and Spas","longitude_cc":-117.267521,"category_deal":"Laser Hair Removal","deal_id":102,"distance between":1.803093653,"latitude_cc":32.8121,"id":"a67vwkqagnx9","state":"CA","longitude_deal":-117.271615},"type":"Feature","geometry":{"type":"Point","coordinates":[-117.267521,32.8121]}},{"properties":{"address1":"909 1/2 Chalcedony St.","city":"San Diego","zip":"92109","latitude_deal":32.83797,"parent_category_deal":"Beauty and Spas","longitude_cc":-117.254717,"category_deal":"Laser Hair Removal","deal_id":102,"distance between":2.70147969,"latitude_cc":32.801539,"id":"a67vwkiiyext","state":"CA","longitude_deal":-117.271615},"type":"Feature","geometry":{"type":"Point","coordinates":[-117.254717,32.801539]}},{"properties":{"address1":"3141 haidas Ave","city":"san Diego","zip":"92117","latitude_deal":32.83797,"parent_category_deal":"Beauty and Spas","longitude_cc":-117.218933,"category_deal":"Laser Hair Removal","deal_id":102,"distance between":3.108398934,"latitude_cc":32.829927,"id":"a67vwkj3cwyt","state":"CA","longitude_deal":-117.271615},"type":"Feature","geometry":{"type":"Point","coordinates":[-117.218933,32.829927]}},{"properties":{"address1":"4412 Dawes Street","city":"San Diego","zip":"92109","latitude_deal":32.83797,"parent_category_deal":"Beauty and Spas","longitude_cc":-117.24971,"category_deal":"Laser Hair Removal","deal_id":102,"distance between":3.150573783,"latitude_cc":32.79625,"id":"a67vwkr4cuvv","state":"CA","longitude_deal":-117.271615},"type":"Feature","geometry":{"type":"Point","coordinates":[-117.24971,32.79625]}},{"properties":{"address1":"2163 Missouri st.","city":"San Diego","zip":"92109","latitude_deal":32.83797,"parent_category_deal":"Beauty and Spas","longitude_cc":-117.231683,"category_deal":"Laser Hair Removal","deal_id":102,"distance between":3.218744369,"latitude_cc":32.805654,"id":"a67vwkgz1hp8","state":"CA","longitude_deal":-117.271615},"type":"Feature","geometry":{"type":"Point","coordinates":[-117.231683,32.805654]}},{"properties":{"address1":"1827 Hornblend St","city":"San Diego","zip":"92109","latitude_deal":32.83797,"parent_category_deal":"Beauty and Spas","longitude_cc":-117.236254,"category_deal":"Laser Hair Removal","deal_id":102,"distance between":3.350728341,"latitude_cc":32.799643,"id":"a67vwke3hy6y","state":"CA","longitude_deal":-117.271615},"type":"Feature","geometry":{"type":"Point","coordinates":[-117.236254,32.799643]}},{"properties":{"address1":"3535 lebon dr unit 2104","city":"San Diego","zip":"92122","latitude_deal":32.83797,"parent_category_deal":"Beauty and Spas","longitude_cc":-117.224567,"category_deal":"Laser Hair Removal","deal_id":102,"distance between":3.473012093,"latitude_cc":32.869031,"id":"a67vwknho50n","state":"CA","longitude_deal":-117.271615},"type":"Feature","geometry":{"type":"Point","coordinates":[-117.224567,32.869031]}},{"properties":{"address1":"7873 Camino Glorita","city":"San Diego","zip":"92122","latitude_deal":32.83797,"parent_category_deal":"Beauty and Spas","longitude_cc":-117.216032,"category_deal":"Laser Hair Removal","deal_id":102,"distance between":3.581830915,"latitude_cc":32.860492,"id":"a67vwkmqjx3t","state":"CA","longitude_deal":-117.271615},"type":"Feature","geometry":{"type":"Point","coordinates":[-117.216032,32.860492]}},{"properties":{"address1":"4083 Miramar St, Apt E","city":"La Jolla","zip":"92037","latitude_deal":32.83797,"parent_category_deal":"Beauty and Spas","longitude_cc":-117.219433,"category_deal":"Laser Hair Removal","deal_id":102,"distance between":3.974342422,"latitude_cc":32.87522,"id":"a67vwkp6q3jc","state":"CA","longitude_deal":-117.271615},"type":"Feature","geometry":{"type":"Point","coordinates":[-117.219433,32.87522]}},{"properties":{"address1":"4387 caminito del diamante","city":"san diego","zip":"92121","latitude_deal":32.83797,"parent_category_deal":"Beauty and Spas","longitude_cc":-117.213163,"category_deal":"Laser Hair Removal","deal_id":102,"distance between":4.506805408,"latitude_cc":32.880915,"id":"a67vwklwz4d7","state":"CA","longitude_deal":-117.271615},"type":"Feature","geometry":{"type":"Point","coordinates":[-117.213163,32.880915]}},{"properties":{"address1":"834 Jamaica Ct.","city":"San Diego","zip":"92109","latitude_deal":32.83797,"parent_category_deal":"Beauty and Spas","longitude_cc":-117.250416,"category_deal":"Laser Hair Removal","deal_id":102,"distance between":4.602574877,"latitude_cc":32.77378,"id":"a67vwkk4n402","state":"CA","longitude_deal":-117.271615},"type":"Feature","geometry":{"type":"Point","coordinates":[-117.250416,32.77378]}},{"properties":{"address1":"4235 Blackfoot Ave","city":"San Diego","zip":"92117","latitude_deal":32.83797,"parent_category_deal":"Beauty and Spas","longitude_cc":-117.200806,"category_deal":"Laser Hair Removal","deal_id":102,"distance between":4.904695322,"latitude_cc":32.79926,"id":"a67vwkdjwwfs","state":"CA","longitude_deal":-117.271615},"type":"Feature","geometry":{"type":"Point","coordinates":[-117.200806,32.79926]}},{"properties":{"address1":"5550 Genesee Ct. E. Apt.# 204","city":"San Diego","zip":"92111","latitude_deal":32.83797,"parent_category_deal":"Beauty and Spas","longitude_cc":-117.178994,"category_deal":"Laser Hair Removal","deal_id":102,"distance between":5.623602208,"latitude_cc":32.814148,"id":"a67vwkovm1qa","state":"CA","longitude_deal":-117.271615},"type":"Feature","geometry":{"type":"Point","coordinates":[-117.178994,32.814148]}},{"properties":{"address1":"11088 West Ocean Air Dr #323","city":"San Diego","zip":"92130","latitude_deal":32.83797,"parent_category_deal":"Beauty and Spas","longitude_cc":-117.227012,"category_deal":"Laser Hair Removal","deal_id":102,"distance between":6.073337606,"latitude_cc":32.917494,"id":"a67vwkclsgfl","state":"CA","longitude_deal":-117.271615},"type":"Feature","geometry":{"type":"Point","coordinates":[-117.227012,32.917494]}},{"properties":{"address1":"Dubiel","city":"san diego","zip":"92111","latitude_deal":32.83797,"parent_category_deal":"Beauty and Spas","longitude_cc":-117.170269,"category_deal":"Laser Hair Removal","deal_id":102,"distance between":6.360548284,"latitude_cc":32.803017,"id":"a67vwkj4nd3d","state":"CA","longitude_deal":-117.271615},"type":"Feature","geometry":{"type":"Point","coordinates":[-117.170269,32.803017]}},{"properties":{"address1":"5040 Del Monte Ave. #4","city":"San Diego","zip":"92107","latitude_deal":32.83797,"parent_category_deal":"Beauty and Spas","longitude_cc":-117.253737,"category_deal":"Laser Hair Removal","deal_id":102,"distance between":6.517460853,"latitude_cc":32.744842,"id":"a67vwkhcp2rj","state":"CA","longitude_deal":-117.271615},"type":"Feature","geometry":{"type":"Point","coordinates":[-117.253737,32.744842]}},{"properties":{"address1":"2658 Worden St #225","city":"San Diego","zip":"92110","latitude_deal":32.83797,"parent_category_deal":"Beauty and Spas","longitude_cc":-117.22653,"category_deal":"Laser Hair Removal","deal_id":102,"distance between":6.753064438,"latitude_cc":32.747874,"id":"a67vwkoycxll","state":"CA","longitude_deal":-117.271615},"type":"Feature","geometry":{"type":"Point","coordinates":[-117.22653,32.747874]}},{"properties":{"address1":"13322 Mango Dr","city":"San Diego","zip":"92014","latitude_deal":32.83797,"parent_category_deal":"Beauty and Spas","longitude_cc":-117.245467,"category_deal":"Laser Hair Removal","deal_id":102,"distance between":7.303603127,"latitude_cc":32.941376,"id":"a67vwkl8mwff","state":"CA","longitude_deal":-117.271615},"type":"Feature","geometry":{"type":"Point","coordinates":[-117.245467,32.941376]}},{"properties":{"address1":"12740 Via Nieve","city":"San Diego","zip":"92130","latitude_deal":32.83797,"parent_category_deal":"Beauty and Spas","longitude_cc":-117.227303,"category_deal":"Laser Hair Removal","deal_id":102,"distance between":8.04797646,"latitude_cc":32.948353,"id":"a67vwkm4yzvj","state":"CA","longitude_deal":-117.271615},"type":"Feature","geometry":{"type":"Point","coordinates":[-117.227303,32.948353]}},{"properties":{"address1":"2909 Keats Street #3","city":"San Diego","zip":"92106","latitude_deal":32.83797,"parent_category_deal":"Beauty and Spas","longitude_cc":-117.225573,"category_deal":"Laser Hair Removal","deal_id":102,"distance between":8.096692034,"latitude_cc":32.727357,"id":"a67vwkfx8z2x","state":"CA","longitude_deal":-117.271615},"type":"Feature","geometry":{"type":"Point","coordinates":[-117.225573,32.727357]}},{"properties":{"address1":"6155 Del Mar Mesa Road","city":"San Diego","zip":"92130","latitude_deal":32.83797,"parent_category_deal":"Beauty and Spas","longitude_cc":-117.191246,"category_deal":"Laser Hair Removal","deal_id":102,"distance between":8.575132094,"latitude_cc":32.942134,"id":"a67vwkpp6mx2","state":"CA","longitude_deal":-117.271615},"type":"Feature","geometry":{"type":"Point","coordinates":[-117.191246,32.942134]}},{"properties":{"address1":"302 Washington Street #125","city":"San Diego","zip":"92103","latitude_deal":32.83797,"parent_category_deal":"Beauty and Spas","longitude_cc":-117.162603,"category_deal":"Laser Hair Removal","deal_id":102,"distance between":8.772859496,"latitude_cc":32.750074,"id":"a67vwkh70tts","state":"CA","longitude_deal":-117.271615},"type":"Feature","geometry":{"type":"Point","coordinates":[-117.162603,32.750074]}},{"properties":{"address1":"4568 Georgia st. #6","city":"San Diego","zip":"92116","latitude_deal":32.83797,"parent_category_deal":"Beauty and Spas","longitude_cc":-117.145192,"category_deal":"Laser Hair Removal","deal_id":102,"distance between":9.093618982,"latitude_cc":32.760311,"id":"a67vwkbs5ult","state":"CA","longitude_deal":-117.271615},"type":"Feature","geometry":{"type":"Point","coordinates":[-117.145192,32.760311]}},{"properties":{"address1":"1270 Cleveland Ave., #k304","city":"San Diego","zip":"92103","latitude_deal":32.83797,"parent_category_deal":"Beauty and Spas","longitude_cc":-117.152013,"category_deal":"Laser Hair Removal","deal_id":102,"distance between":9.253872558,"latitude_cc":32.749475,"id":"a67vwkm7ipzr","state":"CA","longitude_deal":-117.271615},"type":"Feature","geometry":{"type":"Point","coordinates":[-117.152013,32.749475]}},{"properties":{"address1":"4665 Louisiana St #4","city":"San Diego","zip":"92116","latitude_deal":32.83797,"parent_category_deal":"Beauty and Spas","longitude_cc":-117.139927,"category_deal":"Laser Hair Removal","deal_id":102,"distance between":9.270639017,"latitude_cc":32.762128,"id":"a67vwkievie3","state":"CA","longitude_deal":-117.271615},"type":"Feature","geometry":{"type":"Point","coordinates":[-117.139927,32.762128]}},{"properties":{"address1":"9502 Larrabee Ave","city":"San Diego","zip":"92123","latitude_deal":32.83797,"parent_category_deal":"Beauty and Spas","longitude_cc":-117.119445,"category_deal":"Laser Hair Removal","deal_id":102,"distance between":9.371407655,"latitude_cc":32.792767,"id":"a67vwkpwzg1z","state":"CA","longitude_deal":-117.271615},"type":"Feature","geometry":{"type":"Point","coordinates":[-117.119445,32.792767]}},{"properties":{"address1":"3950 Louisiana St. #102","city":"San Diego","zip":"92104","latitude_deal":32.83797,"parent_category_deal":"Beauty and Spas","longitude_cc":-117.140164,"category_deal":"Laser Hair Removal","deal_id":102,"distance between":9.784695215,"latitude_cc":32.74939,"id":"a67vwkfbia52","state":"CA","longitude_deal":-117.271615},"type":"Feature","geometry":{"type":"Point","coordinates":[-117.140164,32.74939]}},{"properties":{"address1":"11123 Pisces Way","city":"San Diego","zip":"92126","latitude_deal":32.83797,"parent_category_deal":"Beauty and Spas","longitude_cc":-117.136364,"category_deal":"Laser Hair Removal","deal_id":102,"distance between":9.801592777,"latitude_cc":32.922969,"id":"a67vwkgmne8f","state":"CA","longitude_deal":-117.271615},"type":"Feature","geometry":{"type":"Point","coordinates":[-117.136364,32.922969]}},{"properties":{"address1":"4415 Kansas Street","city":"San Diego","zip":"92116","latitude_deal":32.83797,"parent_category_deal":"Beauty and Spas","longitude_cc":-117.131284,"category_deal":"Laser Hair Removal","deal_id":102,"distance between":9.858584035,"latitude_cc":32.757681,"id":"a67vwkh9wlx6","state":"CA","longitude_deal":-117.271615},"type":"Feature","geometry":{"type":"Point","coordinates":[-117.131284,32.757681]}},{"properties":{"address1":"13035 Jicama Ter","city":"San Diego","zip":"92130","latitude_deal":32.83797,"parent_category_deal":"Beauty and Spas","longitude_cc":-117.184316,"category_deal":"Laser Hair Removal","deal_id":102,"distance between":9.93777248,"latitude_cc":32.961731,"id":"a67vwkmkeswn","state":"CA","longitude_deal":-117.271615},"type":"Feature","geometry":{"type":"Point","coordinates":[-117.184316,32.961731]}},{"properties":{"address1":"1670 Kettner Blvd apt 508","city":"San Diego","zip":"92101","latitude_deal":32.83797,"parent_category_deal":"Beauty and Spas","longitude_cc":-117.169324,"category_deal":"Laser Hair Removal","deal_id":102,"distance between":9.939936851,"latitude_cc":32.722635,"id":"a67vwkm3uzx4","state":"CA","longitude_deal":-117.271615},"type":"Feature","geometry":{"type":"Point","coordinates":[-117.169324,32.722635]}},{"properties":{"address1":"906 Intrepid Court","city":"Del Mar","zip":"92014","latitude_deal":32.83797,"parent_category_deal":"Beauty and Spas","longitude_cc":-117.252436,"category_deal":"Laser Hair Removal","deal_id":102,"distance between":10.09658517,"latitude_cc":32.983217,"id":"a67vwkd1ctxn","state":"CA","longitude_deal":-117.271615},"type":"Feature","geometry":{"type":"Point","coordinates":[-117.252436,32.983217]}},{"properties":{"address1":"4848 Hawley Blvd","city":"San Diego","zip":"92116","latitude_deal":32.83797,"parent_category_deal":"Beauty and Spas","longitude_cc":-117.119564,"category_deal":"Laser Hair Removal","deal_id":102,"distance between":10.12336063,"latitude_cc":32.766311,"id":"a67vwknm3sk3","state":"CA","longitude_deal":-117.271615},"type":"Feature","geometry":{"type":"Point","coordinates":[-117.119564,32.766311]}},{"properties":{"address1":"1501 front street #201","city":"san diego","zip":"92101","latitude_deal":32.83797,"parent_category_deal":"Beauty and Spas","longitude_cc":-117.164643,"category_deal":"Laser Hair Removal","deal_id":102,"distance between":10.19324778,"latitude_cc":32.721017,"id":"a67vwklgas0a","state":"CA","longitude_deal":-117.271615},"type":"Feature","geometry":{"type":"Point","coordinates":[-117.164643,32.721017]}},{"properties":{"address1":"12341 Brassica st","city":"San Diego","zip":"92129","latitude_deal":32.83797,"parent_category_deal":"Beauty and Spas","longitude_cc":-117.143089,"category_deal":"Laser Hair Removal","deal_id":102,"distance between":10.41857013,"latitude_cc":32.943289,"id":"a67vwkh08gyr","state":"CA","longitude_deal":-117.271615},"type":"Feature","geometry":{"type":"Point","coordinates":[-117.143089,32.943289]}},{"properties":{"address1":"Po BOX 33252","city":"San Diego","zip":"92163","latitude_deal":32.83797,"parent_category_deal":"Beauty and Spas","longitude_cc":-117.16172,"category_deal":"Laser Hair Removal","deal_id":102,"distance between":10.58960547,"latitude_cc":32.715679,"id":"a67vwkmzuouc","state":"CA","longitude_deal":-117.271615},"type":"Feature","geometry":{"type":"Point","coordinates":[-117.16172,32.715679]}},{"properties":{"address1":"11346 Portobelo Dr. #4","city":"San Diego","zip":"92124","latitude_deal":32.83797,"parent_category_deal":"Beauty and Spas","longitude_cc":-117.085714,"category_deal":"Laser Hair Removal","deal_id":102,"distance between":10.79361568,"latitude_cc":32.841175,"id":"a67vwkhz7kic","state":"CA","longitude_deal":-117.271615},"type":"Feature","geometry":{"type":"Point","coordinates":[-117.085714,32.841175]}},{"properties":{"address1":"13325 Via Magdalena Unit 5","city":"San Diego","zip":"92129","latitude_deal":32.83797,"parent_category_deal":"Beauty and Spas","longitude_cc":-117.158331,"category_deal":"Laser Hair Removal","deal_id":102,"distance between":10.83765336,"latitude_cc":32.962706,"id":"a67vwkayhe6d","state":"CA","longitude_deal":-117.271615},"type":"Feature","geometry":{"type":"Point","coordinates":[-117.158331,32.962706]}},{"properties":{"address1":"2035 broadway","city":"SAn Diego","zip":"92102","latitude_deal":32.83797,"parent_category_deal":"Beauty and Spas","longitude_cc":-117.145504,"category_deal":"Laser Hair Removal","deal_id":102,"distance between":11.18484103,"latitude_cc":32.715639,"id":"a67vwkhccb6n","state":"CA","longitude_deal":-117.271615},"type":"Feature","geometry":{"type":"Point","coordinates":[-117.145504,32.715639]}},{"properties":{"address1":"10387 Longdale Pl","city":"San Diego","zip":"92131","latitude_deal":32.83797,"parent_category_deal":"Beauty and Spas","longitude_cc":-117.108938,"category_deal":"Laser Hair Removal","deal_id":102,"distance between":11.25946117,"latitude_cc":32.926825,"id":"a67vwkhbuzsr","state":"CA","longitude_deal":-117.271615},"type":"Feature","geometry":{"type":"Point","coordinates":[-117.108938,32.926825]}},{"properties":{"address1":"7340 Conestoga Court","city":"San Diego","zip":"92120","latitude_deal":32.83797,"parent_category_deal":"Beauty and Spas","longitude_cc":-117.075467,"category_deal":"Laser Hair Removal","deal_id":102,"distance between":11.62815661,"latitude_cc":32.80398,"id":"a67vwklv0b1v","state":"CA","longitude_deal":-117.271615},"type":"Feature","geometry":{"type":"Point","coordinates":[-117.075467,32.80398]}},{"properties":{"address1":"7340 Conestoga Court","city":"San Diego","zip":"92120","latitude_deal":32.83797,"parent_category_deal":"Beauty and Spas","longitude_cc":-117.075467,"category_deal":"Laser Hair Removal","deal_id":102,"distance between":11.62815661,"latitude_cc":32.80398,"id":"a67vwkepfkxa","state":"CA","longitude_deal":-117.271615},"type":"Feature","geometry":{"type":"Point","coordinates":[-117.075467,32.80398]}},{"properties":{"address1":"9470 High Park Lane","city":"San Diego","zip":"92129","latitude_deal":32.83797,"parent_category_deal":"Beauty and Spas","longitude_cc":-117.118807,"category_deal":"Laser Hair Removal","deal_id":102,"distance between":12.13334766,"latitude_cc":32.957884,"id":"a67vwklvt1x8","state":"CA","longitude_deal":-117.271615},"type":"Feature","geometry":{"type":"Point","coordinates":[-117.118807,32.957884]}},{"properties":{"address1":"4521 55th St. Unit 2","city":"San Diego","zip":"92115","latitude_deal":32.83797,"parent_category_deal":"Beauty and Spas","longitude_cc":-117.07594,"category_deal":"Laser Hair Removal","deal_id":102,"distance between":12.60219146,"latitude_cc":32.759123,"id":"a67vwkonhx4i","state":"CA","longitude_deal":-117.271615},"type":"Feature","geometry":{"type":"Point","coordinates":[-117.07594,32.759123]}},{"properties":{"address1":"2210 montgomery ave.","city":"cardiff","zip":"92007","latitude_deal":32.83797,"parent_category_deal":"Beauty and Spas","longitude_cc":-117.278804,"category_deal":"Laser Hair Removal","deal_id":102,"distance between":12.61664361,"latitude_cc":33.020482,"id":"a67vwkd913v6","state":"CA","longitude_deal":-117.271615},"type":"Feature","geometry":{"type":"Point","coordinates":[-117.278804,33.020482]}},{"properties":{"address1":"po box 180612","city":"coronado","zip":"92118","latitude_deal":32.83797,"parent_category_deal":"Beauty and Spas","longitude_cc":-117.169431,"category_deal":"Laser Hair Removal","deal_id":102,"distance between":12.72184735,"latitude_cc":32.675118,"id":"a67vwklxhmar","state":"CA","longitude_deal":-117.271615},"type":"Feature","geometry":{"type":"Point","coordinates":[-117.169431,32.675118]}},{"properties":{"address1":"13069 Evening Creek Dr S #60","city":"san diego","zip":"92128","latitude_deal":32.83797,"parent_category_deal":"Beauty and Spas","longitude_cc":-117.097557,"category_deal":"Laser Hair Removal","deal_id":102,"distance between":12.85493784,"latitude_cc":32.953117,"id":"a67vwkfr7fo0","state":"CA","longitude_deal":-117.271615},"type":"Feature","geometry":{"type":"Point","coordinates":[-117.097557,32.953117]}},{"properties":{"address1":"P.O. Box 3790","city":"Rancho Santa Fe","zip":"92067","latitude_deal":32.83797,"parent_category_deal":"Beauty and Spas","longitude_cc":-117.1935,"category_deal":"Laser Hair Removal","deal_id":102,"distance between":13.19855351,"latitude_cc":33.0174,"id":"a67vwkeix1q5","state":"CA","longitude_deal":-117.271615},"type":"Feature","geometry":{"type":"Point","coordinates":[-117.1935,33.0174]}},{"properties":{"address1":"4860 rolando ct #21","city":"san diego","zip":"92115","latitude_deal":32.83797,"parent_category_deal":"Beauty and Spas","longitude_cc":-117.057669,"category_deal":"Laser Hair Removal","deal_id":102,"distance between":13.34999863,"latitude_cc":32.767278,"id":"a67vwkof4wha","state":"CA","longitude_deal":-117.271615},"type":"Feature","geometry":{"type":"Point","coordinates":[-117.057669,32.767278]}},{"properties":{"address1":"1509 Orangeview Dr","city":"Encinitas","zip":"92024","latitude_deal":32.83797,"parent_category_deal":"Beauty and Spas","longitude_cc":-117.256116,"category_deal":"Laser Hair Removal","deal_id":102,"distance between":13.67759635,"latitude_cc":33.03551,"id":"a67vwkqpt3sz","state":"CA","longitude_deal":-117.271615},"type":"Feature","geometry":{"type":"Point","coordinates":[-117.256116,33.03551]}},{"properties":{"address1":"10757 Corte Crisalida","city":"san diego","zip":"92127","latitude_deal":32.83797,"parent_category_deal":"Beauty and Spas","longitude_cc":-117.0979,"category_deal":"Laser Hair Removal","deal_id":102,"distance between":15.06725733,"latitude_cc":33.000128,"id":"a67vwkctss8o","state":"CA","longitude_deal":-117.271615},"type":"Feature","geometry":{"type":"Point","coordinates":[-117.0979,33.000128]}},{"properties":{"address1":"10757 Corte Crisalida","city":"San Diego","zip":"92127","latitude_deal":32.83797,"parent_category_deal":"Beauty and Spas","longitude_cc":-117.0979,"category_deal":"Laser Hair Removal","deal_id":102,"distance between":15.06725733,"latitude_cc":33.000128,"id":"a67vwkkfq6sa","state":"CA","longitude_deal":-117.271615},"type":"Feature","geometry":{"type":"Point","coordinates":[-117.0979,33.000128]}},{"properties":{"address1":"8695 mellmanor dr","city":"la mesa","zip":"91942","latitude_deal":32.83797,"parent_category_deal":"Beauty and Spas","longitude_cc":-117.011298,"category_deal":"Laser Hair Removal","deal_id":102,"distance between":15.57622928,"latitude_cc":32.783572,"id":"a67vwkiw1a1j","state":"CA","longitude_deal":-117.271615},"type":"Feature","geometry":{"type":"Point","coordinates":[-117.011298,32.783572]}},{"properties":{"address1":"918 Hermes Avenue","city":"Encinitas","zip":"92024","latitude_deal":32.83797,"parent_category_deal":"Beauty and Spas","longitude_cc":-117.300496,"category_deal":"Laser Hair Removal","deal_id":102,"distance between":15.80889925,"latitude_cc":33.065499,"id":"a67vwkea0k3m","state":"CA","longitude_deal":-117.271615},"type":"Feature","geometry":{"type":"Point","coordinates":[-117.300496,33.065499]}},{"properties":{"address1":"12075 Alta Carmel Ct. #39","city":"San Diego","zip":"92128","latitude_deal":32.83797,"parent_category_deal":"Beauty and Spas","longitude_cc":-117.070602,"category_deal":"Laser Hair Removal","deal_id":102,"distance between":15.82100825,"latitude_cc":32.992767,"id":"a67vwkb7k70s","state":"CA","longitude_deal":-117.271615},"type":"Feature","geometry":{"type":"Point","coordinates":[-117.070602,32.992767]}},{"properties":{"address1":"3860 american ave","city":"la mesa","zip":"91941","latitude_deal":32.83797,"parent_category_deal":"Beauty and Spas","longitude_cc":-117.019405,"category_deal":"Laser Hair Removal","deal_id":102,"distance between":15.87826937,"latitude_cc":32.749273,"id":"a67vwkca85ks","state":"CA","longitude_deal":-117.271615},"type":"Feature","geometry":{"type":"Point","coordinates":[-117.019405,32.749273]}},{"properties":{"address1":"1425 lakeridge ln","city":"el cajon","zip":"92020","latitude_deal":32.83797,"parent_category_deal":"Beauty and Spas","longitude_cc":-116.991751,"category_deal":"Laser Hair Removal","deal_id":102,"distance between":16.32523599,"latitude_cc":32.815039,"id":"a67vwkjnnkgi","state":"CA","longitude_deal":-117.271615},"type":"Feature","geometry":{"type":"Point","coordinates":[-116.991751,32.815039]}},{"properties":{"address1":"512 Latigo Row","city":"encinitas","zip":"92024","latitude_deal":32.83797,"parent_category_deal":"Beauty and Spas","longitude_cc":-117.206582,"category_deal":"Laser Hair Removal","deal_id":102,"distance between":16.47377931,"latitude_cc":33.070081,"id":"a67vwkfh8u1g","state":"CA","longitude_deal":-117.271615},"type":"Feature","geometry":{"type":"Point","coordinates":[-117.206582,33.070081]}},{"properties":{"address1":"7705 Romeria Street","city":"Carlsbad","zip":"92009","latitude_deal":32.83797,"parent_category_deal":"Beauty and Spas","longitude_cc":-117.243702,"category_deal":"Laser Hair Removal","deal_id":102,"distance between":16.97842312,"latitude_cc":33.082595,"id":"a67vwkdbe3nz","state":"CA","longitude_deal":-117.271615},"type":"Feature","geometry":{"type":"Point","coordinates":[-117.243702,33.082595]}},{"properties":{"address1":"519 E St Apt D11","city":"Chula Vista","zip":"91910","latitude_deal":32.83797,"parent_category_deal":"Beauty and Spas","longitude_cc":-117.090388,"category_deal":"Laser Hair Removal","deal_id":102,"distance between":17.13658336,"latitude_cc":32.642308,"id":"a67vwkm2cham","state":"CA","longitude_deal":-117.271615},"type":"Feature","geometry":{"type":"Point","coordinates":[-117.090388,32.642308]}},{"properties":{"address1":"1179 Highbluff Ave","city":"San Marcos","zip":"92078","latitude_deal":32.83797,"parent_category_deal":"Beauty and Spas","longitude_cc":-117.198296,"category_deal":"Laser Hair Removal","deal_id":102,"distance between":18.71674229,"latitude_cc":33.101798,"id":"a67vwkg877wr","state":"CA","longitude_deal":-117.271615},"type":"Feature","geometry":{"type":"Point","coordinates":[-117.198296,33.101798]}},{"properties":{"address1":"1215 Regatta Ct","city":"San Marcos","zip":"92078","latitude_deal":32.83797,"parent_category_deal":"Beauty and Spas","longitude_cc":-117.18657,"category_deal":"Laser Hair Removal","deal_id":102,"distance between":19.13113545,"latitude_cc":33.105522,"id":"a67vwkco6h98","state":"CA","longitude_deal":-117.271615},"type":"Feature","geometry":{"type":"Point","coordinates":[-117.18657,33.105522]}},{"properties":{"address1":"6484 Paseo Vuelo","city":"Carlsbad","zip":"92009","latitude_deal":32.83797,"parent_category_deal":"Beauty and Spas","longitude_cc":-117.23539,"category_deal":"Laser Hair Removal","deal_id":102,"distance between":19.17288536,"latitude_cc":33.113807,"id":"a67vwkbcnv3o","state":"CA","longitude_deal":-117.271615},"type":"Feature","geometry":{"type":"Point","coordinates":[-117.23539,33.113807]}},{"properties":{"address1":"1165 Decker Ct. Unit 14","city":"El Cajon","zip":"92019","latitude_deal":32.83797,"parent_category_deal":"Beauty and Spas","longitude_cc":-116.94209,"category_deal":"Laser Hair Removal","deal_id":102,"distance between":19.37856335,"latitude_cc":32.793521,"id":"a67vwkjulpqt","state":"CA","longitude_deal":-117.271615},"type":"Feature","geometry":{"type":"Point","coordinates":[-116.94209,32.793521]}},{"properties":{"address1":"11832 LAKESIDE AVENUE","city":"LAKESIDE","zip":"92040","latitude_deal":32.83797,"parent_category_deal":"Beauty and Spas","longitude_cc":-116.937851,"category_deal":"Laser Hair Removal","deal_id":102,"distance between":19.47668952,"latitude_cc":32.86719,"id":"a67vwkn13t7m","state":"CA","longitude_deal":-117.271615},"type":"Feature","geometry":{"type":"Point","coordinates":[-116.937851,32.86719]}},{"properties":{"address1":"919 2nd Street","city":"Imperial Beach","zip":"91932","latitude_deal":32.83797,"parent_category_deal":"Beauty and Spas","longitude_cc":-117.129404,"category_deal":"Laser Hair Removal","deal_id":102,"distance between":19.65529551,"latitude_cc":32.579871,"id":"a67vwkd9abo6","state":"CA","longitude_deal":-117.271615},"type":"Feature","geometry":{"type":"Point","coordinates":[-117.129404,32.579871]}},{"properties":{"address1":"8540 SKY RIM DRIVE","city":"LAKESIDE","zip":"92040","latitude_deal":32.83797,"parent_category_deal":"Beauty and Spas","longitude_cc":-116.921271,"category_deal":"Laser Hair Removal","deal_id":102,"distance between":20.34394481,"latitude_cc":32.830994,"id":"a67vwkph7i66","state":"CA","longitude_deal":-117.271615},"type":"Feature","geometry":{"type":"Point","coordinates":[-116.921271,32.830994]}},{"properties":{"address1":"8277 Camino del Oro","city":"La Jolla","zip":"92037","latitude_deal":32.83797,"parent_category_deal":"Beauty and Spas","longitude_cc":-117.256485,"category_deal":"Laser Hair Removal","deal_id":102,"distance between":1.546009864,"latitude_cc":32.856386,"id":"a67vwkfsa4be","state":"CA","longitude_deal":-117.271615},"type":"Feature","geometry":{"type":"Point","coordinates":[-117.256485,32.856386]}},{"properties":{"address1":"1816 Treseder Cir.","city":"El Cajon","zip":"92019","latitude_deal":32.83797,"parent_category_deal":"Beauty and Spas","longitude_cc":-116.917916,"category_deal":"Laser Hair Removal","deal_id":102,"distance between":21.08905568,"latitude_cc":32.768784,"id":"a67vwkayzz15","state":"CA","longitude_deal":-117.271615},"type":"Feature","geometry":{"type":"Point","coordinates":[-116.917916,32.768784]}},{"properties":{"address1":"1747 Topaz Terrace","city":"El Cajon","zip":"92019","latitude_deal":32.83797,"parent_category_deal":"Beauty and Spas","longitude_cc":-116.910502,"category_deal":"Laser Hair Removal","deal_id":102,"distance between":21.56551081,"latitude_cc":32.765194,"id":"a67vwknk4uhl","state":"CA","longitude_deal":-117.271615},"type":"Feature","geometry":{"type":"Point","coordinates":[-116.910502,32.765194]}},{"properties":{"address1":"2472 canyon creek rd","city":"escondido","zip":"92025","latitude_deal":32.83797,"parent_category_deal":"Beauty and Spas","longitude_cc":-117.048552,"category_deal":"Laser Hair Removal","deal_id":102,"distance between":21.79727758,"latitude_cc":33.091957,"id":"a67vwklsaohf","state":"CA","longitude_deal":-117.271615},"type":"Feature","geometry":{"type":"Point","coordinates":[-117.048552,33.091957]}},{"properties":{"address1":"3035 jamacha view dr","city":"el cajon","zip":"92019","latitude_deal":32.83797,"parent_category_deal":"Beauty and Spas","longitude_cc":-116.91424,"category_deal":"Laser Hair Removal","deal_id":102,"distance between":21.89384693,"latitude_cc":32.737199,"id":"a67vwkcoigs7","state":"CA","longitude_deal":-117.271615},"type":"Feature","geometry":{"type":"Point","coordinates":[-116.91424,32.737199]}},{"properties":{"address1":"224 Cerco Rosado","city":"San Marcos","zip":"92069","latitude_deal":32.83797,"parent_category_deal":"Beauty and Spas","longitude_cc":-117.133041,"category_deal":"Laser Hair Removal","deal_id":102,"distance between":22.2667846,"latitude_cc":33.138567,"id":"a67vwkq69j3d","state":"CA","longitude_deal":-117.271615},"type":"Feature","geometry":{"type":"Point","coordinates":[-117.133041,33.138567]}},{"properties":{"address1":"3508 Alander Ct","city":"Carlsbad","zip":"92010","latitude_deal":32.83797,"parent_category_deal":"Beauty and Spas","longitude_cc":-117.299152,"category_deal":"Laser Hair Removal","deal_id":102,"distance between":22.5611089,"latitude_cc":33.163699,"id":"a67vwkp65on8","state":"CA","longitude_deal":-117.271615},"type":"Feature","geometry":{"type":"Point","coordinates":[-117.299152,33.163699]}},{"properties":{"address1":"PO BOX 2140","city":"Carlsbad","zip":"92018","latitude_deal":32.83797,"parent_category_deal":"Beauty and Spas","longitude_cc":-117.338219,"category_deal":"Laser Hair Removal","deal_id":102,"distance between":22.98150964,"latitude_cc":33.165878,"id":"a67vwkio4j7i","state":"CA","longitude_deal":-117.271615},"type":"Feature","geometry":{"type":"Point","coordinates":[-117.338219,33.165878]}},{"properties":{"address1":"9135 Soldin Lane","city":"El Cajon","zip":"92021","latitude_deal":32.83797,"parent_category_deal":"Beauty and Spas","longitude_cc":-116.864504,"category_deal":"Laser Hair Removal","deal_id":102,"distance between":23.63812815,"latitude_cc":32.845956,"id":"a67vwkjcawwq","state":"CA","longitude_deal":-117.271615},"type":"Feature","geometry":{"type":"Point","coordinates":[-116.864504,32.845956]}},{"properties":{"address1":"2457 San Clemente Way","city":"Vista","zip":"92084","latitude_deal":32.83797,"parent_category_deal":"Beauty and Spas","longitude_cc":-117.199993,"category_deal":"Laser Hair Removal","deal_id":102,"distance between":25.49397349,"latitude_cc":33.202047,"id":"a67vwkanqclc","state":"CA","longitude_deal":-117.271615},"type":"Feature","geometry":{"type":"Point","coordinates":[-117.199993,33.202047]}},{"properties":{"address1":"203 Yellowtail Ct","city":"Oceanside","zip":"92058","latitude_deal":32.83797,"parent_category_deal":"Beauty and Spas","longitude_cc":-117.346274,"category_deal":"Laser Hair Removal","deal_id":102,"distance between":27.1135172,"latitude_cc":33.225384,"id":"a67vwkjhentu","state":"CA","longitude_deal":-117.271615},"type":"Feature","geometry":{"type":"Point","coordinates":[-117.346274,33.225384]}},{"properties":{"address1":"442 Calico Rd","city":"Oceanside","zip":"92058","latitude_deal":32.83797,"parent_category_deal":"Beauty and Spas","longitude_cc":-117.346274,"category_deal":"Laser Hair Removal","deal_id":102,"distance between":27.1135172,"latitude_cc":33.225384,"id":"a67vwkl5l6r3","state":"CA","longitude_deal":-117.271615},"type":"Feature","geometry":{"type":"Point","coordinates":[-117.346274,33.225384]}},{"properties":{"address1":"805 Henderson Court","city":"Oceanside","zip":"92058","latitude_deal":32.83797,"parent_category_deal":"Beauty and Spas","longitude_cc":-117.346274,"category_deal":"Laser Hair Removal","deal_id":102,"distance between":27.1135172,"latitude_cc":33.225384,"id":"a67vwkayj349","state":"CA","longitude_deal":-117.271615},"type":"Feature","geometry":{"type":"Point","coordinates":[-117.346274,33.225384]}},{"properties":{"address1":"3661 Oak Cliff Dr.","city":"Fallbrook","zip":"92028","latitude_deal":32.83797,"parent_category_deal":"Beauty and Spas","longitude_cc":-117.183838,"category_deal":"Laser Hair Removal","deal_id":102,"distance between":34.87299313,"latitude_cc":33.337331,"id":"a67vwki2qq1o","state":"CA","longitude_deal":-117.271615},"type":"Feature","geometry":{"type":"Point","coordinates":[-117.183838,33.337331]}},{"properties":{"address1":"566 Casuda Canyon Drive","city":"Monterey Park","zip":"91754","latitude_deal":32.83797,"parent_category_deal":"Beauty and Spas","longitude_cc":-118.162303,"category_deal":"Laser Hair Removal","deal_id":102,"distance between":98.54031258,"latitude_cc":34.055319,"id":"a67vwki7vi1r","state":"CA","longitude_deal":-117.271615},"type":"Feature","geometry":{"type":"Point","coordinates":[-118.162303,34.055319]}},{"properties":{"address1":"1018 Doyle Place Apt#1","city":"Los Angeles","zip":"90012","latitude_deal":32.83797,"parent_category_deal":"Beauty and Spas","longitude_cc":-118.240493,"category_deal":"Laser Hair Removal","deal_id":102,"distance between":101.6415394,"latitude_cc":34.067142,"id":"a67vwkhkldn5","state":"CA","longitude_deal":-117.271615},"type":"Feature","geometry":{"type":"Point","coordinates":[-118.240493,34.067142]}},{"properties":{"address1":"3500 Palmilla Drive Unit 5012","city":"san Jose","zip":"95134","latitude_deal":32.83797,"parent_category_deal":"Beauty and Spas","longitude_cc":-121.937325,"category_deal":"Laser Hair Removal","deal_id":102,"distance between":411.2273304,"latitude_cc":37.408049,"id":"a67vwkklkrbb","state":"CA","longitude_deal":-117.271615},"type":"Feature","geometry":{"type":"Point","coordinates":[-121.937325,37.408049]}},{"properties":{"address1":"16607 kildare rd","city":"san leandro","zip":"94578","latitude_deal":32.83797,"parent_category_deal":"Beauty and Spas","longitude_cc":-122.098143,"category_deal":"Laser Hair Removal","deal_id":102,"distance between":432.3109512,"latitude_cc":37.701185,"id":"a67vwkidzi0d","state":"CA","longitude_deal":-117.271615},"type":"Feature","geometry":{"type":"Point","coordinates":[-122.098143,37.701185]}},{"properties":{"address1":"116 Landmark Drive","city":"Chico","zip":"95973","latitude_deal":32.83797,"parent_category_deal":"Beauty and Spas","longitude_cc":-121.87891,"category_deal":"Laser Hair Removal","deal_id":102,"distance between":545.6600921,"latitude_cc":39.812509,"id":"a67vwkhui5re","state":"CA","longitude_deal":-117.271615},"type":"Feature","geometry":{"type":"Point","coordinates":[-121.87891,39.812509]}},{"properties":{"address1":"26580 Mallard ave","city":"Euclid","zip":"44132","latitude_deal":32.83797,"parent_category_deal":"Beauty and Spas","longitude_cc":-81.499017,"category_deal":"Laser Hair Removal","deal_id":102,"distance between":2042.742533,"latitude_cc":41.613564,"id":"a67vwkmbbglw","state":"OH","longitude_deal":-117.271615},"type":"Feature","geometry":{"type":"Point","coordinates":[-81.499017,41.613564]}},{"properties":{"address1":"26580 Mallard ave","city":"Euclid","zip":"44132","latitude_deal":32.83797,"parent_category_deal":"Beauty and Spas","longitude_cc":-81.499017,"category_deal":"Laser Hair Removal","deal_id":102,"distance between":2042.742533,"latitude_cc":41.613564,"id":"a67vwklcegas","state":"OH","longitude_deal":-117.271615},"type":"Feature","geometry":{"type":"Point","coordinates":[-81.499017,41.613564]}},{"properties":{"address1":"609 Predmore ave","city":"Lanoka Harbor","zip":"8734","latitude_deal":32.83797,"parent_category_deal":"Beauty and Spas","longitude_cc":-74.155053,"category_deal":"Laser Hair Removal","deal_id":102,"distance between":2423.746139,"latitude_cc":39.863628,"id":"a67vwkgw1bv8","state":"NJ","longitude_deal":-117.271615},"type":"Feature","geometry":{"type":"Point","coordinates":[-74.155053,39.863628]}},{"properties":{"address1":"9450 Gilman Dr #80419","city":"La Jolla","zip":"92092","latitude_deal":32.83797,"parent_category_deal":"Beauty and Spas","longitude_cc":-117.27227,"category_deal":"Laser Hair Removal","deal_id":102,"distance between":0.321452344,"latitude_cc":32.84259,"id":"a67vwkiir4d1","state":"CA","longitude_deal":-117.271615},"type":"Feature","geometry":{"type":"Point","coordinates":[-117.27227,32.84259]}}],"is_temporal":false,"author":{"url":"","metadata":"","contact_name":"","contact_address":"","source":"","contact_phone":""},"source":"","pagination":{"sort":null,"start":0,"total":92,"limit":1000000},"state":"complete","tags":"","published":"2014-08-10T13:10:22-04:00","id":72282}