{"type":"FeatureCollection","data_type":"Dataset","url_type":null,"permissions":[{"permissions":{"download":true,"view":true},"group_id":"everyone"}],"classification":null,"title":"2010-ALL-leads-by-zip","count":326,"stream_id":73051,"contributor":{"url":"http://geocommons.com/users/17811","name":"carlosglz"},"data_attributes":null,"calculation_params":null,"icon_link":null,"link":"http://geocommons.com/overlays/73051.json","extent":[-122.417,32.552,-114.574,37.7793],"geometry_types":["point"],"unique_name":null,"name":"2010-ALL-leads-by-zip","feature_count":326,"description":"","next_feature":null,"is_raster":false,"short_classification":"Y","stats":{"leads":{"max":29,"mean":4.23312883435583,"variance":18.3577914110428,"stdev":4.28459932911385,"min":1,"median":3},"geo_score":{"max":0.714,"mean":0.709619631901839,"variance":0.00311795949032561,"stdev":0.0558386916960418,"min":0.0,"median":0.714}},"features":[{"properties":{"zip":"90001","leads":15,"geo_score":0.714,"id":"a6775f7k2hls","geo_precision":"zip"},"type":"Feature","geometry":{"type":"Point","coordinates":[-118.243128,33.965571]}},{"properties":{"zip":"90002","leads":14,"geo_score":0.714,"id":"a6775ff8sz14","geo_precision":"zip"},"type":"Feature","geometry":{"type":"Point","coordinates":[-118.237305,33.960214]}},{"properties":{"zip":"90003","leads":14,"geo_score":0.714,"id":"a6775fa3m05r","geo_precision":"zip"},"type":"Feature","geometry":{"type":"Point","coordinates":[-118.273156,33.949164]}},{"properties":{"zip":"90004","leads":7,"geo_score":0.714,"id":"a6775f6devi2","geo_precision":"zip"},"type":"Feature","geometry":{"type":"Point","coordinates":[-118.298662,33.786594]}},{"properties":{"zip":"90005","leads":7,"geo_score":0.714,"id":"a6775fb94pxe","geo_precision":"zip"},"type":"Feature","geometry":{"type":"Point","coordinates":[-118.298662,33.786594]}},{"properties":{"zip":"90006","leads":12,"geo_score":0.714,"id":"a6775fg0ghfm","geo_precision":"zip"},"type":"Feature","geometry":{"type":"Point","coordinates":[-118.298662,33.786594]}},{"properties":{"zip":"90007","leads":6,"geo_score":0.714,"id":"a6775f546zmx","geo_precision":"zip"},"type":"Feature","geometry":{"type":"Point","coordinates":[-118.298662,33.786594]}},{"properties":{"zip":"90008","leads":2,"geo_score":0.714,"id":"a6775f5gdj81","geo_precision":"zip"},"type":"Feature","geometry":{"type":"Point","coordinates":[-118.298662,33.786594]}},{"properties":{"zip":"90011","leads":29,"geo_score":0.714,"id":"a6775fdbn5ny","geo_precision":"zip"},"type":"Feature","geometry":{"type":"Point","coordinates":[-118.250056,33.989264]}},{"properties":{"zip":"90012","leads":2,"geo_score":0.714,"id":"a6775fegcfie","geo_precision":"zip"},"type":"Feature","geometry":{"type":"Point","coordinates":[-118.298662,33.786594]}},{"properties":{"zip":"90013","leads":1,"geo_score":0.714,"id":"a6775ffa8vhe","geo_precision":"zip"},"type":"Feature","geometry":{"type":"Point","coordinates":[-118.298662,33.786594]}},{"properties":{"zip":"90015","leads":3,"geo_score":0.714,"id":"a6775fcwr73c","geo_precision":"zip"},"type":"Feature","geometry":{"type":"Point","coordinates":[-118.656478,34.419441]}},{"properties":{"zip":"90016","leads":5,"geo_score":0.714,"id":"a6775fatp6w3","geo_precision":"zip"},"type":"Feature","geometry":{"type":"Point","coordinates":[-118.298662,33.786594]}},{"properties":{"zip":"90017","leads":8,"geo_score":0.714,"id":"a6775f9at8yc","geo_precision":"zip"},"type":"Feature","geometry":{"type":"Point","coordinates":[-118.298662,33.786594]}},{"properties":{"zip":"90018","leads":4,"geo_score":0.714,"id":"a6775f84r38m","geo_precision":"zip"},"type":"Feature","geometry":{"type":"Point","coordinates":[-118.298662,33.786594]}},{"properties":{"zip":"90019","leads":4,"geo_score":0.714,"id":"a6775f3mot3b","geo_precision":"zip"},"type":"Feature","geometry":{"type":"Point","coordinates":[-118.298662,33.786594]}},{"properties":{"zip":"90020","leads":5,"geo_score":0.714,"id":"a6775farm3af","geo_precision":"zip"},"type":"Feature","geometry":{"type":"Point","coordinates":[-118.298662,33.786594]}},{"properties":{"zip":"90022","leads":13,"geo_score":0.714,"id":"a6775f4kxo97","geo_precision":"zip"},"type":"Feature","geometry":{"type":"Point","coordinates":[-118.162849,34.02779]}},{"properties":{"zip":"90023","leads":7,"geo_score":0.714,"id":"a6775f1spmd4","geo_precision":"zip"},"type":"Feature","geometry":{"type":"Point","coordinates":[-118.196055,34.008262]}},{"properties":{"zip":"90025","leads":1,"geo_score":0.714,"id":"a6775ff2xdve","geo_precision":"zip"},"type":"Feature","geometry":{"type":"Point","coordinates":[-118.448135,34.046399]}},{"properties":{"zip":"90026","leads":8,"geo_score":0.714,"id":"a6775f8bve6u","geo_precision":"zip"},"type":"Feature","geometry":{"type":"Point","coordinates":[-118.259241,34.09001]}},{"properties":{"zip":"90027","leads":1,"geo_score":0.714,"id":"a6775fgaumhy","geo_precision":"zip"},"type":"Feature","geometry":{"type":"Point","coordinates":[-118.298662,33.786594]}},{"properties":{"zip":"90029","leads":8,"geo_score":0.714,"id":"a6775fazg53g","geo_precision":"zip"},"type":"Feature","geometry":{"type":"Point","coordinates":[-118.298662,33.786594]}},{"properties":{"zip":"90031","leads":5,"geo_score":0.714,"id":"a6775f1rw7oj","geo_precision":"zip"},"type":"Feature","geometry":{"type":"Point","coordinates":[-118.205073,34.070566]}},{"properties":{"zip":"90032","leads":4,"geo_score":0.714,"id":"a6775f7kmkr5","geo_precision":"zip"},"type":"Feature","geometry":{"type":"Point","coordinates":[-118.17785,34.081121]}},{"properties":{"zip":"90033","leads":9,"geo_score":0.714,"id":"a6775f2ng338","geo_precision":"zip"},"type":"Feature","geometry":{"type":"Point","coordinates":[-118.20535,34.033901]}},{"properties":{"zip":"90034","leads":1,"geo_score":0.714,"id":"a6775f5m2lg6","geo_precision":"zip"},"type":"Feature","geometry":{"type":"Point","coordinates":[-118.405633,34.022789]}},{"properties":{"zip":"90037","leads":10,"geo_score":0.714,"id":"a6775fattgo3","geo_precision":"zip"},"type":"Feature","geometry":{"type":"Point","coordinates":[-118.298662,33.786594]}},{"properties":{"zip":"90038","leads":7,"geo_score":0.714,"id":"a6775f0w4t07","geo_precision":"zip"},"type":"Feature","geometry":{"type":"Point","coordinates":[-118.298662,33.786594]}},{"properties":{"zip":"90040","leads":3,"geo_score":0.714,"id":"a6775fghnto4","geo_precision":"zip"},"type":"Feature","geometry":{"type":"Point","coordinates":[-118.159793,34.000569]}},{"properties":{"zip":"90042","leads":3,"geo_score":0.714,"id":"a6775ff5z35k","geo_precision":"zip"},"type":"Feature","geometry":{"type":"Point","coordinates":[-118.198962,34.111953]}},{"properties":{"zip":"90043","leads":7,"geo_score":0.714,"id":"a6775f577oky","geo_precision":"zip"},"type":"Feature","geometry":{"type":"Point","coordinates":[-118.342576,33.998902]}},{"properties":{"zip":"90044","leads":13,"geo_score":0.714,"id":"a6775f9ra7r1","geo_precision":"zip"},"type":"Feature","geometry":{"type":"Point","coordinates":[-118.302296,33.941404]}},{"properties":{"zip":"90045","leads":1,"geo_score":0.714,"id":"a6775fdnkixv","geo_precision":"zip"},"type":"Feature","geometry":{"type":"Point","coordinates":[-118.375354,33.994179]}},{"properties":{"zip":"90047","leads":3,"geo_score":0.714,"id":"a6775ffpevcj","geo_precision":"zip"},"type":"Feature","geometry":{"type":"Point","coordinates":[-118.281184,33.920015]}},{"properties":{"zip":"90049","leads":2,"geo_score":0.714,"id":"a6775f613kpg","geo_precision":"zip"},"type":"Feature","geometry":{"type":"Point","coordinates":[-118.473969,34.051954]}},{"properties":{"zip":"90057","leads":8,"geo_score":0.714,"id":"a6775fbj9d8w","geo_precision":"zip"},"type":"Feature","geometry":{"type":"Point","coordinates":[-118.298662,33.786594]}},{"properties":{"zip":"90058","leads":1,"geo_score":0.714,"id":"a6775f1qnu3s","geo_precision":"zip"},"type":"Feature","geometry":{"type":"Point","coordinates":[-118.204794,34.012236]}},{"properties":{"zip":"90059","leads":11,"geo_score":0.714,"id":"a6775ffvev02","geo_precision":"zip"},"type":"Feature","geometry":{"type":"Point","coordinates":[-118.244955,33.921065]}},{"properties":{"zip":"90061","leads":10,"geo_score":0.714,"id":"a6775f3lwmr5","geo_precision":"zip"},"type":"Feature","geometry":{"type":"Point","coordinates":[-118.275356,33.920965]}},{"properties":{"zip":"90062","leads":6,"geo_score":0.714,"id":"a6775fdulzdt","geo_precision":"zip"},"type":"Feature","geometry":{"type":"Point","coordinates":[-118.331465,34.006957]}},{"properties":{"zip":"90063","leads":8,"geo_score":0.714,"id":"a6775fg7mwvy","geo_precision":"zip"},"type":"Feature","geometry":{"type":"Point","coordinates":[-118.18285,34.050012]}},{"properties":{"zip":"90065","leads":8,"geo_score":0.714,"id":"a6775f7p2thj","geo_precision":"zip"},"type":"Feature","geometry":{"type":"Point","coordinates":[-118.298662,33.786594]}},{"properties":{"zip":"90066","leads":5,"geo_score":0.714,"id":"a6775f7ljf3t","geo_precision":"zip"},"type":"Feature","geometry":{"type":"Point","coordinates":[-118.430912,34.004734]}},{"properties":{"zip":"90068","leads":1,"geo_score":0.714,"id":"a6775ffuf9v1","geo_precision":"zip"},"type":"Feature","geometry":{"type":"Point","coordinates":[-118.298662,33.786594]}},{"properties":{"zip":"90201","leads":15,"geo_score":0.714,"id":"a6775f81soon","geo_precision":"zip"},"type":"Feature","geometry":{"type":"Point","coordinates":[-118.172849,33.980292]}},{"properties":{"zip":"90220","leads":4,"geo_score":0.714,"id":"a6775ff1k2a5","geo_precision":"zip"},"type":"Feature","geometry":{"type":"Point","coordinates":[-118.240208,33.874815]}},{"properties":{"zip":"90221","leads":11,"geo_score":0.714,"id":"a6775f2tqdle","geo_precision":"zip"},"type":"Feature","geometry":{"type":"Point","coordinates":[-118.195348,33.898071]}},{"properties":{"zip":"90222","leads":4,"geo_score":0.714,"id":"a6775f4z8bet","geo_precision":"zip"},"type":"Feature","geometry":{"type":"Point","coordinates":[-118.255073,33.91696]}},{"properties":{"zip":"90240","leads":2,"geo_score":0.714,"id":"a6775fe9ke06","geo_precision":"zip"},"type":"Feature","geometry":{"type":"Point","coordinates":[-118.119461,33.946363]}},{"properties":{"zip":"90241","leads":3,"geo_score":0.714,"id":"a6775f77g4vb","geo_precision":"zip"},"type":"Feature","geometry":{"type":"Point","coordinates":[-118.125851,33.939164]}},{"properties":{"zip":"90242","leads":2,"geo_score":0.714,"id":"a6775feeo7kg","geo_precision":"zip"},"type":"Feature","geometry":{"type":"Point","coordinates":[-118.139969,33.922714]}},{"properties":{"zip":"90247","leads":5,"geo_score":0.714,"id":"a6775f1gamaw","geo_precision":"zip"},"type":"Feature","geometry":{"type":"Point","coordinates":[-118.303407,33.923348]}},{"properties":{"zip":"90248","leads":1,"geo_score":0.714,"id":"a6775far8xpn","geo_precision":"zip"},"type":"Feature","geometry":{"type":"Point","coordinates":[-118.269605,33.877165]}},{"properties":{"zip":"90249","leads":1,"geo_score":0.714,"id":"a6775ff4pt2k","geo_precision":"zip"},"type":"Feature","geometry":{"type":"Point","coordinates":[-118.299106,33.858866]}},{"properties":{"zip":"90250","leads":8,"geo_score":0.714,"id":"a6775f493c5j","geo_precision":"zip"},"type":"Feature","geometry":{"type":"Point","coordinates":[-118.298662,33.786594]}},{"properties":{"zip":"90255","leads":19,"geo_score":0.714,"id":"a6775f3z6ae1","geo_precision":"zip"},"type":"Feature","geometry":{"type":"Point","coordinates":[-118.225072,33.96807]}},{"properties":{"zip":"90260","leads":2,"geo_score":0.714,"id":"a6775fc4nh5m","geo_precision":"zip"},"type":"Feature","geometry":{"type":"Point","coordinates":[-118.298662,33.786594]}},{"properties":{"zip":"90262","leads":8,"geo_score":0.714,"id":"a6775f0ooobf","geo_precision":"zip"},"type":"Feature","geometry":{"type":"Point","coordinates":[-118.192015,33.910293]}},{"properties":{"zip":"90270","leads":7,"geo_score":0.714,"id":"a6775ffl9jj4","geo_precision":"zip"},"type":"Feature","geometry":{"type":"Point","coordinates":[-118.187376,33.988463]}},{"properties":{"zip":"90280","leads":16,"geo_score":0.714,"id":"a6775fghdmtx","geo_precision":"zip"},"type":"Feature","geometry":{"type":"Point","coordinates":[-118.168125,33.929737]}},{"properties":{"zip":"90291","leads":2,"geo_score":0.714,"id":"a6775fdtin53","geo_precision":"zip"},"type":"Feature","geometry":{"type":"Point","coordinates":[-118.298662,33.786594]}},{"properties":{"zip":"90301","leads":5,"geo_score":0.714,"id":"a6775f54dwfq","geo_precision":"zip"},"type":"Feature","geometry":{"type":"Point","coordinates":[-118.298662,33.786594]}},{"properties":{"zip":"90302","leads":3,"geo_score":0.714,"id":"a6775fckbmb5","geo_precision":"zip"},"type":"Feature","geometry":{"type":"Point","coordinates":[-118.298662,33.786594]}},{"properties":{"zip":"90303","leads":6,"geo_score":0.714,"id":"a6775f0hjhmc","geo_precision":"zip"},"type":"Feature","geometry":{"type":"Point","coordinates":[-118.298662,33.786594]}},{"properties":{"zip":"90304","leads":10,"geo_score":0.714,"id":"a6775fefe0bm","geo_precision":"zip"},"type":"Feature","geometry":{"type":"Point","coordinates":[-118.352575,33.93807]}},{"properties":{"zip":"90305","leads":1,"geo_score":0.714,"id":"a6775fa37cwv","geo_precision":"zip"},"type":"Feature","geometry":{"type":"Point","coordinates":[-118.326464,33.959736]}},{"properties":{"zip":"90404","leads":1,"geo_score":0.714,"id":"a6775fdwo5yz","geo_precision":"zip"},"type":"Feature","geometry":{"type":"Point","coordinates":[-118.298662,33.786594]}},{"properties":{"zip":"90405","leads":1,"geo_score":0.714,"id":"a6775f4dfdns","geo_precision":"zip"},"type":"Feature","geometry":{"type":"Point","coordinates":[-118.483691,34.002233]}},{"properties":{"zip":"90501","leads":5,"geo_score":0.714,"id":"a6775f9i0m42","geo_precision":"zip"},"type":"Feature","geometry":{"type":"Point","coordinates":[-118.303805,33.835665]}},{"properties":{"zip":"90601","leads":1,"geo_score":0.714,"id":"a6775ffwlz57","geo_precision":"zip"},"type":"Feature","geometry":{"type":"Point","coordinates":[-118.0441,34.004311]}},{"properties":{"zip":"90602","leads":4,"geo_score":0.714,"id":"a6775f701hg2","geo_precision":"zip"},"type":"Feature","geometry":{"type":"Point","coordinates":[-118.036578,33.971839]}},{"properties":{"zip":"90604","leads":2,"geo_score":0.714,"id":"a6775fgavjmn","geo_precision":"zip"},"type":"Feature","geometry":{"type":"Point","coordinates":[-118.009085,33.932663]}},{"properties":{"zip":"90605","leads":6,"geo_score":0.714,"id":"a6775f0jk0ps","geo_precision":"zip"},"type":"Feature","geometry":{"type":"Point","coordinates":[-118.041733,33.960846]}},{"properties":{"zip":"90606","leads":3,"geo_score":0.714,"id":"a6775fd3lmnn","geo_precision":"zip"},"type":"Feature","geometry":{"type":"Point","coordinates":[-118.057012,33.988624]}},{"properties":{"zip":"90620","leads":4,"geo_score":0.714,"id":"a6775f5v64yv","geo_precision":"zip"},"type":"Feature","geometry":{"type":"Point","coordinates":[-117.769442,33.640302]}},{"properties":{"zip":"90621","leads":1,"geo_score":0.714,"id":"a6775f9blavi","geo_precision":"zip"},"type":"Feature","geometry":{"type":"Point","coordinates":[-117.769442,33.640302]}},{"properties":{"zip":"90631","leads":6,"geo_score":0.714,"id":"a6775f5ray0t","geo_precision":"zip"},"type":"Feature","geometry":{"type":"Point","coordinates":[-117.950619,33.960846]}},{"properties":{"zip":"90640","leads":5,"geo_score":0.714,"id":"a6775ffhpv3t","geo_precision":"zip"},"type":"Feature","geometry":{"type":"Point","coordinates":[-118.298662,33.786594]}},{"properties":{"zip":"90650","leads":6,"geo_score":0.714,"id":"a6775f7zus6q","geo_precision":"zip"},"type":"Feature","geometry":{"type":"Point","coordinates":[-118.096178,33.919737]}},{"properties":{"zip":"90660","leads":10,"geo_score":0.714,"id":"a6775f9jmzs7","geo_precision":"zip"},"type":"Feature","geometry":{"type":"Point","coordinates":[-118.612032,34.377498]}},{"properties":{"zip":"90670","leads":1,"geo_score":0.714,"id":"a6775faoucq7","geo_precision":"zip"},"type":"Feature","geometry":{"type":"Point","coordinates":[-118.046176,33.891403]}},{"properties":{"zip":"90680","leads":4,"geo_score":0.714,"id":"a6775f5ekh21","geo_precision":"zip"},"type":"Feature","geometry":{"type":"Point","coordinates":[-117.769442,33.640302]}},{"properties":{"zip":"90701","leads":2,"geo_score":0.714,"id":"a6775f4dnx38","geo_precision":"zip"},"type":"Feature","geometry":{"type":"Point","coordinates":[-118.064787,33.858348]}},{"properties":{"zip":"90706","leads":4,"geo_score":0.714,"id":"a6775fe4zscf","geo_precision":"zip"},"type":"Feature","geometry":{"type":"Point","coordinates":[-118.12965,33.888014]}},{"properties":{"zip":"90707","leads":1,"geo_score":0.714,"id":"a6775fejckdg","geo_precision":"zip"},"type":"Feature","geometry":{"type":"Point","coordinates":[-118.298662,33.786594]}},{"properties":{"zip":"90710","leads":2,"geo_score":0.714,"id":"a6775fe8k5mt","geo_precision":"zip"},"type":"Feature","geometry":{"type":"Point","coordinates":[-118.251554,33.791267]}},{"properties":{"zip":"90716","leads":4,"geo_score":0.714,"id":"a6775fc19sqs","geo_precision":"zip"},"type":"Feature","geometry":{"type":"Point","coordinates":[-118.072796,33.830967]}},{"properties":{"zip":"90717","leads":2,"geo_score":0.714,"id":"a6775f2ld9p3","geo_precision":"zip"},"type":"Feature","geometry":{"type":"Point","coordinates":[-118.298662,33.786594]}},{"properties":{"zip":"90723","leads":2,"geo_score":0.714,"id":"a6775f1wl0qi","geo_precision":"zip"},"type":"Feature","geometry":{"type":"Point","coordinates":[-118.165152,33.899015]}},{"properties":{"zip":"90731","leads":5,"geo_score":0.714,"id":"a6775fcjmbmw","geo_precision":"zip"},"type":"Feature","geometry":{"type":"Point","coordinates":[-118.253053,33.753088]}},{"properties":{"zip":"90744","leads":16,"geo_score":0.714,"id":"a6775f782fcr","geo_precision":"zip"},"type":"Feature","geometry":{"type":"Point","coordinates":[-118.234793,33.808351]}},{"properties":{"zip":"90745","leads":3,"geo_score":0.714,"id":"a6775f77mh9s","geo_precision":"zip"},"type":"Feature","geometry":{"type":"Point","coordinates":[-118.261154,33.813317]}},{"properties":{"zip":"90802","leads":2,"geo_score":0.714,"id":"a6775f2akbze","geo_precision":"zip"},"type":"Feature","geometry":{"type":"Point","coordinates":[-118.201101,33.756024]}},{"properties":{"zip":"90804","leads":5,"geo_score":0.714,"id":"a6775f4eyxo2","geo_precision":"zip"},"type":"Feature","geometry":{"type":"Point","coordinates":[-118.135699,33.785666]}},{"properties":{"zip":"90805","leads":7,"geo_score":0.714,"id":"a6775f2rhg7s","geo_precision":"zip"},"type":"Feature","geometry":{"type":"Point","coordinates":[-118.185625,33.860016]}},{"properties":{"zip":"90806","leads":3,"geo_score":0.714,"id":"a6775f6j1jz7","geo_precision":"zip"},"type":"Feature","geometry":{"type":"Point","coordinates":[-118.167846,33.804461]}},{"properties":{"zip":"90810","leads":1,"geo_score":0.714,"id":"a6775f0o8t1c","geo_precision":"zip"},"type":"Feature","geometry":{"type":"Point","coordinates":[-118.222848,33.827795]}},{"properties":{"zip":"90813","leads":12,"geo_score":0.714,"id":"a6775f5apd2w","geo_precision":"zip"},"type":"Feature","geometry":{"type":"Point","coordinates":[-118.183701,33.780017]}},{"properties":{"zip":"91001","leads":3,"geo_score":0.714,"id":"a6775ffjcvvt","geo_precision":"zip"},"type":"Feature","geometry":{"type":"Point","coordinates":[-118.298662,33.786594]}},{"properties":{"zip":"91016","leads":4,"geo_score":0.714,"id":"a6775f8gm2du","geo_precision":"zip"},"type":"Feature","geometry":{"type":"Point","coordinates":[-118.009788,34.115008]}},{"properties":{"zip":"91042","leads":3,"geo_score":0.714,"id":"a6775f671ypa","geo_precision":"zip"},"type":"Feature","geometry":{"type":"Point","coordinates":[-118.298662,33.786594]}},{"properties":{"zip":"91101","leads":1,"geo_score":0.714,"id":"a6775f1fufgd","geo_precision":"zip"},"type":"Feature","geometry":{"type":"Point","coordinates":[-118.298662,33.786594]}},{"properties":{"zip":"91103","leads":1,"geo_score":0.714,"id":"a6775f1qd924","geo_precision":"zip"},"type":"Feature","geometry":{"type":"Point","coordinates":[-118.298662,33.786594]}},{"properties":{"zip":"91104","leads":4,"geo_score":0.714,"id":"a6775f9onbl0","geo_precision":"zip"},"type":"Feature","geometry":{"type":"Point","coordinates":[-118.298662,33.786594]}},{"properties":{"zip":"91204","leads":3,"geo_score":0.714,"id":"a6775f49ejab","geo_precision":"zip"},"type":"Feature","geometry":{"type":"Point","coordinates":[-118.298662,33.786594]}},{"properties":{"zip":"91205","leads":1,"geo_score":0.714,"id":"a6775f867gti","geo_precision":"zip"},"type":"Feature","geometry":{"type":"Point","coordinates":[-118.298662,33.786594]}},{"properties":{"zip":"91303","leads":3,"geo_score":0.714,"id":"a6775f1ozrge","geo_precision":"zip"},"type":"Feature","geometry":{"type":"Point","coordinates":[-118.298662,33.786594]}},{"properties":{"zip":"91304","leads":5,"geo_score":0.714,"id":"a6775f570t9u","geo_precision":"zip"},"type":"Feature","geometry":{"type":"Point","coordinates":[-118.298662,33.786594]}},{"properties":{"zip":"91306","leads":6,"geo_score":0.714,"id":"a6775fc8wb44","geo_precision":"zip"},"type":"Feature","geometry":{"type":"Point","coordinates":[-118.298662,33.786594]}},{"properties":{"zip":"91307","leads":2,"geo_score":0.714,"id":"a6775f1dzk4a","geo_precision":"zip"},"type":"Feature","geometry":{"type":"Point","coordinates":[-118.298662,33.786594]}},{"properties":{"zip":"91311","leads":2,"geo_score":0.714,"id":"a6775f05x5ml","geo_precision":"zip"},"type":"Feature","geometry":{"type":"Point","coordinates":[-118.298662,33.786594]}},{"properties":{"zip":"91320","leads":3,"geo_score":0.714,"id":"a6775f476dr6","geo_precision":"zip"},"type":"Feature","geometry":{"type":"Point","coordinates":[-118.905874,34.175921]}},{"properties":{"zip":"91324","leads":3,"geo_score":0.714,"id":"a6775fg8yogi","geo_precision":"zip"},"type":"Feature","geometry":{"type":"Point","coordinates":[-118.298662,33.786594]}},{"properties":{"zip":"91325","leads":1,"geo_score":0.714,"id":"a6775f1pjmtc","geo_precision":"zip"},"type":"Feature","geometry":{"type":"Point","coordinates":[-118.298662,33.786594]}},{"properties":{"zip":"91331","leads":23,"geo_score":0.714,"id":"a6775fd1vum6","geo_precision":"zip"},"type":"Feature","geometry":{"type":"Point","coordinates":[-118.298662,33.786594]}},{"properties":{"zip":"91333","leads":1,"geo_score":0.714,"id":"a6775fa3edrh","geo_precision":"zip"},"type":"Feature","geometry":{"type":"Point","coordinates":[-118.298662,33.786594]}},{"properties":{"zip":"91335","leads":12,"geo_score":0.714,"id":"a6775f22vjyk","geo_precision":"zip"},"type":"Feature","geometry":{"type":"Point","coordinates":[-118.298662,33.786594]}},{"properties":{"zip":"91340","leads":11,"geo_score":0.714,"id":"a6775f5sdfn8","geo_precision":"zip"},"type":"Feature","geometry":{"type":"Point","coordinates":[-118.298662,33.786594]}},{"properties":{"zip":"91341","leads":1,"geo_score":0.714,"id":"a6775f62sz3h","geo_precision":"zip"},"type":"Feature","geometry":{"type":"Point","coordinates":[-118.298662,33.786594]}},{"properties":{"zip":"91342","leads":10,"geo_score":0.714,"id":"a6775f89ysdc","geo_precision":"zip"},"type":"Feature","geometry":{"type":"Point","coordinates":[-118.298662,33.786594]}},{"properties":{"zip":"91343","leads":12,"geo_score":0.714,"id":"a6775ffisoye","geo_precision":"zip"},"type":"Feature","geometry":{"type":"Point","coordinates":[-118.484722,34.236389]}},{"properties":{"zip":"91344","leads":1,"geo_score":0.714,"id":"a6775f03h9kk","geo_precision":"zip"},"type":"Feature","geometry":{"type":"Point","coordinates":[-118.298662,33.786594]}},{"properties":{"zip":"91345","leads":1,"geo_score":0.714,"id":"a6775fbod2dk","geo_precision":"zip"},"type":"Feature","geometry":{"type":"Point","coordinates":[-118.298662,33.786594]}},{"properties":{"zip":"91351","leads":1,"geo_score":0.714,"id":"a6775f72rrfw","geo_precision":"zip"},"type":"Feature","geometry":{"type":"Point","coordinates":[-118.298662,33.786594]}},{"properties":{"zip":"91352","leads":6,"geo_score":0.714,"id":"a6775f3uqkdw","geo_precision":"zip"},"type":"Feature","geometry":{"type":"Point","coordinates":[-118.351746,34.261947]}},{"properties":{"zip":"91356","leads":1,"geo_score":0.714,"id":"a6775f5nm56t","geo_precision":"zip"},"type":"Feature","geometry":{"type":"Point","coordinates":[-118.298662,33.786594]}},{"properties":{"zip":"91360","leads":2,"geo_score":0.714,"id":"a6775fdddp28","geo_precision":"zip"},"type":"Feature","geometry":{"type":"Point","coordinates":[-118.805647,34.145839]}},{"properties":{"zip":"91384","leads":1,"geo_score":0.714,"id":"a6775f4r8l5l","geo_precision":"zip"},"type":"Feature","geometry":{"type":"Point","coordinates":[-118.298662,33.786594]}},{"properties":{"zip":"91401","leads":1,"geo_score":0.714,"id":"a6775fahx1mi","geo_precision":"zip"},"type":"Feature","geometry":{"type":"Point","coordinates":[-118.298662,33.786594]}},{"properties":{"zip":"91402","leads":10,"geo_score":0.714,"id":"a6775fb0k6gy","geo_precision":"zip"},"type":"Feature","geometry":{"type":"Point","coordinates":[-118.298662,33.786594]}},{"properties":{"zip":"91405","leads":10,"geo_score":0.714,"id":"a6775fc81yfk","geo_precision":"zip"},"type":"Feature","geometry":{"type":"Point","coordinates":[-118.424248,34.174172]}},{"properties":{"zip":"91406","leads":7,"geo_score":0.714,"id":"a6775fd4igvp","geo_precision":"zip"},"type":"Feature","geometry":{"type":"Point","coordinates":[-118.298662,33.786594]}},{"properties":{"zip":"91411","leads":4,"geo_score":0.714,"id":"a6775fdb6wn3","geo_precision":"zip"},"type":"Feature","geometry":{"type":"Point","coordinates":[-118.298662,33.786594]}},{"properties":{"zip":"91413","leads":1,"geo_score":0.714,"id":"a6775fbghit2","geo_precision":"zip"},"type":"Feature","geometry":{"type":"Point","coordinates":[-118.298662,33.786594]}},{"properties":{"zip":"91504","leads":2,"geo_score":0.714,"id":"a6775ffgqsy6","geo_precision":"zip"},"type":"Feature","geometry":{"type":"Point","coordinates":[-118.298662,33.786594]}},{"properties":{"zip":"91505","leads":2,"geo_score":0.714,"id":"a6775fajjcgq","geo_precision":"zip"},"type":"Feature","geometry":{"type":"Point","coordinates":[-118.347301,34.167784]}},{"properties":{"zip":"91506","leads":1,"geo_score":0.714,"id":"a6775f8n5pp5","geo_precision":"zip"},"type":"Feature","geometry":{"type":"Point","coordinates":[-118.298662,33.786594]}},{"properties":{"zip":"91601","leads":3,"geo_score":0.714,"id":"a6775f2l9nzx","geo_precision":"zip"},"type":"Feature","geometry":{"type":"Point","coordinates":[-118.298662,33.786594]}},{"properties":{"zip":"91605","leads":7,"geo_score":0.714,"id":"a6775f6yc2hy","geo_precision":"zip"},"type":"Feature","geometry":{"type":"Point","coordinates":[-118.298662,33.786594]}},{"properties":{"zip":"91606","leads":3,"geo_score":0.714,"id":"a6775f62kyuj","geo_precision":"zip"},"type":"Feature","geometry":{"type":"Point","coordinates":[-118.298662,33.786594]}},{"properties":{"zip":"91701","leads":2,"geo_score":0.714,"id":"a6775f6o06fh","geo_precision":"zip"},"type":"Feature","geometry":{"type":"Point","coordinates":[-115.967051,34.839964]}},{"properties":{"zip":"91702","leads":10,"geo_score":0.714,"id":"a6775f0uasxr","geo_precision":"zip"},"type":"Feature","geometry":{"type":"Point","coordinates":[-118.298662,33.786594]}},{"properties":{"zip":"91706","leads":10,"geo_score":0.714,"id":"a6775f744qt7","geo_precision":"zip"},"type":"Feature","geometry":{"type":"Point","coordinates":[-117.935341,34.106953]}},{"properties":{"zip":"91710","leads":5,"geo_score":0.714,"id":"a6775f4id8j8","geo_precision":"zip"},"type":"Feature","geometry":{"type":"Point","coordinates":[-117.778668,33.947792]}},{"properties":{"zip":"91722","leads":2,"geo_score":0.714,"id":"a6775f4whc74","geo_precision":"zip"},"type":"Feature","geometry":{"type":"Point","coordinates":[-118.298662,33.786594]}},{"properties":{"zip":"91723","leads":1,"geo_score":0.714,"id":"a6775f00ho3f","geo_precision":"zip"},"type":"Feature","geometry":{"type":"Point","coordinates":[-118.298662,33.786594]}},{"properties":{"zip":"91730","leads":1,"geo_score":0.714,"id":"a6775f4fzot6","geo_precision":"zip"},"type":"Feature","geometry":{"type":"Point","coordinates":[-115.967051,34.839964]}},{"properties":{"zip":"91731","leads":3,"geo_score":0.714,"id":"a6775f1lrfqn","geo_precision":"zip"},"type":"Feature","geometry":{"type":"Point","coordinates":[-118.298662,33.786594]}},{"properties":{"zip":"91732","leads":11,"geo_score":0.714,"id":"a6775feyak8j","geo_precision":"zip"},"type":"Feature","geometry":{"type":"Point","coordinates":[-118.298662,33.786594]}},{"properties":{"zip":"91733","leads":7,"geo_score":0.714,"id":"a6775f3nlohx","geo_precision":"zip"},"type":"Feature","geometry":{"type":"Point","coordinates":[-118.298662,33.786594]}},{"properties":{"zip":"91744","leads":11,"geo_score":0.714,"id":"a6775fbynlil","geo_precision":"zip"},"type":"Feature","geometry":{"type":"Point","coordinates":[-117.968398,34.051677]}},{"properties":{"zip":"91745","leads":3,"geo_score":0.714,"id":"a6775f8d8r4f","geo_precision":"zip"},"type":"Feature","geometry":{"type":"Point","coordinates":[-117.981631,33.976114]}},{"properties":{"zip":"91746","leads":4,"geo_score":0.714,"id":"a6775f2xxilr","geo_precision":"zip"},"type":"Feature","geometry":{"type":"Point","coordinates":[-117.991177,34.036122]}},{"properties":{"zip":"91748","leads":1,"geo_score":0.714,"id":"a6775fdqabr1","geo_precision":"zip"},"type":"Feature","geometry":{"type":"Point","coordinates":[-117.884784,33.987513]}},{"properties":{"zip":"91752","leads":1,"geo_score":0.714,"id":"a6775feulf1c","geo_precision":"zip"},"type":"Feature","geometry":{"type":"Point","coordinates":[-116.055617,33.752886]}},{"properties":{"zip":"91755","leads":1,"geo_score":0.714,"id":"a6775fed3fwk","geo_precision":"zip"},"type":"Feature","geometry":{"type":"Point","coordinates":[-118.298662,33.786594]}},{"properties":{"zip":"91761","leads":4,"geo_score":0.714,"id":"a6775fg1klpe","geo_precision":"zip"},"type":"Feature","geometry":{"type":"Point","coordinates":[-115.967051,34.839964]}},{"properties":{"zip":"91762","leads":6,"geo_score":0.714,"id":"a6775f6rvgj5","geo_precision":"zip"},"type":"Feature","geometry":{"type":"Point","coordinates":[-115.967051,34.839964]}},{"properties":{"zip":"91763","leads":5,"geo_score":0.714,"id":"a6775fg26frx","geo_precision":"zip"},"type":"Feature","geometry":{"type":"Point","coordinates":[-115.967051,34.839964]}},{"properties":{"zip":"91764","leads":7,"geo_score":0.714,"id":"a6775f86tkzv","geo_precision":"zip"},"type":"Feature","geometry":{"type":"Point","coordinates":[-115.967051,34.839964]}},{"properties":{"zip":"91766","leads":7,"geo_score":0.714,"id":"a6775f79rj97","geo_precision":"zip"},"type":"Feature","geometry":{"type":"Point","coordinates":[-119.382338,35.888009]}},{"properties":{"zip":"91767","leads":6,"geo_score":0.714,"id":"a6775f8ao1qa","geo_precision":"zip"},"type":"Feature","geometry":{"type":"Point","coordinates":[-118.298662,33.786594]}},{"properties":{"zip":"91768","leads":1,"geo_score":0.714,"id":"a6775f0kdwek","geo_precision":"zip"},"type":"Feature","geometry":{"type":"Point","coordinates":[-118.298662,33.786594]}},{"properties":{"zip":"91770","leads":3,"geo_score":0.714,"id":"a6775f7az1r7","geo_precision":"zip"},"type":"Feature","geometry":{"type":"Point","coordinates":[-118.090347,34.06251]}},{"properties":{"zip":"91772","leads":1,"geo_score":0.714,"id":"a6775fc06pox","geo_precision":"zip"},"type":"Feature","geometry":{"type":"Point","coordinates":[-118.298662,33.786594]}},{"properties":{"zip":"91774","leads":1,"geo_score":0.714,"id":"a6775f6imbq9","geo_precision":"zip"},"type":"Feature","geometry":{"type":"Point","coordinates":[-117.650888,34.063344]}},{"properties":{"zip":"91775","leads":3,"geo_score":0.714,"id":"a6775f3d6nz8","geo_precision":"zip"},"type":"Feature","geometry":{"type":"Point","coordinates":[-118.298662,33.786594]}},{"properties":{"zip":"91780","leads":1,"geo_score":0.714,"id":"a6775f2cw3g4","geo_precision":"zip"},"type":"Feature","geometry":{"type":"Point","coordinates":[-118.298662,33.786594]}},{"properties":{"zip":"91786","leads":2,"geo_score":0.714,"id":"a6775f0dfwvn","geo_precision":"zip"},"type":"Feature","geometry":{"type":"Point","coordinates":[-117.656444,34.155564]}},{"properties":{"zip":"91790","leads":2,"geo_score":0.714,"id":"a6775fb2or6d","geo_precision":"zip"},"type":"Feature","geometry":{"type":"Point","coordinates":[-118.298662,33.786594]}},{"properties":{"zip":"91792","leads":2,"geo_score":0.714,"id":"a6775febixbs","geo_precision":"zip"},"type":"Feature","geometry":{"type":"Point","coordinates":[-118.298662,33.786594]}},{"properties":{"zip":"92024","leads":1,"geo_score":0.714,"id":"a6775f93mr6t","geo_precision":"zip"},"type":"Feature","geometry":{"type":"Point","coordinates":[-117.234758,33.046153]}},{"properties":{"zip":"92042","leads":1,"geo_score":0.714,"id":"a6775fdan6ka","geo_precision":"zip"},"type":"Feature","geometry":{"type":"Point","coordinates":[-117.086421,33.119207]}},{"properties":{"zip":"92057","leads":1,"geo_score":0.714,"id":"a6775ffpqv83","geo_precision":"zip"},"type":"Feature","geometry":{"type":"Point","coordinates":[-116.846046,33.016928]}},{"properties":{"zip":"92073","leads":1,"geo_score":0.714,"id":"a6775f3dp243","geo_precision":"zip"},"type":"Feature","geometry":{"type":"Point","coordinates":[-117.043081,32.552001]}},{"properties":{"zip":"92154","leads":1,"geo_score":0.714,"id":"a6775fbl9apm","geo_precision":"zip"},"type":"Feature","geometry":{"type":"Point","coordinates":[-117.035225,32.628038]}},{"properties":{"zip":"92201","leads":17,"geo_score":0.714,"id":"a6775f4jgpag","geo_precision":"zip"},"type":"Feature","geometry":{"type":"Point","coordinates":[-116.289175,33.742799]}},{"properties":{"zip":"92202","leads":2,"geo_score":0.714,"id":"a6775fclubp9","geo_precision":"zip"},"type":"Feature","geometry":{"type":"Point","coordinates":[-116.055617,33.752886]}},{"properties":{"zip":"92203","leads":5,"geo_score":0.714,"id":"a6775f1vbbws","geo_precision":"zip"},"type":"Feature","geometry":{"type":"Point","coordinates":[-116.26764,33.75317]}},{"properties":{"zip":"92220","leads":2,"geo_score":0.714,"id":"a6775f7sb13j","geo_precision":"zip"},"type":"Feature","geometry":{"type":"Point","coordinates":[-116.864197,33.919215]}},{"properties":{"zip":"92225","leads":1,"geo_score":0.714,"id":"a6775fencdtx","geo_precision":"zip"},"type":"Feature","geometry":{"type":"Point","coordinates":[-114.573845,33.61058]}},{"properties":{"zip":"92231","leads":2,"geo_score":0.714,"id":"a6775f59dcvz","geo_precision":"zip"},"type":"Feature","geometry":{"type":"Point","coordinates":[-115.639166,32.678394]}},{"properties":{"zip":"92234","leads":15,"geo_score":0.714,"id":"a6775f83nky0","geo_precision":"zip"},"type":"Feature","geometry":{"type":"Point","coordinates":[-116.277152,33.647301]}},{"properties":{"zip":"92235","leads":1,"geo_score":0.714,"id":"a6775f6qocfr","geo_precision":"zip"},"type":"Feature","geometry":{"type":"Point","coordinates":[-116.055617,33.752886]}},{"properties":{"zip":"92236","leads":14,"geo_score":0.714,"id":"a6775f58e7b8","geo_precision":"zip"},"type":"Feature","geometry":{"type":"Point","coordinates":[-116.143588,33.646405]}},{"properties":{"zip":"92240","leads":4,"geo_score":0.714,"id":"a6775f92vzrb","geo_precision":"zip"},"type":"Feature","geometry":{"type":"Point","coordinates":[-116.35251,33.890015]}},{"properties":{"zip":"92241","leads":2,"geo_score":0.714,"id":"a6775f4sdz0r","geo_precision":"zip"},"type":"Feature","geometry":{"type":"Point","coordinates":[-116.354024,33.876265]}},{"properties":{"zip":"92247","leads":1,"geo_score":0.0,"id":"a6775ffv13b4","geo_precision":"unmatched"},"type":"Feature","geometry":null},{"properties":{"zip":"92253","leads":3,"geo_score":0.714,"id":"a6775f0wqa5r","geo_precision":"zip"},"type":"Feature","geometry":{"type":"Point","coordinates":[-116.259176,33.670978]}},{"properties":{"zip":"92254","leads":3,"geo_score":0.714,"id":"a6775fe4w1kj","geo_precision":"zip"},"type":"Feature","geometry":{"type":"Point","coordinates":[-115.92722,33.512804]}},{"properties":{"zip":"92260","leads":1,"geo_score":0.714,"id":"a6775f8u0f97","geo_precision":"zip"},"type":"Feature","geometry":{"type":"Point","coordinates":[-116.416402,33.688635]}},{"properties":{"zip":"92262","leads":4,"geo_score":0.714,"id":"a6775fd0zpjo","geo_precision":"zip"},"type":"Feature","geometry":{"type":"Point","coordinates":[-116.527996,33.842567]}},{"properties":{"zip":"92264","leads":1,"geo_score":0.714,"id":"a6775ff1jhba","geo_precision":"zip"},"type":"Feature","geometry":{"type":"Point","coordinates":[-116.511883,33.797145]}},{"properties":{"zip":"92270","leads":1,"geo_score":0.714,"id":"a6775f3gi60o","geo_precision":"zip"},"type":"Feature","geometry":{"type":"Point","coordinates":[-116.431961,33.703598]}},{"properties":{"zip":"92274","leads":7,"geo_score":0.714,"id":"a6775f8yva3a","geo_precision":"zip"},"type":"Feature","geometry":{"type":"Point","coordinates":[-116.180283,33.568915]}},{"properties":{"zip":"92279","leads":1,"geo_score":0.714,"id":"a6775f066ivp","geo_precision":"zip"},"type":"Feature","geometry":{"type":"Point","coordinates":[-116.545292,33.830296]}},{"properties":{"zip":"92301","leads":3,"geo_score":0.714,"id":"a6775f6cpmab","geo_precision":"zip"},"type":"Feature","geometry":{"type":"Point","coordinates":[-117.631168,34.602213]}},{"properties":{"zip":"92307","leads":1,"geo_score":0.714,"id":"a6775f3e80fj","geo_precision":"zip"},"type":"Feature","geometry":{"type":"Point","coordinates":[-117.171709,34.471388]}},{"properties":{"zip":"92311","leads":1,"geo_score":0.714,"id":"a6775fdjkgl0","geo_precision":"zip"},"type":"Feature","geometry":{"type":"Point","coordinates":[-117.103931,34.87665]}},{"properties":{"zip":"92314","leads":1,"geo_score":0.714,"id":"a6775f3g5m9m","geo_precision":"zip"},"type":"Feature","geometry":{"type":"Point","coordinates":[-116.110086,34.50514]}},{"properties":{"zip":"92316","leads":6,"geo_score":0.714,"id":"a6775f11dvq3","geo_precision":"zip"},"type":"Feature","geometry":{"type":"Point","coordinates":[-117.396157,34.044458]}},{"properties":{"zip":"92321","leads":2,"geo_score":0.714,"id":"a6775ffkthym","geo_precision":"zip"},"type":"Feature","geometry":{"type":"Point","coordinates":[-115.967051,34.839964]}},{"properties":{"zip":"92324","leads":7,"geo_score":0.714,"id":"a6775fdsrl34","geo_precision":"zip"},"type":"Feature","geometry":{"type":"Point","coordinates":[-117.313654,34.033903]}},{"properties":{"zip":"92335","leads":19,"geo_score":0.714,"id":"a6775f7ccr9y","geo_precision":"zip"},"type":"Feature","geometry":{"type":"Point","coordinates":[-117.488939,34.06279]}},{"properties":{"zip":"92336","leads":5,"geo_score":0.714,"id":"a6775fg8csob","geo_precision":"zip"},"type":"Feature","geometry":{"type":"Point","coordinates":[-116.247005,34.122307]}},{"properties":{"zip":"92337","leads":2,"geo_score":0.714,"id":"a6775f8x5mw3","geo_precision":"zip"},"type":"Feature","geometry":{"type":"Point","coordinates":[-115.967051,34.839964]}},{"properties":{"zip":"92342","leads":1,"geo_score":0.714,"id":"a6775fb8erjt","geo_precision":"zip"},"type":"Feature","geometry":{"type":"Point","coordinates":[-116.378323,34.496921]}},{"properties":{"zip":"92345","leads":5,"geo_score":0.714,"id":"a6775f0mofj2","geo_precision":"zip"},"type":"Feature","geometry":{"type":"Point","coordinates":[-115.967051,34.839964]}},{"properties":{"zip":"92346","leads":1,"geo_score":0.714,"id":"a6775f3mba22","geo_precision":"zip"},"type":"Feature","geometry":{"type":"Point","coordinates":[-117.226152,34.1214]}},{"properties":{"zip":"92352","leads":1,"geo_score":0.714,"id":"a6775f0mznzi","geo_precision":"zip"},"type":"Feature","geometry":{"type":"Point","coordinates":[-117.129213,34.209221]}},{"properties":{"zip":"92373","leads":1,"geo_score":0.714,"id":"a6775f3tynr2","geo_precision":"zip"},"type":"Feature","geometry":{"type":"Point","coordinates":[-117.158648,34.033903]}},{"properties":{"zip":"92374","leads":3,"geo_score":0.714,"id":"a6775fbkuhdt","geo_precision":"zip"},"type":"Feature","geometry":{"type":"Point","coordinates":[-116.898232,34.153575]}},{"properties":{"zip":"92376","leads":6,"geo_score":0.714,"id":"a6775f43er22","geo_precision":"zip"},"type":"Feature","geometry":{"type":"Point","coordinates":[-115.567483,34.202339]}},{"properties":{"zip":"92386","leads":1,"geo_score":0.714,"id":"a6775f595060","geo_precision":"zip"},"type":"Feature","geometry":{"type":"Point","coordinates":[-116.818764,34.247205]}},{"properties":{"zip":"92392","leads":2,"geo_score":0.714,"id":"a6775f99hhhx","geo_precision":"zip"},"type":"Feature","geometry":{"type":"Point","coordinates":[-114.754916,34.491985]}},{"properties":{"zip":"92394","leads":1,"geo_score":0.714,"id":"a6775fcatnfx","geo_precision":"zip"},"type":"Feature","geometry":{"type":"Point","coordinates":[-115.172471,34.527103]}},{"properties":{"zip":"92395","leads":3,"geo_score":0.0,"id":"a6775f5oyhja","geo_precision":"unmatched"},"type":"Feature","geometry":null},{"properties":{"zip":"92399","leads":2,"geo_score":0.714,"id":"a6775f3lchnj","geo_precision":"zip"},"type":"Feature","geometry":{"type":"Point","coordinates":[-116.947805,34.049457]}},{"properties":{"zip":"92404","leads":2,"geo_score":0.714,"id":"a6775ffn7kgg","geo_precision":"zip"},"type":"Feature","geometry":{"type":"Point","coordinates":[-117.243375,34.148899]}},{"properties":{"zip":"92405","leads":1,"geo_score":0.714,"id":"a6775f01f4vv","geo_precision":"zip"},"type":"Feature","geometry":{"type":"Point","coordinates":[-117.344212,34.154176]}},{"properties":{"zip":"92407","leads":2,"geo_score":0.714,"id":"a6775f3id8o2","geo_precision":"zip"},"type":"Feature","geometry":{"type":"Point","coordinates":[-117.415604,34.237229]}},{"properties":{"zip":"92410","leads":14,"geo_score":0.714,"id":"a6775f4mh3hx","geo_precision":"zip"},"type":"Feature","geometry":{"type":"Point","coordinates":[-116.479963,34.095956]}},{"properties":{"zip":"92491","leads":1,"geo_score":0.714,"id":"a6775fdf3lv0","geo_precision":"zip"},"type":"Feature","geometry":{"type":"Point","coordinates":[-117.289765,34.108345]}},{"properties":{"zip":"92503","leads":5,"geo_score":0.714,"id":"a6775f7ty0w3","geo_precision":"zip"},"type":"Feature","geometry":{"type":"Point","coordinates":[-117.446435,33.920293]}},{"properties":{"zip":"92504","leads":4,"geo_score":0.714,"id":"a6775f4lf84w","geo_precision":"zip"},"type":"Feature","geometry":{"type":"Point","coordinates":[-117.357265,33.882239]}},{"properties":{"zip":"92505","leads":2,"geo_score":0.714,"id":"a6775f10toyo","geo_precision":"zip"},"type":"Feature","geometry":{"type":"Point","coordinates":[-117.496437,33.920848]}},{"properties":{"zip":"92506","leads":2,"geo_score":0.714,"id":"a6775f7zo2n3","geo_precision":"zip"},"type":"Feature","geometry":{"type":"Point","coordinates":[-116.055617,33.752886]}},{"properties":{"zip":"92507","leads":1,"geo_score":0.714,"id":"a6775f0zpzvw","geo_precision":"zip"},"type":"Feature","geometry":{"type":"Point","coordinates":[-117.333377,34.015848]}},{"properties":{"zip":"92509","leads":11,"geo_score":0.714,"id":"a6775f8ad7bb","geo_precision":"zip"},"type":"Feature","geometry":{"type":"Point","coordinates":[-117.433381,34.011958]}},{"properties":{"zip":"92536","leads":1,"geo_score":0.714,"id":"a6775f13jmzd","geo_precision":"zip"},"type":"Feature","geometry":{"type":"Point","coordinates":[-116.737521,33.350869]}},{"properties":{"zip":"92543","leads":2,"geo_score":0.714,"id":"a6775fbvkbxe","geo_precision":"zip"},"type":"Feature","geometry":{"type":"Point","coordinates":[-116.777014,33.651652]}},{"properties":{"zip":"92544","leads":1,"geo_score":0.714,"id":"a6775f2nyz2j","geo_precision":"zip"},"type":"Feature","geometry":{"type":"Point","coordinates":[-116.786275,33.617074]}},{"properties":{"zip":"92545","leads":2,"geo_score":0.714,"id":"a6775fcwflja","geo_precision":"zip"},"type":"Feature","geometry":{"type":"Point","coordinates":[-116.055617,33.752886]}},{"properties":{"zip":"92551","leads":2,"geo_score":0.714,"id":"a6775fep6qub","geo_precision":"zip"},"type":"Feature","geometry":{"type":"Point","coordinates":[-116.055617,33.752886]}},{"properties":{"zip":"92553","leads":11,"geo_score":0.714,"id":"a6775ff6uf9j","geo_precision":"zip"},"type":"Feature","geometry":{"type":"Point","coordinates":[-116.505017,32.679501]}},{"properties":{"zip":"92555","leads":1,"geo_score":0.714,"id":"a6775ff86tih","geo_precision":"zip"},"type":"Feature","geometry":{"type":"Point","coordinates":[-116.920413,33.855098]}},{"properties":{"zip":"92557","leads":2,"geo_score":0.714,"id":"a6775f6oi9wg","geo_precision":"zip"},"type":"Feature","geometry":{"type":"Point","coordinates":[-116.055617,33.752886]}},{"properties":{"zip":"92562","leads":3,"geo_score":0.714,"id":"a6775fa3b43i","geo_precision":"zip"},"type":"Feature","geometry":{"type":"Point","coordinates":[-116.861027,33.44204]}},{"properties":{"zip":"92567","leads":1,"geo_score":0.714,"id":"a6775fcmnlt6","geo_precision":"zip"},"type":"Feature","geometry":{"type":"Point","coordinates":[-116.406069,33.628192]}},{"properties":{"zip":"92570","leads":8,"geo_score":0.714,"id":"a6775f7detqm","geo_precision":"zip"},"type":"Feature","geometry":{"type":"Point","coordinates":[-116.055617,33.752886]}},{"properties":{"zip":"92571","leads":10,"geo_score":0.714,"id":"a6775f940kbv","geo_precision":"zip"},"type":"Feature","geometry":{"type":"Point","coordinates":[-116.055617,33.752886]}},{"properties":{"zip":"92582","leads":2,"geo_score":0.714,"id":"a6775f0wkgyx","geo_precision":"zip"},"type":"Feature","geometry":{"type":"Point","coordinates":[-116.055617,33.752886]}},{"properties":{"zip":"92583","leads":2,"geo_score":0.714,"id":"a6775f9ecedw","geo_precision":"zip"},"type":"Feature","geometry":{"type":"Point","coordinates":[-116.92919,33.799741]}},{"properties":{"zip":"92585","leads":3,"geo_score":0.714,"id":"a6775fazbajt","geo_precision":"zip"},"type":"Feature","geometry":{"type":"Point","coordinates":[-117.175034,33.745853]}},{"properties":{"zip":"92591","leads":1,"geo_score":0.714,"id":"a6775f15f41z","geo_precision":"zip"},"type":"Feature","geometry":{"type":"Point","coordinates":[-116.055617,33.752886]}},{"properties":{"zip":"92603","leads":1,"geo_score":0.714,"id":"a6775f9wzvof","geo_precision":"zip"},"type":"Feature","geometry":{"type":"Point","coordinates":[-117.764637,33.648871]}},{"properties":{"zip":"92606","leads":1,"geo_score":0.714,"id":"a6775fd101na","geo_precision":"zip"},"type":"Feature","geometry":{"type":"Point","coordinates":[-117.817338,33.701121]}},{"properties":{"zip":"92612","leads":1,"geo_score":0.714,"id":"a6775f57z8wn","geo_precision":"zip"},"type":"Feature","geometry":{"type":"Point","coordinates":[-117.782805,33.615525]}},{"properties":{"zip":"92624","leads":1,"geo_score":0.714,"id":"a6775ffd1q6t","geo_precision":"zip"},"type":"Feature","geometry":{"type":"Point","coordinates":[-117.662824,33.455277]}},{"properties":{"zip":"92626","leads":2,"geo_score":0.714,"id":"a6775f9hcl94","geo_precision":"zip"},"type":"Feature","geometry":{"type":"Point","coordinates":[-117.778398,33.6829]}},{"properties":{"zip":"92627","leads":5,"geo_score":0.714,"id":"a6775famqb78","geo_precision":"zip"},"type":"Feature","geometry":{"type":"Point","coordinates":[-117.763886,33.685069]}},{"properties":{"zip":"92629","leads":1,"geo_score":0.714,"id":"a6775f3hnk7h","geo_precision":"zip"},"type":"Feature","geometry":{"type":"Point","coordinates":[-117.696366,33.485903]}},{"properties":{"zip":"92630","leads":2,"geo_score":0.714,"id":"a6775ffy2o21","geo_precision":"zip"},"type":"Feature","geometry":{"type":"Point","coordinates":[-117.683662,33.646966]}},{"properties":{"zip":"92647","leads":3,"geo_score":0.714,"id":"a6775f2wcnav","geo_precision":"zip"},"type":"Feature","geometry":{"type":"Point","coordinates":[-117.769442,33.640302]}},{"properties":{"zip":"92648","leads":2,"geo_score":0.714,"id":"a6775f42lfas","geo_precision":"zip"},"type":"Feature","geometry":{"type":"Point","coordinates":[-117.769442,33.640302]}},{"properties":{"zip":"92653","leads":3,"geo_score":0.714,"id":"a6775f3aaxto","geo_precision":"zip"},"type":"Feature","geometry":{"type":"Point","coordinates":[-117.725331,33.610301]}},{"properties":{"zip":"92663","leads":1,"geo_score":0.714,"id":"a6775f43fz38","geo_precision":"zip"},"type":"Feature","geometry":{"type":"Point","coordinates":[-117.91709,33.61837]}},{"properties":{"zip":"92675","leads":2,"geo_score":0.714,"id":"a6775f0jslw3","geo_precision":"zip"},"type":"Feature","geometry":{"type":"Point","coordinates":[-117.618932,33.530631]}},{"properties":{"zip":"92677","leads":2,"geo_score":0.714,"id":"a6775f4711xd","geo_precision":"zip"},"type":"Feature","geometry":{"type":"Point","coordinates":[-117.732276,33.490861]}},{"properties":{"zip":"92683","leads":5,"geo_score":0.714,"id":"a6775f8ntelt","geo_precision":"zip"},"type":"Feature","geometry":{"type":"Point","coordinates":[-118.024228,33.758905]}},{"properties":{"zip":"92691","leads":2,"geo_score":0.714,"id":"a6775f1cxx17","geo_precision":"zip"},"type":"Feature","geometry":{"type":"Point","coordinates":[-117.667923,33.605527]}},{"properties":{"zip":"92694","leads":1,"geo_score":0.714,"id":"a6775fbq8z88","geo_precision":"zip"},"type":"Feature","geometry":{"type":"Point","coordinates":[-117.769442,33.640302]}},{"properties":{"zip":"92701","leads":8,"geo_score":0.714,"id":"a6775fcxy0pd","geo_precision":"zip"},"type":"Feature","geometry":{"type":"Point","coordinates":[-117.769442,33.640302]}},{"properties":{"zip":"92703","leads":6,"geo_score":0.714,"id":"a6775f723qim","geo_precision":"zip"},"type":"Feature","geometry":{"type":"Point","coordinates":[-117.769442,33.640302]}},{"properties":{"zip":"92704","leads":18,"geo_score":0.714,"id":"a6775fedupat","geo_precision":"zip"},"type":"Feature","geometry":{"type":"Point","coordinates":[-117.769442,33.640302]}},{"properties":{"zip":"92705","leads":1,"geo_score":0.714,"id":"a6775f65qajc","geo_precision":"zip"},"type":"Feature","geometry":{"type":"Point","coordinates":[-117.79811,33.777795]}},{"properties":{"zip":"92706","leads":2,"geo_score":0.714,"id":"a6775f73tilw","geo_precision":"zip"},"type":"Feature","geometry":{"type":"Point","coordinates":[-117.769442,33.640302]}},{"properties":{"zip":"92707","leads":6,"geo_score":0.714,"id":"a6775f59up69","geo_precision":"zip"},"type":"Feature","geometry":{"type":"Point","coordinates":[-117.895613,33.65252]}},{"properties":{"zip":"92708","leads":1,"geo_score":0.714,"id":"a6775f38pfbx","geo_precision":"zip"},"type":"Feature","geometry":{"type":"Point","coordinates":[-117.769442,33.640302]}},{"properties":{"zip":"92711","leads":1,"geo_score":0.714,"id":"a6775f8ez4n1","geo_precision":"zip"},"type":"Feature","geometry":{"type":"Point","coordinates":[-117.769442,33.640302]}},{"properties":{"zip":"92780","leads":8,"geo_score":0.714,"id":"a6775fdo7d1f","geo_precision":"zip"},"type":"Feature","geometry":{"type":"Point","coordinates":[-117.731534,33.579122]}},{"properties":{"zip":"92801","leads":12,"geo_score":0.714,"id":"a6775ffqu4m5","geo_precision":"zip"},"type":"Feature","geometry":{"type":"Point","coordinates":[-117.769442,33.640302]}},{"properties":{"zip":"92802","leads":2,"geo_score":0.714,"id":"a6775fax60oc","geo_precision":"zip"},"type":"Feature","geometry":{"type":"Point","coordinates":[-117.769442,33.640302]}},{"properties":{"zip":"92804","leads":6,"geo_score":0.714,"id":"a6775fcnu6g1","geo_precision":"zip"},"type":"Feature","geometry":{"type":"Point","coordinates":[-117.769442,33.640302]}},{"properties":{"zip":"92805","leads":14,"geo_score":0.714,"id":"a6775fcaw1dv","geo_precision":"zip"},"type":"Feature","geometry":{"type":"Point","coordinates":[-117.769442,33.640302]}},{"properties":{"zip":"92806","leads":2,"geo_score":0.714,"id":"a6775ffbinqz","geo_precision":"zip"},"type":"Feature","geometry":{"type":"Point","coordinates":[-117.769442,33.640302]}},{"properties":{"zip":"92810","leads":1,"geo_score":0.714,"id":"a6775f0au5yd","geo_precision":"zip"},"type":"Feature","geometry":{"type":"Point","coordinates":[-117.914504,33.835293]}},{"properties":{"zip":"92812","leads":1,"geo_score":0.714,"id":"a6775f9xfbm3","geo_precision":"zip"},"type":"Feature","geometry":{"type":"Point","coordinates":[-117.769442,33.640302]}},{"properties":{"zip":"92815","leads":1,"geo_score":0.714,"id":"a6775fb4vb4u","geo_precision":"zip"},"type":"Feature","geometry":{"type":"Point","coordinates":[-117.769442,33.640302]}},{"properties":{"zip":"92821","leads":1,"geo_score":0.714,"id":"a6775f8nnyq3","geo_precision":"zip"},"type":"Feature","geometry":{"type":"Point","coordinates":[-117.769442,33.640302]}},{"properties":{"zip":"92833","leads":3,"geo_score":0.714,"id":"a6775fdu4ewz","geo_precision":"zip"},"type":"Feature","geometry":{"type":"Point","coordinates":[-117.769442,33.640302]}},{"properties":{"zip":"92835","leads":1,"geo_score":0.714,"id":"a6775f51u6rg","geo_precision":"zip"},"type":"Feature","geometry":{"type":"Point","coordinates":[-117.769442,33.640302]}},{"properties":{"zip":"92836","leads":1,"geo_score":0.714,"id":"a6775f86d42i","geo_precision":"zip"},"type":"Feature","geometry":{"type":"Point","coordinates":[-117.769442,33.640302]}},{"properties":{"zip":"92840","leads":2,"geo_score":0.714,"id":"a6775ffyjupq","geo_precision":"zip"},"type":"Feature","geometry":{"type":"Point","coordinates":[-117.769442,33.640302]}},{"properties":{"zip":"92841","leads":4,"geo_score":0.714,"id":"a6775f0c9k3u","geo_precision":"zip"},"type":"Feature","geometry":{"type":"Point","coordinates":[-117.769442,33.640302]}},{"properties":{"zip":"92843","leads":3,"geo_score":0.714,"id":"a6775feiigbn","geo_precision":"zip"},"type":"Feature","geometry":{"type":"Point","coordinates":[-117.769442,33.640302]}},{"properties":{"zip":"92844","leads":1,"geo_score":0.714,"id":"a6775f2ub22d","geo_precision":"zip"},"type":"Feature","geometry":{"type":"Point","coordinates":[-117.769442,33.640302]}},{"properties":{"zip":"92857","leads":1,"geo_score":0.714,"id":"a6775fbp7fe7","geo_precision":"zip"},"type":"Feature","geometry":{"type":"Point","coordinates":[-117.769442,33.640302]}},{"properties":{"zip":"92865","leads":1,"geo_score":0.714,"id":"a6775f24euz9","geo_precision":"zip"},"type":"Feature","geometry":{"type":"Point","coordinates":[-117.769442,33.640302]}},{"properties":{"zip":"92866","leads":1,"geo_score":0.714,"id":"a6775f7n4o4r","geo_precision":"zip"},"type":"Feature","geometry":{"type":"Point","coordinates":[-117.769442,33.640302]}},{"properties":{"zip":"92867","leads":4,"geo_score":0.714,"id":"a6775f67swbn","geo_precision":"zip"},"type":"Feature","geometry":{"type":"Point","coordinates":[-117.769442,33.640302]}},{"properties":{"zip":"92868","leads":1,"geo_score":0.714,"id":"a6775ffqfe5i","geo_precision":"zip"},"type":"Feature","geometry":{"type":"Point","coordinates":[-117.769442,33.640302]}},{"properties":{"zip":"92869","leads":2,"geo_score":0.714,"id":"a6775f06krer","geo_precision":"zip"},"type":"Feature","geometry":{"type":"Point","coordinates":[-117.769442,33.640302]}},{"properties":{"zip":"92870","leads":2,"geo_score":0.714,"id":"a6775ffih3k0","geo_precision":"zip"},"type":"Feature","geometry":{"type":"Point","coordinates":[-117.769442,33.640302]}},{"properties":{"zip":"92882","leads":4,"geo_score":0.714,"id":"a6775ffuulot","geo_precision":"zip"},"type":"Feature","geometry":{"type":"Point","coordinates":[-116.055617,33.752886]}},{"properties":{"zip":"92883","leads":1,"geo_score":0.714,"id":"a6775fe6hge0","geo_precision":"zip"},"type":"Feature","geometry":{"type":"Point","coordinates":[-116.055617,33.752886]}},{"properties":{"zip":"92887","leads":2,"geo_score":0.714,"id":"a6775faxyvfc","geo_precision":"zip"},"type":"Feature","geometry":{"type":"Point","coordinates":[-117.769442,33.640302]}},{"properties":{"zip":"93001","leads":1,"geo_score":0.714,"id":"a6775fbnwe0n","geo_precision":"zip"},"type":"Feature","geometry":{"type":"Point","coordinates":[-119.293168,34.278335]}},{"properties":{"zip":"93010","leads":1,"geo_score":0.714,"id":"a6775f1hrl5q","geo_precision":"zip"},"type":"Feature","geometry":{"type":"Point","coordinates":[-119.095938,34.22056]}},{"properties":{"zip":"93015","leads":1,"geo_score":0.714,"id":"a6775f6ibtes","geo_precision":"zip"},"type":"Feature","geometry":{"type":"Point","coordinates":[-118.950378,34.399997]}},{"properties":{"zip":"93021","leads":1,"geo_score":0.714,"id":"a6775fb3ljxg","geo_precision":"zip"},"type":"Feature","geometry":{"type":"Point","coordinates":[-118.858429,34.28778]}},{"properties":{"zip":"93030","leads":5,"geo_score":0.714,"id":"a6775f61ys6n","geo_precision":"zip"},"type":"Feature","geometry":{"type":"Point","coordinates":[-119.16383,34.235783]}},{"properties":{"zip":"93033","leads":11,"geo_score":0.714,"id":"a6775f8tomx3","geo_precision":"zip"},"type":"Feature","geometry":{"type":"Point","coordinates":[-119.131326,34.154141]}},{"properties":{"zip":"93036","leads":5,"geo_score":0.714,"id":"a6775fcpdyih","geo_precision":"zip"},"type":"Feature","geometry":{"type":"Point","coordinates":[-119.21216,34.199838]}},{"properties":{"zip":"93041","leads":1,"geo_score":0.714,"id":"a6775fa1pmd9","geo_precision":"zip"},"type":"Feature","geometry":{"type":"Point","coordinates":[-119.15458,34.148893]}},{"properties":{"zip":"93060","leads":4,"geo_score":0.714,"id":"a6775f4kidk5","geo_precision":"zip"},"type":"Feature","geometry":{"type":"Point","coordinates":[-119.09455,34.42694]}},{"properties":{"zip":"93065","leads":4,"geo_score":0.714,"id":"a6775fcvynpp","geo_precision":"zip"},"type":"Feature","geometry":{"type":"Point","coordinates":[-118.737592,34.26917]}},{"properties":{"zip":"93101","leads":1,"geo_score":0.714,"id":"a6775ffi6lnb","geo_precision":"zip"},"type":"Feature","geometry":{"type":"Point","coordinates":[-119.990975,34.5861]}},{"properties":{"zip":"93103","leads":1,"geo_score":0.714,"id":"a6775f0jpw8m","geo_precision":"zip"},"type":"Feature","geometry":{"type":"Point","coordinates":[-119.626863,34.430908]}},{"properties":{"zip":"93204","leads":1,"geo_score":0.714,"id":"a6775f0mz10w","geo_precision":"zip"},"type":"Feature","geometry":{"type":"Point","coordinates":[-120.128716,36.003134]}},{"properties":{"zip":"93306","leads":1,"geo_score":0.714,"id":"a6775f95c8vk","geo_precision":"zip"},"type":"Feature","geometry":{"type":"Point","coordinates":[-119.145383,35.383571]}},{"properties":{"zip":"93313","leads":1,"geo_score":0.714,"id":"a6775fcft5cb","geo_precision":"zip"},"type":"Feature","geometry":{"type":"Point","coordinates":[-119.013543,35.27581]}},{"properties":{"zip":"93534","leads":5,"geo_score":0.714,"id":"a6775f6ilv9p","geo_precision":"zip"},"type":"Feature","geometry":{"type":"Point","coordinates":[-117.825619,34.667766]}},{"properties":{"zip":"93535","leads":16,"geo_score":0.714,"id":"a6775feau5mh","geo_precision":"zip"},"type":"Feature","geometry":{"type":"Point","coordinates":[-117.777285,34.734986]}},{"properties":{"zip":"93536","leads":4,"geo_score":0.714,"id":"a6775f48c99a","geo_precision":"zip"},"type":"Feature","geometry":{"type":"Point","coordinates":[-118.288688,34.689707]}},{"properties":{"zip":"93543","leads":2,"geo_score":0.714,"id":"a6775f01s9we","geo_precision":"zip"},"type":"Feature","geometry":{"type":"Point","coordinates":[-117.935344,34.444163]}},{"properties":{"zip":"93550","leads":9,"geo_score":0.714,"id":"a6775fa2jwot","geo_precision":"zip"},"type":"Feature","geometry":{"type":"Point","coordinates":[-118.116462,34.500549]}},{"properties":{"zip":"93551","leads":1,"geo_score":0.714,"id":"a6775ffhh9fa","geo_precision":"zip"},"type":"Feature","geometry":{"type":"Point","coordinates":[-118.298662,33.786594]}},{"properties":{"zip":"93552","leads":3,"geo_score":0.714,"id":"a6775f1wtw6c","geo_precision":"zip"},"type":"Feature","geometry":{"type":"Point","coordinates":[-118.298662,33.786594]}},{"properties":{"zip":"93622","leads":1,"geo_score":0.714,"id":"a6775f00ombd","geo_precision":"zip"},"type":"Feature","geometry":{"type":"Point","coordinates":[-120.690461,36.890782]}},{"properties":{"zip":"93703","leads":1,"geo_score":0.714,"id":"a6775f2puzxo","geo_precision":"zip"},"type":"Feature","geometry":{"type":"Point","coordinates":[-119.761076,36.768449]}},{"properties":{"zip":"93906","leads":1,"geo_score":0.714,"id":"a6775f11oeup","geo_precision":"zip"},"type":"Feature","geometry":{"type":"Point","coordinates":[-121.487916,36.620989]}},{"properties":{"zip":"93927","leads":2,"geo_score":0.714,"id":"a6775fdeh72g","geo_precision":"zip"},"type":"Feature","geometry":{"type":"Point","coordinates":[-121.324308,36.323971]}},{"properties":{"zip":"94102","leads":1,"geo_score":0.714,"id":"a6775f9ikhqx","geo_precision":"zip"},"type":"Feature","geometry":{"type":"Point","coordinates":[-122.416582,37.779278]}},{"properties":{"zip":"94578","leads":1,"geo_score":0.714,"id":"a6775f9k1sv9","geo_precision":"zip"},"type":"Feature","geometry":{"type":"Point","coordinates":[-122.124225,37.704429]}}],"is_temporal":false,"author":{"url":"","metadata":"","contact_name":"","contact_address":"","source":"","contact_phone":""},"source":"","pagination":{"sort":null,"start":0,"total":326,"limit":1000000},"state":"complete","tags":"af,all,by,leads,zip","published":"2014-08-10T14:07:32-04:00","id":73051}