{"type":"FeatureCollection","data_type":"Dataset","url_type":null,"permissions":[{"permissions":{"download":true,"view":true},"group_id":"everyone"}],"classification":null,"title":"University quidditch teams in Texas","count":12,"stream_id":73094,"contributor":{"url":"http://geocommons.com/users/17813","name":"jpriest"},"data_attributes":null,"calculation_params":null,"icon_link":null,"link":"http://geocommons.com/overlays/73094.json","extent":[-101.821,29.2975,-94.9145,33.61],"geometry_types":["point"],"unique_name":null,"name":"University quidditch teams in Texas","feature_count":12,"description":"This map shows how many Texas universities currently have quidditch teams.","next_feature":null,"is_raster":false,"short_classification":"Y","stats":{"geo_score":{"max":1.0,"mean":0.936583333333333,"variance":0.00444426515151515,"stdev":0.0666653219561351,"min":0.857,"median":1.0}},"features":[{"properties":{"city":"Austin","geo_score":0.886,"zip code":"75090","id":"a66fw19tzqjf","college name":"Austin College","geo_precision":"zip","state":"Texas"},"type":"Feature","geometry":{"type":"Point","coordinates":[-96.510265,33.516775]}},{"properties":{"city":"Waco","geo_score":1.0,"zip code":"76798","id":"a66fw0y46dmo","college name":"Baylor University","geo_precision":"zip","state":"Texas"},"type":"Feature","geometry":{"type":"Point","coordinates":[-97.203166,31.553646]}},{"properties":{"city":"Huntsville","geo_score":0.871,"zip code":"77340","id":"a66fw152xsxz","college name":"Sam Houston State University","geo_precision":"zip","state":"Texas"},"type":"Feature","geometry":{"type":"Point","coordinates":[-95.444387,30.696305]}},{"properties":{"city":"Georgetown","geo_score":0.871,"zip code":"78626","id":"a66fw1bhbdtw","college name":"Southwestern University","geo_precision":"zip","state":"Texas"},"type":"Feature","geometry":{"type":"Point","coordinates":[-97.540838,30.637973]}},{"properties":{"city":"Fort Hood","geo_score":0.868,"zip code":"76544","id":"a66fw12jv7b5","college name":"St. Mary's University","geo_precision":"zip","state":"Texas"},"type":"Feature","geometry":{"type":"Point","coordinates":[-97.759186,31.134063]}},{"properties":{"city":"Temple","geo_score":1.0,"zip code":"76504","id":"a66fw0wr8197","college name":"Temple College","geo_precision":"zip","state":"Texas"},"type":"Feature","geometry":{"type":"Point","coordinates":[-97.440951,31.121795]}},{"properties":{"city":"College Station","geo_score":1.0,"zip code":"77843","id":"a66fw0ycersy","college name":"Texas A&amp;M University","geo_precision":"zip","state":"Texas"},"type":"Feature","geometry":{"type":"Point","coordinates":[-96.341012,30.65212]}},{"properties":{"city":"Galveston","geo_score":0.886,"zip code":"77551","id":"a66fw1963veb","college name":"Texas A&amp;M University Galveston","geo_precision":"zip","state":"Texas"},"type":"Feature","geometry":{"type":"Point","coordinates":[-94.914501,29.297527]}},{"properties":{"city":"Lubbock","geo_score":1.0,"zip code":"79409","id":"a66fw10w92g3","college name":"Texas Tech University","geo_precision":"zip","state":"Texas"},"type":"Feature","geometry":{"type":"Point","coordinates":[-101.821292,33.610018]}},{"properties":{"city":"Houston","geo_score":1.0,"zip code":"77004","id":"a66fw129pf79","college name":"The University of Houston","geo_precision":"zip","state":"Texas"},"type":"Feature","geometry":{"type":"Point","coordinates":[-95.434241,29.83399]}},{"properties":{"city":"Austin","geo_score":1.0,"zip code":"78713","id":"a66fw0zkx0v7","college name":"The University of Texas","geo_precision":"zip","state":"Texas"},"type":"Feature","geometry":{"type":"Point","coordinates":[-97.843336,30.468583]}},{"properties":{"city":"San Antonio","geo_score":0.857,"zip code":"78212","id":"a66fw1annq25","college name":"Trinity University","geo_precision":"zip","state":"Texas"},"type":"Feature","geometry":{"type":"Point","coordinates":[-98.487517,29.478842]}}],"is_temporal":false,"author":{"url":"","metadata":"","contact_name":"","contact_address":"","source":"","contact_phone":""},"source":"","pagination":{"sort":null,"start":0,"total":12,"limit":1000000},"state":"complete","tags":"","published":"2010-11-05T04:07:24Z","id":73094}