{"type":"FeatureCollection","data_type":"Dataset","url_type":null,"permissions":[{"permissions":{"download":true,"view":true},"group_id":"everyone"}],"classification":null,"title":"STARBUCKS, Store closures in the lower 48 states, USA, 2008","count":590,"stream_id":74722,"contributor":{"url":"http://geocommons.com/users/7800","name":"chelm"},"data_attributes":null,"calculation_params":null,"icon_link":null,"link":"http://geocommons.com/overlays/74722.json","extent":[-123.84,25.7743,-68.7516,48.4657],"geometry_types":["point"],"unique_name":null,"name":"STARBUCKS, Store closures in the lower 48 states, USA, 2008","feature_count":590,"description":"The list published by STARBUCKS was scraped from the pdf file and geocoded for the lower 48 states. Out of 616 stores, the map shows 590. \n","next_feature":null,"is_raster":false,"short_classification":"Y","stats":{"NO":{"max":14364.0,"mean":10150.8169491525,"variance":11110913.7389312,"stdev":3333.30372737488,"min":338.0,"median":10947.0},"X":{"max":-68.751575348547,"mean":-93.9638389752354,"variance":238.92070174324,"stdev":15.4570599320582,"min":-123.839972,"median":-90.266898650436},"Y":{"max":48.465736334525,"mean":37.1955846391044,"variance":28.8187432889905,"stdev":5.36830916481069,"min":25.774252,"median":37.943948450284},"Score":{"max":100,"mean":82.5847457627119,"variance":149.981770308769,"stdev":12.2467044672748,"min":56,"median":82}},"features":[{"properties":{"CITY":"ALHAMBRA","Matchaddr":"1 E VALLEY BLVD, ALHAMBRA, CA, 91801","ST":"CA","NO":6925.0,"X":-118.122459,"Y":34.079132,"Locname":"Address_Points","Street":"1 E VALLEY RD","Score":63,"id":"a62etjwr2244"},"type":"Feature","geometry":{"type":"Point","coordinates":[-118.122459,34.0791320000001]}},{"properties":{"CITY":"RIDGEWOOD","Matchaddr":"10 WILSEY SQ, RIDGEWOOD, NJ, 07450","ST":"NJ","NO":13499.0,"X":-74.121886,"Y":40.979808,"Locname":"Address_Points","Street":"10 WILSEY SQUARE","Score":79,"id":"a62etju6mr12"},"type":"Feature","geometry":{"type":"Point","coordinates":[-74.1218859999999,40.979808]}},{"properties":{"CITY":"BROWNSVILLE","Matchaddr":"100 S EXPY 83, BROWNSVILLE, TX, 78520","ST":"TX","NO":9675.0,"X":-97.491066380581,"Y":25.92205280339,"Locname":"Street_Address","Street":"100 EXPRESSWAY 83","Score":70,"id":"a62etk3xo0px"},"type":"Feature","geometry":{"type":"Point","coordinates":[-97.4910650077693,25.9220517103622]}},{"properties":{"CITY":"AUSTIN","Matchaddr":"1007 S CONGRESS AVE, AUSTIN, TX, 78704","ST":"TX","NO":6403.0,"X":-97.747534,"Y":30.254448,"Locname":"Address_Points","Street":"1007 S CONGRESS","Score":63,"id":"a62etjsp9dvo"},"type":"Feature","geometry":{"type":"Point","coordinates":[-97.7475339999999,30.2544480000001]}},{"properties":{"CITY":"SAN FRANCISCO","Matchaddr":"101 4TH ST, SAN FRANCISCO, CA, 94103","ST":"CA","NO":5706.0,"X":-122.404238456895,"Y":37.784472333132,"Locname":"Street_Address","Street":"101 4TH ST","Score":82,"id":"a62etjv29y3j"},"type":"Feature","geometry":{"type":"Point","coordinates":[-122.404236748183,37.7844690056409]}},{"properties":{"CITY":"SAN DIEGO","Matchaddr":"101 MARKET ST, SAN DIEGO, CA, 92101","ST":"CA","NO":6514.0,"X":-117.163742852334,"Y":32.711402971173,"Locname":"Street_Address","Street":"101 MARKET ST","Score":82,"id":"a62etk05q3s5"},"type":"Feature","geometry":{"type":"Point","coordinates":[-117.163743391927,32.7114024315799]}},{"properties":{"CITY":"CENTRAL ISLIP","Matchaddr":"101 N RESEARCH PL, CENTRAL ISLIP, NY, 11722","ST":"NY","NO":10840.0,"X":-73.203530161865,"Y":40.773443481794,"Locname":"Street_Address","Street":"101 S RESEARCH PL","Score":70,"id":"a62etjzugnfk"},"type":"Feature","geometry":{"type":"Point","coordinates":[-73.2035336166991,40.7734467090021]}},{"properties":{"CITY":"HOUSTON","Matchaddr":"1018 PRESTON ST, HOUSTON, TX, 77002","ST":"TX","NO":10650.0,"X":-95.360754,"Y":29.760954,"Locname":"Address_Points","Street":"1018 PRESTON","Score":63,"id":"a62etjzs9r4h"},"type":"Feature","geometry":{"type":"Point","coordinates":[-95.3607539999999,29.7609540000001]}},{"properties":{"CITY":"COLLEGE PARK","Matchaddr":"10240 BALTIMORE AVE, COLLEGE PARK, MD, 20740","ST":"MD","NO":11727.0,"X":-76.925587,"Y":39.023448,"Locname":"Address_Points","Street":"10240 BALTIMORE AVE","Score":79,"id":"a62etk21kkxf"},"type":"Feature","geometry":{"type":"Point","coordinates":[-76.925587,39.0234480000001]}},{"properties":{"CITY":"BURLINGTON","Matchaddr":"1030 S BURLINGTON BLVD, BURLINGTON, WA, 98233","ST":"WA","NO":3280.0,"X":-122.335894829831,"Y":48.465736334525,"Locname":"Street_Address","Street":"1030 S BURLINGTON BLVD","Score":82,"id":"a62etjz775gk"},"type":"Feature","geometry":{"type":"Point","coordinates":[-122.335897267176,48.4657347340776]}},{"properties":{"CITY":"FRANKLIN PARK","Matchaddr":"10335 GRAND AVE, FRANKLIN PARK, IL, 60131","ST":"IL","NO":11912.0,"X":-87.883092144271,"Y":41.930151796479,"Locname":"Street_Address","Street":"10335 W GRAND AVE","Score":70,"id":"a62etjticwfb"},"type":"Feature","geometry":{"type":"Point","coordinates":[-87.8830951552007,41.9301547030877]}},{"properties":{"CITY":"LOWELL","Matchaddr":"105 S DIXIELAND RD, LOWELL, AR, 72745","ST":"AR","NO":11864.0,"X":-94.145715652958,"Y":36.254207826654,"Locname":"Street_Address","Street":"105 S DIXIELAND","Score":69,"id":"a62etk63assn"},"type":"Feature","geometry":{"type":"Point","coordinates":[-94.1457129638574,36.2542096202449]}},{"properties":{"CITY":"MINEOLA","Matchaddr":"106 OLD COUNTRY RD, MINEOLA, NY, 11501","ST":"NY","NO":7396.0,"X":-73.634231,"Y":40.740141,"Locname":"Address_Points","Street":"106 OLD COUNTRY RD","Score":79,"id":"a62etjsw0yb3"},"type":"Feature","geometry":{"type":"Point","coordinates":[-73.6342309999999,40.7401410000001]}},{"properties":{"CITY":"HOUSTON","Matchaddr":"10611 BELLAIRE BLVD, HOUSTON, TX, 77072","ST":"TX","NO":13479.0,"X":-95.566838474365,"Y":29.703921612138,"Locname":"Street_Address","Street":"10611 BELLAIRE BLVD","Score":82,"id":"a62etjzgl5ll"},"type":"Feature","geometry":{"type":"Point","coordinates":[-95.5668396209978,29.703925674076]}},{"properties":{"CITY":"MEDIA","Matchaddr":"1067 W BALTIMORE PIKE, LIMA, PA, 19063","ST":"PA","NO":13863.0,"X":-75.429247720573,"Y":39.914531218479,"Locname":"Street_Address","Street":"1067 W BALTIMORE PIKE","Score":82,"id":"a62etjvg3ikx"},"type":"Feature","geometry":{"type":"Point","coordinates":[-75.4292477205731,39.9145312184785]}},{"properties":{"CITY":"DUNCANVILLE","Matchaddr":"107 S CEDAR RIDGE DR, DUNCANVILLE, TX, 75116","ST":"TX","NO":8135.0,"X":-96.926148,"Y":32.651017,"Locname":"Address_Points","Street":"107 S CEDAR RIDGE DR","Score":79,"id":"a62etk6bwaln"},"type":"Feature","geometry":{"type":"Point","coordinates":[-96.9261479999999,32.6510170000001]}},{"properties":{"CITY":"PORT ANGLES","Matchaddr":"108 DEL GUZZI DR, PORT ANGELES, WA, 98362","ST":"WA","NO":13676.0,"X":-123.397805467906,"Y":48.10591289672,"Locname":"Street_Address","Street":"108 DEL GUZZI DR","Score":78,"id":"a62etk65q23p"},"type":"Feature","geometry":{"type":"Point","coordinates":[-123.397807726153,48.1059159901546]}},{"properties":{"CITY":"NEW YORK","Matchaddr":"11 W 34TH ST, NEW YORK, NY, 10001","ST":"NY","NO":14091.0,"X":-73.985515,"Y":40.749126,"Locname":"Address_Points","Street":"151 W 34TH ST","Score":59,"id":"a62etjxf2snm"},"type":"Feature","geometry":{"type":"Point","coordinates":[-73.9855149999999,40.749126]}},{"properties":{"CITY":"PORTLAND","Matchaddr":"110 SE 82ND AVE, PORTLAND, OR, 97216","ST":"OR","NO":14303.0,"X":-122.578736,"Y":45.521878,"Locname":"Address_Points","Street":"11860 SE 82ND AVE","Score":56,"id":"a62etju5bdyl"},"type":"Feature","geometry":{"type":"Point","coordinates":[-122.578736,45.5218780000001]}},{"properties":{"CITY":"CLAREMORE","Matchaddr":"1100 S LYNN RIGGS BLVD, CLAREMORE, OK, 74017","ST":"OK","NO":13415.0,"X":-95.626679691286,"Y":36.299172124386,"Locname":"Street_Address","Street":"1100 S LYNN RIGGS BLVD","Score":82,"id":"a62etjyhrp7a"},"type":"Feature","geometry":{"type":"Point","coordinates":[-95.6266805088275,36.2991757217099]}},{"properties":{"CITY":"EXETER","Matchaddr":"1102 VISALIA RD, EXETER, CA, 93221","ST":"CA","NO":9257.0,"X":-119.157115311294,"Y":36.297377077651,"Locname":"Street_Address","Street":"1102 VISALIA RD","Score":82,"id":"a62etjt6mzmo"},"type":"Feature","geometry":{"type":"Point","coordinates":[-119.157117649531,36.2973770776513]}},{"properties":{"CITY":"WALDORF","Matchaddr":"11115 MALL CIR, WALDORF, MD, 20603","ST":"MD","NO":9795.0,"X":-76.928528,"Y":38.620636,"Locname":"Address_Points","Street":"1111 MALL CIRCLE","Score":67,"id":"a62etjudny6e"},"type":"Feature","geometry":{"type":"Point","coordinates":[-76.9285279999999,38.620636]}},{"properties":{"CITY":"JACKSON","Matchaddr":"112 E BALTIMORE ST, JACKSON, TN, 38301","ST":"TN","NO":11819.0,"X":-88.81864968513,"Y":35.613454026317,"Locname":"Street_Address","Street":"112 E BALTIMORE ST","Score":82,"id":"a62etjr11b4t"},"type":"Feature","geometry":{"type":"Point","coordinates":[-88.8186508690612,35.6134516675889]}},{"properties":{"CITY":"JACKSONVILLE","Matchaddr":"113 E FORSYTH ST, JACKSONVILLE, FL, 32202","ST":"FL","NO":13464.0,"X":-81.655884,"Y":30.326846,"Locname":"Address_Points","Street":"11 E FORSYTH ST","Score":59,"id":"a62etjzbxtzr"},"type":"Feature","geometry":{"type":"Point","coordinates":[-81.6558839999999,30.326846]}},{"properties":{"CITY":"FAIRMONT","Matchaddr":"1140 TORGERSON DR, FAIRMONT, MN, 56031","ST":"MN","NO":10204.0,"X":-94.447154646418,"Y":43.676422246701,"Locname":"Street_Address","Street":"1140 TORGERSON DR","Score":82,"id":"a62etjsqc9bf"},"type":"Feature","geometry":{"type":"Point","coordinates":[-94.4471567148585,43.6764222467013]}},{"properties":{"CITY":"CORONA","Matchaddr":"115 N MCKINLEY ST, CORONA, CA, 92879","ST":"CA","NO":6900.0,"X":-117.51501524908,"Y":33.882976488606,"Locname":"Street_Address","Street":"115 N MCKINLEY ST","Score":82,"id":"a62etk2jt161"},"type":"Feature","geometry":{"type":"Point","coordinates":[-117.515018576572,33.8829762188099]}},{"properties":{"CITY":"LAFAYETTE","Matchaddr":"115 VEROT SCHOOL RD, LAFAYETTE, LA, 70508","ST":"LA","NO":13649.0,"X":-92.003809048086,"Y":30.176674293702,"Locname":"Street_Address","Street":"115 VEROT SCHOOL RD","Score":82,"id":"a62etjv4kk44"},"type":"Feature","geometry":{"type":"Point","coordinates":[-92.0038066798938,30.1766722852181]}},{"properties":{"CITY":"OVERLAND PARK","Matchaddr":"11580 W 95TH ST, OVERLAND PARK, KS, 66214","ST":"KS","NO":11913.0,"X":-94.719807,"Y":38.959051,"Locname":"Address_Points","Street":"11780 W 95TH ST","Score":56,"id":"a62etk061nwk"},"type":"Feature","geometry":{"type":"Point","coordinates":[-94.7198069999999,38.959051]}},{"properties":{"CITY":"SAN JOSE","Matchaddr":"1167 LINCOLN AVE, SAN JOSE, CA, 95125","ST":"CA","NO":10667.0,"X":-121.901544,"Y":37.306794,"Locname":"Address_Points","Street":"1167 LINCOLN AVE","Score":79,"id":"a62etjvug4wx"},"type":"Feature","geometry":{"type":"Point","coordinates":[-121.901544,37.3067940000001]}},{"properties":{"CITY":"ALTOONA","Matchaddr":"118 E CHESTNUT AVE, ALTOONA, PA, 16601","ST":"PA","NO":13696.0,"X":-78.391546274726,"Y":40.525562531114,"Locname":"Street_Address","Street":"118 E CHESTNUT AVE","Score":82,"id":"a62etjs2xa9z"},"type":"Feature","geometry":{"type":"Point","coordinates":[-78.391542539325,40.5255665780661]}},{"properties":{"CITY":"SHALIMAR","Matchaddr":"1198 EGLIN PKWY, LAKE LORRAINE, FL, 32579","ST":"FL","NO":11958.0,"X":-86.580298502777,"Y":30.44332306555,"Locname":"Street_Address","Street":"1198 EGLIN PKWY","Score":82,"id":"a62etjxcg8af"},"type":"Feature","geometry":{"type":"Point","coordinates":[-86.5803012906755,30.4433212669056]}},{"properties":{"CITY":"RIDGELAND","Matchaddr":"1200 E COUNTY LINE RD, RIDGELAND, MS, 39157","ST":"MS","NO":11054.0,"X":-90.132299260424,"Y":32.399591963463,"Locname":"Street_Address","Street":"1200 E COUNTY LINE","Score":69,"id":"a62etjq658za"},"type":"Feature","geometry":{"type":"Point","coordinates":[-90.13229955048,32.399589497581]}},{"properties":{"CITY":"JUPITER","Matchaddr":"1200 TOWN CENTER DR, JUPITER, FL, 33458","ST":"FL","NO":11674.0,"X":-80.114783,"Y":26.888948,"Locname":"Address_Points","Street":"1200 TOWN CENTER DR","Score":79,"id":"a62etjwsupsd"},"type":"Feature","geometry":{"type":"Point","coordinates":[-80.1147829999999,26.8889480000001]}},{"properties":{"CITY":"FAIRFIELD","Matchaddr":"1201 KINGS HWY, FAIRFIELD, CT, 06824","ST":"CT","NO":13968.0,"X":-73.243835617789,"Y":41.152450754678,"Locname":"Street_Address","Street":"1201 KINGS HWY","Score":82,"id":"a62etk39qbcd"},"type":"Feature","geometry":{"type":"Point","coordinates":[-73.2438322368321,41.1524479918099]}},{"properties":{"CITY":"ARLINGTON","Matchaddr":"1201 W ARBROOK BLVD, ARLINGTON, TX, 76015","ST":"TX","NO":6236.0,"X":-97.130027862361,"Y":32.683504832706,"Locname":"Street_Address","Street":"1201 W ARBROOK","Score":69,"id":"a62etjurhexj"},"type":"Feature","geometry":{"type":"Point","coordinates":[-97.1300321791068,32.683505462231]}},{"properties":{"CITY":"MARSHALL","Matchaddr":"1201 W MAIN ST, MARSHALL, MN, 56258","ST":"MN","NO":9914.0,"X":-95.810838832894,"Y":44.461366756546,"Locname":"Street_Address","Street":"1201 E MAIN ST","Score":70,"id":"a62etjrxl968"},"type":"Feature","geometry":{"type":"Point","coordinates":[-95.8108346807672,44.4613685003149]}},{"properties":{"CITY":"LAWTON","Matchaddr":"1204 NW SHERIDAN RD, LAWTON, OK, 73505","ST":"OK","NO":13720.0,"X":-98.422375921651,"Y":34.620427563793,"Locname":"Street_Address","Street":"1204 NW SHERIDAN RD","Score":82,"id":"a62etjx0xlnm"},"type":"Feature","geometry":{"type":"Point","coordinates":[-98.4223759216515,34.6204292760561]}},{"properties":{"CITY":"ROCKPORT","Matchaddr":"1205 HWY 35 N, ROCKPORT, TX, 78382","ST":"TX","NO":10528.0,"X":-97.043050679285,"Y":28.035257618394,"Locname":"Street_Address","Street":"1205 HWY 35 N","Score":82,"id":"a62etk22ctzn"},"type":"Feature","geometry":{"type":"Point","coordinates":[-97.0430497524329,28.0352606283707]}},{"properties":{"CITY":"ABERDEEN","Matchaddr":"1213 E WISHKAH ST, ABERDEEN, WA, 98520","ST":"WA","NO":3327.0,"X":-123.803085236501,"Y":46.977385602945,"Locname":"Street_Address","Street":"1213 E WISHKAH ST","Score":82,"id":"a62etjv175el"},"type":"Feature","geometry":{"type":"Point","coordinates":[-123.803087198658,46.9773837552469]}},{"properties":{"CITY":"SEATTLE","Matchaddr":"1218 N 45TH ST, SEATTLE, WA, 98103","ST":"WA","NO":13508.0,"X":-122.342916187832,"Y":47.661406975573,"Locname":"Street_Address","Street":"1218 N 45TH ST","Score":82,"id":"a62etk2cv4gs"},"type":"Feature","geometry":{"type":"Point","coordinates":[-122.342911979005,47.6614080907325]}},{"properties":{"CITY":"SEATTLE","Matchaddr":"1220 HOWELL ST, SEATTLE, WA, 98101","ST":"WA","NO":3308.0,"X":-122.330407319876,"Y":47.617017591339,"Locname":"Street_Address","Street":"1220 HOWELL ST","Score":82,"id":"a62etjv47th9"},"type":"Feature","geometry":{"type":"Point","coordinates":[-122.330411402798,47.6170175553663]}},{"properties":{"CITY":"NORWALK","Matchaddr":"12200 CIVIC CENTER DR, NORWALK, CA, 90650","ST":"CA","NO":5929.0,"X":-118.072414187144,"Y":33.914181856645,"Locname":"Street_Address","Street":"12200 CIVIC CENTER DR","Score":82,"id":"a62etk2sio31"},"type":"Feature","geometry":{"type":"Point","coordinates":[-118.072418370332,33.9141826932266]}},{"properties":{"CITY":"HARRISBURG","Matchaddr":"1225 MARKET ST, HARRISBURG, PA, 17103","ST":"PA","NO":13636.0,"X":-76.87103,"Y":40.26539,"Locname":"Address_Points","Street":"225 MARKET ST","Score":64,"id":"a62etk68bene"},"type":"Feature","geometry":{"type":"Point","coordinates":[-76.8710299999999,40.2653900000001]}},{"properties":{"CITY":"OKLAHOMA CITY","Matchaddr":"1225 W BRITTON RD, OKLAHOMA CITY, OK, 73114","ST":"OK","NO":13324.0,"X":-97.534651,"Y":35.565839,"Locname":"Address_Points","Street":"125 W BRITTON RD","Score":64,"id":"a62etk33yps3"},"type":"Feature","geometry":{"type":"Point","coordinates":[-97.5346509999999,35.565839]}},{"properties":{"CITY":"FARMINGDALE","Matchaddr":"123 FULTON ST, FARMINGDALE, NY, 11735","ST":"NY","NO":10567.0,"X":-73.459068383295,"Y":40.730774440788,"Locname":"Street_Address","Street":"123 FULTON AVE","Score":69,"id":"a62etjsnwush"},"type":"Feature","geometry":{"type":"Point","coordinates":[-73.4590669781044,40.7307738787118]}},{"properties":{"CITY":"BATON ROUGE","Matchaddr":"12441 COURSEY BLVD, BATON ROUGE, LA, 70816","ST":"LA","NO":11264.0,"X":-91.040298,"Y":30.41196,"Locname":"Address_Points","Street":"14241 COURSEY BLVD BATON","Score":67,"id":"a62etjyb2hic"},"type":"Feature","geometry":{"type":"Point","coordinates":[-91.040298,30.4119600000001]}},{"properties":{"CITY":"HOUSTON","Matchaddr":"12503 TOMBALL PKWY, HOUSTON, TX, 77086","ST":"TX","NO":9615.0,"X":-95.480067699916,"Y":29.911310297592,"Locname":"Street_Address","Street":"12503 TOMBALL PKWY","Score":82,"id":"a62etjtnu88f"},"type":"Feature","geometry":{"type":"Point","coordinates":[-95.4800640383907,29.9113093340326]}},{"properties":{"CITY":"GAYLORD","Matchaddr":"1251 W MAIN ST, GAYLORD, MI, 49735","ST":"MI","NO":11633.0,"X":-84.698565229086,"Y":45.027429909527,"Locname":"Street_Address","Street":"1251 W MAIN ST","Score":82,"id":"a62etk0m5w2y"},"type":"Feature","geometry":{"type":"Point","coordinates":[-84.6985688697885,45.0274287652172]}},{"properties":{"CITY":"RANCHO CUCAMONGA","Matchaddr":"12592 FOOTHILL BLVD, RANCHO CUCAMONGA, CA, 91739","ST":"CA","NO":2942.0,"X":-117.534313071891,"Y":34.106403783769,"Locname":"Street_Address","Street":"12592 FOOTHILL BLVD","Score":82,"id":"a62etk4tazsw"},"type":"Feature","geometry":{"type":"Point","coordinates":[-117.5343090341,34.1064037837692]}},{"properties":{"CITY":"FLORISSANT","Matchaddr":"1261 GRAHAM RD, FLORISSANT, MO, 63031","ST":"MO","NO":13511.0,"X":-90.335551,"Y":38.777456,"Locname":"Address_Points","Street":"1261 GRAHAM RD","Score":79,"id":"a62etk68dl3a"},"type":"Feature","geometry":{"type":"Point","coordinates":[-90.3355509999999,38.7774560000001]}},{"properties":{"CITY":"HOLLISTER","Matchaddr":"1280 SAN JUAN RD, HOLLISTER, CA, 95023","ST":"CA","NO":11896.0,"X":-121.41995964809,"Y":36.85307510327,"Locname":"Street_Address","Street":"1280 SAN JUAN RD","Score":82,"id":"a62etjxbk8yf"},"type":"Feature","geometry":{"type":"Point","coordinates":[-121.419955766775,36.8530771527761]}},{"properties":{"CITY":"RIVERSIDE","Matchaddr":"1299 UNIVERSITY AVE, RIVERSIDE, CA, 92507","ST":"CA","NO":5991.0,"X":-117.339256,"Y":33.976556,"Locname":"Address_Points","Street":"1299 UNIVERSITY AVE","Score":79,"id":"a62etk4xqinj"},"type":"Feature","geometry":{"type":"Point","coordinates":[-117.339256,33.9765560000001]}},{"properties":{"CITY":"BLYTHEVILLE","Matchaddr":"1301 E MAIN ST, BLYTHEVILLE, AR, 72315","ST":"AR","NO":13731.0,"X":-89.890390097187,"Y":35.9273301307,"Locname":"Street_Address","Street":"1301 MAIN ST","Score":70,"id":"a62etjv6p15q"},"type":"Feature","geometry":{"type":"Point","coordinates":[-89.8903909178185,35.9273330422552]}},{"properties":{"CITY":"FARGO","Matchaddr":"1310 25TH ST S, FARGO, ND, 58103","ST":"ND","NO":10459.0,"X":-96.819564961582,"Y":46.86123736534,"Locname":"Street_Address","Street":"1310 25TH ST","Score":69,"id":"a62etk68bzyz"},"type":"Feature","geometry":{"type":"Point","coordinates":[-96.8195682281519,46.8612363151628]}},{"properties":{"CITY":"VICTORIA","Matchaddr":"1310 E RIO GRANDE ST, VICTORIA, TX, 77901","ST":"TX","NO":10924.0,"X":-96.990809814484,"Y":28.80621538503,"Locname":"Street_Address","Street":"1310 E RIO GRANDE","Score":69,"id":"a62etjs94yn9"},"type":"Feature","geometry":{"type":"Point","coordinates":[-96.9908081357509,28.8062134312084]}},{"properties":{"CITY":"DELRAY BEACH","Matchaddr":"13100 JOG RD, DELRAY BEACH, FL, 33446","ST":"FL","NO":13404.0,"X":-80.146099,"Y":26.480495,"Locname":"Address_Points","Street":"13910 JOG RD","Score":56,"id":"a62etjuubxk7"},"type":"Feature","geometry":{"type":"Point","coordinates":[-80.1460989999999,26.4804950000001]}},{"properties":{"CITY":"COON RAPIDS","Matchaddr":"13131 RIVERDALE DR NW, COON RAPIDS, MN, 55448","ST":"MN","NO":10871.0,"X":-93.359084978049,"Y":45.20890952256,"Locname":"Street_Address","Street":"13131 RIVERDALE DR","Score":69,"id":"a62etjxofjxh"},"type":"Feature","geometry":{"type":"Point","coordinates":[-93.3590849780489,45.2089119507299]}},{"properties":{"CITY":"LAS VEGAS","Matchaddr":"1340 E FLAMINGO RD, LAS VEGAS, NV, 89119","ST":"NV","NO":653.0,"X":-115.135324,"Y":36.114894,"Locname":"Address_Points","Street":"1340 E FLAMINGO RD","Score":79,"id":"a62etk0xysd3"},"type":"Feature","geometry":{"type":"Point","coordinates":[-115.135324,36.114894]}},{"properties":{"CITY":"TUSTIN","Matchaddr":"13400 NEWPORT AVE, TUSTIN, CA, 92780","ST":"CA","NO":9632.0,"X":-117.814816,"Y":33.744508,"Locname":"Address_Points","Street":"14001 NEWPORT AVE","Score":56,"id":"a62etk2xlafp"},"type":"Feature","geometry":{"type":"Point","coordinates":[-117.814816,33.7445080000001]}},{"properties":{"CITY":"LENEXA","Matchaddr":"13430 COLLEGE BLVD, LENEXA, KS, 66210","ST":"KS","NO":14237.0,"X":-94.741396616627,"Y":38.927485056653,"Locname":"Street_Address","Street":"13430 COLLEGE BLVD","Score":82,"id":"a62etjz7micu"},"type":"Feature","geometry":{"type":"Point","coordinates":[-94.7413968964048,38.9274893184406]}},{"properties":{"CITY":"SIMI VALLEY","Matchaddr":"1368 MADERA RD, SIMI VALLEY, CA, 93065","ST":"CA","NO":5591.0,"X":-118.795734,"Y":34.264019,"Locname":"Address_Points","Street":"1368 MADERA RD","Score":79,"id":"a62etk44elze"},"type":"Feature","geometry":{"type":"Point","coordinates":[-118.795734,34.2640190000001]}},{"properties":{"CITY":"TUSTIN","Matchaddr":"13681 NEWPORT AVE, TUSTIN, CA, 92780","ST":"CA","NO":14025.0,"X":-117.820229,"Y":33.741168,"Locname":"Address_Points","Street":"13681 NEWPORT AVE","Score":79,"id":"a62etjve8rke"},"type":"Feature","geometry":{"type":"Point","coordinates":[-117.820229,33.7411680000001]}},{"properties":{"CITY":"EAST WINDSOR","Matchaddr":"137 PROSPECT HILL RD, EAST WINDSOR, CT, 06088","ST":"CT","NO":11781.0,"X":-72.60528,"Y":41.931383,"Locname":"Address_Points","Street":"137 PROSPECT HILL RD","Score":79,"id":"a62etjutms21"},"type":"Feature","geometry":{"type":"Point","coordinates":[-72.6052799999999,41.931383]}},{"properties":{"CITY":"ATLANTA","Matchaddr":"1375 PEACHTREE ST NE, ATLANTA, GA, 30309","ST":"GA","NO":8479.0,"X":-84.385652,"Y":33.792602,"Locname":"Address_Points","Street":"1375 PEACHTREE ST NE","Score":79,"id":"a62etjvnahdi"},"type":"Feature","geometry":{"type":"Point","coordinates":[-84.3856519999999,33.792602]}},{"properties":{"CITY":"TAMPA","Matchaddr":"13811 W HILLSBOROUGH AVE, TAMPA, FL, 33635","ST":"FL","NO":9294.0,"X":-82.644192117009,"Y":28.032303489404,"Locname":"Street_Address","Street":"13811 W HILLSBOROUGH","Score":69,"id":"a62etk66fhpz"},"type":"Feature","geometry":{"type":"Point","coordinates":[-82.6441935989367,28.0323018588943]}},{"properties":{"CITY":"LOVELAND","Matchaddr":"1385 DENVER AVE, LOVELAND, CO, 80537","ST":"CO","NO":13684.0,"X":-105.044551670843,"Y":40.407138920814,"Locname":"Street_Address","Street":"1385 N DENVER AVE","Score":70,"id":"a62etk68qw33"},"type":"Feature","geometry":{"type":"Point","coordinates":[-105.044551670843,40.4071348600276]}},{"properties":{"CITY":"FARMERS BRANCH","Matchaddr":"13901 MIDWAY RD, FARMERS BRANCH, TX, 75244","ST":"TX","NO":6282.0,"X":-96.839011570425,"Y":32.938355069097,"Locname":"Street_Address","Street":"13901 MIDWAY RD","Score":82,"id":"a62etjubiem3"},"type":"Feature","geometry":{"type":"Point","coordinates":[-96.8390115704253,32.938355338894]}},{"properties":{"CITY":"BATESVILLE","Matchaddr":"14 ALPINE DR, BATESVILLE, IN, 47006","ST":"IN","NO":11500.0,"X":-85.217486673915,"Y":39.309893138508,"Locname":"Street_Address","Street":"14 ALPINE DR","Score":82,"id":"a62etjwyf6hr"},"type":"Feature","geometry":{"type":"Point","coordinates":[-85.2174866739149,39.3098900385193]}},{"properties":{"CITY":"KINGSVILLE","Matchaddr":"1401 E GENERAL CAVAZOS BLVD, KINGSVILLE, TX, 78363","ST":"TX","NO":11072.0,"X":-97.851522723988,"Y":27.49139463416,"Locname":"Street_Address","Street":"1401 E GENERAL CAVAZOS","Score":69,"id":"a62etk2j378z"},"type":"Feature","geometry":{"type":"Point","coordinates":[-97.851522270333,27.4913956311515]}},{"properties":{"CITY":"MONTEREY PARK","Matchaddr":"141 N ATLANTIC BLVD, MONTEREY PARK, CA, 91754","ST":"CA","NO":5678.0,"X":-118.134260804963,"Y":34.063104248561,"Locname":"Street_Address","Street":"141 N ATLANTIC BLVD","Score":82,"id":"a62etjvz16xb"},"type":"Feature","geometry":{"type":"Point","coordinates":[-118.134264746287,34.0631014280584]}},{"properties":{"CITY":"PAPILLION","Matchaddr":"1423 PAPILLION DR, PAPILLION, NE, 68133","ST":"NE","NO":11529.0,"X":-96.021545112807,"Y":41.137947323419,"Locname":"Street_Address","Street":"1423 PAPILLION DR","Score":82,"id":"a62etjzq968d"},"type":"Feature","geometry":{"type":"Point","coordinates":[-96.0215458322322,41.1379509206976]}},{"properties":{"CITY":"ANGOLA","Matchaddr":"1426 N WAYNE ST, ANGOLA, IN, 46703","ST":"IN","NO":11499.0,"X":-84.999535980114,"Y":41.653820562738,"Locname":"Street_Address","Street":"1426 N WAYNE ST","Score":82,"id":"a62etk67mpq6"},"type":"Feature","geometry":{"type":"Point","coordinates":[-84.999535980114,41.6538200231447]}},{"properties":{"CITY":"SAN ANTONIO","Matchaddr":"14329 SAN PEDRO AVE, SAN ANTONIO, TX, 78232","ST":"TX","NO":6221.0,"X":-98.48044,"Y":29.573174,"Locname":"Address_Points","Street":"13429 SAN PEDRO AVE","Score":67,"id":"a62etk4a7fp5"},"type":"Feature","geometry":{"type":"Point","coordinates":[-98.4804399999999,29.5731740000001]}},{"properties":{"CITY":"PIKESVILLE","Matchaddr":"1433 REISTERSTOWN RD, PIKESVILLE, MD, 21208","ST":"MD","NO":10640.0,"X":-76.724902452067,"Y":39.37677410172,"Locname":"Street_Address","Street":"1433 REISTERSTOWN RD","Score":82,"id":"a62etjqsl2fz"},"type":"Feature","geometry":{"type":"Point","coordinates":[-76.7249009681856,39.3767726178383]}},{"properties":{"CITY":"RED WING","Matchaddr":"144 TYLER RD N, RED WING, MN, 55066","ST":"MN","NO":10642.0,"X":-92.585022273906,"Y":44.568289125019,"Locname":"Street_Address","Street":"144 TYLER RD N","Score":82,"id":"a62etk11mhhq"},"type":"Feature","geometry":{"type":"Point","coordinates":[-92.5850205209899,44.5682888963784]}},{"properties":{"CITY":"CORALVILLE","Matchaddr":"1451 CORAL RIDGE AVE, CORALVILLE, IA, 52241","ST":"IA","NO":8688.0,"X":-91.608387464051,"Y":41.690998490463,"Locname":"Street_Address","Street":"1451 CORAL RIDGE AVE","Score":82,"id":"a62etk0qmtbg"},"type":"Feature","geometry":{"type":"Point","coordinates":[-91.6083837768309,41.690997995836]}},{"properties":{"CITY":"VICTORVILLE","Matchaddr":"14689 LA PAZ DR, VICTORVILLE, CA, 92395","ST":"CA","NO":11029.0,"X":-117.312813048639,"Y":34.516532162151,"Locname":"Street_Address","Street":"14689 LA PAZ DR","Score":82,"id":"a62etjzvfcyq"},"type":"Feature","geometry":{"type":"Point","coordinates":[-117.312815011504,34.5165306020111]}},{"properties":{"CITY":"LODI","Matchaddr":"14820 STAR ST, LODI, CA, 95242","ST":"CA","NO":10629.0,"X":-121.392814312575,"Y":38.11435051477,"Locname":"Street_Address","Street":"14820 STAR ST","Score":82,"id":"a62etk0dd935"},"type":"Feature","geometry":{"type":"Point","coordinates":[-121.392814227931,38.1143493192084]}},{"properties":{"CITY":"DALLAS","Matchaddr":"14891 PRESTON RD, DALLAS, TX, 75254","ST":"TX","NO":6280.0,"X":-96.804144,"Y":32.950651,"Locname":"Address_Points","Street":"14891 PRESTON RD","Score":79,"id":"a62etjxng5jv"},"type":"Feature","geometry":{"type":"Point","coordinates":[-96.8041439999999,32.9506510000001]}},{"properties":{"CITY":"TACOMA","Matchaddr":"1498 PACIFIC AVE, TACOMA, WA, 98402","ST":"WA","NO":9321.0,"X":-122.437575186269,"Y":47.248751777589,"Locname":"Street_Address","Street":"1498 PACIFIC AVE","Score":82,"id":"a62etk68egyy"},"type":"Feature","geometry":{"type":"Point","coordinates":[-122.437574615809,47.2487541775882]}},{"properties":{"CITY":"LONGMONT","Matchaddr":"15 KEN PRATT BLVD, LONGMONT, CO, 80501","ST":"CO","NO":10498.0,"X":-105.072974743579,"Y":40.156277973175,"Locname":"Street_Address","Street":"15 KEN PRATT BLVD","Score":82,"id":"a62etk677tko"},"type":"Feature","geometry":{"type":"Point","coordinates":[-105.072970246969,40.1562779731747]}},{"properties":{"CITY":"LOS ANGELES","Matchaddr":"1500 W MARTIN LUTHER KING JR BLVD, LOS ANGELES, CA, 90062","ST":"CA","NO":11321.0,"X":-118.303652,"Y":34.010538,"Locname":"Address_Points","Street":"1005 W MLK BLVD","Score":58,"id":"a62etjyxkvlk"},"type":"Feature","geometry":{"type":"Point","coordinates":[-118.303652,34.0105380000001]}},{"properties":{"CITY":"WESTBURY","Matchaddr":"1504 OLD COUNTRY RD, WESTBURY, NY, 11590","ST":"NY","NO":11589.0,"X":-73.594613,"Y":40.74523,"Locname":"Address_Points","Street":"1504 OLD COUNTRY RD","Score":79,"id":"a62etk204y97"},"type":"Feature","geometry":{"type":"Point","coordinates":[-73.5946129999999,40.74523]}},{"properties":{"CITY":"COLUMBUS","Matchaddr":"1505 W 5TH AVE, COLUMBUS, OH, 43212","ST":"OH","NO":2525.0,"X":-83.046643,"Y":39.988776,"Locname":"Address_Points","Street":"1505 W FIFTH AVE","Score":79,"id":"a62etjtde4xi"},"type":"Feature","geometry":{"type":"Point","coordinates":[-83.0466429999999,39.9887760000001]}},{"properties":{"CITY":"LAKEWOOD","Matchaddr":"1509 WADSWORTH BLVD, LAKEWOOD, CO, 80214","ST":"CO","NO":10497.0,"X":-105.081335861618,"Y":39.74055068756,"Locname":"Street_Address","Street":"1509 WADSWORTH BLVD","Score":82,"id":"a62etjw66sj3"},"type":"Feature","geometry":{"type":"Point","coordinates":[-105.081333941841,39.7405483786902]}},{"properties":{"CITY":"OVIEDO","Matchaddr":"1515 OVIEDO MARKETPLACE BLVD, OVIEDO, FL, 32765","ST":"FL","NO":11404.0,"X":-81.239481259516,"Y":28.664260037157,"Locname":"Street_Address","Street":"1515 OVIEDO MARKETPLACE BLVD","Score":82,"id":"a62etjujbb29"},"type":"Feature","geometry":{"type":"Point","coordinates":[-81.239479568831,28.6642644421037]}},{"properties":{"CITY":"SANFORD","Matchaddr":"155 TOWNE CENTER CIR, SANFORD, FL, 32771","ST":"FL","NO":11412.0,"X":-81.340535057059,"Y":28.804480235674,"Locname":"Street_Address","Street":"155 TOWNE CENTER CIR","Score":82,"id":"a62etjs9l7ia"},"type":"Feature","geometry":{"type":"Point","coordinates":[-81.3405363852635,28.8044777396919]}},{"properties":{"CITY":"SANFORD","Matchaddr":"155 TOWNE CENTER CIR, SANFORD, FL, 32771","ST":"FL","NO":11410.0,"X":-81.340535057059,"Y":28.804480235674,"Locname":"Street_Address","Street":"155 TOWNE CENTER CIR","Score":82,"id":"a62etjtkaqho"},"type":"Feature","geometry":{"type":"Point","coordinates":[-81.3405363852635,28.8044777396919]}},{"properties":{"CITY":"SHAKOPEE","Matchaddr":"1593 17TH AVE E, SHAKOPEE, MN, 55379","ST":"MN","NO":11803.0,"X":-93.503336,"Y":44.77427,"Locname":"Address_Points","Street":"1539 17TH AVE E","Score":64,"id":"a62etjv3u2g2"},"type":"Feature","geometry":{"type":"Point","coordinates":[-93.5033359999999,44.7742700000001]}},{"properties":{"CITY":"EAST AURORA","Matchaddr":"160 MAIN ST, EAST AURORA, NY, 14052","ST":"NY","NO":7932.0,"X":-78.627365,"Y":42.768486,"Locname":"Address_Points","Street":"160 MAIN ST","Score":79,"id":"a62etk4fgx5e"},"type":"Feature","geometry":{"type":"Point","coordinates":[-78.6273649999999,42.7684860000001]}},{"properties":{"CITY":"ROCHESTER","Matchaddr":"160 WASHINGTON ST, ROCHESTER, NH, 03839","ST":"NH","NO":14089.0,"X":-70.996992152057,"Y":43.293715538481,"Locname":"Street_Address","Street":"160 WASHINGTON ST","Score":82,"id":"a62etjybgmjb"},"type":"Feature","geometry":{"type":"Point","coordinates":[-70.9969930584898,43.2937157571327]}},{"properties":{"CITY":"BERKELEY","Matchaddr":"1600 SHATTUCK AVE, BERKELEY, CA, 94709","ST":"CA","NO":5668.0,"X":-122.269164335043,"Y":37.878384935364,"Locname":"Street_Address","Street":"1600 SHATTUCK AVE","Score":82,"id":"a62etjr4z7ms"},"type":"Feature","geometry":{"type":"Point","coordinates":[-122.269167572602,37.8783852051607]}},{"properties":{"CITY":"FARGO","Matchaddr":"1601 UNIVERSITY DR, FARGO, ND, 58102","ST":"ND","NO":8923.0,"X":-96.798028925957,"Y":46.899560024119,"Locname":"Street_Address","Street":"1601 UNIVERSITY DRIVE","Score":82,"id":"a62etjywy6mi"},"type":"Feature","geometry":{"type":"Point","coordinates":[-96.7980294655501,46.8995564268313]}},{"properties":{"CITY":"ALTUS","Matchaddr":"1610 N MAIN ST, ALTUS, OK, 73521","ST":"OK","NO":13302.0,"X":-99.334057181407,"Y":34.655882127752,"Locname":"Street_Address","Street":"1610 N MAIN ST","Score":82,"id":"a62etk3zzms6"},"type":"Feature","geometry":{"type":"Point","coordinates":[-99.3340546356341,34.6558805504512]}},{"properties":{"CITY":"SANTA ROSA","Matchaddr":"1620 MENDOCINO AVE, SANTA ROSA, CA, 95401","ST":"CA","NO":5367.0,"X":-122.716839,"Y":38.455664,"Locname":"Address_Points","Street":"1620 MENDOCINO AVE","Score":79,"id":"a62etk5o1rgg"},"type":"Feature","geometry":{"type":"Point","coordinates":[-122.716839,38.4556640000001]}},{"properties":{"CITY":"COVINGTON","Matchaddr":"1625 HWY 51 S, COVINGTON, TN, 38019","ST":"TN","NO":11769.0,"X":-89.663562214157,"Y":35.544194695826,"Locname":"Street_Address","Street":"1625 HWY 51 S","Score":82,"id":"a62etk4cus8y"},"type":"Feature","geometry":{"type":"Point","coordinates":[-89.6635639155885,35.5441948781125]}},{"properties":{"CITY":"DULUTH","Matchaddr":"1630 PLEASANT HILL RD, DULUTH, GA, 30096","ST":"GA","NO":8385.0,"X":-84.123383,"Y":33.946203,"Locname":"Address_Points","Street":"1630 PLEASANT HILL RD NW","Score":63,"id":"a62etk41off7"},"type":"Feature","geometry":{"type":"Point","coordinates":[-84.1233829999999,33.9462030000001]}},{"properties":{"CITY":"SANTA ANA","Matchaddr":"1640 E 1ST ST, SANTA ANA, CA, 92701","ST":"CA","NO":10946.0,"X":-117.844968969808,"Y":33.745451894089,"Locname":"Street_Address","Street":"1640 E 1ST ST","Score":82,"id":"a62etjxg13ov"},"type":"Feature","geometry":{"type":"Point","coordinates":[-117.844970835902,33.7454518940893]}},{"properties":{"CITY":"SYRACUSE","Matchaddr":"1642 S 2000 W, SYRACUSE, UT, 84075","ST":"UT","NO":11950.0,"X":-112.064602054813,"Y":41.089996012338,"Locname":"Street_Address","Street":"1642 S 2000 W","Score":82,"id":"a62etk2ndaqn"},"type":"Feature","geometry":{"type":"Point","coordinates":[-112.064605472237,41.0899990700954]}},{"properties":{"CITY":"COLUMBUS","Matchaddr":"1644 E MAIN ST, COLUMBUS, OH, 43205","ST":"OH","NO":14056.0,"X":-82.955388,"Y":39.957761,"Locname":"Address_Points","Street":"6144 E MAIN ST","Score":64,"id":"a62etjxtlzy2"},"type":"Feature","geometry":{"type":"Point","coordinates":[-82.9553879999999,39.9577610000001]}},{"properties":{"CITY":"BELLFLOWER","Matchaddr":"16601 BELLFLOWER BLVD, BELLFLOWER, CA, 90706","ST":"CA","NO":10257.0,"X":-118.12557,"Y":33.883646,"Locname":"Address_Points","Street":"16601 BELLFLOWER BLVD","Score":79,"id":"a62etjqxl9oz"},"type":"Feature","geometry":{"type":"Point","coordinates":[-118.12557,33.8836460000001]}},{"properties":{"CITY":"LA MIRADA","Matchaddr":"16610 VALLEY VIEW AVE, LA MIRADA, CA, 90638","ST":"CA","NO":9866.0,"X":-118.028406,"Y":33.881909,"Locname":"Address_Points","Street":"16610 VALLEY VIEW AVE","Score":79,"id":"a62etk2o2xo6"},"type":"Feature","geometry":{"type":"Point","coordinates":[-118.028406,33.8819090000001]}},{"properties":{"CITY":"MANKATO","Matchaddr":"1680 WARREN ST, MANKATO, MN, 56001","ST":"MN","NO":14262.0,"X":-93.994294113784,"Y":44.146881270405,"Locname":"Street_Address","Street":"1680 WARREN ST","Score":82,"id":"a62etk4ulgif"},"type":"Feature","geometry":{"type":"Point","coordinates":[-93.9942941137841,44.146884579889]}},{"properties":{"CITY":"MACON","Matchaddr":"1693 BASS RD, MACON, GA, 31210","ST":"GA","NO":13408.0,"X":-83.725069635359,"Y":32.933878378934,"Locname":"Street_Address","Street":"1693 BASS RD","Score":82,"id":"a62etjsjrlk4"},"type":"Feature","geometry":{"type":"Point","coordinates":[-83.7250707595118,32.9338767151881]}},{"properties":{"CITY":"REDDING","Matchaddr":"1701 CALIFORNIA ST, REDDING, CA, 96001","ST":"CA","NO":13936.0,"X":-122.391300540385,"Y":40.582032040523,"Locname":"Street_Address","Street":"1701 CALIFORNIA ST","Score":82,"id":"a62etk0hpl4g"},"type":"Feature","geometry":{"type":"Point","coordinates":[-122.391304497402,40.5820350082859]}},{"properties":{"CITY":"TAHLEQUAH","Matchaddr":"1702 S MUSKOGEE AVE, TAHLEQUAH, OK, 74464","ST":"OK","NO":11287.0,"X":-94.976700288026,"Y":35.895799456008,"Locname":"Street_Address","Street":"1702 S MUSKOGEE AVE","Score":82,"id":"a62etjrfc3n2"},"type":"Feature","geometry":{"type":"Point","coordinates":[-94.9767045053712,35.895802811908]}},{"properties":{"CITY":"GREENSBURG","Matchaddr":"1703 N LINCOLN ST, GREENSBURG, IN, 47240","ST":"IN","NO":13948.0,"X":-85.479230429499,"Y":39.349195213579,"Locname":"Street_Address","Street":"1703 N LINCOLN ST","Score":82,"id":"a62etjsgua5k"},"type":"Feature","geometry":{"type":"Point","coordinates":[-85.4792343505426,39.3491994044199]}},{"properties":{"CITY":"VICTORVILLE","Matchaddr":"17080 BEAR VALLEY RD, VICTORVILLE, CA, 92395","ST":"CA","NO":6524.0,"X":-117.290902157342,"Y":34.471006465938,"Locname":"Street_Address","Street":"17080 BEAR VALLEY RD","Score":82,"id":"a62etjvc3onr"},"type":"Feature","geometry":{"type":"Point","coordinates":[-117.29089853365,34.471006920888]}},{"properties":{"CITY":"MARSHFIELD","Matchaddr":"1710 N CENTRAL AVE, MARSHFIELD, WI, 54449","ST":"WI","NO":9808.0,"X":-90.161538245636,"Y":44.683941513975,"Locname":"Street_Address","Street":"1710 CENTRAL AVE","Score":70,"id":"a62etk2szyuq"},"type":"Feature","geometry":{"type":"Point","coordinates":[-90.1615365096525,44.6839417093464]}},{"properties":{"CITY":"BEECH GROVE","Matchaddr":"1718 CHURCHMAN AVE, BEECH GROVE, IN, 46107","ST":"IN","NO":7989.0,"X":-86.101926441474,"Y":39.723536579275,"Locname":"Street_Address","Street":"1718 CHURCHMAN AVE","Score":82,"id":"a62etk20mmvf"},"type":"Feature","geometry":{"type":"Point","coordinates":[-86.10192492363,39.7235332058958]}},{"properties":{"CITY":"MURFREESBORO","Matchaddr":"1720 OLD FORT PKWY, MURFREESBORO, TN, 37129","ST":"TN","NO":14053.0,"X":-86.422483314698,"Y":35.846222674534,"Locname":"Street_Address","Street":"1720 OLD FORT PKWY","Score":82,"id":"a62etjxu3rlq"},"type":"Feature","geometry":{"type":"Point","coordinates":[-86.4224792677537,35.8462231884326]}},{"properties":{"CITY":"SAN DIEGO","Matchaddr":"1722 EUCLID AVE, SAN DIEGO, CA, 92102","ST":"CA","NO":6726.0,"X":-117.085296,"Y":32.723398,"Locname":"Address_Points","Street":"1722 EUCLID AVE","Score":79,"id":"a62etk0z6irg"},"type":"Feature","geometry":{"type":"Point","coordinates":[-117.085296,32.7233980000001]}},{"properties":{"CITY":"HASTINGS","Matchaddr":"1731 N FRONTAGE RD, HASTINGS, MN, 55033","ST":"MN","NO":9360.0,"X":-92.888526417394,"Y":44.740149336178,"Locname":"Street_Address","Street":"1731 N FRONTAGE RD","Score":82,"id":"a62etk3s64mq"},"type":"Feature","geometry":{"type":"Point","coordinates":[-92.888523719438,44.7401493361776]}},{"properties":{"CITY":"DAVENPORT","Matchaddr":"1736 N DIVISION ST, DAVENPORT, IA, 52804","ST":"IA","NO":13752.0,"X":-90.601132263097,"Y":41.537150436688,"Locname":"Street_Address","Street":"1736 N DIVISION ST","Score":82,"id":"a62etk6bo924"},"type":"Feature","geometry":{"type":"Point","coordinates":[-90.6011341107946,41.5371509762836]}},{"properties":{"CITY":"MERIDIAN","Matchaddr":"1742 E FAIRVIEW AVE, MERIDIAN, ID, 83642","ST":"ID","NO":3253.0,"X":-116.37291590007,"Y":43.619482773149,"Locname":"Street_Address","Street":"1742 E FAIRVIEW DR","Score":69,"id":"a62etjswt8md"},"type":"Feature","geometry":{"type":"Point","coordinates":[-116.372915572242,43.6194861690263]}},{"properties":{"CITY":"ISLANDIA","Matchaddr":"1750 VETERANS HWY, ISLANDIA, NY, 11749","ST":"NY","NO":7236.0,"X":-73.179399,"Y":40.802524,"Locname":"Address_Points","Street":"1750 VETERANS HWY","Score":79,"id":"a62etjssk67v"},"type":"Feature","geometry":{"type":"Point","coordinates":[-73.1793989999999,40.8025240000001]}},{"properties":{"CITY":"CHICAGO","Matchaddr":"1753 E 95TH ST, CHICAGO, IL, 60617","ST":"IL","NO":11953.0,"X":-87.580515308818,"Y":41.722404671146,"Locname":"Street_Address","Street":"1753 E 95TH ST","Score":82,"id":"a62etk3ekp4q"},"type":"Feature","geometry":{"type":"Point","coordinates":[-87.5805182584427,41.7224023210991]}},{"properties":{"CITY":"HARRIMAN","Matchaddr":"1769 ROANE STHY, HARRIMAN, TN, 37748","ST":"TN","NO":13772.0,"X":-84.54492,"Y":35.892381,"Locname":"Address_Points","Street":"1796 ROANE STATE HWY","Score":64,"id":"a62etk2sc2rn"},"type":"Feature","geometry":{"type":"Point","coordinates":[-84.5449199999999,35.8923810000001]}},{"properties":{"CITY":"COLONIE","Matchaddr":"1818 CENTRAL AVE, COLONIE, NY, 12205","ST":"NY","NO":10048.0,"X":-73.848073102858,"Y":42.730947087939,"Locname":"Street_Address","Street":"1818 CENTRAL AVE","Score":82,"id":"a62etk1k2xw0"},"type":"Feature","geometry":{"type":"Point","coordinates":[-73.8480687218781,42.7309470108576]}},{"properties":{"CITY":"ST. LOUIS","Matchaddr":"1820 MARKET ST, ST. LOUIS, MO, 63103","ST":"MO","NO":2422.0,"X":-90.206594157825,"Y":38.629370241074,"Locname":"Street_Address","Street":"1820 MARKET ST","Score":82,"id":"a62etjz6oorz"},"type":"Feature","geometry":{"type":"Point","coordinates":[-90.2065925433204,38.6293730589479]}},{"properties":{"CITY":"HOMEWOOD","Matchaddr":"1830 29TH AVE S, HOMEWOOD, AL, 35209","ST":"AL","NO":13360.0,"X":-86.790379502079,"Y":33.479594841755,"Locname":"Street_Address","Street":"1830 29TH AVE S","Score":82,"id":"a62etjw4qrqm"},"type":"Feature","geometry":{"type":"Point","coordinates":[-86.79038291672,33.4795943157877]}},{"properties":{"CITY":"SPARTANBURG","Matchaddr":"1855 E MAIN ST, SPARTANBURG, SC, 29307","ST":"SC","NO":11553.0,"X":-81.892304,"Y":34.967259,"Locname":"Address_Points","Street":"1855 E MAIN ST","Score":79,"id":"a62etjyae829"},"type":"Feature","geometry":{"type":"Point","coordinates":[-81.8923039999999,34.9672590000001]}},{"properties":{"CITY":"GERMANTOWN","Matchaddr":"18606 MATENY RD, GERMANTOWN, MD, 20874","ST":"MD","NO":11963.0,"X":-77.269081,"Y":39.161343,"Locname":"Address_Points","Street":"18066 MATENY RD","Score":67,"id":"a62etk0wl4cs"},"type":"Feature","geometry":{"type":"Point","coordinates":[-77.2690809999999,39.161343]}},{"properties":{"CITY":"PORTLAND","Matchaddr":"1864 SE HAWTHORNE BLVD, PORTLAND, OR, 97214","ST":"OR","NO":426.0,"X":-122.646349019476,"Y":45.512181325451,"Locname":"Street_Address","Street":"1864 SE HAWTHORNE BLVD","Score":82,"id":"a62etjr0g45v"},"type":"Feature","geometry":{"type":"Point","coordinates":[-122.646352224911,45.5121813254505]}},{"properties":{"CITY":"MANKATO","Matchaddr":"1881 E MADISON AVE, MANKATO, MN, 56001","ST":"MN","NO":10744.0,"X":-93.950730834772,"Y":44.166795569618,"Locname":"Street_Address","Street":"1881 MADISON AVE","Score":70,"id":"a62etjukufhl"},"type":"Feature","geometry":{"type":"Point","coordinates":[-93.9507309546848,44.1667955696177]}},{"properties":{"CITY":"PLANO","Matchaddr":"1881 N CENTRAL EXPY, PLANO, TX, 75075","ST":"TX","NO":13838.0,"X":-96.710286266943,"Y":33.02550155119,"Locname":"Street_Address","Street":"1881 CENTRAL EXWY","Score":70,"id":"a62etjtheszc"},"type":"Feature","geometry":{"type":"Point","coordinates":[-96.7102826151513,33.0254996435332]}},{"properties":{"CITY":"GREENVILLE","Matchaddr":"1889 E FIRE TOWER RD, GREENVILLE, NC, 27858","ST":"NC","NO":14183.0,"X":-77.365786728334,"Y":35.558952531245,"Locname":"Street_Address","Street":"1889 E FIRETOWER RD","Score":79,"id":"a62etjzx6cxi"},"type":"Feature","geometry":{"type":"Point","coordinates":[-77.3657848259257,35.5589527526133]}},{"properties":{"CITY":"HANOVER","Matchaddr":"189 EISENHOWER DR, HANOVER, PA, 17331","ST":"PA","NO":10789.0,"X":-76.993805482222,"Y":39.824208693438,"Locname":"Street_Address","Street":"189 EISENHOWER DR","Score":82,"id":"a62etjrjlvvq"},"type":"Feature","geometry":{"type":"Point","coordinates":[-76.9938072481666,39.8242123070759]}},{"properties":{"CITY":"GALESBURG","Matchaddr":"1890 N HENDERSON ST, GALESBURG, IL, 61401","ST":"IL","NO":11791.0,"X":-90.383161546454,"Y":40.970843023544,"Locname":"Street_Address","Street":"1890 N HENDERSON ST","Score":82,"id":"a62etjrn3cs9"},"type":"Feature","geometry":{"type":"Point","coordinates":[-90.3831654305532,40.9708389012131]}},{"properties":{"CITY":"DEARBORN","Matchaddr":"18900 MICHIGAN AVE, DEARBORN, MI, 48126","ST":"MI","NO":2467.0,"X":-83.22302,"Y":42.316771,"Locname":"Address_Points","Street":"18900 MICHIGAN AVE","Score":79,"id":"a62etk30kytl"},"type":"Feature","geometry":{"type":"Point","coordinates":[-83.2230199999999,42.3167710000001]}},{"properties":{"CITY":"BATON ROUGE","Matchaddr":"18970 HIGHLAND RD, BATON ROUGE, LA, 70809","ST":"LA","NO":6414.0,"X":-91.0168,"Y":30.351407,"Locname":"Address_Points","Street":"19970 HIGHLAND RD BATON","Score":56,"id":"a62etjtds2ux"},"type":"Feature","geometry":{"type":"Point","coordinates":[-91.0167999999999,30.3514070000001]}},{"properties":{"CITY":"DESOTO","Matchaddr":"1900 N HAMPTON RD, DESOTO, TX, 75115","ST":"TX","NO":6963.0,"X":-96.856156,"Y":32.628168,"Locname":"Address_Points","Street":"900 N HAMPTON RD","Score":64,"id":"a62etk679y1b"},"type":"Feature","geometry":{"type":"Point","coordinates":[-96.8561559999999,32.6281680000001]}},{"properties":{"CITY":"NEW CASTLE","Matchaddr":"1902 S MEMORIAL DR, NEW CASTLE, IN, 47362","ST":"IN","NO":10074.0,"X":-85.385210232379,"Y":39.903899688735,"Locname":"Street_Address","Street":"1902 S MEMORIAL DR","Score":82,"id":"a62etjyfxy7f"},"type":"Feature","geometry":{"type":"Point","coordinates":[-85.3852102323793,39.9039012320922]}},{"properties":{"CITY":"MADISON","Matchaddr":"1903 MAIN ST, MADISON, MS, 39110","ST":"MS","NO":10385.0,"X":-90.131411679868,"Y":32.469029071287,"Locname":"Street_Address","Street":"1903 MAIN ST","Score":82,"id":"a62etjw0hzh8"},"type":"Feature","geometry":{"type":"Point","coordinates":[-90.1314092216709,32.4690261514633]}},{"properties":{"CITY":"ELWOOD","Matchaddr":"1946 JERICHO TPKE, DIX HILLS, NY, 11731","ST":"NY","NO":7259.0,"X":-73.331382374889,"Y":40.838239740939,"Locname":"Street_Address","Street":"1946 JERICHO TURNPIKE","Score":82,"id":"a62etk3trrpx"},"type":"Feature","geometry":{"type":"Point","coordinates":[-73.3313812363844,40.8382428612131]}},{"properties":{"CITY":"WISCONSIN RAPIDS","Matchaddr":"1951 8TH ST S, WISCONSIN RAPIDS, WI, 54494","ST":"WI","NO":11827.0,"X":-89.817202071347,"Y":44.377235622995,"Locname":"Street_Address","Street":"1951 8TH ST","Score":69,"id":"a62etjvd0byl"},"type":"Feature","geometry":{"type":"Point","coordinates":[-89.8172040910741,44.3772369244739]}},{"properties":{"CITY":"HICKORY","Matchaddr":"1960 HWY 70 SE, HICKORY, NC, 28658","ST":"NC","NO":11136.0,"X":-81.2774221822,"Y":35.698687604392,"Locname":"Street_Address","Street":"1960 HWY 70 SE","Score":82,"id":"a62etk2h47ni"},"type":"Feature","geometry":{"type":"Point","coordinates":[-81.2774219652472,35.698689409526]}},{"properties":{"CITY":"OKEMOS","Matchaddr":"1982 E GRAND RIVER AVE, OKEMOS, MI, 48823","ST":"MI","NO":10831.0,"X":-84.456225466875,"Y":42.727810617283,"Locname":"Street_Address","Street":"1982 GRAND RIVER AVE","Score":70,"id":"a62etjrns4sj"},"type":"Feature","geometry":{"type":"Point","coordinates":[-84.456228562553,42.7278083769754]}},{"properties":{"CITY":"ANNAPOLIS","Matchaddr":"2 PARK LN, ANNAPOLIS, MD, 21403","ST":"MD","NO":11265.0,"X":-76.488699523054,"Y":38.960158090477,"Locname":"Street_Address","Street":"2 PARK PLACE","Score":69,"id":"a62etjrac2o8"},"type":"Feature","geometry":{"type":"Point","coordinates":[-76.4887030304102,38.960161687765]}},{"properties":{"CITY":"CHAMPAIGN","Matchaddr":"2000 N NEIL ST, CHAMPAIGN, IL, 61820","ST":"IL","NO":10365.0,"X":-88.243660336408,"Y":40.137969665234,"Locname":"Street_Address","Street":"2000 N NEIL ST","Score":82,"id":"a62etk4pxdsr"},"type":"Feature","geometry":{"type":"Point","coordinates":[-88.2436603364079,40.1379677766581]}},{"properties":{"CITY":"ST. LOUIS","Matchaddr":"2000 S 7TH ST, ST. LOUIS, MO, 63104","ST":"MO","NO":13765.0,"X":-90.202662036994,"Y":38.606819079921,"Locname":"Street_Address","Street":"2000 S 7TH ST","Score":82,"id":"a62etjye7w7l"},"type":"Feature","geometry":{"type":"Point","coordinates":[-90.2026625060524,38.6068180624531]}},{"properties":{"CITY":"VAN BUREN","Matchaddr":"2008 FAYETTEVILLE RD, VAN BUREN, AR, 72956","ST":"AR","NO":10883.0,"X":-94.356373807248,"Y":35.467703078883,"Locname":"Street_Address","Street":"2008 FAYETTEVILLE RD","Score":82,"id":"a62etjw2y1nm"},"type":"Feature","geometry":{"type":"Point","coordinates":[-94.3563701560006,35.4677075395206]}},{"properties":{"CITY":"WICHITA FALLS","Matchaddr":"2009 MAURINE ST, WICHITA FALLS, TX, 76306","ST":"TX","NO":14246.0,"X":-98.519835449967,"Y":33.936310511758,"Locname":"Street_Address","Street":"2009 MAURINE ST","Score":82,"id":"a62etjtpxr18"},"type":"Feature","geometry":{"type":"Point","coordinates":[-98.5198354499667,33.9363150083677]}},{"properties":{"CITY":"DAVENPORT","Matchaddr":"201 N HARRISON ST, DAVENPORT, IA, 52801","ST":"IA","NO":13570.0,"X":-90.577023017392,"Y":41.521364547178,"Locname":"Street_Address","Street":"201 N HARRISON ST","Score":82,"id":"a62etjuttzzy"},"type":"Feature","geometry":{"type":"Point","coordinates":[-90.5770232871891,41.5213678746694]}},{"properties":{"CITY":"DUBLIN","Matchaddr":"2011 VETERANS BLVD, DUBLIN, GA, 31021","ST":"GA","NO":13433.0,"X":-82.957436454962,"Y":32.542379352783,"Locname":"Street_Address","Street":"2011 VETERAN PKWY","Score":65,"id":"a62etk5h50sl"},"type":"Feature","geometry":{"type":"Point","coordinates":[-82.9574364549622,32.5423838493932]}},{"properties":{"CITY":"OMAHA","Matchaddr":"2012 N 117TH AVE, OMAHA, NE, 68164","ST":"NE","NO":9883.0,"X":-96.098091085758,"Y":41.277894084431,"Locname":"Street_Address","Street":"2012 N 117TH AVE","Score":82,"id":"a62etjsjnaxw"},"type":"Feature","geometry":{"type":"Point","coordinates":[-96.0980871301459,41.277894421677]}},{"properties":{"CITY":"HUMBLE","Matchaddr":"20131 HWY 59 N, HUMBLE, TX, 77338","ST":"TX","NO":11563.0,"X":-95.267428914973,"Y":30.007389773461,"Locname":"Street_Address","Street":"20131 HWY 59","Score":69,"id":"a62etjuy5ikm"},"type":"Feature","geometry":{"type":"Point","coordinates":[-95.267428337783,30.007392899643]}},{"properties":{"CITY":"EDMOND","Matchaddr":"2015 W DANFORTH RD, EDMOND, OK, 73003","ST":"OK","NO":11858.0,"X":-97.510286133647,"Y":35.667541032837,"Locname":"Street_Address","Street":"2015 W DANFORTH RD","Score":82,"id":"a62etju3n61a"},"type":"Feature","geometry":{"type":"Point","coordinates":[-97.5102835195354,35.667536894431]}},{"properties":{"CITY":"PORTLAND","Matchaddr":"2045 SE DIVISION ST, PORTLAND, OR, 97202","ST":"OR","NO":3441.0,"X":-122.644911165131,"Y":45.504804013898,"Locname":"Street_Address","Street":"2045 SE DIVISION ST","Score":82,"id":"a62etk3cn1qd"},"type":"Feature","geometry":{"type":"Point","coordinates":[-122.644913309664,45.5048068848103]}},{"properties":{"CITY":"SOMERSET","Matchaddr":"2049 S HWY 27, SOMERSET, KY, 42501","ST":"KY","NO":11755.0,"X":-84.621506015047,"Y":37.063428063347,"Locname":"Street_Address","Street":"2049 S HWY 27","Score":82,"id":"a62etjtpcmns"},"type":"Feature","geometry":{"type":"Point","coordinates":[-84.6215059650978,37.0634285754293]}},{"properties":{"CITY":"KILDEER","Matchaddr":"20505 USHY 12, KILDEER, IL, 60047","ST":"IL","NO":2533.0,"X":-88.051658410644,"Y":42.161622926447,"Locname":"Street_Address","Street":"20505 N HWY 12","Score":60,"id":"a62etjtbfkik"},"type":"Feature","geometry":{"type":"Point","coordinates":[-88.0516550831524,42.161622206989]}},{"properties":{"CITY":"FORT MYERS","Matchaddr":"2059 ALTAMONT AVE, FORT MYERS, FL, 33901","ST":"FL","NO":13340.0,"X":-81.877376931863,"Y":26.637656211773,"Locname":"Street_Address","Street":"2059 ALTAMONTE AVE","Score":78,"id":"a62etjyi8u8v"},"type":"Feature","geometry":{"type":"Point","coordinates":[-81.8773776774338,26.6376602355168]}},{"properties":{"CITY":"WINDSOR LOCKS","Matchaddr":"209 ELLA GRASSO TPKE, WINDSOR LOCKS, CT, 06096","ST":"CT","NO":9827.0,"X":-72.669851,"Y":41.92921,"Locname":"Address_Points","Street":"209 ELLA GRASSO TURNPIKE","Score":79,"id":"a62etk5bq0kq"},"type":"Feature","geometry":{"type":"Point","coordinates":[-72.6698509999999,41.9292100000001]}},{"properties":{"CITY":"WALNUT CREEK","Matchaddr":"2100 N MAIN ST, WALNUT CREEK, CA, 94596","ST":"CA","NO":6563.0,"X":-122.064259,"Y":37.908681,"Locname":"Address_Points","Street":"2001 N MAIN ST","Score":64,"id":"a62etjvcy234"},"type":"Feature","geometry":{"type":"Point","coordinates":[-122.064259,37.9086810000001]}},{"properties":{"CITY":"DULUTH","Matchaddr":"2100 PLEASANT HILL RD, DULUTH, GA, 30096","ST":"GA","NO":11675.0,"X":-84.133308192102,"Y":33.957082152668,"Locname":"Street_Address","Street":"2100 PLEASANT HILL RD","Score":82,"id":"a62etjv4azni"},"type":"Feature","geometry":{"type":"Point","coordinates":[-84.1333090014923,33.9570803540242]}},{"properties":{"CITY":"WASHINGTON","Matchaddr":"2101 L ST NW, WASHINGTON, DC, 20037","ST":"DC","NO":14073.0,"X":-77.047107,"Y":38.904185,"Locname":"Address_Points","Street":"2101 L ST","Score":63,"id":"a62etjzxqah8"},"type":"Feature","geometry":{"type":"Point","coordinates":[-77.0471069999999,38.904185]}},{"properties":{"CITY":"ORTING","Matchaddr":"211 WASHINGTON AVE N, ORTING, WA, 98360","ST":"WA","NO":10532.0,"X":-122.206188438148,"Y":47.098939046276,"Locname":"Street_Address","Street":"211 WASHINGTON AVE","Score":69,"id":"a62etk11h4zl"},"type":"Feature","geometry":{"type":"Point","coordinates":[-122.20618805089,47.0989361207271]}},{"properties":{"CITY":"WILSON","Matchaddr":"2113 NASH ST E, WILSON, NC, 27893","ST":"NC","NO":11925.0,"X":-77.882378291387,"Y":35.709863935399,"Locname":"Street_Address","Street":"2113 NASH ST","Score":69,"id":"a62etjyfgi4c"},"type":"Feature","geometry":{"type":"Point","coordinates":[-77.8823823792165,35.7098679823501]}},{"properties":{"CITY":"NAPLES","Matchaddr":"2128 TAMIAMI TRL N, NAPLES, FL, 34102","ST":"FL","NO":8427.0,"X":-81.799537312759,"Y":26.173284654584,"Locname":"Street_Address","Street":"2128 TAMIAMI TRAIL","Score":69,"id":"a62etjydjh0l"},"type":"Feature","geometry":{"type":"Point","coordinates":[-81.7995413557979,26.1732863124674]}},{"properties":{"CITY":"EDMOND","Matchaddr":"2141 W 15TH ST, EDMOND, OK, 73013","ST":"OK","NO":13459.0,"X":-97.512285615101,"Y":35.638474100302,"Locname":"Street_Address","Street":"2141 W 15TH ST","Score":82,"id":"a62etk5w67pd"},"type":"Feature","geometry":{"type":"Point","coordinates":[-97.5122890076607,35.638470806444]}},{"properties":{"CITY":"GREECE","Matchaddr":"2150 RIDGE RD W, GREECE, NY, 14626","ST":"NY","NO":7343.0,"X":-77.685283415008,"Y":43.208147326304,"Locname":"Street_Address","Street":"2150 RIDGE RD W","Score":82,"id":"a62etk13zad5"},"type":"Feature","geometry":{"type":"Point","coordinates":[-77.6852869632751,43.2081452660448]}},{"properties":{"CITY":"TAMPA","Matchaddr":"2164 E FOWLER AVE, TAMPA, FL, 33612","ST":"FL","NO":11415.0,"X":-82.436054431415,"Y":28.054574474696,"Locname":"Street_Address","Street":"2164 E FOWLER AVE","Score":82,"id":"a62etjuusnc0"},"type":"Feature","geometry":{"type":"Point","coordinates":[-82.4360545084755,28.0545780655601]}},{"properties":{"CITY":"ONTARIO","Matchaddr":"2200 S GROVE AVE, ONTARIO, CA, 91761","ST":"CA","NO":10712.0,"X":-117.628476504195,"Y":34.033898013598,"Locname":"Street_Address","Street":"2200 S GROVE AVE","Score":82,"id":"a62etjzm5a2j"},"type":"Feature","geometry":{"type":"Point","coordinates":[-117.628477043788,34.033900441767]}},{"properties":{"CITY":"LAREDO","Matchaddr":"2201 CHESTNUT ST, LAREDO, TX, 78046","ST":"TX","NO":11565.0,"X":-99.472822173135,"Y":27.479502140009,"Locname":"Street_Address","Street":"2201 CHESTNUT","Score":69,"id":"a62etjuvqe5l"},"type":"Feature","geometry":{"type":"Point","coordinates":[-99.472820024755,27.4795065939242]}},{"properties":{"CITY":"SEATTLE","Matchaddr":"2201 E MADISON ST, SEATTLE, WA, 98122","ST":"WA","NO":8739.0,"X":-122.303660889172,"Y":47.618354937156,"Locname":"Street_Address","Street":"2201 E MADISON AVE","Score":69,"id":"a62etk2ukh92"},"type":"Feature","geometry":{"type":"Point","coordinates":[-122.303656572426,47.61835754519]}},{"properties":{"CITY":"YAKIMA","Matchaddr":"2203 S 1ST ST, YAKIMA, WA, 98903","ST":"WA","NO":359.0,"X":-120.48745025826,"Y":46.570387642464,"Locname":"Street_Address","Street":"2203 S 1ST","Score":69,"id":"a62etk5n7wv0"},"type":"Feature","geometry":{"type":"Point","coordinates":[-120.487448754594,46.5703865776669]}},{"properties":{"CITY":"STUART","Matchaddr":"2223 SE OCEAN BLVD, STUART, FL, 34996","ST":"FL","NO":13830.0,"X":-80.220637094429,"Y":27.196673960412,"Locname":"Street_Address","Street":"2223 SE OCEAN BLVD","Score":82,"id":"a62etjrsawxn"},"type":"Feature","geometry":{"type":"Point","coordinates":[-80.2206376418371,27.1966698157094]}},{"properties":{"CITY":"WORCESTER","Matchaddr":"225 SHREWSBURY ST, WORCESTER, MA, 01604","ST":"MA","NO":11915.0,"X":-71.783239,"Y":42.266243,"Locname":"Address_Points","Street":"225 SHREWSBURY ST","Score":79,"id":"a62etk5c1m71"},"type":"Feature","geometry":{"type":"Point","coordinates":[-71.7832389999999,42.2662430000001]}},{"properties":{"CITY":"CONCORD","Matchaddr":"2250 MONUMENT BLVD, CONCORD, CA, 94518","ST":"CA","NO":9826.0,"X":-122.035935,"Y":37.957882,"Locname":"Address_Points","Street":"2250 MONUMENT BLVD","Score":79,"id":"a62etk5551yd"},"type":"Feature","geometry":{"type":"Point","coordinates":[-122.035935,37.957882]}},{"properties":{"CITY":"ONTARIO","Matchaddr":"2254 S EUCLID AVE, ONTARIO, CA, 91762","ST":"CA","NO":10545.0,"X":-117.651055739266,"Y":34.032808319841,"Locname":"Street_Address","Street":"2254 S EUCLID AVE","Score":82,"id":"a62etk5hre60"},"type":"Feature","geometry":{"type":"Point","coordinates":[-117.651059019944,34.0328122621115]}},{"properties":{"CITY":"FARIBAULT","Matchaddr":"2280 N GRANT ST, FARIBAULT, MN, 55021","ST":"MN","NO":9606.0,"X":-93.302504120913,"Y":44.294610681597,"Locname":"Street_Address","Street":"2280 GRANT ST","Score":70,"id":"a62etk4xl3b4"},"type":"Feature","geometry":{"type":"Point","coordinates":[-93.3024996359654,44.2946072164218]}},{"properties":{"CITY":"SEAFORD","Matchaddr":"22888 SUSSEX HWY, SEAFORD, DE, 19973","ST":"DE","NO":13733.0,"X":-75.594083376137,"Y":38.660858233262,"Locname":"Street_Address","Street":"22888 SUSSEX HWY","Score":82,"id":"a62etjqyxlcj"},"type":"Feature","geometry":{"type":"Point","coordinates":[-75.5940844553235,38.6608583231937]}},{"properties":{"CITY":"CARMEL","Matchaddr":"2316 E 116TH ST, CARMEL, IN, 46032","ST":"IN","NO":2365.0,"X":-86.116029641091,"Y":39.956653260277,"Locname":"Street_Address","Street":"2316 E 116TH","Score":69,"id":"a62etjyapjre"},"type":"Feature","geometry":{"type":"Point","coordinates":[-86.1160262930494,39.9566554623309]}},{"properties":{"CITY":"CHARLOTTE","Matchaddr":"2320 WILKINSON BLVD, CHARLOTTE, NC, 28208","ST":"NC","NO":10420.0,"X":-80.87906,"Y":35.22401,"Locname":"Address_Points","Street":"3220 WILKINSON BLVD","Score":64,"id":"a62etjvqp6zs"},"type":"Feature","geometry":{"type":"Point","coordinates":[-80.8790599999999,35.2240100000001]}},{"properties":{"CITY":"WEBSTER GROVE","Matchaddr":"234 W LOCKWOOD AVE, WEBSTER GROVES, MO, 63119","ST":"MO","NO":11920.0,"X":-90.362268129836,"Y":38.593317734474,"Locname":"Street_Address","Street":"234 W LOCKWOOD","Score":67,"id":"a62etjxq2sri"},"type":"Feature","geometry":{"type":"Point","coordinates":[-90.3622651865923,38.5933192387933]}},{"properties":{"CITY":"CHICAGO","Matchaddr":"2347 W 95TH ST, CHICAGO, IL, 60643","ST":"IL","NO":8985.0,"X":-87.681437,"Y":41.720591,"Locname":"Address_Points","Street":"2347 W 95TH ST","Score":79,"id":"a62etjx0bx9p"},"type":"Feature","geometry":{"type":"Point","coordinates":[-87.6814369999999,41.7205910000001]}},{"properties":{"CITY":"PONCA CITY","Matchaddr":"2400 N 14TH ST, PONCA CITY, OK, 74601","ST":"OK","NO":13721.0,"X":-97.067226334465,"Y":36.732424397108,"Locname":"Street_Address","Street":"2400 N 14TH ST","Score":82,"id":"a62etjxb6c3e"},"type":"Feature","geometry":{"type":"Point","coordinates":[-97.0672235285805,36.7324241093252]}},{"properties":{"CITY":"ANAHEIM","Matchaddr":"2420 E KATELLA AVE, ANAHEIM, CA, 92806","ST":"CA","NO":10184.0,"X":-117.883215854184,"Y":33.805632646293,"Locname":"Street_Address","Street":"2420 E KATELLA AVE","Score":82,"id":"a62etjqhigks"},"type":"Feature","geometry":{"type":"Point","coordinates":[-117.883219001808,33.80563452429]}},{"properties":{"CITY":"BREA","Matchaddr":"2435 E IMPERIAL HWY, BREA, CA, 92821","ST":"CA","NO":14002.0,"X":-117.866817,"Y":33.911801,"Locname":"Address_Points","Street":"2435 E IMPERIAL HWY","Score":79,"id":"a62etk2ct156"},"type":"Feature","geometry":{"type":"Point","coordinates":[-117.866817,33.9118010000001]}},{"properties":{"CITY":"SCHENECTADY","Matchaddr":"2441 WATT ST, SCHENECTADY, NY, 12304","ST":"NY","NO":10397.0,"X":-73.913618,"Y":42.783641,"Locname":"Address_Points","Street":"24471 WATT ST","Score":67,"id":"a62etk0kfoi3"},"type":"Feature","geometry":{"type":"Point","coordinates":[-73.9136179999999,42.783641]}},{"properties":{"CITY":"CHICAGO","Matchaddr":"2454 N ASHLAND AVE, CHICAGO, IL, 60614","ST":"IL","NO":2403.0,"X":-87.668184936927,"Y":41.926382391028,"Locname":"Street_Address","Street":"2454 N ASHLAND AVE","Score":82,"id":"a62etjs2v6n0"},"type":"Feature","geometry":{"type":"Point","coordinates":[-87.6681841698589,41.926386543785]}},{"properties":{"CITY":"BONITA SPRING","Matchaddr":"24630 S TAMIAMI TRL, BONITA SPRINGS, FL, 34134","ST":"FL","NO":11606.0,"X":-81.808705,"Y":26.381029,"Locname":"Address_Points","Street":"24630 S TAMIAMI TRAIL","Score":77,"id":"a62etjvlvgll"},"type":"Feature","geometry":{"type":"Point","coordinates":[-81.8087049999999,26.3810290000001]}},{"properties":{"CITY":"CHICAGO","Matchaddr":"2475 N LINCOLN AVE, CHICAGO, IL, 60614","ST":"IL","NO":2286.0,"X":-87.650820021578,"Y":41.926923194937,"Locname":"Street_Address","Street":"2475 N LINCOLN","Score":69,"id":"a62etjzhvs67"},"type":"Feature","geometry":{"type":"Point","coordinates":[-87.6508182614731,41.9269261370025]}},{"properties":{"CITY":"SEYMOUR","Matchaddr":"250 E TIPTON ST, SEYMOUR, IN, 47274","ST":"IN","NO":10739.0,"X":-85.886075042413,"Y":38.957394363761,"Locname":"Street_Address","Street":"250 E TIPTON ST","Score":82,"id":"a62etjtzh59g"},"type":"Feature","geometry":{"type":"Point","coordinates":[-85.8860786433777,38.9573917759148]}},{"properties":{"CITY":"ATLANTA","Matchaddr":"250 PARK AVE SE, ATLANTA, GA, 30312","ST":"GA","NO":11843.0,"X":-84.369687943696,"Y":33.746295397319,"Locname":"Street_Address","Street":"250 PARK AVE W","Score":69,"id":"a62etk5puzaf"},"type":"Feature","geometry":{"type":"Point","coordinates":[-84.3696868036735,33.7462972567968]}},{"properties":{"CITY":"LAS VEGAS","Matchaddr":"2510 E TROPICANA AVE, LAS VEGAS, NV, 89121","ST":"NV","NO":10393.0,"X":-115.116323,"Y":36.100367,"Locname":"Address_Points","Street":"2510 E TROPICANA AVE","Score":79,"id":"a62etjzh9r5r"},"type":"Feature","geometry":{"type":"Point","coordinates":[-115.116323,36.1003670000001]}},{"properties":{"CITY":"VESTAVIA HILLS","Matchaddr":"2531 ROCKY RIDGE RD, VESTAVIA HILLS, AL, 35243","ST":"AL","NO":10335.0,"X":-86.772828150708,"Y":33.425895797418,"Locname":"Street_Address","Street":"2531 ROCKY RIDGE RD","Score":82,"id":"a62etjwdsa7q"},"type":"Feature","geometry":{"type":"Point","coordinates":[-86.7728281507081,33.4258957974181]}},{"properties":{"CITY":"MINNAPOLIS","Matchaddr":"2555 ULYSSES ST NE, MINNEAPOLIS, MN, 55418","ST":"MN","NO":2859.0,"X":-93.235505,"Y":45.014847,"Locname":"Address_Points","Street":"12555 ULYSSES ST NE","Score":65,"id":"a62etjt6j7nu"},"type":"Feature","geometry":{"type":"Point","coordinates":[-93.2355049999999,45.0148470000001]}},{"properties":{"CITY":"KENT","Matchaddr":"26015 104TH AVE SE, KENT, WA, 98030","ST":"WA","NO":3317.0,"X":-122.202344563592,"Y":47.368780608635,"Locname":"Street_Address","Street":"26015 104TH AVE SW","Score":69,"id":"a62etjwukwgq"},"type":"Feature","geometry":{"type":"Point","coordinates":[-122.202347945825,47.3687776956186]}},{"properties":{"CITY":"VINCENNES","Matchaddr":"2605 HART ST, VINCENNES, IN, 47591","ST":"IN","NO":9521.0,"X":-87.504573428213,"Y":38.656555036806,"Locname":"Street_Address","Street":"2605 HART ST","Score":82,"id":"a62etjw26ahe"},"type":"Feature","geometry":{"type":"Point","coordinates":[-87.5045705130683,38.6565505706734]}},{"properties":{"CITY":"FORT WORTH","Matchaddr":"2621 MC CART AVE, FORT WORTH, TX, 76110","ST":"TX","NO":14145.0,"X":-97.352966,"Y":32.713614,"Locname":"Address_Points","Street":"6221 MCCART AVE","Score":58,"id":"a62etk40yaf9"},"type":"Feature","geometry":{"type":"Point","coordinates":[-97.3529659999999,32.7136140000001]}},{"properties":{"CITY":"BONITA SPRING","Matchaddr":"26841 S BAY DR, BONITA SPRINGS, FL, 34134","ST":"FL","NO":8441.0,"X":-81.80991377634,"Y":26.348281039475,"Locname":"Street_Address","Street":"26841 S BAY DR","Score":80,"id":"a62etjqi3lke"},"type":"Feature","geometry":{"type":"Point","coordinates":[-81.8099105387957,26.3482853861489]}},{"properties":{"CITY":"ARLINGTON","Matchaddr":"2733 N COLLINS ST, ARLINGTON, TX, 76006","ST":"TX","NO":6301.0,"X":-97.09402,"Y":32.783236,"Locname":"Address_Points","Street":"2733 N COLLINS","Score":63,"id":"a62etk61yt06"},"type":"Feature","geometry":{"type":"Point","coordinates":[-97.0940199999999,32.783236]}},{"properties":{"CITY":"COON RAPIDS","Matchaddr":"2740 MAIN ST NW, COON RAPIDS, MN, 55448","ST":"MN","NO":10457.0,"X":-93.336961656128,"Y":45.197593982991,"Locname":"Street_Address","Street":"2740 MAIN ST","Score":69,"id":"a62etk2krehv"},"type":"Feature","geometry":{"type":"Point","coordinates":[-93.3369616561282,45.197589486381]}},{"properties":{"CITY":"NOVI","Matchaddr":"27500 NOVI RD, NOVI, MI, 48377","ST":"MI","NO":14140.0,"X":-83.470823,"Y":42.492287,"Locname":"Address_Points","Street":"27500 NOVI RD","Score":79,"id":"a62etk0g98b2"},"type":"Feature","geometry":{"type":"Point","coordinates":[-83.4708229999999,42.492287]}},{"properties":{"CITY":"MISSION VIEJO","Matchaddr":"27775 SANTA MARGARITA PKWY, MISSION VIEJO, CA, 92691","ST":"CA","NO":14017.0,"X":-117.645895822859,"Y":33.652547337198,"Locname":"Street_Address","Street":"27775 SANTA MARGARITA PKWY","Score":82,"id":"a62etk4oc47u"},"type":"Feature","geometry":{"type":"Point","coordinates":[-117.645896911496,33.6525429352423]}},{"properties":{"CITY":"MORENO VALLEY","Matchaddr":"27810 EUCALYPTUS AVE, MORENO VALLEY, CA, 92555","ST":"CA","NO":11897.0,"X":-117.176624,"Y":33.938469,"Locname":"Address_Points","Street":"27110 EUCALYPTUS AVE","Score":56,"id":"a62etjw9dqby"},"type":"Feature","geometry":{"type":"Point","coordinates":[-117.176624,33.9384690000001]}},{"properties":{"CITY":"LA CRUCES","Matchaddr":"2800 N MAIN ST, LAS CRUCES, NM, 88001","ST":"NM","NO":11732.0,"X":-106.778221889185,"Y":32.337285870333,"Locname":"Street_Address","Street":"2800 N MAIN ST","Score":80,"id":"a62etjxaw8e5"},"type":"Feature","geometry":{"type":"Point","coordinates":[-106.778219712826,32.3372844673911]}},{"properties":{"CITY":"MISSION VIEJO","Matchaddr":"28171 MARGUERITE PKWY, MISSION VIEJO, CA, 92691","ST":"CA","NO":6791.0,"X":-117.671275,"Y":33.553601,"Locname":"Address_Points","Street":"28171 MARGUERITE PKWY","Score":79,"id":"a62etjwjmajs"},"type":"Feature","geometry":{"type":"Point","coordinates":[-117.671275,33.5536010000001]}},{"properties":{"CITY":"MADISON","Matchaddr":"2825 UNIVERSITY AVE, MADISON, WI, 53705","ST":"WI","NO":2308.0,"X":-89.437595,"Y":43.074155,"Locname":"Address_Points","Street":"2825 UNIVERSITY AVE","Score":79,"id":"a62etjxyaiik"},"type":"Feature","geometry":{"type":"Point","coordinates":[-89.4375949999999,43.0741550000001]}},{"properties":{"CITY":"ELMWOOD PARK","Matchaddr":"2848 N HARLEM AVE, ELMWOOD PARK, IL, 60707","ST":"IL","NO":13712.0,"X":-87.806403921482,"Y":41.931682996303,"Locname":"Street_Address","Street":"2848 N HARLEM AVE","Score":82,"id":"a62etjqgp659"},"type":"Feature","geometry":{"type":"Point","coordinates":[-87.806400972542,41.9316835505375]}},{"properties":{"CITY":"CHALFONT","Matchaddr":"290 W BUTLER AVE, BRITTANY FARMS-HIGHLANDS, PA, 18914","ST":"PA","NO":13268.0,"X":-75.214914849396,"Y":40.278836005528,"Locname":"Street_Address","Street":"290 W BUTLER PIKE","Score":69,"id":"a62etk5itnpn"},"type":"Feature","geometry":{"type":"Point","coordinates":[-75.2149123013301,40.2788375793277]}},{"properties":{"CITY":"HUNTINGTON PARK","Matchaddr":"2901 E FLORENCE AVE, HUNTINGTON PARK, CA, 90255","ST":"CA","NO":13966.0,"X":-118.217560582166,"Y":33.973426251364,"Locname":"Street_Address","Street":"2901 FLORENCE AVE","Score":70,"id":"a62etjy5zcrl"},"type":"Feature","geometry":{"type":"Point","coordinates":[-118.21755995264,33.9734300285169]}},{"properties":{"CITY":"ELMHURST","Matchaddr":"291 N YORK ST, ELMHURST, IL, 60126","ST":"IL","NO":13469.0,"X":-87.939485,"Y":41.906767,"Locname":"Address_Points","Street":"291 N YORK ST","Score":79,"id":"a62etjubm6zt"},"type":"Feature","geometry":{"type":"Point","coordinates":[-87.9394849999999,41.9067670000001]}},{"properties":{"CITY":"INDIANAPOLIS","Matchaddr":"2910 N COLLEGE AVE, INDIANAPOLIS, IN, 46205","ST":"IN","NO":9433.0,"X":-86.145282,"Y":39.809015,"Locname":"Address_Points","Street":"2910 N COLLEGE AVE","Score":79,"id":"a62etjzzi1e2"},"type":"Feature","geometry":{"type":"Point","coordinates":[-86.145282,39.809015]}},{"properties":{"CITY":"CHARLOTTE","Matchaddr":"2921 PROVIDENCE RD, CHARLOTTE, NC, 28211","ST":"NC","NO":14141.0,"X":-80.807897232507,"Y":35.171050732522,"Locname":"Street_Address","Street":"2921 PROVIDENCE RD","Score":82,"id":"a62etjyafhfz"},"type":"Feature","geometry":{"type":"Point","coordinates":[-80.8078949269699,35.1710481817154]}},{"properties":{"CITY":"ATLANTA","Matchaddr":"2941 PACES FERRY RD SE, ATLANTA, GA, 30339","ST":"GA","NO":983.0,"X":-84.467023,"Y":33.866445,"Locname":"Address_Points","Street":"2941 PACES FERRY RD","Score":63,"id":"a62etjzjvscb"},"type":"Feature","geometry":{"type":"Point","coordinates":[-84.4670229999999,33.8664450000001]}},{"properties":{"CITY":"SAN DIEGO","Matchaddr":"2990 EL CAJON BLVD, SAN DIEGO, CA, 92104","ST":"CA","NO":9471.0,"X":-117.130281957442,"Y":32.755406258473,"Locname":"Street_Address","Street":"2990 EL CAJON BLVD","Score":82,"id":"a62etk4y6r6u"},"type":"Feature","geometry":{"type":"Point","coordinates":[-117.130279619217,32.7554062584735]}},{"properties":{"CITY":"BROWNWOOD","Matchaddr":"300 W COMMERCE ST, BROWNWOOD, TX, 76801","ST":"TX","NO":9300.0,"X":-98.981354834963,"Y":31.728454605148,"Locname":"Street_Address","Street":"300 W COMMERCE","Score":69,"id":"a62etjzqb873"},"type":"Feature","geometry":{"type":"Point","coordinates":[-98.9813585221832,31.7284524467753]}},{"properties":{"CITY":"LOUISVILLE","Matchaddr":"3009 POPLAR LEVEL RD, LOUISVILLE, KY, 40217","ST":"KY","NO":10870.0,"X":-85.722736919546,"Y":38.213817077665,"Locname":"Street_Address","Street":"3009 POPLAR LEVEL RD","Score":82,"id":"a62etjqepatn"},"type":"Feature","geometry":{"type":"Point","coordinates":[-85.7227347831959,38.213814335649]}},{"properties":{"CITY":"SOUTH WINDSOR","Matchaddr":"301 EVERGREEN WAY, SOUTH WINDSOR, CT, 06074","ST":"CT","NO":8116.0,"X":-72.556111834205,"Y":41.812739825491,"Locname":"Street_Address","Street":"301 EVERGREEN WAY","Score":82,"id":"a62etk4yb4m6"},"type":"Feature","geometry":{"type":"Point","coordinates":[-72.556111687806,41.8127392189423]}},{"properties":{"CITY":"BALTIMORE","Matchaddr":"301 LIGHT ST, BALTIMORE, MD, 21202","ST":"MD","NO":7588.0,"X":-76.612493,"Y":39.285075,"Locname":"Address_Points","Street":"301 S LIGHT ST","Score":65,"id":"a62etjxcxfdl"},"type":"Feature","geometry":{"type":"Point","coordinates":[-76.6124929999999,39.2850750000001]}},{"properties":{"CITY":"SEATTLE","Matchaddr":"301 NE NORTHGATE WAY, SEATTLE, WA, 98125","ST":"WA","NO":13777.0,"X":-122.325949776278,"Y":47.70858652439,"Locname":"Street_Address","Street":"301 NE NORTHGATE WAY","Score":82,"id":"a62etjz6jak4"},"type":"Feature","geometry":{"type":"Point","coordinates":[-122.325950765532,47.7085865243896]}},{"properties":{"CITY":"INDIANAPOLIS","Matchaddr":"3012 W 16TH ST, INDIANAPOLIS, IN, 46222","ST":"IN","NO":11846.0,"X":-86.208766,"Y":39.788233,"Locname":"Address_Points","Street":"3021 W 16TH ST","Score":64,"id":"a62etk5y0cs1"},"type":"Feature","geometry":{"type":"Point","coordinates":[-86.2087659999999,39.788233]}},{"properties":{"CITY":"BRADENTON","Matchaddr":"303 USHY 301, BRADENTON, FL, 34208","ST":"FL","NO":11390.0,"X":-82.562921867149,"Y":27.496446382373,"Locname":"Street_Address","Street":"303 US HWY 301","Score":82,"id":"a62etk4sludl"},"type":"Feature","geometry":{"type":"Point","coordinates":[-82.5629218671489,27.4964498209562]}},{"properties":{"CITY":"JACKSONVILLE","Matchaddr":"305 CORD 210 W, JACKSONVILLE, FL, 32259","ST":"FL","NO":11173.0,"X":-81.462086286282,"Y":30.082290178452,"Locname":"Street_Address","Street":"305 CR 210 W","Score":72,"id":"a62etjq3ooxt"},"type":"Feature","geometry":{"type":"Point","coordinates":[-81.4620887507436,30.0822884382431]}},{"properties":{"CITY":"FRESNO","Matchaddr":"3089 E SHIELDS AVE, FRESNO, CA, 93726","ST":"CA","NO":6939.0,"X":-119.772889,"Y":36.780366,"Locname":"Address_Points","Street":"3089 E SHIELDS","Score":63,"id":"a62etjxzsavv"},"type":"Feature","geometry":{"type":"Point","coordinates":[-119.772889,36.7803660000001]}},{"properties":{"CITY":"DANVILLE","Matchaddr":"3100 N VERMILION ST, DANVILLE, IL, 61832","ST":"IL","NO":11491.0,"X":-87.63051937916,"Y":40.173783831081,"Locname":"Street_Address","Street":"3100 N VERMILLION","Score":66,"id":"a62etk4lb3f9"},"type":"Feature","geometry":{"type":"Point","coordinates":[-87.6305205632718,40.1737877730851]}},{"properties":{"CITY":"OCALA","Matchaddr":"3100 SW COLLEGE RD, OCALA, FL, 34474","ST":"FL","NO":11581.0,"X":-82.17439009191,"Y":29.160762647691,"Locname":"Street_Address","Street":"3100 SW COLLEGE RD","Score":82,"id":"a62etjwv2d6l"},"type":"Feature","geometry":{"type":"Point","coordinates":[-82.1743877708304,29.1607621480397]}},{"properties":{"CITY":"PALM BEACH","Matchaddr":"3101 PGA BLVD, PALM BEACH GARDENS, FL, 33410","ST":"FL","NO":11406.0,"X":-80.085391,"Y":26.848178,"Locname":"Address_Points","Street":"3101 PGA BLVD","Score":67,"id":"a62etjsq5m65"},"type":"Feature","geometry":{"type":"Point","coordinates":[-80.0853909999999,26.8481780000001]}},{"properties":{"CITY":"KENNER","Matchaddr":"3117 LOYOLA DR, KENNER, LA, 70065","ST":"LA","NO":13575.0,"X":-90.266898650436,"Y":30.011217266573,"Locname":"Street_Address","Street":"3117 LOYOLA DR","Score":82,"id":"a62etk30gv8f"},"type":"Feature","geometry":{"type":"Point","coordinates":[-90.2669010786053,30.0112150182675]}},{"properties":{"CITY":"FRASER","Matchaddr":"31205 UTICA RD, FRASER, MI, 48026","ST":"MI","NO":11877.0,"X":-82.945707758832,"Y":42.526433254757,"Locname":"Street_Address","Street":"31205 UTICA RD","Score":82,"id":"a62etk409tml"},"type":"Feature","geometry":{"type":"Point","coordinates":[-82.9457092957002,42.5264321881745]}},{"properties":{"CITY":"OKLAHOMA CITY","Matchaddr":"3131 W MEMORIAL RD, OKLAHOMA CITY, OK, 73134","ST":"OK","NO":11543.0,"X":-97.572729906408,"Y":35.609899345573,"Locname":"Street_Address","Street":"3131 W MEMORIAL","Score":69,"id":"a62etjy0vzpl"},"type":"Feature","geometry":{"type":"Point","coordinates":[-97.57273244125,35.6098993455732]}},{"properties":{"CITY":"FEDERAL WAY","Matchaddr":"31515 20TH AVE S, FEDERAL WAY, WA, 98003","ST":"WA","NO":338.0,"X":-122.308104393236,"Y":47.319323913352,"Locname":"Street_Address","Street":"31515 20TH AVE S","Score":82,"id":"a62etjshnx85"},"type":"Feature","geometry":{"type":"Point","coordinates":[-122.308108216471,47.3193239772274]}},{"properties":{"CITY":"MAHTOMEDI","Matchaddr":"3156 CENTURY AVE N, MAHTOMEDI, MN, 55115","ST":"MN","NO":9881.0,"X":-92.984701444065,"Y":45.037160238964,"Locname":"Street_Address","Street":"3156 CENTURY AVE N","Score":82,"id":"a62etk1ec87l"},"type":"Feature","geometry":{"type":"Point","coordinates":[-92.9846972172514,45.0371594295742]}},{"properties":{"CITY":"CASTAIC","Matchaddr":"31810 CASTAIC RD, CASTAIC, CA, 91384","ST":"CA","NO":6450.0,"X":-118.622362,"Y":34.497102,"Locname":"Address_Points","Street":"31818 CASTAIC RD","Score":56,"id":"a62etjqckxag"},"type":"Feature","geometry":{"type":"Point","coordinates":[-118.622362,34.497102]}},{"properties":{"CITY":"DENVER","Matchaddr":"320 S COLORADO BLVD, DENVER, CO, 80246","ST":"CO","NO":10860.0,"X":-104.94029,"Y":39.711025,"Locname":"Address_Points","Street":"320 S COLORADO BLVD","Score":79,"id":"a62etjrxlc7j"},"type":"Feature","geometry":{"type":"Point","coordinates":[-104.94029,39.7110250000001]}},{"properties":{"CITY":"DAVENPORT","Matchaddr":"320 W KIMBERLY RD, DAVENPORT, IA, 52806","ST":"IA","NO":10069.0,"X":-90.577085340393,"Y":41.560209620368,"Locname":"Street_Address","Street":"320 W KIMBERLY RD","Score":82,"id":"a62etjsxdn4o"},"type":"Feature","geometry":{"type":"Point","coordinates":[-90.5770862397312,41.5602095931148]}},{"properties":{"CITY":"SEATTLE","Matchaddr":"328 15TH AVE E, SEATTLE, WA, 98112","ST":"WA","NO":3207.0,"X":-122.312712475465,"Y":47.621420516102,"Locname":"Street_Address","Street":"328 15TH AVE E","Score":82,"id":"a62etjs0w412"},"type":"Feature","geometry":{"type":"Point","coordinates":[-122.312712745261,47.6214242333098]}},{"properties":{"CITY":"JENSEN BEACH","Matchaddr":"3306 FEDERAL HWY, JENSEN BEACH, FL, 34957","ST":"FL","NO":11395.0,"X":-80.272520959629,"Y":27.245655293093,"Locname":"Street_Address","Street":"3306 FEDERAL HWY NW","Score":69,"id":"a62etjy66pr0"},"type":"Feature","geometry":{"type":"Point","coordinates":[-80.2725195297074,27.2456558866453]}},{"properties":{"CITY":"BUFORD","Matchaddr":"3333 BUFORD DR, BUFORD, GA, 30519","ST":"GA","NO":13518.0,"X":-83.984286471713,"Y":34.071246989892,"Locname":"Street_Address","Street":"3333 BUFORD DR","Score":82,"id":"a62etk1sc5m2"},"type":"Feature","geometry":{"type":"Point","coordinates":[-83.984282348017,34.0712492856438]}},{"properties":{"CITY":"DETROIT","Matchaddr":"3333 E JEFFERSON AVE, DETROIT, MI, 48207","ST":"MI","NO":2502.0,"X":-83.014277,"Y":42.342284,"Locname":"Address_Points","Street":"333 E JEFFERSON AVE","Score":64,"id":"a62etk42y7s6"},"type":"Feature","geometry":{"type":"Point","coordinates":[-83.0142769999999,42.3422840000001]}},{"properties":{"CITY":"CHICAGO","Matchaddr":"3350 W ROOSEVELT RD, CHICAGO, IL, 60624","ST":"IL","NO":9895.0,"X":-87.709620514123,"Y":41.866354222998,"Locname":"Street_Address","Street":"3350 W ROOSEVELT RD","Score":82,"id":"a62etk36s28c"},"type":"Feature","geometry":{"type":"Point","coordinates":[-87.709624928969,41.8663567983292]}},{"properties":{"CITY":"ORLANDO","Matchaddr":"3351 E COLONIAL DR, ORLANDO, FL, 32803","ST":"FL","NO":11403.0,"X":-81.342030172336,"Y":28.55335507673,"Locname":"Street_Address","Street":"3351 E COLONIAL DR","Score":82,"id":"a62etjqhw3pd"},"type":"Feature","geometry":{"type":"Point","coordinates":[-81.3420292598321,28.5533510562302]}},{"properties":{"CITY":"ROGERS","Matchaddr":"3351 PINNACLE HILLS PKWY, ROGERS, AR, 72758","ST":"AR","NO":10421.0,"X":-94.187255174514,"Y":36.305240621848,"Locname":"Street_Address","Street":"3351 PINNACLE HILLS PKWY","Score":82,"id":"a62etk090uz0"},"type":"Feature","geometry":{"type":"Point","coordinates":[-94.1872526483907,36.3052371521874]}},{"properties":{"CITY":"CHULA VISTA","Matchaddr":"337 H ST, CHULA VISTA, CA, 91910","ST":"CA","NO":6556.0,"X":-117.079017,"Y":32.634316,"Locname":"Address_Points","Street":"3037 H ST","Score":64,"id":"a62etk5a76i6"},"type":"Feature","geometry":{"type":"Point","coordinates":[-117.079017,32.6343160000001]}},{"properties":{"CITY":"LAUDERDALE","Matchaddr":"3399 N STHY 7, LAUDERDALE LAKES, FL, 33319","ST":"FL","NO":8329.0,"X":-80.203262740231,"Y":26.168394390328,"Locname":"Street_Address","Street":"3399 N STATE RD 7","Score":73,"id":"a62etjwn9ztx"},"type":"Feature","geometry":{"type":"Point","coordinates":[-80.203262740231,26.168394000628]}},{"properties":{"CITY":"BLOOMSBURG","Matchaddr":"34 E MAIN ST, BLOOMSBURG, PA, 17815","ST":"PA","NO":13905.0,"X":-76.455695002364,"Y":41.003447439834,"Locname":"Street_Address","Street":"34 E MAIN ST","Score":82,"id":"a62etjrkmxf1"},"type":"Feature","geometry":{"type":"Point","coordinates":[-76.455697911935,41.0034483179955]}},{"properties":{"CITY":"NEW YORK","Matchaddr":"340 MADISON AVE, NEW YORK, NY, 10017","ST":"NY","NO":11737.0,"X":-73.978852,"Y":40.753881,"Locname":"Address_Points","Street":"340 MADISON AVE","Score":79,"id":"a62etjw2lasx"},"type":"Feature","geometry":{"type":"Point","coordinates":[-73.9788519999999,40.753881]}},{"properties":{"CITY":"FARGO","Matchaddr":"3402 13TH AVE S, FARGO, ND, 58103","ST":"ND","NO":11060.0,"X":-96.836215546441,"Y":46.86154243984,"Locname":"Street_Address","Street":"3402 13TH AVE S","Score":82,"id":"a62etju20xin"},"type":"Feature","geometry":{"type":"Point","coordinates":[-96.8362146789142,46.8615420846528]}},{"properties":{"CITY":"DALLAS","Matchaddr":"3403 E ILLINOIS AVE, DALLAS, TX, 75216","ST":"TX","NO":10877.0,"X":-96.76677,"Y":32.715987,"Locname":"Address_Points","Street":"3403 W ILLINOIS AVE","Score":65,"id":"a62etjx894wy"},"type":"Feature","geometry":{"type":"Point","coordinates":[-96.7667699999999,32.715987]}},{"properties":{"CITY":"PLANO","Matchaddr":"3404 COIT RD, PLANO, TX, 75023","ST":"TX","NO":6666.0,"X":-96.769594,"Y":33.043468,"Locname":"Address_Points","Street":"340 COIT RD","Score":64,"id":"a62etk4tmn6q"},"type":"Feature","geometry":{"type":"Point","coordinates":[-96.7695939999999,33.0434680000001]}},{"properties":{"CITY":"MODESTO","Matchaddr":"3430 TULLY RD, MODESTO, CA, 95350","ST":"CA","NO":10853.0,"X":-121.011155,"Y":37.688366,"Locname":"Address_Points","Street":"3430 TULLY RD","Score":79,"id":"a62etk01dyxz"},"type":"Feature","geometry":{"type":"Point","coordinates":[-121.011155,37.6883660000001]}},{"properties":{"CITY":"DALLAS","Matchaddr":"3431 W CAMP WISDOM RD, DALLAS, TX, 75237","ST":"TX","NO":6372.0,"X":-96.876909,"Y":32.662972,"Locname":"Address_Points","Street":"3431 CAMP WISDOM RD","Score":65,"id":"a62etjtj9ym6"},"type":"Feature","geometry":{"type":"Point","coordinates":[-96.8769089999999,32.6629720000001]}},{"properties":{"CITY":"COON RAPIDS","Matchaddr":"3450 124TH AVE NW, COON RAPIDS, MN, 55433","ST":"MN","NO":2354.0,"X":-93.352547824973,"Y":45.196470395191,"Locname":"Street_Address","Street":"3450 124TH AVE NW","Score":82,"id":"a62etjxwdd4m"},"type":"Feature","geometry":{"type":"Point","coordinates":[-93.352546906896,45.1964743270647]}},{"properties":{"CITY":"GRANITE CITY","Matchaddr":"3457 NAMEOKI RD, GRANITE CITY, IL, 62040","ST":"IL","NO":10270.0,"X":-90.123127133848,"Y":38.725232847538,"Locname":"Street_Address","Street":"3457 NAMEOKI RD","Score":82,"id":"a62etk4xiyp7"},"type":"Feature","geometry":{"type":"Point","coordinates":[-90.1231264657811,38.725231794051]}},{"properties":{"CITY":"HARRISBURG","Matchaddr":"3462 PAXTON ST, HARRISBURG, PA, 17111","ST":"PA","NO":13543.0,"X":-76.828648,"Y":40.254318,"Locname":"Address_Points","Street":"3462 PAXTON ST","Score":79,"id":"a62etjvj7ilh"},"type":"Feature","geometry":{"type":"Point","coordinates":[-76.8286479999999,40.2543180000001]}},{"properties":{"CITY":"DANVILLE","Matchaddr":"3491 S DANVILLE BYP, DANVILLE, KY, 40422","ST":"KY","NO":11753.0,"X":-84.757745779029,"Y":37.620255113794,"Locname":"Street_Address","Street":"3491 S DANVILLE BYPASS","Score":82,"id":"a62etjxezyd4"},"type":"Feature","geometry":{"type":"Point","coordinates":[-84.7577442593164,37.6202528030907]}},{"properties":{"CITY":"VISALIA","Matchaddr":"3530 S MOONEY BLVD, VISALIA, CA, 93277","ST":"CA","NO":5532.0,"X":-119.313638828573,"Y":36.299134790795,"Locname":"Street_Address","Street":"3530 S MOONEY BLVD","Score":82,"id":"a62etjuk6wtw"},"type":"Feature","geometry":{"type":"Point","coordinates":[-119.313635655511,36.2991307556084]}},{"properties":{"CITY":"SAN DIEGO","Matchaddr":"3582 NATIONAL AVE, SAN DIEGO, CA, 92113","ST":"CA","NO":9583.0,"X":-117.117155504501,"Y":32.696024768196,"Locname":"Street_Address","Street":"3582 NATIONAL AVE","Score":82,"id":"a62etk55xitt"},"type":"Feature","geometry":{"type":"Point","coordinates":[-117.117158510809,32.6960240248789]}},{"properties":{"CITY":"MEMPHIS","Matchaddr":"3586 RIVERDALE RD, MEMPHIS, TN, 38115","ST":"TN","NO":11886.0,"X":-89.829842551335,"Y":35.049633214655,"Locname":"Street_Address","Street":"3586 RIVERDALE RD","Score":82,"id":"a62etjtk852e"},"type":"Feature","geometry":{"type":"Point","coordinates":[-89.8298395655858,35.0496307145396]}},{"properties":{"CITY":"SOUTH BEND","Matchaddr":"3600 PORTAGE RD, SOUTH BEND, IN, 46628","ST":"IN","NO":11504.0,"X":-86.287130601457,"Y":41.724157076533,"Locname":"Street_Address","Street":"3600 PORTAGE RD","Score":82,"id":"a62etjytyvkt"},"type":"Feature","geometry":{"type":"Point","coordinates":[-86.287131302344,41.7241559990563]}},{"properties":{"CITY":"MACON","Matchaddr":"3661 EISENHOWER PKWY, MACON, GA, 31206","ST":"GA","NO":11587.0,"X":-83.690368,"Y":32.81638,"Locname":"Address_Points","Street":"3661 EISENHOWER PKWY","Score":79,"id":"a62etjtpa1e3"},"type":"Feature","geometry":{"type":"Point","coordinates":[-83.6903679999999,32.81638]}},{"properties":{"CITY":"OGDEN","Matchaddr":"3685 HARRISON BLVD, OGDEN, UT, 84403","ST":"UT","NO":11823.0,"X":-111.948723396389,"Y":41.196138854619,"Locname":"Street_Address","Street":"3685 S HARRISON BLVD","Score":70,"id":"a62etjwbvc7k"},"type":"Feature","geometry":{"type":"Point","coordinates":[-111.948727828761,41.1961370559933]}},{"properties":{"CITY":"GRANDVILLE","Matchaddr":"3700 RIVERTOWN PKWY, GRANDVILLE, MI, 49418","ST":"MI","NO":2590.0,"X":-85.75294139138,"Y":42.882293915169,"Locname":"Street_Address","Street":"3700 RIVERTOWN PKWY","Score":82,"id":"a62etk5lsm8h"},"type":"Feature","geometry":{"type":"Point","coordinates":[-85.7529430101601,42.8822939151685]}},{"properties":{"CITY":"DALLAS","Matchaddr":"3715 GREENVILLE AVE, DALLAS, TX, 75206","ST":"TX","NO":6262.0,"X":-96.770407,"Y":32.832345,"Locname":"Address_Points","Street":"3715 GREENVILLE AVE","Score":79,"id":"a62etk1na394"},"type":"Feature","geometry":{"type":"Point","coordinates":[-96.7704069999999,32.8323450000001]}},{"properties":{"CITY":"INDIANAPOLIS","Matchaddr":"3778 N MERIDIAN ST, INDIANAPOLIS, IN, 46208","ST":"IN","NO":2489.0,"X":-86.157232,"Y":39.824563,"Locname":"Address_Points","Street":"3778 N MERIDIAN ST","Score":79,"id":"a62etk642uox"},"type":"Feature","geometry":{"type":"Point","coordinates":[-86.1572319999999,39.8245630000001]}},{"properties":{"CITY":"ST. CHARLES","Matchaddr":"3788 ELM ST, ST. CHARLES, MO, 63301","ST":"MO","NO":10912.0,"X":-90.51680842133,"Y":38.82192576483,"Locname":"Street_Address","Street":"3788 ELM ST","Score":82,"id":"a62etk1stv5e"},"type":"Feature","geometry":{"type":"Point","coordinates":[-90.5168046841072,38.8219268986414]}},{"properties":{"CITY":"GULF SHORES","Matchaddr":"3800 GULF SHORES PKWY, GULF SHORES, AL, 36542","ST":"AL","NO":11983.0,"X":-87.682945132032,"Y":30.308077502932,"Locname":"Street_Address","Street":"3800 GULF SHORE PKWY","Score":79,"id":"a62etjy88xq0"},"type":"Feature","geometry":{"type":"Point","coordinates":[-87.6829420443597,30.3080812201395]}},{"properties":{"CITY":"LAKELAND","Matchaddr":"3800 USHY 98, LAKELAND, FL, 33809","ST":"FL","NO":11397.0,"X":-81.973876280161,"Y":28.091023720323,"Locname":"Street_Address","Street":"3800 US HWY 98","Score":82,"id":"a62etjuwuhpa"},"type":"Feature","geometry":{"type":"Point","coordinates":[-81.9738749311777,28.0910275874076]}},{"properties":{"CITY":"INDIANAPOLIS","Matchaddr":"3801 S KEYSTONE AVE, INDIANAPOLIS CITY (BALANCE), IN, 46227","ST":"IN","NO":13444.0,"X":-86.120452576217,"Y":39.710939969586,"Locname":"Street_Address","Street":"3801 S KEYSTONE AVE","Score":69,"id":"a62etjy15ss7"},"type":"Feature","geometry":{"type":"Point","coordinates":[-86.1204509574335,39.7109426974856]}},{"properties":{"CITY":"BELLEVUE","Matchaddr":"3811 TWIN CREEK DR, BELLEVUE, NE, 68123","ST":"NE","NO":11527.0,"X":-95.97034537865,"Y":41.1408890957,"Locname":"Street_Address","Street":"3811 TWIN CREEK DR","Score":82,"id":"a62etjq9mjd6"},"type":"Feature","geometry":{"type":"Point","coordinates":[-95.9703474291042,41.1408917037335]}},{"properties":{"CITY":"SAN DIEGO","Matchaddr":"3830 PARK BLVD, SAN DIEGO, CA, 92103","ST":"CA","NO":10631.0,"X":-117.146709,"Y":32.74816,"Locname":"Address_Points","Street":"3830 PARK BLVD","Score":79,"id":"a62etjys19bm"},"type":"Feature","geometry":{"type":"Point","coordinates":[-117.146709,32.74816]}},{"properties":{"CITY":"INDIANAPOLIS","Matchaddr":"3855 E 96TH ST, INDIANAPOLIS, IN, 46240","ST":"IN","NO":2591.0,"X":-86.100406,"Y":39.925654,"Locname":"Address_Points","Street":"3855 E 96TH ST","Score":79,"id":"a62etk3xl9wa"},"type":"Feature","geometry":{"type":"Point","coordinates":[-86.1004059999999,39.9256540000001]}},{"properties":{"CITY":"PARIS","Matchaddr":"3855 NE LOOP 286, PARIS, TX, 75460","ST":"TX","NO":13395.0,"X":-95.510549829858,"Y":33.664926700759,"Locname":"Street_Address","Street":"3855 NE LOOP 286","Score":82,"id":"a62etjt6zeiw"},"type":"Feature","geometry":{"type":"Point","coordinates":[-95.510551055184,33.6649265995858]}},{"properties":{"CITY":"UPLAND","Matchaddr":"386 S MOUNTAIN AVE, UPLAND, CA, 91786","ST":"CA","NO":673.0,"X":-117.670035782707,"Y":34.089059402904,"Locname":"Street_Address","Street":"386 S MOUNTAIN AVE","Score":82,"id":"a62etjskqvqr"},"type":"Feature","geometry":{"type":"Point","coordinates":[-117.670034714762,34.089055861824]}},{"properties":{"CITY":"SPOKANE","Matchaddr":"3907 N MARKET ST, SPOKANE, WA, 99207","ST":"WA","NO":10477.0,"X":-117.365047158983,"Y":47.693499636235,"Locname":"Street_Address","Street":"3907 N MARKET ST","Score":82,"id":"a62etk3qzrd1"},"type":"Feature","geometry":{"type":"Point","coordinates":[-117.365047634966,47.693495900738]}},{"properties":{"CITY":"SYRACUSE","Matchaddr":"3911 BREWERTON RD, SYRACUSE, NY, 13212","ST":"NY","NO":10752.0,"X":-76.142056975575,"Y":43.122468598913,"Locname":"Street_Address","Street":"3911 BREWERTON RD N","Score":69,"id":"a62etjy0js5r"},"type":"Feature","geometry":{"type":"Point","coordinates":[-76.1420593542166,43.1224668563134]}},{"properties":{"CITY":"NEW YORK","Matchaddr":"400 MADISON AVE, NEW YORK, NY, 10017","ST":"NY","NO":7515.0,"X":-73.976952,"Y":40.756363,"Locname":"Address_Points","Street":"400 MADISON AVE","Score":79,"id":"a62etk6edl9h"},"type":"Feature","geometry":{"type":"Point","coordinates":[-73.9769519999999,40.7563630000001]}},{"properties":{"CITY":"PLYMOUTH","Matchaddr":"4000 ANNAPOLIS LN N, PLYMOUTH, MN, 55447","ST":"MN","NO":2451.0,"X":-93.454857514634,"Y":45.028220969697,"Locname":"Street_Address","Street":"4000 ANNAPOLIS LN","Score":69,"id":"a62etjw7ut6f"},"type":"Feature","geometry":{"type":"Point","coordinates":[-93.4548537809491,45.028220168603]}},{"properties":{"CITY":"SOUTH HOLLAND","Matchaddr":"401 E 162ND ST, SOUTH HOLLAND, IL, 60473","ST":"IL","NO":2596.0,"X":-87.607202761832,"Y":41.600787003077,"Locname":"Street_Address","Street":"401 E 162nd ST","Score":82,"id":"a62etjz1fzfe"},"type":"Feature","geometry":{"type":"Point","coordinates":[-87.607201143052,41.6007870030769]}},{"properties":{"CITY":"PEARL","Matchaddr":"403 RIVERWIND DR, PEARL, MS, 39208","ST":"MS","NO":10386.0,"X":-90.139170767834,"Y":32.267377303031,"Locname":"Street_Address","Street":"403 RIVERWIND RD","Score":69,"id":"a62etjsc351h"},"type":"Feature","geometry":{"type":"Point","coordinates":[-90.1391703707838,32.2673801660536]}},{"properties":{"CITY":"ORANGE PARK","Matchaddr":"410 BLANDING BLVD, ORANGE PARK, FL, 32073","ST":"FL","NO":10680.0,"X":-81.747601894968,"Y":30.16367276517,"Locname":"Street_Address","Street":"410 BLANDING BLVD","Score":82,"id":"a62etjszq43u"},"type":"Feature","geometry":{"type":"Point","coordinates":[-81.7476055086058,30.1636770818947]}},{"properties":{"CITY":"KEARNEY","Matchaddr":"4116 2ND AVE, KEARNEY, NE, 68847","ST":"NE","NO":11270.0,"X":-99.084008529236,"Y":40.715578864326,"Locname":"Street_Address","Street":"4116 2ND AVE","Score":82,"id":"a62etjrv8imc"},"type":"Feature","geometry":{"type":"Point","coordinates":[-99.0840071386075,40.7155753364166]}},{"properties":{"CITY":"FORT MYERS","Matchaddr":"4125 CLEVELAND AVE, FORT MYERS, FL, 33901","ST":"FL","NO":11393.0,"X":-81.871667266543,"Y":26.602303986312,"Locname":"Street_Address","Street":"4125 CLEVELAND AVE","Score":82,"id":"a62etjw2wzq5"},"type":"Feature","geometry":{"type":"Point","coordinates":[-81.8716669825478,26.602307886545]}},{"properties":{"CITY":"EMERYVILLE","Matchaddr":"4125 SAN PABLO AVE, EMERYVILLE, CA, 94608","ST":"CA","NO":13487.0,"X":-122.280429877758,"Y":37.832385632796,"Locname":"Street_Address","Street":"4125 SAN PABLO","Score":69,"id":"a62etjuxadkj"},"type":"Feature","geometry":{"type":"Point","coordinates":[-122.280427084409,37.832384883362]}},{"properties":{"CITY":"LAS VEGAS","Matchaddr":"4180 W DESERT INN RD, LAS VEGAS, NV, 89102","ST":"NV","NO":6633.0,"X":-115.196041,"Y":36.130657,"Locname":"Address_Points","Street":"4810 W DESERT INN RD 3","Score":64,"id":"a62etjujot60"},"type":"Feature","geometry":{"type":"Point","coordinates":[-115.196041,36.130657]}},{"properties":{"CITY":"SOUTHGATE","Matchaddr":"4184 TWEEDY BLVD, SOUTH GATE, CA, 90280","ST":"CA","NO":2993.0,"X":-118.198021157707,"Y":33.943381458884,"Locname":"Street_Address","Street":"4184 TWEEDY BLVD","Score":80,"id":"a62etjsqtwhm"},"type":"Feature","geometry":{"type":"Point","coordinates":[-118.198017684944,33.9433836795179]}},{"properties":{"CITY":"STUART","Matchaddr":"4209 SE FEDERAL HWY, STUART, FL, 34997","ST":"FL","NO":10554.0,"X":-80.219998223874,"Y":27.154748638771,"Locname":"Street_Address","Street":"4209 SE FEDERAL HWY","Score":82,"id":"a62etk0fdnql"},"type":"Feature","geometry":{"type":"Point","coordinates":[-80.2199991231963,27.1547524159237]}},{"properties":{"CITY":"PEORIA","Matchaddr":"4221 N STERLING AVE, PEORIA, IL, 61615","ST":"IL","NO":13375.0,"X":-89.631726788419,"Y":40.73963210623,"Locname":"Street_Address","Street":"4221 N STERLING","Score":69,"id":"a62etjs15zym"},"type":"Feature","geometry":{"type":"Point","coordinates":[-89.6317279157513,40.7396322007004]}},{"properties":{"CITY":"STOUGHTON","Matchaddr":"425 WASHINGTON ST, STOUGHTON, MA, 02072","ST":"MA","NO":2766.0,"X":-71.101711291124,"Y":42.133744168368,"Locname":"Street_Address","Street":"425 WASHINGTON ST","Score":82,"id":"a62etk4fr0fp"},"type":"Feature","geometry":{"type":"Point","coordinates":[-71.1017101155815,42.1337432240807]}},{"properties":{"CITY":"CEDARHURST","Matchaddr":"426 CENTRAL AVE, CEDARHURST, NY, 11516","ST":"NY","NO":843.0,"X":-73.726231720976,"Y":40.619916250804,"Locname":"Street_Address","Street":"426 CENTRAL AVE","Score":82,"id":"a62etjyhvbrq"},"type":"Feature","geometry":{"type":"Point","coordinates":[-73.7262285733486,40.6199144521599]}},{"properties":{"CITY":"GENESEO","Matchaddr":"4262 LAKEVILLE RD, GENESEO, NY, 14454","ST":"NY","NO":9484.0,"X":-77.787455678754,"Y":42.797590027982,"Locname":"Street_Address","Street":"4262 LAKEVILLE RD","Score":82,"id":"a62etk50o3be"},"type":"Feature","geometry":{"type":"Point","coordinates":[-77.7874589390238,42.7975867732288]}},{"properties":{"CITY":"MCALESTER","Matchaddr":"427 S GEORGE NIGH EXPY, MCALESTER, OK, 74501","ST":"OK","NO":11542.0,"X":-95.744729459065,"Y":34.921105856295,"Locname":"Street_Address","Street":"427 S GEORGE NIGH EXPY","Score":82,"id":"a62etjz75o9n"},"type":"Feature","geometry":{"type":"Point","coordinates":[-95.7447255183934,34.9211086033323]}},{"properties":{"CITY":"WACO","Matchaddr":"4300 W WACO DR, WACO, TX, 76710","ST":"TX","NO":13332.0,"X":-97.170788194424,"Y":31.528088265054,"Locname":"Street_Address","Street":"4300 W WACO DR","Score":82,"id":"a62etjxumpr4"},"type":"Feature","geometry":{"type":"Point","coordinates":[-97.1707894534746,31.5280924918675]}},{"properties":{"CITY":"APPLETON","Matchaddr":"4301 W WISCONSIN AVE, APPLETON, WI, 54913","ST":"WI","NO":13844.0,"X":-88.470980398375,"Y":44.272993822939,"Locname":"Street_Address","Street":"4301 W WISCONSIN AVE","Score":82,"id":"a62etjxjv3vy"},"type":"Feature","geometry":{"type":"Point","coordinates":[-88.4709819657541,44.2729965080578]}},{"properties":{"CITY":"LOS ANGELES","Matchaddr":"4317 CRENSHAW BLVD, LOS ANGELES, CA, 90008","ST":"CA","NO":11097.0,"X":-118.333578,"Y":34.004714,"Locname":"Address_Points","Street":"4371 CRENSHAW BLVD","Score":64,"id":"a62etk17g0ms"},"type":"Feature","geometry":{"type":"Point","coordinates":[-118.333578,34.004714]}},{"properties":{"CITY":"WILLINGBORO","Matchaddr":"4364 RT 130, WILLINGBORO, NJ, 08046","ST":"NJ","NO":10327.0,"X":-74.89630948601,"Y":40.051210180492,"Locname":"Street_Address","Street":"4364 ROUTE 130 N","Score":69,"id":"a62etjwynd71"},"type":"Feature","geometry":{"type":"Point","coordinates":[-74.8963094860099,40.0512101804915]}},{"properties":{"CITY":"GRANDVILLE","Matchaddr":"4375 CANAL AVE SW, GRANDVILLE, MI, 49418","ST":"MI","NO":11758.0,"X":-85.771649519909,"Y":42.88489453864,"Locname":"Street_Address","Street":"4375 CANAL SW","Score":69,"id":"a62etk1o2bdh"},"type":"Feature","geometry":{"type":"Point","coordinates":[-85.7716489083696,42.8848929558332]}},{"properties":{"CITY":"ROCHESTER","Matchaddr":"439 S MAIN ST, ROCHESTER, MI, 48307","ST":"MI","NO":2251.0,"X":-83.134282,"Y":42.681861,"Locname":"Address_Points","Street":"439 MAIN ST","Score":65,"id":"a62etjqu59p4"},"type":"Feature","geometry":{"type":"Point","coordinates":[-83.1342819999999,42.6818610000001]}},{"properties":{"CITY":"MOBILE","Matchaddr":"4401 OLD SHELL RD, MOBILE, AL, 36608","ST":"AL","NO":11322.0,"X":-88.143128418579,"Y":30.697398939871,"Locname":"Street_Address","Street":"4401 OLD SHELL RD","Score":82,"id":"a62etju0b7ah"},"type":"Feature","geometry":{"type":"Point","coordinates":[-88.1431251267525,30.6973977266234]}},{"properties":{"CITY":"CEDAR RAPIDS","Matchaddr":"4444 1ST AVE NE, CEDAR RAPIDS, IA, 52402","ST":"IA","NO":9644.0,"X":-91.627087756532,"Y":42.023082697573,"Locname":"Street_Address","Street":"4444 FIRST AVE NE","Score":82,"id":"a62etjqn7b54"},"type":"Feature","geometry":{"type":"Point","coordinates":[-91.6270896750404,42.0230816483753]}},{"properties":{"CITY":"WEST NYACK","Matchaddr":"4451 PALISADES CENTER DR, WEST NYACK, NY, 10994","ST":"NY","NO":10281.0,"X":-73.960671135345,"Y":41.098965129093,"Locname":"Street_Address","Street":"4451 PALISADES CTR DR","Score":82,"id":"a62etk04p9ew"},"type":"Feature","geometry":{"type":"Point","coordinates":[-73.9606728331668,41.0989653107275]}},{"properties":{"CITY":"MONTCLAIR","Matchaddr":"4467 MISSION BLVD, MONTCLAIR, CA, 91763","ST":"CA","NO":10888.0,"X":-117.707617301271,"Y":34.055872257412,"Locname":"Street_Address","Street":"4467 E MISSON BLVD","Score":65,"id":"a62etk5opvxk"},"type":"Feature","geometry":{"type":"Point","coordinates":[-117.707617382367,34.0558708789428]}},{"properties":{"CITY":"CHATTANOOGA","Matchaddr":"4503 HWY 58, CHATTANOOGA, TN, 37416","ST":"TN","NO":13985.0,"X":-85.198731,"Y":35.085432,"Locname":"Address_Points","Street":"4503 HWY 58","Score":79,"id":"a62etjqnbdrp"},"type":"Feature","geometry":{"type":"Point","coordinates":[-85.1987309999999,35.0854320000001]}},{"properties":{"CITY":"ROSWELL","Matchaddr":"4506 N MAIN ST, ROSWELL, NM, 88201","ST":"NM","NO":11733.0,"X":-104.523345182084,"Y":33.451704810829,"Locname":"Street_Address","Street":"4506 N MAIN ST","Score":82,"id":"a62etk3flgd2"},"type":"Feature","geometry":{"type":"Point","coordinates":[-104.523349588762,33.451706339659]}},{"properties":{"CITY":"ALTAMONTE SPRINGS","Matchaddr":"451 E ALTAMONTE DR, ALTAMONTE SPRINGS, FL, 32701","ST":"FL","NO":11411.0,"X":-81.377211,"Y":28.664343,"Locname":"Address_Points","Street":"451 E ALTAMONTE DR","Score":79,"id":"a62etjzr6v6i"},"type":"Feature","geometry":{"type":"Point","coordinates":[-81.3772109999999,28.6643430000001]}},{"properties":{"CITY":"ALTAMONTE SPRINGS","Matchaddr":"451 E ALTAMONTE DR, ALTAMONTE SPRINGS, FL, 32701","ST":"FL","NO":11386.0,"X":-81.377211,"Y":28.664343,"Locname":"Address_Points","Street":"451 E ALTAMONTE DR","Score":79,"id":"a62etk3utyqf"},"type":"Feature","geometry":{"type":"Point","coordinates":[-81.3772109999999,28.6643430000001]}},{"properties":{"CITY":"LUDINGTON","Matchaddr":"4551 W USHY 10, LUDINGTON, MI, 49431","ST":"MI","NO":13691.0,"X":-86.393486440098,"Y":43.955613871699,"Locname":"Street_Address","Street":"4551 W US HWY 10","Score":82,"id":"a62etjwwf5hm"},"type":"Feature","geometry":{"type":"Point","coordinates":[-86.393485125529,43.9556167706975]}},{"properties":{"CITY":"O'FALLON","Matchaddr":"4581 HWY K, O'FALLON, MO, 63368","ST":"MO","NO":9990.0,"X":-90.701345921104,"Y":38.719365871092,"Locname":"Street_Address","Street":"4581 HWY K","Score":82,"id":"a62etjwf80wv"},"type":"Feature","geometry":{"type":"Point","coordinates":[-90.7013455645196,38.71936821442]}},{"properties":{"CITY":"SMYRNA","Matchaddr":"4624 CAMP HIGHLAND RD SE, SMYRNA, GA, 30082","ST":"GA","NO":11177.0,"X":-84.50594785074,"Y":33.841006208685,"Locname":"Street_Address","Street":"4624 CAMP HIGHLAND RD","Score":69,"id":"a62etjqrqfzg"},"type":"Feature","geometry":{"type":"Point","coordinates":[-84.505952077553,33.8410048597024]}},{"properties":{"CITY":"LAS VEGAS","Matchaddr":"4626 S MARYLAND PKWY, LAS VEGAS, NV, 89119","ST":"NV","NO":5443.0,"X":-115.136842,"Y":36.105589,"Locname":"Address_Points","Street":"4626 S MARYLAND PKWY","Score":79,"id":"a62etk3q139a"},"type":"Feature","geometry":{"type":"Point","coordinates":[-115.136842,36.1055890000001]}},{"properties":{"CITY":"COLLIERVILLE","Matchaddr":"4630 MERCHANTS PARK CIR, COLLIERVILLE, TN, 38017","ST":"TN","NO":9442.0,"X":-89.719764643354,"Y":35.020688851992,"Locname":"Street_Address","Street":"4630 MERCHANT PARK CIR","Score":79,"id":"a62etk5qf2nl"},"type":"Feature","geometry":{"type":"Point","coordinates":[-89.7197625491995,35.0206905316367]}},{"properties":{"CITY":"ARLINGTON","Matchaddr":"4645 MATLOCK RD, ARLINGTON, TX, 76018","ST":"TX","NO":9540.0,"X":-97.114401,"Y":32.670757,"Locname":"Address_Points","Street":"4645 MATLOCK","Score":63,"id":"a62etjz2rnen"},"type":"Feature","geometry":{"type":"Point","coordinates":[-97.1144009999999,32.670757]}},{"properties":{"CITY":"WESTBURY","Matchaddr":"467 OLD COUNTRY RD, WESTBURY, NY, 11590","ST":"NY","NO":7275.0,"X":-73.596868,"Y":40.746838,"Locname":"Address_Points","Street":"467 OLD COUNTRY RD","Score":79,"id":"a62etjx5yc8g"},"type":"Feature","geometry":{"type":"Point","coordinates":[-73.5968679999999,40.7468380000001]}},{"properties":{"CITY":"BURLINGTON","Matchaddr":"47 MIDDLESEX TPKE, BURLINGTON, MA, 01803","ST":"MA","NO":7774.0,"X":-71.211476,"Y":42.472182,"Locname":"Address_Points","Street":"47 MIDDLESEX TURNPIKE","Score":79,"id":"a62etjw0vco3"},"type":"Feature","geometry":{"type":"Point","coordinates":[-71.2114759999999,42.4721820000001]}},{"properties":{"CITY":"MONROE","Matchaddr":"4700 MILLHAVEN RD, MONROE, LA, 71203","ST":"LA","NO":10597.0,"X":-92.056090810553,"Y":32.499969202469,"Locname":"Street_Address","Street":"4700 MILHAVEN RD","Score":78,"id":"a62etjxcc6qd"},"type":"Feature","geometry":{"type":"Point","coordinates":[-92.0560932626773,32.4999718224914]}},{"properties":{"CITY":"SEATTLE","Matchaddr":"4704 42ND AVE SW, SEATTLE, WA, 98116","ST":"WA","NO":14350.0,"X":-122.385471586487,"Y":47.56094960793,"Locname":"Street_Address","Street":"4704 42ND AVE SW","Score":82,"id":"a62etk1pdzp6"},"type":"Feature","geometry":{"type":"Point","coordinates":[-122.385467897431,47.5609538200597]}},{"properties":{"CITY":"DEL CITY","Matchaddr":"4755 SE 29TH ST, DEL CITY, OK, 73115","ST":"OK","NO":11285.0,"X":-97.430613764809,"Y":35.435277987144,"Locname":"Street_Address","Street":"4755 SE 29TH ST","Score":82,"id":"a62etjpxsxvy"},"type":"Feature","geometry":{"type":"Point","coordinates":[-97.4306125809597,35.435277987144]}},{"properties":{"CITY":"EAU CLAIRE","Matchaddr":"4800 GOLF RD, EAU CLAIRE, WI, 54701","ST":"WI","NO":10179.0,"X":-91.436625921758,"Y":44.776482293495,"Locname":"Street_Address","Street":"4800 GOLF RD","Score":82,"id":"a62etjyvqzz1"},"type":"Feature","geometry":{"type":"Point","coordinates":[-91.4366222624549,44.7764819461614]}},{"properties":{"CITY":"FORT WORTH","Matchaddr":"4800 S HULEN ST, FORT WORTH, TX, 76132","ST":"TX","NO":10086.0,"X":-97.399685,"Y":32.679303,"Locname":"Address_Points","Street":"4800 S HULEN ST","Score":79,"id":"a62etjqbi7va"},"type":"Feature","geometry":{"type":"Point","coordinates":[-97.3996849999999,32.6793030000001]}},{"properties":{"CITY":"WINSTON SALEM","Matchaddr":"4912 COUNTRY CLUB RD, WINSTON SALEM, NC, 27104","ST":"NC","NO":8716.0,"X":-80.345597,"Y":36.083785,"Locname":"Address_Points","Street":"4912 COUNTRY CLUB RD","Score":79,"id":"a62etjxvnq25"},"type":"Feature","geometry":{"type":"Point","coordinates":[-80.3455969999999,36.083785]}},{"properties":{"CITY":"SHARON","Matchaddr":"5 BOX SQ, SHARON, MA, 02067","ST":"MA","NO":7523.0,"X":-71.178567479312,"Y":42.123528384935,"Locname":"Street_Address","Street":"5 POST OFFICE SQUARE","Score":82,"id":"a62etjsnm1hx"},"type":"Feature","geometry":{"type":"Point","coordinates":[-71.1785661762055,42.1235269258278]}},{"properties":{"CITY":"PITTSBURGH","Matchaddr":"5 E STATION SQUARE DR, PITTSBURGH, PA, 15219","ST":"PA","NO":7723.0,"X":-80.00157628533,"Y":40.43114675821,"Locname":"Street_Address","Street":"5 STATION SQUARE DR","Score":70,"id":"a62etjstgcjv"},"type":"Feature","geometry":{"type":"Point","coordinates":[-80.0015717887198,40.4311467582099]}},{"properties":{"CITY":"BURNSVILLE","Matchaddr":"50 E TRAVELERS TRL, BURNSVILLE, MN, 55337","ST":"MN","NO":9653.0,"X":-93.277132,"Y":44.77586,"Locname":"Address_Points","Street":"250 E TRAVELER'S TRAIL","Score":59,"id":"a62etjzfrn3e"},"type":"Feature","geometry":{"type":"Point","coordinates":[-93.2771319999999,44.7758600000001]}},{"properties":{"CITY":"RENO","Matchaddr":"500 N SIERRA ST, RENO, NV, 89503","ST":"NV","NO":9885.0,"X":-119.815784,"Y":39.531543,"Locname":"Address_Points","Street":"50 N SIERRA ST","Score":59,"id":"a62etjpwoei8"},"type":"Feature","geometry":{"type":"Point","coordinates":[-119.815784,39.5315430000001]}},{"properties":{"CITY":"PLYMOUTH MEETING","Matchaddr":"500 W GERMANTOWN PIKE, PLYMOUTH MEETING, PA, 19462","ST":"PA","NO":9372.0,"X":-75.283842,"Y":40.116655,"Locname":"Address_Points","Street":"500 W GERMANTOWN PIKE","Score":79,"id":"a62etjxj9lli"},"type":"Feature","geometry":{"type":"Point","coordinates":[-75.2838419999999,40.116655]}},{"properties":{"CITY":"EVANSVILLE","Matchaddr":"5000 W LLOYD EXPY, EVANSVILLE, IN, 47712","ST":"IN","NO":9760.0,"X":-87.635989,"Y":37.976081,"Locname":"Address_Points","Street":"5000 W LLOYD EXPRESSWAY","Score":79,"id":"a62etjz51gjl"},"type":"Feature","geometry":{"type":"Point","coordinates":[-87.6359889999999,37.9760810000001]}},{"properties":{"CITY":"SACRAMENTO","Matchaddr":"5040 AUBURN BLVD, SACRAMENTO, CA, 95841","ST":"CA","NO":11834.0,"X":-121.347086,"Y":38.660149,"Locname":"Address_Points","Street":"5040 AUBURN BLVD","Score":79,"id":"a62etk117lcq"},"type":"Feature","geometry":{"type":"Point","coordinates":[-121.347086,38.660149]}},{"properties":{"CITY":"INDIANAPOLIS","Matchaddr":"5060 W 38TH ST, INDIANAPOLIS, IN, 46254","ST":"IN","NO":10508.0,"X":-86.245861,"Y":39.824417,"Locname":"Address_Points","Street":"5060 W 38TH ST","Score":79,"id":"a62etjz32adb"},"type":"Feature","geometry":{"type":"Point","coordinates":[-86.2458609999999,39.824417]}},{"properties":{"CITY":"PALM BEACH","Matchaddr":"5100 PGA BLVD, PALM BEACH GARDENS, FL, 33418","ST":"FL","NO":11840.0,"X":-80.114627269737,"Y":26.838420367567,"Locname":"Street_Address","Street":"5100 PGA BLVD","Score":72,"id":"a62etk67hu03"},"type":"Feature","geometry":{"type":"Point","coordinates":[-80.1146255610232,26.8384158921174]}},{"properties":{"CITY":"SAN DIEGO","Matchaddr":"5131 COLLEGE AVE, SAN DIEGO, CA, 92115","ST":"CA","NO":6592.0,"X":-117.069601,"Y":32.771409,"Locname":"Address_Points","Street":"5131 COLLEGE AVE","Score":79,"id":"a62etk58u896"},"type":"Feature","geometry":{"type":"Point","coordinates":[-117.069601,32.7714090000001]}},{"properties":{"CITY":"LAS VEGAS","Matchaddr":"5181 W CHARLESTON BLVD, LAS VEGAS, NV, 89146","ST":"NV","NO":10462.0,"X":-115.210072674288,"Y":36.159076214312,"Locname":"Street_Address","Street":"5181 W CHARLESTON BLVD","Score":82,"id":"a62etjtcq637"},"type":"Feature","geometry":{"type":"Point","coordinates":[-115.210074201916,36.1590793359855]}},{"properties":{"CITY":"SOUTHOLD","Matchaddr":"53245 RT 25, SOUTHOLD, NY, 11971","ST":"NY","NO":11976.0,"X":-72.430641,"Y":41.063767,"Locname":"Address_Points","Street":"53345 ROUTE 25","Score":56,"id":"a62etjvizk14"},"type":"Feature","geometry":{"type":"Point","coordinates":[-72.4306409999999,41.063767]}},{"properties":{"CITY":"JOHNSTON","Matchaddr":"5340 MERLE HAY RD, JOHNSTON, IA, 50131","ST":"IA","NO":10447.0,"X":-93.69771294885,"Y":41.657517294929,"Locname":"Street_Address","Street":"5340 MERLE HAY RD","Score":82,"id":"a62etjwjfly2"},"type":"Feature","geometry":{"type":"Point","coordinates":[-93.6977156949616,41.6575162366851]}},{"properties":{"CITY":"DETROIT","Matchaddr":"535 GRISWOLD ST, DETROIT, MI, 48226","ST":"MI","NO":2319.0,"X":-83.046976,"Y":42.329414,"Locname":"Address_Points","Street":"535 GRISWOLD ST","Score":79,"id":"a62etk3bwags"},"type":"Feature","geometry":{"type":"Point","coordinates":[-83.0469759999999,42.329414]}},{"properties":{"CITY":"LEXINGTON","Matchaddr":"535 S UPPER ST, LEXINGTON-FAYETTE, KY, 40508","ST":"KY","NO":10910.0,"X":-84.504329084924,"Y":38.042739965563,"Locname":"Street_Address","Street":"535 S UPPER ST","Score":71,"id":"a62etk1r8mim"},"type":"Feature","geometry":{"type":"Point","coordinates":[-84.5043332979003,38.0427363060152]}},{"properties":{"CITY":"ARLINGTON","Matchaddr":"5435 S COOPER ST, ARLINGTON, TX, 76017","ST":"TX","NO":6299.0,"X":-97.134502536546,"Y":32.658729766078,"Locname":"Street_Address","Street":"5435 S COOPER","Score":69,"id":"a62etjtuccyd"},"type":"Feature","geometry":{"type":"Point","coordinates":[-97.1345018095924,32.6587291403238]}},{"properties":{"CITY":"FLINT","Matchaddr":"5445 CORUNNA RD, FLINT, MI, 48532","ST":"MI","NO":11918.0,"X":-83.789424,"Y":43.001399,"Locname":"Address_Points","Street":"4455 CORUNNA RD","Score":64,"id":"a62etk4bxjg5"},"type":"Feature","geometry":{"type":"Point","coordinates":[-83.7894239999999,43.001399]}},{"properties":{"CITY":"NEW YORK","Matchaddr":"55 5TH AVE, NEW YORK, NY, 10011","ST":"NY","NO":11692.0,"X":-73.994078,"Y":40.734722,"Locname":"Address_Points","Street":"565 FIFTH AVE","Score":59,"id":"a62etk444mpn"},"type":"Feature","geometry":{"type":"Point","coordinates":[-73.9940779999999,40.734722]}},{"properties":{"CITY":"DALLAS","Matchaddr":"5500 GREENVILLE AVE, DALLAS, TX, 75206","ST":"TX","NO":6370.0,"X":-96.769374097934,"Y":32.853103567533,"Locname":"Street_Address","Street":"5500 GREENVILLE AVE","Score":82,"id":"a62etjyhxmw3"},"type":"Feature","geometry":{"type":"Point","coordinates":[-96.7693770656966,32.8530996105164]}},{"properties":{"CITY":"BROOKLYN CENTER","Matchaddr":"5512 BROOKLYN BLVD, BROOKLYN CENTER, MN, 55429","ST":"MN","NO":9605.0,"X":-93.323568108196,"Y":45.055000117551,"Locname":"Street_Address","Street":"5512 BROOKLYN BLVD","Score":82,"id":"a62etk2x5okc"},"type":"Feature","geometry":{"type":"Point","coordinates":[-93.3235707511119,45.0550019786356]}},{"properties":{"CITY":"BATON ROUGE","Matchaddr":"5565 ESSEN LN, BATON ROUGE, LA, 70809","ST":"LA","NO":11628.0,"X":-91.10744,"Y":30.397657,"Locname":"Address_Points","Street":"5565 ESSEN LANE BATON","Score":79,"id":"a62etk17l6ht"},"type":"Feature","geometry":{"type":"Point","coordinates":[-91.1074399999999,30.397657]}},{"properties":{"CITY":"LAS VEGAS","Matchaddr":"5590 PAINTED MIRAGE RD, LAS VEGAS, NV, 89149","ST":"NV","NO":10970.0,"X":-115.256603733849,"Y":36.262760382252,"Locname":"Street_Address","Street":"5590 PAINTED MIRAGE RD","Score":82,"id":"a62etjw3p13z"},"type":"Feature","geometry":{"type":"Point","coordinates":[-115.256605123712,36.2627621727435]}},{"properties":{"CITY":"ONTARIO","Matchaddr":"562 W HOLT BLVD, ONTARIO, CA, 91762","ST":"CA","NO":10141.0,"X":-117.658015997673,"Y":34.063407197548,"Locname":"Street_Address","Street":"562 W HOLT BLVD","Score":82,"id":"a62etjwli95w"},"type":"Feature","geometry":{"type":"Point","coordinates":[-117.658019772451,34.0634071975483]}},{"properties":{"CITY":"DALLAS","Matchaddr":"5631 LBJ FWY, DALLAS, TX, 75240","ST":"TX","NO":10759.0,"X":-96.81160257321,"Y":32.926340666379,"Locname":"Street_Address","Street":"5631 LBJ FWY","Score":82,"id":"a62etk46lou4"},"type":"Feature","geometry":{"type":"Point","coordinates":[-96.8116002349722,32.9263403965826]}},{"properties":{"CITY":"BATON ROUGE","Matchaddr":"5720 CORPORATE BLVD, BATON ROUGE, LA, 70808","ST":"LA","NO":6326.0,"X":-91.131774476631,"Y":30.424916103818,"Locname":"Street_Address","Street":"5720 CORPORATE BLVD BATON","Score":82,"id":"a62etjzoxe4h"},"type":"Feature","geometry":{"type":"Point","coordinates":[-91.1317700809628,30.4249121449658]}},{"properties":{"CITY":"ATLANTA","Matchaddr":"5841 ROSWELL RD NE, ATLANTA, GA, 30328","ST":"GA","NO":8452.0,"X":-84.378774,"Y":33.914744,"Locname":"Address_Points","Street":"5841 ROSWELL RD NE","Score":79,"id":"a62etjs4sw8b"},"type":"Feature","geometry":{"type":"Point","coordinates":[-84.3787739999999,33.914744]}},{"properties":{"CITY":"LOVELAND","Matchaddr":"5897 SKY POND DR, LOVELAND, CO, 80538","ST":"CO","NO":10150.0,"X":-104.988656449537,"Y":40.41143904698,"Locname":"Street_Address","Street":"5897 SKY POND DR","Score":82,"id":"a62etjsk170r"},"type":"Feature","geometry":{"type":"Point","coordinates":[-104.988658806722,40.4114426125479]}},{"properties":{"CITY":"HUNTSVILLE","Matchaddr":"5901 UNIVERSITY DR NW, HUNTSVILLE, AL, 35806","ST":"AL","NO":11427.0,"X":-86.663879783469,"Y":34.74024595002,"Locname":"Street_Address","Street":"5901 UNIVERSITY DR","Score":69,"id":"a62etjrr2ysw"},"type":"Feature","geometry":{"type":"Point","coordinates":[-86.6638752868583,34.7402459500198]}},{"properties":{"CITY":"MUSKOGEE","Matchaddr":"591 W SHAWNEE ST, MUSKOGEE, OK, 74401","ST":"OK","NO":13541.0,"X":-95.365914818404,"Y":35.769537998994,"Locname":"Street_Address","Street":"591 W SHAWNEE","Score":69,"id":"a62etjs2hzko"},"type":"Feature","geometry":{"type":"Point","coordinates":[-95.3659130932116,35.7695379989942]}},{"properties":{"CITY":"BALTIMORE","Matchaddr":"5911 YORK RD, BALTIMORE, MD, 21212","ST":"MD","NO":10600.0,"X":-76.608416,"Y":39.363833,"Locname":"Address_Points","Street":"5911 YORK RD","Score":79,"id":"a62etk03vmqr"},"type":"Feature","geometry":{"type":"Point","coordinates":[-76.6084159999999,39.3638330000001]}},{"properties":{"CITY":"SPEEDWAY","Matchaddr":"5945 CRAWFORDSVILLE RD, SPEEDWAY, IN, 46224","ST":"IN","NO":2704.0,"X":-86.264149753984,"Y":39.798078663467,"Locname":"Street_Address","Street":"5945 CRAWFORDSVILLE RD","Score":82,"id":"a62etjrq13b4"},"type":"Feature","geometry":{"type":"Point","coordinates":[-86.2641536244954,39.7980780089044]}},{"properties":{"CITY":"OAK PARK","Matchaddr":"5980 NEAL AVE N, OAK PARK HEIGHTS, MN, 55082","ST":"MN","NO":13347.0,"X":-92.845223305826,"Y":45.034876717692,"Locname":"Street_Address","Street":"5980 NEAL AVE N","Score":70,"id":"a62etjyu1ig4"},"type":"Feature","geometry":{"type":"Point","coordinates":[-92.8452213637272,45.0348751516198]}},{"properties":{"CITY":"BLAINE","Matchaddr":"599 NORTHTOWN DR NE, BLAINE, MN, 55434","ST":"MN","NO":9271.0,"X":-93.257620403825,"Y":45.127422850216,"Locname":"Street_Address","Street":"599 NORTHTOWN DR NE","Score":82,"id":"a62etjr23mla"},"type":"Feature","geometry":{"type":"Point","coordinates":[-93.2576234667033,45.1274243816551]}},{"properties":{"CITY":"COLUMBUS","Matchaddr":"601 N HIGH ST, COLUMBUS, OH, 43215","ST":"OH","NO":11856.0,"X":-83.003251,"Y":39.974786,"Locname":"Address_Points","Street":"601 N HIGH ST","Score":79,"id":"a62etk3vyu4p"},"type":"Feature","geometry":{"type":"Point","coordinates":[-83.0032509999999,39.9747860000001]}},{"properties":{"CITY":"HAZELWOOD","Matchaddr":"6045 HOWDERSHELL RD, HAZELWOOD, MO, 63042","ST":"MO","NO":9957.0,"X":-90.385274886831,"Y":38.782261336966,"Locname":"Street_Address","Street":"6045 HOWDERSHELL RD","Score":82,"id":"a62etjuxcnd2"},"type":"Feature","geometry":{"type":"Point","coordinates":[-90.3852788373221,38.7822578039289]}},{"properties":{"CITY":"FREMONT","Matchaddr":"610 E 23RD ST, FREMONT, NE, 68025","ST":"NE","NO":13626.0,"X":-96.48994859894,"Y":41.451483511544,"Locname":"Street_Address","Street":"610 E 23RD ST","Score":82,"id":"a62etjrgty0g"},"type":"Feature","geometry":{"type":"Point","coordinates":[-96.4899487179728,41.4514815597725]}},{"properties":{"CITY":"HATTIESBURG","Matchaddr":"6136 USHY 98 W, HATTIESBURG, MS, 39402","ST":"MS","NO":11524.0,"X":-89.424283521485,"Y":31.317133307396,"Locname":"Street_Address","Street":"6136 HWY 98 W","Score":72,"id":"a62etk1l7p7s"},"type":"Feature","geometry":{"type":"Point","coordinates":[-89.4242813032527,31.3171295302343]}},{"properties":{"CITY":"BROOKLYN CENTER","Matchaddr":"615 66TH AVE N, BROOKLYN CENTER, MN, 55430","ST":"MN","NO":11635.0,"X":-93.28895404756,"Y":45.07417876186,"Locname":"Street_Address","Street":"615 66TH AVE N","Score":82,"id":"a62etjw44tob"},"type":"Feature","geometry":{"type":"Point","coordinates":[-93.2889558462041,45.0741755243002]}},{"properties":{"CITY":"BLOOMINGDALE","Matchaddr":"617 STRATFORD SQUARE MALL, BLOOMINGDALE, IL, 60108","ST":"IL","NO":10071.0,"X":-88.115432085321,"Y":41.952672460585,"Locname":"Street_Address","Street":"617 STRATFORD SQUARE MALL","Score":82,"id":"a62etk5jypk6"},"type":"Feature","geometry":{"type":"Point","coordinates":[-88.1154350014703,41.9526737267014]}},{"properties":{"CITY":"SEATTLE","Matchaddr":"620 DENNY WAY, SEATTLE, WA, 98109","ST":"WA","NO":3241.0,"X":-122.344743088589,"Y":47.618579992494,"Locname":"Street_Address","Street":"620 DENNY WAY","Score":82,"id":"a62etk4jlpzm"},"type":"Feature","geometry":{"type":"Point","coordinates":[-122.344746595945,47.6185823756973]}},{"properties":{"CITY":"PORTAGE","Matchaddr":"6200 USHY 6, PORTAGE, IN, 46368","ST":"IN","NO":11354.0,"X":-87.175574240959,"Y":41.550511335631,"Locname":"Street_Address","Street":"6200 US HWY 6","Score":82,"id":"a62etjsfaryn"},"type":"Feature","geometry":{"type":"Point","coordinates":[-87.1755715350895,41.550514901639]}},{"properties":{"CITY":"BOLINGBROOK","Matchaddr":"627 E BOUGHTON RD, BOLINGBROOK, IL, 60440","ST":"IL","NO":13521.0,"X":-88.044141067754,"Y":41.720511894795,"Locname":"Street_Address","Street":"627 E BOUGHTON RD","Score":82,"id":"a62etjz9g5ak"},"type":"Feature","geometry":{"type":"Point","coordinates":[-88.0441367509874,41.7205137448376]}},{"properties":{"CITY":"OMAHA","Matchaddr":"6303 CENTER ST, OMAHA, NE, 68106","ST":"NE","NO":11528.0,"X":-96.009622283522,"Y":41.237883584593,"Locname":"Street_Address","Street":"6303 CENTER ST","Score":82,"id":"a62etjr1bwjq"},"type":"Feature","geometry":{"type":"Point","coordinates":[-96.0096208221237,41.2378835845935]}},{"properties":{"CITY":"ALLENTOWN","Matchaddr":"6379 HAMILTON BLVD, ALLENTOWN, PA, 18106","ST":"PA","NO":11697.0,"X":-75.581038790028,"Y":40.555648050591,"Locname":"Street_Address","Street":"6379 HAMILTON BLVD","Score":82,"id":"a62etjxebg2z"},"type":"Feature","geometry":{"type":"Point","coordinates":[-75.5810352926783,40.5556488999462]}},{"properties":{"CITY":"HOUSTON","Matchaddr":"6400 FANNIN ST, HOUSTON, TX, 77030","ST":"TX","NO":13672.0,"X":-95.396574128818,"Y":29.715287348865,"Locname":"Street_Address","Street":"6400 FANNIN ST","Score":82,"id":"a62etjtnyn3d"},"type":"Feature","geometry":{"type":"Point","coordinates":[-95.3965709811905,29.7152841113061]}},{"properties":{"CITY":"HENDERSON","Matchaddr":"65 E HORIZON RIDGE PKWY, HENDERSON, NV, 89015","ST":"NV","NO":11139.0,"X":-114.991277479401,"Y":36.008946521237,"Locname":"Street_Address","Street":"65 E HORIZON RIDGE PKWY","Score":82,"id":"a62etju19tur"},"type":"Feature","geometry":{"type":"Point","coordinates":[-114.991278145408,36.0089465164142]}},{"properties":{"CITY":"WEST PALM","Matchaddr":"650 S ROSEMARY AVE, WEST PALM BEACH, FL, 33401","ST":"FL","NO":14077.0,"X":-80.057178725466,"Y":26.707985794656,"Locname":"Street_Address","Street":"650 S ROSEMARY AVE","Score":73,"id":"a62etjz33ln7"},"type":"Feature","geometry":{"type":"Point","coordinates":[-80.0571768697915,26.707987218208]}},{"properties":{"CITY":"SAN DIEGO","Matchaddr":"6511 UNIVERSITY AVE, SAN DIEGO, CA, 92115","ST":"CA","NO":6818.0,"X":-117.055968999665,"Y":32.755339888508,"Locname":"Street_Address","Street":"6511 UNIVERSITY AVE","Score":82,"id":"a62etk0uogqa"},"type":"Feature","geometry":{"type":"Point","coordinates":[-117.055968639936,32.7553433059315]}},{"properties":{"CITY":"LAS VEGAS","Matchaddr":"6515 N BUFFALO DR, LAS VEGAS, NV, 89131","ST":"NV","NO":11647.0,"X":-115.264288301642,"Y":36.281072818922,"Locname":"Street_Address","Street":"6515 N BUFFALO DR","Score":82,"id":"a62etjuacpjw"},"type":"Feature","geometry":{"type":"Point","coordinates":[-115.264285333843,36.2810723692601]}},{"properties":{"CITY":"BATON ROUGE","Matchaddr":"6556 SIEGEN LN, INNISWOLD, LA, 70809","ST":"LA","NO":11263.0,"X":-91.061542380447,"Y":30.389788641394,"Locname":"Street_Address","Street":"6556 SIEGEN LN BATON","Score":82,"id":"a62etjukodtp"},"type":"Feature","geometry":{"type":"Point","coordinates":[-91.0615420236948,30.3897846265014]}},{"properties":{"CITY":"MOBILE","Matchaddr":"6601 AIRPORT BLVD, MOBILE, AL, 36608","ST":"AL","NO":11429.0,"X":-88.195180793595,"Y":30.680231857425,"Locname":"Street_Address","Street":"6601 AIRPORT RD","Score":69,"id":"a62etjur8tvl"},"type":"Feature","geometry":{"type":"Point","coordinates":[-88.1951778858083,30.680229669084]}},{"properties":{"CITY":"MOBILE","Matchaddr":"6601 OLD SHELL RD, MOBILE, AL, 36608","ST":"AL","NO":11774.0,"X":-88.195390295127,"Y":30.690571547479,"Locname":"Street_Address","Street":"6601 OLDSHELL RD","Score":78,"id":"a62etk10y0ba"},"type":"Feature","geometry":{"type":"Point","coordinates":[-88.1953937230954,30.690571872421]}},{"properties":{"CITY":"BANGOR","Matchaddr":"663 STILLWATER AVE, BANGOR, ME, 04401","ST":"ME","NO":11185.0,"X":-68.751575348547,"Y":44.832551661959,"Locname":"Street_Address","Street":"663 STILLWATER AVE","Score":82,"id":"a62etjyjwa3j"},"type":"Feature","geometry":{"type":"Point","coordinates":[-68.7515748089539,44.8325546746882]}},{"properties":{"CITY":"VANCOUVER","Matchaddr":"6700 162ND, VANCOUVER, WA, 98682","ST":"WA","NO":3348.0,"X":-122.507282,"Y":45.67112,"Locname":"Address_Points","Street":"6700 NE 162ND","Score":65,"id":"a62etjyfpnku"},"type":"Feature","geometry":{"type":"Point","coordinates":[-122.507282,45.6711200000001]}},{"properties":{"CITY":"SHREVEPORT","Matchaddr":"6730 PINES RD, SHREVEPORT, LA, 71129","ST":"LA","NO":11049.0,"X":-93.864569899987,"Y":32.447429480476,"Locname":"Street_Address","Street":"6730 PINES RD","Score":82,"id":"a62etjqxs61j"},"type":"Feature","geometry":{"type":"Point","coordinates":[-93.8645669110576,32.4474334295397]}},{"properties":{"CITY":"EASTON","Matchaddr":"677 S 25TH ST, EASTON, PA, 18045","ST":"PA","NO":11859.0,"X":-75.24736408165,"Y":40.680447214142,"Locname":"Street_Address","Street":"677 S 25TH ST","Score":82,"id":"a62etjyi4b7t"},"type":"Feature","geometry":{"type":"Point","coordinates":[-75.2473598401472,40.6804478179521]}},{"properties":{"CITY":"HARTFORD","Matchaddr":"682 WETHERSFIELD AVE, HARTFORD, CT, 06114","ST":"CT","NO":13561.0,"X":-72.670914,"Y":41.73747,"Locname":"Address_Points","Street":"682 WETHERSFIELD AVE","Score":79,"id":"a62etk2h3uey"},"type":"Feature","geometry":{"type":"Point","coordinates":[-72.6709139999999,41.7374700000001]}},{"properties":{"CITY":"CATHEDRAL","Matchaddr":"68718 E PALM CANYON DR, CATHEDRAL CITY, CA, 92234","ST":"CA","NO":9898.0,"X":-116.463333169255,"Y":33.779585361939,"Locname":"Street_Address","Street":"68718 E PALM CANYON RD","Score":61,"id":"a62etk5iusg4"},"type":"Feature","geometry":{"type":"Point","coordinates":[-116.463333409068,33.7795811651013]}},{"properties":{"CITY":"BROOKLYN CENTER","Matchaddr":"6901 BROOKLYN BLVD, BROOKLYN CENTER, MN, 55429","ST":"MN","NO":13346.0,"X":-93.336993042467,"Y":45.080119863049,"Locname":"Street_Address","Street":"6901 BROOKLYN BLVD","Score":82,"id":"a62etk1pdal5"},"type":"Feature","geometry":{"type":"Point","coordinates":[-93.3369886357891,45.0801200429139]}},{"properties":{"CITY":"RICHMOND HEIGHTS","Matchaddr":"691 RICHMOND RD, RICHMOND HEIGHTS, OH, 44143","ST":"OH","NO":2389.0,"X":-81.497189289547,"Y":41.54038951394,"Locname":"Street_Address","Street":"691 RICHMOND RD","Score":82,"id":"a62etk3tkrbm"},"type":"Feature","geometry":{"type":"Point","coordinates":[-81.4971892895472,41.5403885355891]}},{"properties":{"CITY":"NEWTON","Matchaddr":"70 UNION ST, NEWTON, MA, 02459","ST":"MA","NO":863.0,"X":-71.191942646464,"Y":42.329949379967,"Locname":"Street_Address","Street":"70 UNION ST","Score":82,"id":"a62etjrsu1yl"},"type":"Feature","geometry":{"type":"Point","coordinates":[-71.1919390947812,42.3299483112131]}},{"properties":{"CITY":"FRESNO","Matchaddr":"7010 N MARKS AVE, FRESNO, CA, 93711","ST":"CA","NO":5575.0,"X":-119.847401266341,"Y":36.8380554114,"Locname":"Street_Address","Street":"7010 N MARKS","Score":69,"id":"a62etjrlbqa2"},"type":"Feature","geometry":{"type":"Point","coordinates":[-119.847401266341,36.8380584748867]}},{"properties":{"CITY":"BREA","Matchaddr":"703 E IMPERIAL HWY, BREA, CA, 92821","ST":"CA","NO":14001.0,"X":-117.894275526641,"Y":33.914328853042,"Locname":"Street_Address","Street":"703 E IMPERIAL HWY","Score":82,"id":"a62etjxwc9ue"},"type":"Feature","geometry":{"type":"Point","coordinates":[-117.894271669548,33.9143265847513]}},{"properties":{"CITY":"OLIVE BRANCH","Matchaddr":"7058 HACKS CROSS LN, OLIVE BRANCH, MS, 38654","ST":"MS","NO":11053.0,"X":-89.795168153278,"Y":34.965922059858,"Locname":"Street_Address","Street":"7058 HACKS CROSS","Score":69,"id":"a62etjv39odm"},"type":"Feature","geometry":{"type":"Point","coordinates":[-89.7951707013563,34.9659218200524]}},{"properties":{"CITY":"BENSALEM","Matchaddr":"707 NESHAMINY MALL, BENSALEM, PA, 19020","ST":"PA","NO":13837.0,"X":-74.955706126816,"Y":40.137837838793,"Locname":"Street_Address","Street":"707 NESHAMINY MALL","Score":82,"id":"a62etk61qhy9"},"type":"Feature","geometry":{"type":"Point","coordinates":[-74.9557097060452,40.137841871574]}},{"properties":{"CITY":"DENVER","Matchaddr":"7101 W COLFAX AVE, DENVER, CO, 80214","ST":"CO","NO":10947.0,"X":-105.076099,"Y":39.740615,"Locname":"Address_Points","Street":"101 W COLFAX AVE","Score":64,"id":"a62etjzd5hna"},"type":"Feature","geometry":{"type":"Point","coordinates":[-105.076099,39.740615]}},{"properties":{"CITY":"RANCHO MIRAGE","Matchaddr":"71730 HWY 111, RANCHO MIRAGE, CA, 92270","ST":"CA","NO":10630.0,"X":-116.411968,"Y":33.742399,"Locname":"Address_Points","Street":"71743 HWY 111","Score":56,"id":"a62etjwzq6ky"},"type":"Feature","geometry":{"type":"Point","coordinates":[-116.411968,33.742399]}},{"properties":{"CITY":"DETROIT","Matchaddr":"7201 E JEFFERSON AVE, DETROIT, MI, 48207","ST":"MI","NO":2546.0,"X":-83.00174,"Y":42.347626,"Locname":"Address_Points","Street":"7201 E JEFFERSON","Score":63,"id":"a62etjql50n2"},"type":"Feature","geometry":{"type":"Point","coordinates":[-83.0017399999999,42.347626]}},{"properties":{"CITY":"KNOXVILLE","Matchaddr":"7228 REGION LN, KNOXVILLE, TN, 37914","ST":"TN","NO":11942.0,"X":-83.775551143932,"Y":36.000965303201,"Locname":"Street_Address","Street":"7228 REGION LANE","Score":82,"id":"a62etjs2w274"},"type":"Feature","geometry":{"type":"Point","coordinates":[-83.7755497050164,36.0009695300143]}},{"properties":{"CITY":"OAKLAND","Matchaddr":"7275 HWY 64, OAKLAND, TN, 38060","ST":"TN","NO":11980.0,"X":-89.516465948148,"Y":35.228874588199,"Locname":"Street_Address","Street":"7275 HWY 64","Score":82,"id":"a62etjr579w9"},"type":"Feature","geometry":{"type":"Point","coordinates":[-89.5164618112559,35.2288745881993]}},{"properties":{"CITY":"SANTA MONICA","Matchaddr":"732 MONTANA AVE, SANTA MONICA, CA, 90403","ST":"CA","NO":14024.0,"X":-118.501239803753,"Y":34.027277011116,"Locname":"Street_Address","Street":"732 MONTANA","Score":69,"id":"a62etjrrjpkg"},"type":"Feature","geometry":{"type":"Point","coordinates":[-118.501242093563,34.0272814316314]}},{"properties":{"CITY":"NORTH MIAMI","Matchaddr":"750 NE 125TH ST, NORTH MIAMI, FL, 33161","ST":"FL","NO":10552.0,"X":-80.183706669363,"Y":25.890396944222,"Locname":"Street_Address","Street":"750 NE 125TH ST","Score":82,"id":"a62etk3sgs2a"},"type":"Feature","geometry":{"type":"Point","coordinates":[-80.1837024860937,25.8903955749308]}},{"properties":{"CITY":"LAS VEGAS","Matchaddr":"7595 W WASHINGTON AVE, LAS VEGAS, NV, 89128","ST":"NV","NO":9770.0,"X":-115.259613687335,"Y":36.181380553271,"Locname":"Street_Address","Street":"7595 W WASHINGTON AVE","Score":82,"id":"a62etk3zkcjj"},"type":"Feature","geometry":{"type":"Point","coordinates":[-115.25961785251,36.1813825223122]}},{"properties":{"CITY":"REDDING","Matchaddr":"760 E CYPRESS AVE, REDDING, CA, 96002","ST":"CA","NO":9455.0,"X":-122.358189058452,"Y":40.571081265969,"Locname":"Street_Address","Street":"760 CYPRESS AVE","Score":70,"id":"a62etk2y8r5c"},"type":"Feature","geometry":{"type":"Point","coordinates":[-122.358191460283,40.571081265969]}},{"properties":{"CITY":"BARTLETT","Matchaddr":"7610 USHY 70, BARTLETT, TN, 38133","ST":"TN","NO":10792.0,"X":-89.809636745859,"Y":35.229803857652,"Locname":"Street_Address","Street":"7610 US HWY 70","Score":82,"id":"a62etk1jyr44"},"type":"Feature","geometry":{"type":"Point","coordinates":[-89.8096407928077,35.2298008898895]}},{"properties":{"CITY":"TAHOE CITY","Matchaddr":"775 N LAKE BLVD, TAHOE CITY, CA, 96145","ST":"CA","NO":13335.0,"X":-120.138177424311,"Y":39.17366183169,"Locname":"Street_Address","Street":"775 N LAKE BLVD","Score":82,"id":"a62etk5qvl8p"},"type":"Feature","geometry":{"type":"Point","coordinates":[-120.138179058074,39.1736607375209]}},{"properties":{"CITY":"BRENTWOOD","Matchaddr":"7760 BRENTWOOD BLVD, BRENTWOOD, CA, 94513","ST":"CA","NO":13216.0,"X":-121.696128568753,"Y":37.943948450284,"Locname":"Street_Address","Street":"7760 BRENTWOOD BLVD","Score":82,"id":"a62etjwk6k48"},"type":"Feature","geometry":{"type":"Point","coordinates":[-121.696128568753,37.9439457810967]}},{"properties":{"CITY":"SACRAMENTO","Matchaddr":"7800 STOCKTON BLVD, SACRAMENTO, CA, 95823","ST":"CA","NO":11955.0,"X":-121.41893332756,"Y":38.474307727842,"Locname":"Street_Address","Street":"7800 STOCKTON BLVD","Score":82,"id":"a62etjy83ov0"},"type":"Feature","geometry":{"type":"Point","coordinates":[-121.418930539661,38.474311954656]}},{"properties":{"CITY":"GREENWOOD","Matchaddr":"789 USHY 31, GREENWOOD, IN, 46142","ST":"IN","NO":2549.0,"X":-86.121210951997,"Y":39.627801792309,"Locname":"Street_Address","Street":"789 US 31","Score":82,"id":"a62etjy46jpe"},"type":"Feature","geometry":{"type":"Point","coordinates":[-86.1212153811584,39.6278003758768]}},{"properties":{"CITY":"CICERO","Matchaddr":"7897 BREWERTON RD, CICERO, NY, 13039","ST":"NY","NO":11278.0,"X":-76.124297744138,"Y":43.152553674804,"Locname":"Street_Address","Street":"7897 BREWERTON RD","Score":82,"id":"a62etjsj9l3t"},"type":"Feature","geometry":{"type":"Point","coordinates":[-76.1242977441379,43.1525581714138]}},{"properties":{"CITY":"HAMMONTON","Matchaddr":"80 S WHITE HORSE PARK, HAMMONTON, NJ, 08037","ST":"NJ","NO":13581.0,"X":-74.787848,"Y":39.645388,"Locname":"Address_Points","Street":"80 S WHITE HORSE PIKE","Score":63,"id":"a62etjtr9yx5"},"type":"Feature","geometry":{"type":"Point","coordinates":[-74.7878479999999,39.6453880000001]}},{"properties":{"CITY":"TALLAHASSEE","Matchaddr":"800 OCALA RD, TALLAHASSEE, FL, 32304","ST":"FL","NO":13686.0,"X":-84.31709526079,"Y":30.44867511081,"Locname":"Street_Address","Street":"800 OCALA RD","Score":82,"id":"a62etjsxxvbq"},"type":"Feature","geometry":{"type":"Point","coordinates":[-84.3170944514,30.4486722329799]}},{"properties":{"CITY":"BIRMINGHAM","Matchaddr":"801 20TH ST S, BIRMINGHAM, AL, 35205","ST":"AL","NO":10482.0,"X":-86.799018296778,"Y":33.504669932066,"Locname":"Street_Address","Street":"801 20TH ST S","Score":82,"id":"a62etjtwu4ec"},"type":"Feature","geometry":{"type":"Point","coordinates":[-86.7990164082013,33.5046674139645]}},{"properties":{"CITY":"HEMET","Matchaddr":"801 W FLORIDA AVE, HEMET, CA, 92543","ST":"CA","NO":10710.0,"X":-116.963881,"Y":33.747171,"Locname":"Address_Points","Street":"2801 W FLORIDA AVE","Score":64,"id":"a62etk0kje0c"},"type":"Feature","geometry":{"type":"Point","coordinates":[-116.963881,33.747171]}},{"properties":{"CITY":"JENNINGS","Matchaddr":"8031 W FLORISSANT AVE, JENNINGS, MO, 63136","ST":"MO","NO":10834.0,"X":-90.277495346707,"Y":38.731013168048,"Locname":"Street_Address","Street":"8031 W. FLORISSANT AVE","Score":82,"id":"a62etjsozy4b"},"type":"Feature","geometry":{"type":"Point","coordinates":[-90.2774950921104,38.7310144346994]}},{"properties":{"CITY":"JACKSONVILLE","Matchaddr":"8060 PHILLIPS HWY, JACKSONVILLE, FL, 32256","ST":"FL","NO":11610.0,"X":-81.588038264464,"Y":30.224563478116,"Locname":"Street_Address","Street":"8060 PHILLIPS HWY","Score":82,"id":"a62etk0hrumh"},"type":"Feature","geometry":{"type":"Point","coordinates":[-81.5880388009471,30.2245611832784]}},{"properties":{"CITY":"PLANO","Matchaddr":"811 N CENTRAL EXPY, PLANO, TX, 75075","ST":"TX","NO":10576.0,"X":-96.713538,"Y":33.016344,"Locname":"Address_Points","Street":"811 N CENTRAL EXWY","Score":79,"id":"a62etjtl9llc"},"type":"Feature","geometry":{"type":"Point","coordinates":[-96.7135379999999,33.0163440000001]}},{"properties":{"CITY":"BATON ROUGE","Matchaddr":"8183 AIRLINE HWY, BATON ROUGE, LA, 70815","ST":"LA","NO":13291.0,"X":-91.102871621094,"Y":30.462762346188,"Locname":"Street_Address","Street":"8183 AIRLINE HWY BATON","Score":82,"id":"a62etjtok0t9"},"type":"Feature","geometry":{"type":"Point","coordinates":[-91.1028748641614,30.462764609179]}},{"properties":{"CITY":"SARASOTA","Matchaddr":"8201 S TAMIAMI TRL, VAMO, FL, 34238","ST":"FL","NO":11413.0,"X":-82.497452932128,"Y":27.233231123285,"Locname":"Street_Address","Street":"8201 S TAMIAMI TRL","Score":82,"id":"a62etk49s2ob"},"type":"Feature","geometry":{"type":"Point","coordinates":[-82.4974512234159,27.2332272562004]}},{"properties":{"CITY":"GONZALES","Matchaddr":"831 5TH ST, GONZALES, CA, 93926","ST":"CA","NO":2995.0,"X":-121.436802964201,"Y":36.513829968599,"Locname":"Street_Address","Street":"831 E FIFTH ST","Score":70,"id":"a62etk4qp5j1"},"type":"Feature","geometry":{"type":"Point","coordinates":[-121.436800068384,36.5138259036632]}},{"properties":{"CITY":"BENICIA","Matchaddr":"832 1ST ST, BENICIA, CA, 94510","ST":"CA","NO":10996.0,"X":-122.157245,"Y":38.051022,"Locname":"Address_Points","Street":"328 FIRST ST","Score":59,"id":"a62etk4ruuhc"},"type":"Feature","geometry":{"type":"Point","coordinates":[-122.157245,38.051022]}},{"properties":{"CITY":"MABLETON","Matchaddr":"836 VETERANS MEMORIAL HWY, MABLETON, GA, 30126","ST":"GA","NO":13341.0,"X":-84.530410504078,"Y":33.806906173111,"Locname":"Street_Address","Street":"836 VETERANS MEMORIAL PKWY","Score":69,"id":"a62etjtt4gk8"},"type":"Feature","geometry":{"type":"Point","coordinates":[-84.53041363675,33.8069025683513]}},{"properties":{"CITY":"WINTER PARK","Matchaddr":"840 N ORLANDO AVE, WINTER PARK, FL, 32789","ST":"FL","NO":11707.0,"X":-81.364618,"Y":28.604612,"Locname":"Address_Points","Street":"480 N ORLANDO AVE","Score":59,"id":"a62etjq5zabg"},"type":"Feature","geometry":{"type":"Point","coordinates":[-81.364618,28.6046120000001]}},{"properties":{"CITY":"PAPILLION","Matchaddr":"8440 S 72ND ST, PAPILLION, NE, 68046","ST":"NE","NO":11805.0,"X":-96.023652834739,"Y":41.174613963446,"Locname":"Street_Address","Street":"8440 S 72ND ST","Score":82,"id":"a62etjupgtob"},"type":"Feature","geometry":{"type":"Point","coordinates":[-96.0236502457807,41.1746162798322]}},{"properties":{"CITY":"PLANO","Matchaddr":"8600 PRESTON RD, PLANO, TX, 75024","ST":"TX","NO":6288.0,"X":-96.801641,"Y":33.09627,"Locname":"Address_Points","Street":"8600 PRESTON","Score":63,"id":"a62etjts0ihf"},"type":"Feature","geometry":{"type":"Point","coordinates":[-96.8016409999999,33.0962700000001]}},{"properties":{"CITY":"BISMARCK","Matchaddr":"868 KIRKWOOD MALL, BISMARCK, ND, 58504","ST":"ND","NO":2734.0,"X":-100.785078278864,"Y":46.801810209744,"Locname":"Street_Address","Street":"868 KIRKWOOD MALL","Score":82,"id":"a62etjvsm57c"},"type":"Feature","geometry":{"type":"Point","coordinates":[-100.785074757028,46.8018091154667]}},{"properties":{"CITY":"DALLAS","Matchaddr":"8687 N CENTRAL EXPY, DALLAS, TX, 75231","ST":"TX","NO":10758.0,"X":-96.770724014209,"Y":32.868708538516,"Locname":"Street_Address","Street":"8687 N CENTRAL EXP","Score":82,"id":"a62etjuvo2ly"},"type":"Feature","geometry":{"type":"Point","coordinates":[-96.7707260487405,32.868711840945]}},{"properties":{"CITY":"EVERGREEN PARK","Matchaddr":"8738 S KEDZIE AVE, EVERGREEN PARK, IL, 60805","ST":"IL","NO":3431.0,"X":-87.702131678712,"Y":41.734183777405,"Locname":"Street_Address","Street":"8738 S KEDZIE AVE","Score":82,"id":"a62etk2dslvk"},"type":"Feature","geometry":{"type":"Point","coordinates":[-87.7021335764649,41.734183439683]}},{"properties":{"CITY":"WICHITA","Matchaddr":"8971 W CENTRAL ST, WICHITA, KS, 67212","ST":"KS","NO":13853.0,"X":-97.446552,"Y":37.693642,"Locname":"Address_Points","Street":"8971 W CENTRAL","Score":63,"id":"a62etjx196cc"},"type":"Feature","geometry":{"type":"Point","coordinates":[-97.4465519999999,37.6936420000001]}},{"properties":{"CITY":"WOODBURY","Matchaddr":"9000 HUDSON RD, WOODBURY, MN, 55125","ST":"MN","NO":10157.0,"X":-92.926688608124,"Y":44.942054416264,"Locname":"Street_Address","Street":"9000 HUDSON RD","Score":82,"id":"a62etjwpp0yi"},"type":"Feature","geometry":{"type":"Point","coordinates":[-92.9266909463615,44.9420561249757]}},{"properties":{"CITY":"SAN FRANCISCO","Matchaddr":"901 MARKET ST, SAN FRANCISCO, CA, 94103","ST":"CA","NO":9205.0,"X":-122.408041,"Y":37.78347,"Locname":"Address_Points","Street":"901 MARKET ST","Score":79,"id":"a62etjt95wlf"},"type":"Feature","geometry":{"type":"Point","coordinates":[-122.408041,37.7834700000001]}},{"properties":{"CITY":"SEBRING","Matchaddr":"901 USHY 27 N, SEBRING, FL, 33870","ST":"FL","NO":11584.0,"X":-81.484827650162,"Y":27.492033988195,"Locname":"Street_Address","Street":"901 US HWY 27 N","Score":82,"id":"a62etjqmhnpm"},"type":"Feature","geometry":{"type":"Point","coordinates":[-81.4848236116443,27.4920341497923]}},{"properties":{"CITY":"DALLAS","Matchaddr":"9090 SKILLMAN ST, DALLAS, TX, 75243","ST":"TX","NO":6387.0,"X":-96.719536,"Y":32.896924,"Locname":"Address_Points","Street":"9090 SKILLMAN ST","Score":79,"id":"a62etjuclzai"},"type":"Feature","geometry":{"type":"Point","coordinates":[-96.7195359999999,32.8969240000001]}},{"properties":{"CITY":"HOUSTON","Matchaddr":"914 W DALLAS ST, HOUSTON, TX, 77019","ST":"TX","NO":10056.0,"X":-95.377568,"Y":29.757951,"Locname":"Address_Points","Street":"914 DALLAS ST","Score":65,"id":"a62etjtypkx2"},"type":"Feature","geometry":{"type":"Point","coordinates":[-95.3775679999999,29.757951]}},{"properties":{"CITY":"WESTERVILLE","Matchaddr":"925 N STATE ST, WESTERVILLE, OH, 43082","ST":"OH","NO":11883.0,"X":-82.923161,"Y":40.150572,"Locname":"Address_Points","Street":"925 N. STATE ST","Score":79,"id":"a62etk2cmala"},"type":"Feature","geometry":{"type":"Point","coordinates":[-82.9231609999999,40.1505720000001]}},{"properties":{"CITY":"OCOEE","Matchaddr":"9401 W COLONIAL DR, OCOEE, FL, 34761","ST":"FL","NO":11582.0,"X":-81.516182,"Y":28.557527,"Locname":"Address_Points","Street":"9401 W COLONIAL DR","Score":79,"id":"a62etk6f5svn"},"type":"Feature","geometry":{"type":"Point","coordinates":[-81.5161819999999,28.5575270000001]}},{"properties":{"CITY":"SAN DIEGO","Matchaddr":"9450 MIRA MESA BLVD, SAN DIEGO, CA, 92126","ST":"CA","NO":551.0,"X":-117.121306,"Y":32.918984,"Locname":"Address_Points","Street":"9450 MIRA MESA BLVD","Score":79,"id":"a62etjyh2ach"},"type":"Feature","geometry":{"type":"Point","coordinates":[-117.121306,32.9189840000001]}},{"properties":{"CITY":"LAS VEGAS","Matchaddr":"950 S DURANGO DR, LAS VEGAS, NV, 89145","ST":"NV","NO":11140.0,"X":-115.279297896352,"Y":36.161406241794,"Locname":"Street_Address","Street":"950 S DURANGO DR","Score":82,"id":"a62etk2t8jg7"},"type":"Feature","geometry":{"type":"Point","coordinates":[-115.279295018512,36.1614085800414]}},{"properties":{"CITY":"TULSA","Matchaddr":"9524 E 81ST ST, TULSA, OK, 74133","ST":"OK","NO":11936.0,"X":-95.870171399871,"Y":36.046421681127,"Locname":"Street_Address","Street":"9524 E 81ST ST","Score":82,"id":"a62etjx59p2b"},"type":"Feature","geometry":{"type":"Point","coordinates":[-95.8701719482604,36.0464212653751]}},{"properties":{"CITY":"OCALA","Matchaddr":"9548 SW HWY 200, OCALA, FL, 34481","ST":"FL","NO":13784.0,"X":-82.275582504072,"Y":29.061185952378,"Locname":"Street_Address","Street":"9548 SW HWY 200","Score":82,"id":"a62etjzj8vqi"},"type":"Feature","geometry":{"type":"Point","coordinates":[-82.2755794855673,29.0611892129556]}},{"properties":{"CITY":"CALUMET CITY","Matchaddr":"96 RIVER OAKS DR, CALUMET CITY, IL, 60409","ST":"IL","NO":10633.0,"X":-87.528948586595,"Y":41.596750168061,"Locname":"Street_Address","Street":"96 RIVER OAKS CTR","Score":69,"id":"a62etk6a4rij"},"type":"Feature","geometry":{"type":"Point","coordinates":[-87.5289511332826,41.5967490471654]}},{"properties":{"CITY":"EL PASO","Matchaddr":"9615 MONTANA AVE, EL PASO, TX, 79925","ST":"TX","NO":13356.0,"X":-106.357087,"Y":31.795381,"Locname":"Address_Points","Street":"9615 MONTANA RD","Score":63,"id":"a62etk3rmp8w"},"type":"Feature","geometry":{"type":"Point","coordinates":[-106.357087,31.7953810000001]}},{"properties":{"CITY":"BATON ROUGE","Matchaddr":"9837 BLUEBONNET BLVD, BATON ROUGE, LA, 70810","ST":"LA","NO":13292.0,"X":-91.108829752054,"Y":30.356652927123,"Locname":"Street_Address","Street":"9837 BLUEBONNET BLVD BATON","Score":82,"id":"a62etjzyizif"},"type":"Feature","geometry":{"type":"Point","coordinates":[-91.1088283759954,30.3566536029419]}},{"properties":{"CITY":"NORTH ATTLEBORO","Matchaddr":"999 S WASHINGTON ST, NORTH ATTLEBORO, MA, 02760","ST":"MA","NO":10273.0,"X":-71.347659589974,"Y":41.944874989935,"Locname":"Street_Address","Street":"999 S WASHINGTON ST","Score":82,"id":"a62etk537sks"},"type":"Feature","geometry":{"type":"Point","coordinates":[-71.3476567041545,41.9448766047074]}},{"properties":{"CITY":"ALBERT","Matchaddr":"ALBERTA, MN","ST":"MN","NO":9564.0,"X":-96.047658,"Y":45.571407,"Locname":"CityState","Street":"2221 E MAIN FRONTAGE RD","Score":85,"id":"a62etk5qrt2f"},"type":"Feature","geometry":{"type":"Point","coordinates":[-96.047658,45.571407]}},{"properties":{"CITY":"ALBUQUERQUE","Matchaddr":"ALBUQUERQUE, NM","ST":"NM","NO":13898.0,"X":-106.626718,"Y":35.08133,"Locname":"CityState","Street":"2270 WYOMING","Score":100,"id":"a62etjs7iw9d"},"type":"Feature","geometry":{"type":"Point","coordinates":[-106.626718,35.08133]}},{"properties":{"CITY":"ALTOONA","Matchaddr":"ALTOONA, PA","ST":"PA","NO":11767.0,"X":-78.400179,"Y":40.507951,"Locname":"CityState","Street":"11767 LOGAN VALLEY MALL RT 220","Score":100,"id":"a62etk23hkl7"},"type":"Feature","geometry":{"type":"Point","coordinates":[-78.4001789999999,40.5079510000001]}},{"properties":{"CITY":"ATWATER","Matchaddr":"ATWATER, CA","ST":"CA","NO":11437.0,"X":-120.602654,"Y":37.352303,"Locname":"CityState","Street":"1861 BELLVUE RD","Score":100,"id":"a62etjxr0kfj"},"type":"Feature","geometry":{"type":"Point","coordinates":[-120.602654,37.3523030000001]}},{"properties":{"CITY":"AUSTELL","Matchaddr":"AUSTELL, GA","ST":"GA","NO":11870.0,"X":-84.642831,"Y":33.821399,"Locname":"CityState","Street":"2860 E-W CONNECTOR","Score":100,"id":"a62etjtl6bqj"},"type":"Feature","geometry":{"type":"Point","coordinates":[-84.642831,33.8213990000001]}},{"properties":{"CITY":"AUSTIN","Matchaddr":"AUSTIN, TX","ST":"TX","NO":14121.0,"X":-97.745209,"Y":30.268735,"Locname":"CityState","Street":"5000 W SLAUGHTER","Score":100,"id":"a62etjywd4pn"},"type":"Feature","geometry":{"type":"Point","coordinates":[-97.745209,30.268735]}},{"properties":{"CITY":"BANGOR","Matchaddr":"BANGOR, ME","ST":"ME","NO":13979.0,"X":-68.79162,"Y":44.836236,"Locname":"CityState","Street":"652 BRDWAY","Score":100,"id":"a62etjvsvw4g"},"type":"Feature","geometry":{"type":"Point","coordinates":[-68.7916199999999,44.836236]}},{"properties":{"CITY":"BATESVILLE","Matchaddr":"BATESVILLE, MS","ST":"MS","NO":13474.0,"X":-89.942878,"Y":34.318494,"Locname":"CityState","Street":"100 HOUSE-CARLSON DR","Score":100,"id":"a62etjys6tgk"},"type":"Feature","geometry":{"type":"Point","coordinates":[-89.942878,34.318494]}},{"properties":{"CITY":"BATON ROUGE","Matchaddr":"BATON ROUGE, LA","ST":"LA","NO":6357.0,"X":-91.18823,"Y":30.449311,"Locname":"CityState","Street":"8729 SIEGAN LN BATON","Score":100,"id":"a62etk31ll5v"},"type":"Feature","geometry":{"type":"Point","coordinates":[-91.1882299999999,30.449311]}},{"properties":{"CITY":"BATON ROUGE","Matchaddr":"BATON ROUGE, LA","ST":"LA","NO":8321.0,"X":-91.18823,"Y":30.449311,"Locname":"CityState","Street":"7777 BLUEBONNET BLVD BATON","Score":100,"id":"a62etjro3ezl"},"type":"Feature","geometry":{"type":"Point","coordinates":[-91.1882299999999,30.449311]}},{"properties":{"CITY":"BEAVERTON","Matchaddr":"BEAVERTON, OR","ST":"OR","NO":460.0,"X":-122.803999,"Y":45.486878,"Locname":"CityState","Street":"18000 0NW EVERGREEN PKWY","Score":100,"id":"a62etjxif2wr"},"type":"Feature","geometry":{"type":"Point","coordinates":[-122.803999,45.4868780000001]}},{"properties":{"CITY":"BIRMINGHAM","Matchaddr":"BIRMINGHAM, AL","ST":"AL","NO":9684.0,"X":-86.814743,"Y":33.51952,"Locname":"CityState","Street":"9190 PKWY","Score":100,"id":"a62etjwhlw5u"},"type":"Feature","geometry":{"type":"Point","coordinates":[-86.814743,33.5195200000001]}},{"properties":{"CITY":"BLAINE","Matchaddr":"BLAINE, MN","ST":"MN","NO":10456.0,"X":-93.211918,"Y":45.167792,"Locname":"CityState","Street":"2331 108TH LANE NE","Score":100,"id":"a62etjx1jfvl"},"type":"Feature","geometry":{"type":"Point","coordinates":[-93.211918,45.1677920000001]}},{"properties":{"CITY":"BLOOMFIELD","Matchaddr":"BLOOMFIELD, NM","ST":"NM","NO":10120.0,"X":-107.979089,"Y":36.712805,"Locname":"CityState","Street":"500 W BRDWAY AVE","Score":100,"id":"a62etjzdxkmv"},"type":"Feature","geometry":{"type":"Point","coordinates":[-107.979089,36.7128050000001]}},{"properties":{"CITY":"BLUFFTON","Matchaddr":"BLUFFTON, IN","ST":"IN","NO":13201.0,"X":-85.171123,"Y":40.743167,"Locname":"CityState","Street":"2133 N MAIN ST","Score":100,"id":"a62etk22xu6o"},"type":"Feature","geometry":{"type":"Point","coordinates":[-85.171123,40.743167]}},{"properties":{"CITY":"BOISE","Matchaddr":"BOISE, ID","ST":"ID","NO":3335.0,"X":-116.212539,"Y":43.602071,"Locname":"CityState","Street":"2209 UNIVERSITY DR","Score":100,"id":"a62etjwz1eqa"},"type":"Feature","geometry":{"type":"Point","coordinates":[-116.212539,43.602071]}},{"properties":{"CITY":"BOWIE","Matchaddr":"BOWIE, MD","ST":"MD","NO":11799.0,"X":-76.74307,"Y":38.953123,"Locname":"CityState","Street":"3524 NCRAIN HWY","Score":100,"id":"a62etk4svlwe"},"type":"Feature","geometry":{"type":"Point","coordinates":[-76.74307,38.9531230000001]}},{"properties":{"CITY":"BROOKLYN","Matchaddr":"BROOKLYN, NY","ST":"NY","NO":14186.0,"X":-78.748652,"Y":42.433185,"Locname":"CityState","Street":"8414 3RD AVE","Score":100,"id":"a62etk5gy8xb"},"type":"Feature","geometry":{"type":"Point","coordinates":[-78.748652,42.4331850000001]}},{"properties":{"CITY":"BURNSVILLE","Matchaddr":"BURNSVILLE, MN","ST":"MN","NO":2495.0,"X":-93.278074,"Y":44.777035,"Locname":"CityState","Street":"14637 COUNTRY RD 11","Score":100,"id":"a62etjvdkj81"},"type":"Feature","geometry":{"type":"Point","coordinates":[-93.278074,44.777035]}},{"properties":{"CITY":"CHANNAHON","Matchaddr":"CHANNAHON, IL","ST":"IL","NO":13438.0,"X":-88.218327,"Y":41.434941,"Locname":"CityState","Street":"27243 W SAXONY DR","Score":100,"id":"a62etk4a00my"},"type":"Feature","geometry":{"type":"Point","coordinates":[-88.2183269999999,41.4349410000001]}},{"properties":{"CITY":"CHARLOTTE","Matchaddr":"CHARLOTTE, NC","ST":"NC","NO":10836.0,"X":-80.845841,"Y":35.231402,"Locname":"CityState","Street":"9335 CENTER LAKE DR","Score":100,"id":"a62etjx0quok"},"type":"Feature","geometry":{"type":"Point","coordinates":[-80.845841,35.2314020000001]}},{"properties":{"CITY":"CHARLOTTE","Matchaddr":"CHARLOTTE, NC","ST":"NC","NO":11056.0,"X":-80.845841,"Y":35.231402,"Locname":"CityState","Street":"4620 PIEDMONT ROW DR","Score":100,"id":"a62etk1jxhov"},"type":"Feature","geometry":{"type":"Point","coordinates":[-80.845841,35.2314020000001]}},{"properties":{"CITY":"CHARLOTTE","Matchaddr":"CHARLOTTE, NC","ST":"NC","NO":13533.0,"X":-80.845841,"Y":35.231402,"Locname":"CityState","Street":"1520 OVERLAND PARK LN","Score":100,"id":"a62etk5yqm39"},"type":"Feature","geometry":{"type":"Point","coordinates":[-80.845841,35.2314020000001]}},{"properties":{"CITY":"CHATHAM","Matchaddr":"CHATHAM, IL","ST":"IL","NO":13689.0,"X":-89.698806,"Y":39.676415,"Locname":"CityState","Street":"1140 COMMERCE CT","Score":100,"id":"a62etjyadus1"},"type":"Feature","geometry":{"type":"Point","coordinates":[-89.698806,39.676415]}},{"properties":{"CITY":"CHEEKTOWAGA","Matchaddr":"CHEEKTOWAGA, NY","ST":"NY","NO":11422.0,"X":-78.754312,"Y":42.903821,"Locname":"CityState","Street":"2000 WALDEN AVE","Score":100,"id":"a62etk1h20pj"},"type":"Feature","geometry":{"type":"Point","coordinates":[-78.754312,42.9038210000001]}},{"properties":{"CITY":"CHESTERFIELD","Matchaddr":"CHESTERFIELD, MO","ST":"MO","NO":2523.0,"X":-90.579549,"Y":38.660258,"Locname":"CityState","Street":"1481 5 CLAYTON RD","Score":100,"id":"a62etk1nmei2"},"type":"Feature","geometry":{"type":"Point","coordinates":[-90.579549,38.6602580000001]}},{"properties":{"CITY":"CHULA VISTA","Matchaddr":"CHULA VISTA, CA","ST":"CA","NO":11223.0,"X":-117.093509,"Y":32.641303,"Locname":"CityState","Street":"2015 BIRCH RD","Score":100,"id":"a62etju7l6pp"},"type":"Feature","geometry":{"type":"Point","coordinates":[-117.093509,32.6413030000001]}},{"properties":{"CITY":"CONFIER","Matchaddr":"CONIFER, CO","ST":"CO","NO":13938.0,"X":-105.30563,"Y":39.520702,"Locname":"CityState","Street":"27191 MAIN ST","Score":85,"id":"a62etk304dr0"},"type":"Feature","geometry":{"type":"Point","coordinates":[-105.30563,39.520702]}},{"properties":{"CITY":"CORONA","Matchaddr":"CORONA, CA","ST":"CA","NO":11775.0,"X":-117.567561,"Y":33.875542,"Locname":"CityState","Street":"2795 CABOT DR","Score":100,"id":"a62etjqtnn1g"},"type":"Feature","geometry":{"type":"Point","coordinates":[-117.567561,33.8755420000001]}},{"properties":{"CITY":"CORPUS CHRISTI","Matchaddr":"CORPUS CHRISTI, TX","ST":"TX","NO":11943.0,"X":-97.391431,"Y":27.801643,"Locname":"CityState","Street":"3738 STAPLES","Score":100,"id":"a62etjwpayqo"},"type":"Feature","geometry":{"type":"Point","coordinates":[-97.391431,27.801643]}},{"properties":{"CITY":"CROWN POINT","Matchaddr":"CROWN POINT, IN","ST":"IN","NO":13805.0,"X":-87.34305,"Y":41.420183,"Locname":"CityState","Street":"10761 BRDWAY","Score":100,"id":"a62etjx7pcaf"},"type":"Feature","geometry":{"type":"Point","coordinates":[-87.34305,41.4201830000001]}},{"properties":{"CITY":"DALLAS","Matchaddr":"DALLAS, PA","ST":"PA","NO":10294.0,"X":-75.964072,"Y":41.336065,"Locname":"CityState","Street":"184 MEMORIAL HWY","Score":100,"id":"a62etjrntgdc"},"type":"Feature","geometry":{"type":"Point","coordinates":[-75.964072,41.3360650000001]}},{"properties":{"CITY":"DALLAS","Matchaddr":"DALLAS, TX","ST":"TX","NO":14144.0,"X":-96.797111,"Y":32.781078,"Locname":"CityState","Street":"7995 LBJ","Score":100,"id":"a62etjw1lcs8"},"type":"Feature","geometry":{"type":"Point","coordinates":[-96.797111,32.7810780000001]}},{"properties":{"CITY":"DARDENNE PRAIRIE","Matchaddr":"DARDENNE PRAIRIE, MO","ST":"MO","NO":13348.0,"X":-90.722411,"Y":38.739098,"Locname":"CityState","Street":"7827 HWY N","Score":100,"id":"a62etjvqk5b7"},"type":"Feature","geometry":{"type":"Point","coordinates":[-90.722411,38.739098]}},{"properties":{"CITY":"DARTMOUTH","Matchaddr":"DARTMOUTH, MA","ST":"MA","NO":10376.0,"X":-70.949269,"Y":41.594242,"Locname":"CityState","Street":"200 N DARTMOUTH MALL","Score":100,"id":"a62etjv4qdf2"},"type":"Feature","geometry":{"type":"Point","coordinates":[-70.949269,41.5942420000001]}},{"properties":{"CITY":"DENVER","Matchaddr":"DENVER, CO","ST":"CO","NO":10675.0,"X":-104.988089,"Y":39.755101,"Locname":"CityState","Street":"1750 16TH ST","Score":100,"id":"a62etk688ukb"},"type":"Feature","geometry":{"type":"Point","coordinates":[-104.988089,39.755101]}},{"properties":{"CITY":"DUBLIN","Matchaddr":"DUBLIN, OH","ST":"OH","NO":13859.0,"X":-80.785661,"Y":41.002813,"Locname":"CityState","Street":"7561 SAWMILL RD","Score":100,"id":"a62etjzpdqra"},"type":"Feature","geometry":{"type":"Point","coordinates":[-80.785661,41.002813]}},{"properties":{"CITY":"DUBUQUE","Matchaddr":"DUBUQUE, IA","ST":"IA","NO":10197.0,"X":-90.665478,"Y":42.502272,"Locname":"CityState","Street":"2515 NW ARTERIAL","Score":100,"id":"a62etk3a72hr"},"type":"Feature","geometry":{"type":"Point","coordinates":[-90.665478,42.5022720000001]}},{"properties":{"CITY":"EASTON","Matchaddr":"EASTON, MD","ST":"MD","NO":13379.0,"X":-76.076248,"Y":38.77448,"Locname":"CityState","Street":"28601 MARLBORO AVE","Score":100,"id":"a62etjtoxhul"},"type":"Feature","geometry":{"type":"Point","coordinates":[-76.076248,38.7744800000001]}},{"properties":{"CITY":"EASTPOINTE","Matchaddr":"EASTPOINTE, MI","ST":"MI","NO":2493.0,"X":-82.945808,"Y":42.464874,"Locname":"CityState","Street":"22511 1GRATIOT AVE","Score":100,"id":"a62etjxpbpmn"},"type":"Feature","geometry":{"type":"Point","coordinates":[-82.945808,42.4648740000001]}},{"properties":{"CITY":"EL MONTE","Matchaddr":"EL MONTE, CA","ST":"CA","NO":10487.0,"X":-118.032866,"Y":34.072491,"Locname":"CityState","Street":"9327 GARVEY AVE","Score":100,"id":"a62etk36qmot"},"type":"Feature","geometry":{"type":"Point","coordinates":[-118.032866,34.072491]}},{"properties":{"CITY":"ELK GROVE","Matchaddr":"ELK GROVE, CA","ST":"CA","NO":6889.0,"X":-121.371458,"Y":38.403196,"Locname":"CityState","Street":"8785 CENTER PKWY","Score":100,"id":"a62etjylcr9b"},"type":"Feature","geometry":{"type":"Point","coordinates":[-121.371458,38.4031960000001]}},{"properties":{"CITY":"ELOY","Matchaddr":"ELOY, AZ","ST":"AZ","NO":10995.0,"X":-111.602576,"Y":32.748511,"Locname":"CityState","Street":"4985 N SUNLAND","Score":100,"id":"a62etk09bl43"},"type":"Feature","geometry":{"type":"Point","coordinates":[-111.602576,32.7485110000001]}},{"properties":{"CITY":"ESTERO","Matchaddr":"ESTERO, FL","ST":"FL","NO":11389.0,"X":-81.811045,"Y":26.442422,"Locname":"CityState","Street":"8017 PLAZA DEL LAGO DR","Score":100,"id":"a62etk0e5j1r"},"type":"Feature","geometry":{"type":"Point","coordinates":[-81.811045,26.442422]}},{"properties":{"CITY":"FLOWOOD","Matchaddr":"FLOWOOD, MS","ST":"MS","NO":10275.0,"X":-90.107571,"Y":32.323721,"Locname":"CityState","Street":"204 A E LAYFAIR DR","Score":100,"id":"a62etk3vr5hb"},"type":"Feature","geometry":{"type":"Point","coordinates":[-90.107571,32.323721]}},{"properties":{"CITY":"FONTANA","Matchaddr":"FONTANA, CA","ST":"CA","NO":11225.0,"X":-117.435776,"Y":34.070323,"Locname":"CityState","Street":"16645 SIERRA LAKES","Score":100,"id":"a62etk5f620e"},"type":"Feature","geometry":{"type":"Point","coordinates":[-117.435776,34.070323]}},{"properties":{"CITY":"FONTANA","Matchaddr":"FONTANA, CA","ST":"CA","NO":10426.0,"X":-117.435776,"Y":34.070323,"Locname":"CityState","Street":"3480 SIERRA AVE","Score":100,"id":"a62etk084ahr"},"type":"Feature","geometry":{"type":"Point","coordinates":[-117.435776,34.070323]}},{"properties":{"CITY":"FORT MYERS","Matchaddr":"FORT MYERS, FL","ST":"FL","NO":10950.0,"X":-81.839897,"Y":26.623125,"Locname":"CityState","Street":"9390 SIX MILE CYPRESS PKWY","Score":100,"id":"a62etk2mdgjn"},"type":"Feature","geometry":{"type":"Point","coordinates":[-81.839897,26.623125]}},{"properties":{"CITY":"FORT MYERS","Matchaddr":"FORT MYERS, FL","ST":"FL","NO":11785.0,"X":-81.839897,"Y":26.623125,"Locname":"CityState","Street":"9903 GULF COAST","Score":100,"id":"a62etjv3k7dw"},"type":"Feature","geometry":{"type":"Point","coordinates":[-81.839897,26.623125]}},{"properties":{"CITY":"FORT WORTH","Matchaddr":"FORT WORTH, TX","ST":"TX","NO":10057.0,"X":-97.330335,"Y":32.75492,"Locname":"CityState","Street":"4603 CAMP BOWIE","Score":100,"id":"a62etjz5864s"},"type":"Feature","geometry":{"type":"Point","coordinates":[-97.330335,32.7549200000001]}},{"properties":{"CITY":"FREDERICKSBURG","Matchaddr":"FREDERICKSBURG, VA","ST":"VA","NO":11772.0,"X":-77.4848,"Y":38.295578,"Locname":"CityState","Street":"137 SPOTSYLVANIA TOWNE CTR","Score":100,"id":"a62etjwrexgp"},"type":"Feature","geometry":{"type":"Point","coordinates":[-77.4848,38.2955780000001]}},{"properties":{"CITY":"FRISCO","Matchaddr":"FRISCO, TX","ST":"TX","NO":14096.0,"X":-96.787647,"Y":33.152866,"Locname":"CityState","Street":"801 WARREN PKWY","Score":100,"id":"a62etk58805d"},"type":"Feature","geometry":{"type":"Point","coordinates":[-96.787647,33.1528660000001]}},{"properties":{"CITY":"FRISCO","Matchaddr":"FRISCO, TX","ST":"TX","NO":13928.0,"X":-96.787647,"Y":33.152866,"Locname":"CityState","Street":"423","Score":100,"id":"a62etk334x8x"},"type":"Feature","geometry":{"type":"Point","coordinates":[-96.787647,33.1528660000001]}},{"properties":{"CITY":"GAINESVILLE","Matchaddr":"GAINESVILLE, VA","ST":"VA","NO":10761.0,"X":-77.613896,"Y":38.79572,"Locname":"CityState","Street":"8006 CRESCENT PARK DR","Score":100,"id":"a62etjyc619g"},"type":"Feature","geometry":{"type":"Point","coordinates":[-77.613896,38.79572]}},{"properties":{"CITY":"GAITHERSBURG","Matchaddr":"GAITHERSBURG, MD","ST":"MD","NO":11850.0,"X":-77.233627,"Y":39.129248,"Locname":"CityState","Street":"18314 CONTOUR RD","Score":100,"id":"a62etjyqdz0n"},"type":"Feature","geometry":{"type":"Point","coordinates":[-77.233627,39.129248]}},{"properties":{"CITY":"GARLAND","Matchaddr":"GARLAND, TX","ST":"TX","NO":10295.0,"X":-96.63089,"Y":32.908865,"Locname":"CityState","Street":"470 CONEFLOWER DR","Score":100,"id":"a62etjqac0qw"},"type":"Feature","geometry":{"type":"Point","coordinates":[-96.63089,32.908865]}},{"properties":{"CITY":"GLENDALE","Matchaddr":"GLENDALE, NY","ST":"NY","NO":10166.0,"X":-75.410804,"Y":43.717638,"Locname":"CityState","Street":"8989 UNION TURNPIKE","Score":100,"id":"a62etjvym8fk"},"type":"Feature","geometry":{"type":"Point","coordinates":[-75.410804,43.717638]}},{"properties":{"CITY":"GLENDALE","Matchaddr":"GLENDALE, NY","ST":"NY","NO":11812.0,"X":-75.410804,"Y":43.717638,"Locname":"CityState","Street":"8000 COOPER AVE","Score":100,"id":"a62etk0mjb9d"},"type":"Feature","geometry":{"type":"Point","coordinates":[-75.410804,43.717638]}},{"properties":{"CITY":"GREENVILLE","Matchaddr":"GREENVILLE, MI","ST":"MI","NO":13623.0,"X":-85.253206,"Y":43.177457,"Locname":"CityState","Street":"1925 W WASHINGTON","Score":100,"id":"a62etk4fmp01"},"type":"Feature","geometry":{"type":"Point","coordinates":[-85.253206,43.1774570000001]}},{"properties":{"CITY":"HAMPTON","Matchaddr":"HAMPTON, VA","ST":"VA","NO":2957.0,"X":-76.365922,"Y":37.059659,"Locname":"CityState","Street":"1984 POWER PLANT PKWY","Score":100,"id":"a62etjy05l4v"},"type":"Feature","geometry":{"type":"Point","coordinates":[-76.365922,37.0596590000001]}},{"properties":{"CITY":"HAYWARD","Matchaddr":"HAYWARD, CA","ST":"CA","NO":5908.0,"X":-120.371569,"Y":37.645745,"Locname":"CityState","Street":"2695 3 MISSION RD","Score":100,"id":"a62etjtynqk6"},"type":"Feature","geometry":{"type":"Point","coordinates":[-120.371569,37.6457449999999]}},{"properties":{"CITY":"HEMET","Matchaddr":"HEMET, CA","ST":"CA","NO":10341.0,"X":-116.989083,"Y":33.738611,"Locname":"CityState","Street":"3511 W STETSON AVE","Score":100,"id":"a62etk3jh3le"},"type":"Feature","geometry":{"type":"Point","coordinates":[-116.989083,33.738611]}},{"properties":{"CITY":"HICKVILLE","Matchaddr":"HICKSVILLE, NY","ST":"NY","NO":7574.0,"X":-73.523981,"Y":40.763489,"Locname":"CityState","Street":"385B BRDWAY MALL","Score":89,"id":"a62etk0f6fty"},"type":"Feature","geometry":{"type":"Point","coordinates":[-73.5239809999999,40.763489]}},{"properties":{"CITY":"HILLSBORO","Matchaddr":"HILLSBORO, OR","ST":"OR","NO":13769.0,"X":-122.938047,"Y":45.532685,"Locname":"CityState","Street":"1887 NW 188TH AVE","Score":100,"id":"a62etjz2zcs6"},"type":"Feature","geometry":{"type":"Point","coordinates":[-122.938047,45.532685]}},{"properties":{"CITY":"HOUSTON","Matchaddr":"HOUSTON, TX","ST":"TX","NO":7944.0,"X":-95.362534,"Y":29.759956,"Locname":"CityState","Street":"6001 N FWY","Score":100,"id":"a62etk571i7k"},"type":"Feature","geometry":{"type":"Point","coordinates":[-95.3625339999999,29.7599560000001]}},{"properties":{"CITY":"HOUSTON","Matchaddr":"HOUSTON, TX","ST":"TX","NO":11562.0,"X":-95.362534,"Y":29.759956,"Locname":"CityState","Street":"14333 WHEIMER RD","Score":100,"id":"a62etjpy14ah"},"type":"Feature","geometry":{"type":"Point","coordinates":[-95.3625339999999,29.7599560000001]}},{"properties":{"CITY":"HOUSTON","Matchaddr":"HOUSTON, TX","ST":"TX","NO":6274.0,"X":-95.362534,"Y":29.759956,"Locname":"CityState","Street":"3821 SHEPHARD","Score":100,"id":"a62etjuqq4oo"},"type":"Feature","geometry":{"type":"Point","coordinates":[-95.3625339999999,29.7599560000001]}},{"properties":{"CITY":"HYDE PARK","Matchaddr":"HYDE PARK, NY","ST":"NY","NO":7679.0,"X":-74.958048,"Y":42.661059,"Locname":"CityState","Street":"1441 JERICHO TURNPIKE NEW","Score":100,"id":"a62etjz7mw0e"},"type":"Feature","geometry":{"type":"Point","coordinates":[-74.958048,42.661059]}},{"properties":{"CITY":"INDIANAPOLIS","Matchaddr":"INDIANAPOLIS, IN","ST":"IN","NO":2499.0,"X":-86.156255,"Y":39.767016,"Locname":"CityState","Street":"9642 ALLISONVILLE RD","Score":100,"id":"a62etjyrrnse"},"type":"Feature","geometry":{"type":"Point","coordinates":[-86.1562549999999,39.767016]}},{"properties":{"CITY":"ISLAND","Matchaddr":"ISLANDIA, NY","ST":"NY","NO":11280.0,"X":-73.167552,"Y":40.808721,"Locname":"CityState","Street":"1756 FOREST AVE STATEN","Score":74,"id":"a62etk17fp5q"},"type":"Feature","geometry":{"type":"Point","coordinates":[-73.1675519999999,40.808721]}},{"properties":{"CITY":"JACKSON","Matchaddr":"JACKSON, CA","ST":"CA","NO":13934.0,"X":-120.774185,"Y":38.348999,"Locname":"CityState","Street":"711 STATE HWY","Score":100,"id":"a62etk5s3z3p"},"type":"Feature","geometry":{"type":"Point","coordinates":[-120.774185,38.348999]}},{"properties":{"CITY":"KALAMAZOO","Matchaddr":"KALAMAZOO, MI","ST":"MI","NO":13202.0,"X":-85.593608,"Y":42.291509,"Locname":"CityState","Street":"5625 GULL RD","Score":100,"id":"a62etjtp8ez7"},"type":"Feature","geometry":{"type":"Point","coordinates":[-85.593608,42.2915090000001]}},{"properties":{"CITY":"LACROSSE","Matchaddr":"LA CROSSE, WI","ST":"WI","NO":11672.0,"X":-91.219353,"Y":43.818787,"Locname":"CityState","Street":"1422 S LOSEY BLVD","Score":88,"id":"a62etk4v5gfn"},"type":"Feature","geometry":{"type":"Point","coordinates":[-91.219353,43.8187870000001]}},{"properties":{"CITY":"LAGUNA","Matchaddr":"LAGUNA, CA","ST":"CA","NO":13745.0,"X":-121.423433,"Y":38.423476,"Locname":"CityState","Street":"636 N PACIFIC COAST HWY","Score":100,"id":"a62etjt4wi1o"},"type":"Feature","geometry":{"type":"Point","coordinates":[-121.423433,38.4234760000001]}},{"properties":{"CITY":"LAKE ARROWHEAD","Matchaddr":"LAKE ARROWHEAD, CA","ST":"CA","NO":11328.0,"X":-117.181901,"Y":34.251586,"Locname":"CityState","Street":"173 ST HWY","Score":100,"id":"a62etjxmysoi"},"type":"Feature","geometry":{"type":"Point","coordinates":[-117.181901,34.251586]}},{"properties":{"CITY":"LAKE FOREST","Matchaddr":"LAKE FOREST, CA","ST":"CA","NO":14013.0,"X":-120.113385,"Y":39.189839,"Locname":"CityState","Street":"22621 LAKE","Score":100,"id":"a62etjqpbtng"},"type":"Feature","geometry":{"type":"Point","coordinates":[-120.113385,39.1898390000001]}},{"properties":{"CITY":"LANSING","Matchaddr":"LANSING, MI","ST":"MI","NO":13955.0,"X":-84.546582,"Y":42.733621,"Locname":"CityState","Street":"3201 E GRAND RIVER","Score":100,"id":"a62etjvt3gz8"},"type":"Feature","geometry":{"type":"Point","coordinates":[-84.546582,42.7336210000001]}},{"properties":{"CITY":"LAS VEGAS","Matchaddr":"LAS VEGAS, NV","ST":"NV","NO":5544.0,"X":-115.246776,"Y":36.233048,"Locname":"CityState","Street":"2390 E SERENE AVE","Score":100,"id":"a62etjt4qctj"},"type":"Feature","geometry":{"type":"Point","coordinates":[-115.246776,36.233048]}},{"properties":{"CITY":"LAS VEGAS","Matchaddr":"LAS VEGAS, NV","ST":"NV","NO":10079.0,"X":-115.246776,"Y":36.233048,"Locname":"CityState","Street":"6100 W FLAMINGO RD","Score":100,"id":"a62etk4emp7t"},"type":"Feature","geometry":{"type":"Point","coordinates":[-115.246776,36.233048]}},{"properties":{"CITY":"LAS VEGAS","Matchaddr":"LAS VEGAS, NV","ST":"NV","NO":10872.0,"X":-115.246776,"Y":36.233048,"Locname":"CityState","Street":"3720 LAKE MEAD BLVD","Score":100,"id":"a62etjqvz6qg"},"type":"Feature","geometry":{"type":"Point","coordinates":[-115.246776,36.233048]}},{"properties":{"CITY":"LAS VEGAS","Matchaddr":"LAS VEGAS, NV","ST":"NV","NO":9884.0,"X":-115.246776,"Y":36.233048,"Locname":"CityState","Street":"6360 N SIMMON ST N","Score":100,"id":"a62etk5xblb3"},"type":"Feature","geometry":{"type":"Point","coordinates":[-115.246776,36.233048]}},{"properties":{"CITY":"LAS VEGAS","Matchaddr":"LAS VEGAS, NV","ST":"NV","NO":5592.0,"X":-115.246776,"Y":36.233048,"Locname":"CityState","Street":"1513 W CRAIG RD","Score":100,"id":"a62etk5y01ei"},"type":"Feature","geometry":{"type":"Point","coordinates":[-115.246776,36.233048]}},{"properties":{"CITY":"LEES SUMMIT","Matchaddr":"LEE'S SUMMIT, MO","ST":"MO","NO":13653.0,"X":-94.376178,"Y":38.912589,"Locname":"CityState","Street":"3701 SW HOLLYWOOD DR","Score":91,"id":"a62etk5623ck"},"type":"Feature","geometry":{"type":"Point","coordinates":[-94.376178,38.912589]}},{"properties":{"CITY":"LINCOLN","Matchaddr":"LINCOLN, CA","ST":"CA","NO":9637.0,"X":-121.297568,"Y":38.874051,"Locname":"CityState","Street":"1520 DEL WEBB BLVD","Score":100,"id":"a62etjwl9wqx"},"type":"Feature","geometry":{"type":"Point","coordinates":[-121.297568,38.8740510000001]}},{"properties":{"CITY":"LITTLE ROCK","Matchaddr":"LITTLE ROCK, AR","ST":"AR","NO":7968.0,"X":-92.278864,"Y":34.724425,"Locname":"CityState","Street":"4120 E MCCAIN","Score":100,"id":"a62etjv6daws"},"type":"Feature","geometry":{"type":"Point","coordinates":[-92.278864,34.7244250000001]}},{"properties":{"CITY":"LOCKPORT","Matchaddr":"LOCKPORT, IL","ST":"IL","NO":2631.0,"X":-88.049727,"Y":41.582612,"Locname":"CityState","Street":"14124 S BELL RD","Score":100,"id":"a62etk595ga4"},"type":"Feature","geometry":{"type":"Point","coordinates":[-88.049727,41.5826119999999]}},{"properties":{"CITY":"LOCKPORT","Matchaddr":"LOCKPORT, NY","ST":"NY","NO":9403.0,"X":-78.696849,"Y":43.168862,"Locname":"CityState","Street":"5774 S TRANSIT RD","Score":100,"id":"a62etk14abnc"},"type":"Feature","geometry":{"type":"Point","coordinates":[-78.6968489999999,43.168862]}},{"properties":{"CITY":"LOUISVILLE","Matchaddr":"LOUISVILLE, KY","ST":"KY","NO":10779.0,"X":-85.75154,"Y":38.256065,"Locname":"CityState","Street":"285 N HUBBARDS LN","Score":100,"id":"a62etjxwmtgs"},"type":"Feature","geometry":{"type":"Point","coordinates":[-85.7515399999999,38.2560650000001]}},{"properties":{"CITY":"MALVERN","Matchaddr":"MALVERN, AR","ST":"AR","NO":14176.0,"X":-92.817765,"Y":34.368658,"Locname":"CityState","Street":"1900 MLK DRIVE","Score":100,"id":"a62etk2qz4cj"},"type":"Feature","geometry":{"type":"Point","coordinates":[-92.817765,34.3686580000001]}},{"properties":{"CITY":"MAMARONECK","Matchaddr":"MAMARONECK, NY","ST":"NY","NO":14187.0,"X":-73.733037,"Y":40.948697,"Locname":"CityState","Street":"14187 322 MAMARONECK AVE","Score":100,"id":"a62etk5cfb9t"},"type":"Feature","geometry":{"type":"Point","coordinates":[-73.733037,40.9486970000001]}},{"properties":{"CITY":"MAMMOTH LAKES","Matchaddr":"MAMMOTH LAKES, CA","ST":"CA","NO":6836.0,"X":-118.992315,"Y":37.627673,"Locname":"CityState","Street":"436 MAMMOTH RD","Score":100,"id":"a62etk3v85ku"},"type":"Feature","geometry":{"type":"Point","coordinates":[-118.992315,37.627673]}},{"properties":{"CITY":"MANHATTAN","Matchaddr":"MANHATTAN, NY","ST":"NY","NO":2880.0,"X":-73.987951,"Y":40.749863,"Locname":"CityState","Street":"1675 BRDWAY","Score":100,"id":"a62etju3aer5"},"type":"Feature","geometry":{"type":"Point","coordinates":[-73.987951,40.749863]}},{"properties":{"CITY":"MARION","Matchaddr":"MARION, AR","ST":"AR","NO":14103.0,"X":-90.257555,"Y":35.190078,"Locname":"CityState","Street":"320 BANCARIO","Score":100,"id":"a62etjt5hzip"},"type":"Feature","geometry":{"type":"Point","coordinates":[-90.257555,35.190078]}},{"properties":{"CITY":"MAUMEE","Matchaddr":"MAUMEE, OH","ST":"OH","NO":14170.0,"X":-83.663582,"Y":41.567932,"Locname":"CityState","Street":"3100 MAIN ST","Score":100,"id":"a62etjv1rawk"},"type":"Feature","geometry":{"type":"Point","coordinates":[-83.663582,41.567932]}},{"properties":{"CITY":"MEMPHIS","Matchaddr":"MEMPHIS, TN","ST":"TN","NO":8350.0,"X":-90.05235,"Y":35.142852,"Locname":"CityState","Street":"1645 N GERMANTOWN PKWY","Score":100,"id":"a62etk4p02xb"},"type":"Feature","geometry":{"type":"Point","coordinates":[-90.05235,35.142852]}},{"properties":{"CITY":"MEMPHIS","Matchaddr":"MEMPHIS, TN","ST":"TN","NO":11885.0,"X":-90.05235,"Y":35.142852,"Locname":"CityState","Street":"2293 N GERMANTOWN PKWY","Score":100,"id":"a62etjtua5q1"},"type":"Feature","geometry":{"type":"Point","coordinates":[-90.05235,35.142852]}},{"properties":{"CITY":"MESQUITE","Matchaddr":"MESQUITE, TX","ST":"TX","NO":2977.0,"X":-96.59916,"Y":32.766812,"Locname":"CityState","Street":"2228 TOWN E BLVD","Score":100,"id":"a62etjufuv18"},"type":"Feature","geometry":{"type":"Point","coordinates":[-96.5991599999999,32.766812]}},{"properties":{"CITY":"MIAMI","Matchaddr":"MIAMI, FL","ST":"FL","NO":13465.0,"X":-80.190262,"Y":25.774252,"Locname":"CityState","Street":"9600 SW 160th ST","Score":100,"id":"a62etjtb1uk9"},"type":"Feature","geometry":{"type":"Point","coordinates":[-80.190262,25.774252]}},{"properties":{"CITY":"MIDDLETOWN","Matchaddr":"MIDDLETOWN, NY","ST":"NY","NO":11368.0,"X":-74.42581,"Y":41.448414,"Locname":"CityState","Street":"11368 ONE GALLERIA DR","Score":100,"id":"a62etjvajjbs"},"type":"Feature","geometry":{"type":"Point","coordinates":[-74.42581,41.448414]}},{"properties":{"CITY":"MINNETONKA","Matchaddr":"MINNETONKA, MN","ST":"MN","NO":9915.0,"X":-93.455662,"Y":44.934619,"Locname":"CityState","Street":"5101 COUNTY RD","Score":100,"id":"a62etjqlf5dm"},"type":"Feature","geometry":{"type":"Point","coordinates":[-93.455662,44.9346190000001]}},{"properties":{"CITY":"MIRA LOMA","Matchaddr":"MIRA LOMA, CA","ST":"CA","NO":10941.0,"X":-117.516748,"Y":33.982741,"Locname":"CityState","Street":"6253 PATS RANCH","Score":100,"id":"a62etk4tqibs"},"type":"Feature","geometry":{"type":"Point","coordinates":[-117.516748,33.9827410000001]}},{"properties":{"CITY":"MOBILE","Matchaddr":"MOBILE, AL","ST":"AL","NO":10538.0,"X":-88.050634,"Y":30.688781,"Locname":"CityState","Street":"3451 SPRING HILL","Score":100,"id":"a62etk5tdvgx"},"type":"Feature","geometry":{"type":"Point","coordinates":[-88.050634,30.688781]}},{"properties":{"CITY":"MOBILE","Matchaddr":"MOBILE, AL","ST":"AL","NO":10797.0,"X":-88.050634,"Y":30.688781,"Locname":"CityState","Street":"9 DURHU DRIVE","Score":100,"id":"a62etjrdnato"},"type":"Feature","geometry":{"type":"Point","coordinates":[-88.050634,30.688781]}},{"properties":{"CITY":"MORELAND","Matchaddr":"MORELAND, PA","ST":"PA","NO":7882.0,"X":-76.646033,"Y":41.182402,"Locname":"CityState","Street":"2770 EON RD UPPER","Score":100,"id":"a62etjyuj3f8"},"type":"Feature","geometry":{"type":"Point","coordinates":[-76.646033,41.182402]}},{"properties":{"CITY":"MURFREESBORO","Matchaddr":"MURFREESBORO, TN","ST":"TN","NO":8471.0,"X":-86.401054,"Y":35.852328,"Locname":"CityState","Street":"8741 STONES RIVER MALL BLVD","Score":100,"id":"a62etk1vpjci"},"type":"Feature","geometry":{"type":"Point","coordinates":[-86.4010539999999,35.8523280000001]}},{"properties":{"CITY":"NAPLES","Matchaddr":"NAPLES, FL","ST":"FL","NO":10727.0,"X":-81.795483,"Y":26.147369,"Locname":"CityState","Street":"2405 TARPON BAY BLVD","Score":100,"id":"a62etjxy0nh2"},"type":"Feature","geometry":{"type":"Point","coordinates":[-81.7954829999999,26.147369]}},{"properties":{"CITY":"NEW YORK","Matchaddr":"NEW YORK, NY","ST":"NY","NO":11538.0,"X":-73.98555,"Y":40.757947,"Locname":"CityState","Street":"1600 BRDWAY","Score":100,"id":"a62etk5aummt"},"type":"Feature","geometry":{"type":"Point","coordinates":[-73.98555,40.7579470000001]}},{"properties":{"CITY":"NEWARK","Matchaddr":"NEWARK, NJ","ST":"NJ","NO":7563.0,"X":-74.17211,"Y":40.735443,"Locname":"CityState","Street":"744 BRD ST","Score":100,"id":"a62etk5gxp24"},"type":"Feature","geometry":{"type":"Point","coordinates":[-74.1721099999999,40.7354430000001]}},{"properties":{"CITY":"NEWPORT NEWS","Matchaddr":"NEWPORT NEWS, VA","ST":"VA","NO":10986.0,"X":-76.460443,"Y":37.032439,"Locname":"CityState","Street":"1230 0 JEFFERSON AVE","Score":100,"id":"a62etjqkjb78"},"type":"Feature","geometry":{"type":"Point","coordinates":[-76.460443,37.0324390000001]}},{"properties":{"CITY":"OAK","Matchaddr":"OAKS, TX","ST":"TX","NO":11301.0,"X":-98.032247,"Y":28.608741,"Locname":"CityState","Street":"502 N I-35 RED","Score":74,"id":"a62etjx6t218"},"type":"Feature","geometry":{"type":"Point","coordinates":[-98.032247,28.6087410000001]}},{"properties":{"CITY":"OKLAHOMA CITY","Matchaddr":"OKLAHOMA CITY, OK","ST":"OK","NO":11144.0,"X":-97.459141,"Y":35.493138,"Locname":"CityState","Street":"12124 4N PENNSYLVANIA AVE","Score":100,"id":"a62etjv5oq3i"},"type":"Feature","geometry":{"type":"Point","coordinates":[-97.4591409999999,35.4931380000001]}},{"properties":{"CITY":"OKLAHOMA CITY","Matchaddr":"OKLAHOMA CITY, OK","ST":"OK","NO":14093.0,"X":-97.459141,"Y":35.493138,"Locname":"CityState","Street":"9201 S WERN AVE","Score":100,"id":"a62etk5qbox6"},"type":"Feature","geometry":{"type":"Point","coordinates":[-97.4591409999999,35.4931380000001]}},{"properties":{"CITY":"ORANGE BEACH","Matchaddr":"ORANGE BEACH, AL","ST":"AL","NO":10951.0,"X":-87.598288,"Y":30.290328,"Locname":"CityState","Street":"4725 MAIN ST","Score":100,"id":"a62etjtdms7w"},"type":"Feature","geometry":{"type":"Point","coordinates":[-87.598288,30.290328]}},{"properties":{"CITY":"ORANGE PARK","Matchaddr":"ORANGE PARK, FL","ST":"FL","NO":13608.0,"X":-81.706373,"Y":30.170385,"Locname":"CityState","Street":"1907 WELLS RD","Score":100,"id":"a62etk07g17m"},"type":"Feature","geometry":{"type":"Point","coordinates":[-81.706373,30.170385]}},{"properties":{"CITY":"ORANGE PARK","Matchaddr":"ORANGE PARK, FL","ST":"FL","NO":9860.0,"X":-81.706373,"Y":30.170385,"Locname":"CityState","Street":"1910 WELLS RD","Score":100,"id":"a62etjtqewj7"},"type":"Feature","geometry":{"type":"Point","coordinates":[-81.706373,30.170385]}},{"properties":{"CITY":"OTTAWA","Matchaddr":"OTTAWA, IL","ST":"IL","NO":11962.0,"X":-88.841192,"Y":41.353634,"Locname":"CityState","Street":"110 ETNA RD","Score":100,"id":"a62etjwzjgei"},"type":"Feature","geometry":{"type":"Point","coordinates":[-88.8411919999999,41.3536340000001]}},{"properties":{"CITY":"PALM BEACH","Matchaddr":"PALM BEACH, FL","ST":"FL","NO":7963.0,"X":-80.03641,"Y":26.705547,"Locname":"CityState","Street":"11701 LAKE VICTORIA GARDENS","Score":100,"id":"a62etjrk6fiq"},"type":"Feature","geometry":{"type":"Point","coordinates":[-80.0364099999999,26.705547]}},{"properties":{"CITY":"PALM BEACH","Matchaddr":"PALM BEACH, FL","ST":"FL","NO":11405.0,"X":-80.03641,"Y":26.705547,"Locname":"CityState","Street":"801 N CONGRESS AVE","Score":100,"id":"a62etjzexnmb"},"type":"Feature","geometry":{"type":"Point","coordinates":[-80.0364099999999,26.705547]}},{"properties":{"CITY":"PARIS","Matchaddr":"PARIS, KY","ST":"KY","NO":11512.0,"X":-84.268602,"Y":38.198273,"Locname":"CityState","Street":"320 LETTON DR","Score":100,"id":"a62etjrhgepv"},"type":"Feature","geometry":{"type":"Point","coordinates":[-84.2686019999999,38.198273]}},{"properties":{"CITY":"PENSACOLA","Matchaddr":"PENSACOLA, FL","ST":"FL","NO":9750.0,"X":-87.212261,"Y":30.473413,"Locname":"CityState","Street":"8101 UNIVERSITY PKWY","Score":100,"id":"a62etjqbkqvp"},"type":"Feature","geometry":{"type":"Point","coordinates":[-87.212261,30.4734130000001]}},{"properties":{"CITY":"PLAINFIELD","Matchaddr":"PLAINFIELD, IN","ST":"IN","NO":11722.0,"X":-86.395104,"Y":39.705226,"Locname":"CityState","Street":"2499 FUTURA PKWY","Score":100,"id":"a62etjzsh0fd"},"type":"Feature","geometry":{"type":"Point","coordinates":[-86.3951039999999,39.705226]}},{"properties":{"CITY":"PLAINVIEW","Matchaddr":"PLAINVIEW, TX","ST":"TX","NO":11074.0,"X":-101.72449,"Y":34.191816,"Locname":"CityState","Street":"1301 I-27 NORTH","Score":100,"id":"a62etk3r42qx"},"type":"Feature","geometry":{"type":"Point","coordinates":[-101.72449,34.191816]}},{"properties":{"CITY":"POMPANO BEACH","Matchaddr":"POMPANO BEACH, FL","ST":"FL","NO":11407.0,"X":-80.136337,"Y":26.23152,"Locname":"CityState","Street":"9439 W ATLANTIC BLVD","Score":100,"id":"a62etjuycquk"},"type":"Feature","geometry":{"type":"Point","coordinates":[-80.136337,26.2315200000001]}},{"properties":{"CITY":"POUGHKEEPSIE","Matchaddr":"POUGHKEEPSIE, NY","ST":"NY","NO":11651.0,"X":-73.922049,"Y":41.694525,"Locname":"CityState","Street":"2001 S RD","Score":100,"id":"a62etjwvg5ca"},"type":"Feature","geometry":{"type":"Point","coordinates":[-73.922049,41.6945250000001]}},{"properties":{"CITY":"READING","Matchaddr":"READING, PA","ST":"PA","NO":13545.0,"X":-75.927867,"Y":40.335354,"Locname":"CityState","Street":"3225 N5TH ST","Score":100,"id":"a62etjyn6hvd"},"type":"Feature","geometry":{"type":"Point","coordinates":[-75.9278669999999,40.3353540000001]}},{"properties":{"CITY":"RIVER FOREST","Matchaddr":"RIVER FOREST, IL","ST":"IL","NO":11624.0,"X":-87.814847,"Y":41.893962,"Locname":"CityState","Street":"7601 W NAVE","Score":100,"id":"a62etjqlgsxg"},"type":"Feature","geometry":{"type":"Point","coordinates":[-87.814847,41.8939620000001]}},{"properties":{"CITY":"RIVERSIDE","Matchaddr":"RIVERSIDE, CA","ST":"CA","NO":10813.0,"X":-117.400875,"Y":33.946458,"Locname":"CityState","Street":"2692 CANYON SPRINGS","Score":100,"id":"a62etjwz1tmg"},"type":"Feature","geometry":{"type":"Point","coordinates":[-117.400875,33.9464580000001]}},{"properties":{"CITY":"RIVERTON","Matchaddr":"RIVERTON, UT","ST":"UT","NO":10880.0,"X":-111.938732,"Y":40.522266,"Locname":"CityState","Street":"12600 S","Score":100,"id":"a62etk1sy8l8"},"type":"Feature","geometry":{"type":"Point","coordinates":[-111.938732,40.5222660000001]}},{"properties":{"CITY":"ROCHESTER","Matchaddr":"ROCHESTER, MN","ST":"MN","NO":11186.0,"X":-92.465953,"Y":44.02157,"Locname":"CityState","Street":"2665 COMMERCE DR NW","Score":100,"id":"a62etjrnab12"},"type":"Feature","geometry":{"type":"Point","coordinates":[-92.465953,44.0215700000001]}},{"properties":{"CITY":"ROGERS","Matchaddr":"ROGERS, AR","ST":"AR","NO":11325.0,"X":-94.143819,"Y":36.326741,"Locname":"CityState","Street":"2203 45TH ST","Score":100,"id":"a62etk4lp0cv"},"type":"Feature","geometry":{"type":"Point","coordinates":[-94.143819,36.326741]}},{"properties":{"CITY":"ROSENBURG","Matchaddr":"ROSENBERG, TX","ST":"TX","NO":11982.0,"X":-95.793461,"Y":29.542546,"Locname":"CityState","Street":"24406 SW FWY","Score":76,"id":"a62etjzug7me"},"type":"Feature","geometry":{"type":"Point","coordinates":[-95.7934609999999,29.542546]}},{"properties":{"CITY":"ROSENBERG","Matchaddr":"ROSENBERG, TX","ST":"TX","NO":11302.0,"X":-95.793461,"Y":29.542546,"Locname":"CityState","Street":"27943 SW FWY","Score":100,"id":"a62etjqrohr3"},"type":"Feature","geometry":{"type":"Point","coordinates":[-95.7934609999999,29.542546]}},{"properties":{"CITY":"ROSLYN HEIGHTS","Matchaddr":"ROSLYN HEIGHTS, NY","ST":"NY","NO":10611.0,"X":-73.639307,"Y":40.780859,"Locname":"CityState","Street":"1 RAILRD AVE","Score":100,"id":"a62etk66m1z3"},"type":"Feature","geometry":{"type":"Point","coordinates":[-73.639307,40.780859]}},{"properties":{"CITY":"SACRAMENTO","Matchaddr":"SACRAMENTO, CA","ST":"CA","NO":11100.0,"X":-121.487147,"Y":38.573659,"Locname":"CityState","Street":"3630 N FREEWAY BLVD","Score":100,"id":"a62etjvqm4ui"},"type":"Feature","geometry":{"type":"Point","coordinates":[-121.487147,38.5736590000001]}},{"properties":{"CITY":"SAN DIEGO","Matchaddr":"SAN DIEGO, CA","ST":"CA","NO":11837.0,"X":-117.163841,"Y":32.718834,"Locname":"CityState","Street":"1122 BRDWAY AVE","Score":100,"id":"a62etk2s0m0n"},"type":"Feature","geometry":{"type":"Point","coordinates":[-117.163841,32.718834]}},{"properties":{"CITY":"SAN DIEGO","Matchaddr":"SAN DIEGO, CA","ST":"CA","NO":5637.0,"X":-117.163841,"Y":32.718834,"Locname":"CityState","Street":"6171 MISSION GORGE","Score":100,"id":"a62etk4rtuf7"},"type":"Feature","geometry":{"type":"Point","coordinates":[-117.163841,32.718834]}},{"properties":{"CITY":"SANTA CLARITA","Matchaddr":"SANTA CLARITA, CA","ST":"CA","NO":10584.0,"X":-118.531397,"Y":34.433248,"Locname":"CityState","Street":"26503 GOLDEN VALLEY RD","Score":100,"id":"a62etjzw0zws"},"type":"Feature","geometry":{"type":"Point","coordinates":[-118.531397,34.4332479999999]}},{"properties":{"CITY":"SOUTHAMPTON","Matchaddr":"SOUTHAMPTON, NY","ST":"NY","NO":9845.0,"X":-72.39575,"Y":40.883865,"Locname":"CityState","Street":"9845 20 HWY","Score":100,"id":"a62etjzx0j2g"},"type":"Feature","geometry":{"type":"Point","coordinates":[-72.39575,40.8838650000001]}},{"properties":{"CITY":"ST. CLAIRSVILLE","Matchaddr":"ST. CLAIRSVILLE, OH","ST":"OH","NO":10399.0,"X":-80.90032,"Y":40.079365,"Locname":"CityState","Street":"6780 0 MALL RD","Score":100,"id":"a62etjtv2vp2"},"type":"Feature","geometry":{"type":"Point","coordinates":[-80.90032,40.079365]}},{"properties":{"CITY":"ST. LOUIS","Matchaddr":"ST. LOUIS, MO","ST":"MO","NO":11523.0,"X":-90.198268,"Y":38.627487,"Locname":"CityState","Street":"6070 H TELEGRAPH RD","Score":100,"id":"a62etjtx9ctg"},"type":"Feature","geometry":{"type":"Point","coordinates":[-90.1982679999999,38.627487]}},{"properties":{"CITY":"ST. LOUIS","Matchaddr":"ST. LOUIS, MO","ST":"MO","NO":13764.0,"X":-90.198268,"Y":38.627487,"Locname":"CityState","Street":"9 NE UCLID AVE","Score":100,"id":"a62etjvi3tbf"},"type":"Feature","geometry":{"type":"Point","coordinates":[-90.1982679999999,38.627487]}},{"properties":{"CITY":"ST. LOUIS","Matchaddr":"ST. LOUIS, MO","ST":"MO","NO":11360.0,"X":-90.198268,"Y":38.627487,"Locname":"CityState","Street":"1002 5 MANCHESTER RD","Score":100,"id":"a62etjrw1kko"},"type":"Feature","geometry":{"type":"Point","coordinates":[-90.1982679999999,38.627487]}},{"properties":{"CITY":"ST LUCIE","Matchaddr":"ST. LUCIE, FL","ST":"FL","NO":13405.0,"X":-80.34359,"Y":27.498455,"Locname":"CityState","Street":"13405 BECKER RD","Score":88,"id":"a62etk06b8gn"},"type":"Feature","geometry":{"type":"Point","coordinates":[-80.34359,27.498455]}},{"properties":{"CITY":"ST. PAUL","Matchaddr":"ST. PAUL, MN","ST":"MN","NO":10690.0,"X":-93.102665,"Y":44.944627,"Locname":"CityState","Street":"242 W 7TH","Score":100,"id":"a62etjvjsl1p"},"type":"Feature","geometry":{"type":"Point","coordinates":[-93.1026649999999,44.944627]}},{"properties":{"CITY":"ST. PETERSBURG","Matchaddr":"ST. PETERSBURG, FL","ST":"FL","NO":14229.0,"X":-82.638458,"Y":27.76707,"Locname":"CityState","Street":"625 6th AVE S ST","Score":100,"id":"a62etjwe8arc"},"type":"Feature","geometry":{"type":"Point","coordinates":[-82.6384579999999,27.7670700000001]}},{"properties":{"CITY":"STROUDSBURG","Matchaddr":"STROUDSBURG, PA","ST":"PA","NO":14118.0,"X":-75.19789,"Y":40.984371,"Locname":"CityState","Street":"14118 RT 611","Score":100,"id":"a62etjsfxysx"},"type":"Feature","geometry":{"type":"Point","coordinates":[-75.19789,40.984371]}},{"properties":{"CITY":"SYRACUSE","Matchaddr":"SYRACUSE, NY","ST":"NY","NO":8132.0,"X":-76.147375,"Y":43.050831,"Locname":"CityState","Street":"6570 WEIGHLOCK DR EAST","Score":100,"id":"a62etjzwsfre"},"type":"Feature","geometry":{"type":"Point","coordinates":[-76.147375,43.0508310000001]}},{"properties":{"CITY":"TAMPA","Matchaddr":"TAMPA, FL","ST":"FL","NO":11585.0,"X":-82.451142,"Y":27.98146,"Locname":"CityState","Street":"8021 CITRUS PK TOWN CNTR","Score":100,"id":"a62etjue069r"},"type":"Feature","geometry":{"type":"Point","coordinates":[-82.451142,27.9814600000001]}},{"properties":{"CITY":"THE VILLAGES","Matchaddr":"THE VILLAGES, FL","ST":"FL","NO":13496.0,"X":-81.978993,"Y":28.938392,"Locname":"CityState","Street":"4046 WEDGEWOOD LN","Score":100,"id":"a62etjzmdwr1"},"type":"Feature","geometry":{"type":"Point","coordinates":[-81.9789929999999,28.938392]}},{"properties":{"CITY":"TILLAMOOK","Matchaddr":"TILLAMOOK, OR","ST":"OR","NO":10520.0,"X":-123.839972,"Y":45.456318,"Locname":"CityState","Street":"1701 WILSON RIVER","Score":100,"id":"a62etjtqkc7r"},"type":"Feature","geometry":{"type":"Point","coordinates":[-123.839972,45.456318]}},{"properties":{"CITY":"TRIDELPHIA","Matchaddr":"TRIADELPHIA, WV","ST":"WV","NO":11213.0,"X":-80.631287,"Y":40.044973,"Locname":"CityState","Street":"36 FORT HENRY RD","Score":90,"id":"a62etjrbe0za"},"type":"Feature","geometry":{"type":"Point","coordinates":[-80.631287,40.0449730000001]}},{"properties":{"CITY":"TUKWILA","Matchaddr":"TUKWILA, WA","ST":"WA","NO":14274.0,"X":-122.284351,"Y":47.474218,"Locname":"CityState","Street":"17100 S CENTER PKWY","Score":100,"id":"a62etjzjp560"},"type":"Feature","geometry":{"type":"Point","coordinates":[-122.284351,47.4742180000001]}},{"properties":{"CITY":"VERO BEACH","Matchaddr":"VERO BEACH, FL","ST":"FL","NO":11417.0,"X":-80.413684,"Y":27.645893,"Locname":"CityState","Street":"6200 20th ST","Score":100,"id":"a62etk56zo1d"},"type":"Feature","geometry":{"type":"Point","coordinates":[-80.413684,27.6458929999999]}},{"properties":{"CITY":"WARRINGTON","Matchaddr":"WARRINGTON, PA","ST":"PA","NO":9470.0,"X":-75.133078,"Y":40.251342,"Locname":"CityState","Street":"711 EON RD","Score":100,"id":"a62etk566076"},"type":"Feature","geometry":{"type":"Point","coordinates":[-75.1330779999999,40.2513420000001]}},{"properties":{"CITY":"WASHINGTON","Matchaddr":"WASHINGTON, MO","ST":"MO","NO":14364.0,"X":-91.013097,"Y":38.556546,"Locname":"CityState","Street":"3081 PHOENIX CENTER DR","Score":100,"id":"a62etk5geycz"},"type":"Feature","geometry":{"type":"Point","coordinates":[-91.013097,38.5565460000001]}},{"properties":{"CITY":"WAYNE","Matchaddr":"WAYNE, NJ","ST":"NJ","NO":13298.0,"X":-74.244502,"Y":40.948493,"Locname":"CityState","Street":"57 ROUTE 23 S","Score":100,"id":"a62etk4sqkgl"},"type":"Feature","geometry":{"type":"Point","coordinates":[-74.244502,40.948493]}},{"properties":{"CITY":"WELDON SPRINGS","Matchaddr":"WELDON SPRING, MO","ST":"MO","NO":13323.0,"X":-90.651484,"Y":38.712002,"Locname":"CityState","Street":"5851 WWOOD DR WELDON","Score":92,"id":"a62etjzehmem"},"type":"Feature","geometry":{"type":"Point","coordinates":[-90.651484,38.712002]}},{"properties":{"CITY":"WENATCHEE","Matchaddr":"WENATCHEE, WA","ST":"WA","NO":355.0,"X":-120.324728,"Y":47.426178,"Locname":"CityState","Street":"10 GRANT RD EAST","Score":100,"id":"a62etk2lwqu6"},"type":"Feature","geometry":{"type":"Point","coordinates":[-120.324728,47.426178]}},{"properties":{"CITY":"WHEATON","Matchaddr":"WHEATON, MD","ST":"MD","NO":9953.0,"X":-77.055571,"Y":39.040034,"Locname":"CityState","Street":"1116 VEIRS MILL RD","Score":100,"id":"a62etjro8080"},"type":"Feature","geometry":{"type":"Point","coordinates":[-77.055571,39.040034]}},{"properties":{"CITY":"WILLOW GROVE","Matchaddr":"WILLOW GROVE, PA","ST":"PA","NO":7902.0,"X":-75.119681,"Y":40.149067,"Locname":"CityState","Street":"1107 EON RD","Score":100,"id":"a62etjseun52"},"type":"Feature","geometry":{"type":"Point","coordinates":[-75.119681,40.1490670000001]}},{"properties":{"CITY":"WINCHESTER","Matchaddr":"WINCHESTER, VA","ST":"VA","NO":11154.0,"X":-78.170418,"Y":39.175942,"Locname":"CityState","Street":"240 RIVENDELL CT","Score":100,"id":"a62etk2u43hp"},"type":"Feature","geometry":{"type":"Point","coordinates":[-78.170418,39.1759420000001]}},{"properties":{"CITY":"WINTER GARDEN","Matchaddr":"WINTER GARDEN, FL","ST":"FL","NO":14134.0,"X":-81.582483,"Y":28.55108,"Locname":"CityState","Street":"15502 STONYBOROOK W PKWY","Score":100,"id":"a62etjt5ixpv"},"type":"Feature","geometry":{"type":"Point","coordinates":[-81.582483,28.55108]}},{"properties":{"CITY":"WORTHINGTON","Matchaddr":"WORTHINGTON, OH","ST":"OH","NO":2792.0,"X":-83.017593,"Y":40.096031,"Locname":"CityState","Street":"530 N HIGH","Score":100,"id":"a62etjrbs7by"},"type":"Feature","geometry":{"type":"Point","coordinates":[-83.0175929999999,40.096031]}},{"properties":{"CITY":"WYOMISSING","Matchaddr":"WYOMISSING, PA","ST":"PA","NO":11939.0,"X":-75.963258,"Y":40.329338,"Locname":"CityState","Street":"798 WOODLAND RD","Score":100,"id":"a62etjycdin4"},"type":"Feature","geometry":{"type":"Point","coordinates":[-75.963258,40.329338]}}],"is_temporal":false,"author":{"url":"http://finder.geocommons.com/overlays/3090.html","metadata":"","contact_name":"Rajendra Kulkarni","contact_address":"","source":"Rajendra Kulkarni","contact_phone":""},"source":"http://finder.geocommons.com/overlays/3090.html","pagination":{"sort":null,"start":0,"total":590,"limit":1000000},"state":"complete","tags":"","published":"2008-07-18T16:00:00Z","id":74722}