{"type":"FeatureCollection","data_type":"Dataset","url_type":null,"permissions":[{"permissions":{"download":true,"view":true},"group_id":"everyone"}],"classification":null,"title":"DMA Info","count":204,"stream_id":7490,"contributor":{"url":"http://geocommons.com/users/2978","name":"jriley23"},"data_attributes":null,"calculation_params":null,"icon_link":null,"link":"http://geocommons.com/overlays/7490.json","extent":[-157.858,21.3047,-68.7708,64.8452],"geometry_types":["point"],"unique_name":null,"name":"DMA Info","feature_count":204,"description":"","next_feature":null,"is_raster":false,"short_classification":"Y","stats":{"tv homes":{"max":7366950,"mean":543063.823529412,"variance":680690890901.565,"stdev":825039.932913289,"min":3980,"median":280510},"percent of us":{"max":6.616,"mean":0.48771568627451,"variance":0.549027544383271,"stdev":0.740963929205242,"min":0.004,"median":0.252},"lat":{"max":64.845202,"mean":38.1544233039216,"variance":36.9167266984297,"stdev":6.07591365133094,"min":21.304735,"median":38.89037},"long":{"max":-68.770775,"mean":-93.1968132745098,"variance":241.906570591003,"stdev":15.5533459612716,"min":-157.857619,"median":-89.587764}},"features":[{"properties":{"tv homes":114210,"city":"Abilene","percent of us":0.103,"designated market area dma":"Abilene Sweetwater","id":"a626pr4wi9fj","lat":32.449175,"state":"TX","long":-99.741424},"type":"Feature","geometry":{"type":"Point","coordinates":[-99.741424,32.449175]}},{"properties":{"tv homes":153190,"city":"Albany","percent of us":0.138,"designated market area dma":"Albany  GA","id":"a626pqu9r5i1","lat":31.58076,"state":"GA","long":-84.155989},"type":"Feature","geometry":{"type":"Point","coordinates":[-84.155989,31.58076]}},{"properties":{"tv homes":554970,"city":"Albany","percent of us":0.498,"designated market area dma":"Albany Schenectady Troy","id":"a626pr4qudf9","lat":42.651455,"state":"NY","long":-73.755274},"type":"Feature","geometry":{"type":"Point","coordinates":[-73.755274,42.651455]}},{"properties":{"tv homes":662380,"city":"Albuquerque","percent of us":0.595,"designated market area dma":"Albuquerque Santa Fe","id":"a626pr7nb9ix","lat":35.08418,"state":"NM","long":-106.648639},"type":"Feature","geometry":{"type":"Point","coordinates":[-106.648639,35.08418]}},{"properties":{"tv homes":89600,"city":"Alexandria","percent of us":0.08,"designated market area dma":"Alexandria LA","id":"a626pqzzvqd9","lat":31.312685,"state":"LA","long":-92.445649},"type":"Feature","geometry":{"type":"Point","coordinates":[-92.445649,31.312685]}},{"properties":{"tv homes":17600,"city":"Alpena","percent of us":0.016,"designated market area dma":"Alpena","id":"a626pqzo7uo5","lat":44.18437,"state":"SD","long":-98.368369},"type":"Feature","geometry":{"type":"Point","coordinates":[-98.368369,44.18437]}},{"properties":{"tv homes":190590,"city":"Amarillo","percent of us":0.171,"designated market area dma":"Amarillo","id":"a626pqw73q8r","lat":35.207255,"state":"TX","long":-101.833894},"type":"Feature","geometry":{"type":"Point","coordinates":[-101.833894,35.207255]}},{"properties":{"tv homes":142230,"city":"Anchorage","percent of us":0.128,"designated market area dma":"Anchorage","id":"a626pqxfhjhy","lat":61.21756,"state":"AK","long":-149.857749},"type":"Feature","geometry":{"type":"Point","coordinates":[-149.857749,61.21756]}},{"properties":{"tv homes":2205510,"city":"Atlanta","percent of us":1.981,"designated market area dma":"Atlanta","id":"a626pr59htjx","lat":33.748315,"state":"GA","long":-84.391109},"type":"Feature","geometry":{"type":"Point","coordinates":[-84.391109,33.748315]}},{"properties":{"tv homes":247450,"city":"Augusta","percent of us":0.222,"designated market area dma":"Augusta","id":"a626pqwev5nm","lat":33.47909,"state":"GA","long":-81.975309},"type":"Feature","geometry":{"type":"Point","coordinates":[-81.975309,33.47909]}},{"properties":{"tv homes":602340,"city":"Austin","percent of us":0.541,"designated market area dma":"Austin","id":"a626pqt2slbl","lat":30.267605,"state":"TX","long":-97.742984},"type":"Feature","geometry":{"type":"Point","coordinates":[-97.742984,30.267605]}},{"properties":{"tv homes":210960,"city":"Bakersfield","percent of us":0.189,"designated market area dma":"Bakersfield","id":"a626pqyzbnq5","lat":35.366975,"state":"CA","long":-119.018844},"type":"Feature","geometry":{"type":"Point","coordinates":[-119.018844,35.366975]}},{"properties":{"tv homes":1097290,"city":"Baltimore","percent of us":0.985,"designated market area dma":"Baltimore","id":"a626pr2ybc5y","lat":39.290555,"state":"MD","long":-76.609604},"type":"Feature","geometry":{"type":"Point","coordinates":[-76.609604,39.290555]}},{"properties":{"tv homes":143170,"city":"Bangor","percent of us":0.129,"designated market area dma":"Bangor","id":"a626pqyio4kd","lat":44.80172,"state":"ME","long":-68.770775},"type":"Feature","geometry":{"type":"Point","coordinates":[-68.770775,44.80172]}},{"properties":{"tv homes":322540,"city":"Baton Rouge","percent of us":0.29,"designated market area dma":"Baton Rouge","id":"a626pqz3rqna","lat":30.44342,"state":"LA","long":-91.186874},"type":"Feature","geometry":{"type":"Point","coordinates":[-91.186874,30.44342]}},{"properties":{"tv homes":167090,"city":"Beaumont","percent of us":0.15,"designated market area dma":"BeaumontPort Arthur","id":"a626pqux45gp","lat":30.08615,"state":"TX","long":-94.101584},"type":"Feature","geometry":{"type":"Point","coordinates":[-94.101584,30.08615]}},{"properties":{"tv homes":57790,"city":"Bend","percent of us":0.052,"designated market area dma":"Bend OR","id":"a626pqzkr5pu","lat":44.05766,"state":"OR","long":-121.315584},"type":"Feature","geometry":{"type":"Point","coordinates":[-121.315584,44.05766]}},{"properties":{"tv homes":103710,"city":"Billings","percent of us":0.093,"designated market area dma":"Billings","id":"a626pr6eoa6o","lat":45.783975,"state":"MT","long":-108.505794},"type":"Feature","geometry":{"type":"Point","coordinates":[-108.505794,45.783975]}},{"properties":{"tv homes":134320,"city":"Biloxi","percent of us":0.121,"designated market area dma":"Biloxi Gulfport","id":"a626pr63msg4","lat":30.394384,"state":"MS","long":-88.896383},"type":"Feature","geometry":{"type":"Point","coordinates":[-88.896383,30.394384]}},{"properties":{"tv homes":138220,"city":"Binghamton","percent of us":0.124,"designated market area dma":"Binghamton","id":"a626pr53wg4l","lat":42.098687,"state":"NY","long":-75.911271},"type":"Feature","geometry":{"type":"Point","coordinates":[-75.911271,42.098687]}},{"properties":{"tv homes":723210,"city":"Birmingham","percent of us":0.65,"designated market area dma":"Birmingham  Ann Tusc","id":"a626pr5ie18u","lat":33.520295,"state":"AL","long":-86.811504},"type":"Feature","geometry":{"type":"Point","coordinates":[-86.811504,33.520295]}},{"properties":{"tv homes":145550,"city":"Bluefield","percent of us":0.131,"designated market area dma":"Bluefield Beckley Oak Hill","id":"a626pr3k1n35","lat":37.267985,"state":"WV","long":-81.222629},"type":"Feature","geometry":{"type":"Point","coordinates":[-81.222629,37.267985]}},{"properties":{"tv homes":238990,"city":"Boise","percent of us":0.215,"designated market area dma":"Boise","id":"a626pqzfc0vu","lat":43.60698,"state":"ID","long":-116.193409},"type":"Feature","geometry":{"type":"Point","coordinates":[-116.193409,43.60698]}},{"properties":{"tv homes":2372030,"city":"Boston","percent of us":2.13,"designated market area dma":"Boston Manchester","id":"a626pqxlgjrv","lat":42.358635,"state":"MA","long":-71.056699},"type":"Feature","geometry":{"type":"Point","coordinates":[-71.056699,42.358635]}},{"properties":{"tv homes":76910,"city":"Bowling Green","percent of us":0.069,"designated market area dma":"Bowling Green","id":"a626pqvmr9nr","lat":36.994625,"state":"KY","long":-86.445584},"type":"Feature","geometry":{"type":"Point","coordinates":[-86.445584,36.994625]}},{"properties":{"tv homes":639990,"city":"Buffalo","percent of us":0.575,"designated market area dma":"Buffalo","id":"a626pr4qv8iz","lat":42.88544,"state":"NY","long":-78.878464},"type":"Feature","geometry":{"type":"Point","coordinates":[-78.878464,42.88544]}},{"properties":{"tv homes":327480,"city":"Burlington","percent of us":0.294,"designated market area dma":"Burlington Plattsburgh","id":"a626pr5fim7d","lat":44.47592,"state":"VT","long":-73.213234},"type":"Feature","geometry":{"type":"Point","coordinates":[-73.213234,44.47592]}},{"properties":{"tv homes":60560,"city":"Butte","percent of us":0.054,"designated market area dma":"Butte Bozeman","id":"a626pqv835dv","lat":46.001753,"state":"MT","long":-112.52089},"type":"Feature","geometry":{"type":"Point","coordinates":[-112.52089,46.001753]}},{"properties":{"tv homes":52400,"city":"Casper","percent of us":0.047,"designated market area dma":"Casper Riverton","id":"a626pr5bjb05","lat":42.850095,"state":"WY","long":-106.327734},"type":"Feature","geometry":{"type":"Point","coordinates":[-106.327734,42.850095]}},{"properties":{"tv homes":333270,"city":"Cedar Rapids","percent of us":0.299,"designated market area dma":"Cedar Rapids Wtrlo IWC Dub","id":"a626pr5661h6","lat":41.976345,"state":"IA","long":-91.673759},"type":"Feature","geometry":{"type":"Point","coordinates":[-91.673759,41.976345]}},{"properties":{"tv homes":378150,"city":"Champaign","percent of us":0.34,"designated market area dma":"Champaign Sprngfld Decatur","id":"a626pr68zylq","lat":40.1142,"state":"IL","long":-88.243499},"type":"Feature","geometry":{"type":"Point","coordinates":[-88.243499,40.1142]}},{"properties":{"tv homes":477040,"city":"Charleston","percent of us":0.428,"designated market area dma":"Charleston Huntington","id":"a626pqstoedg","lat":32.781155,"state":"SC","long":-79.931599},"type":"Feature","geometry":{"type":"Point","coordinates":[-79.931599,32.781155]}},{"properties":{"tv homes":290110,"city":"Charleston","percent of us":0.261,"designated market area dma":"Charleston SC","id":"a626pqvjly2p","lat":32.781155,"state":"SC","long":-79.931599},"type":"Feature","geometry":{"type":"Point","coordinates":[-79.931599,32.781155]}},{"properties":{"tv homes":1045240,"city":"Charlotte","percent of us":0.939,"designated market area dma":"Charlotte","id":"a626pr4ale4n","lat":35.2225,"state":"NC","long":-80.837539},"type":"Feature","geometry":{"type":"Point","coordinates":[-80.837539,35.2225]}},{"properties":{"tv homes":83850,"city":"Charlottesville","percent of us":0.075,"designated market area dma":"Charlottesville","id":"a626pqyl3gik","lat":38.032125,"state":"VA","long":-78.477519},"type":"Feature","geometry":{"type":"Point","coordinates":[-78.477519,38.032125]}},{"properties":{"tv homes":347380,"city":"Chattanooga","percent of us":0.312,"designated market area dma":"Chattanooga","id":"a626pr51f4jq","lat":35.046432,"state":"TN","long":-85.309421},"type":"Feature","geometry":{"type":"Point","coordinates":[-85.309421,35.046432]}},{"properties":{"tv homes":54030,"city":"Cheyenne","percent of us":0.049,"designated market area dma":"Cheyenne Scottsbluff","id":"a626pr6oa9wt","lat":41.134815,"state":"WY","long":-104.821544},"type":"Feature","geometry":{"type":"Point","coordinates":[-104.821544,41.134815]}},{"properties":{"tv homes":3455020,"city":"Chicago","percent of us":3.103,"designated market area dma":"Chicago","id":"a626pqvt82t0","lat":41.88415,"state":"IL","long":-87.632409},"type":"Feature","geometry":{"type":"Point","coordinates":[-87.632409,41.88415]}},{"properties":{"tv homes":193590,"city":"Chico","percent of us":0.174,"designated market area dma":"Chico Redding","id":"a626pr2qd2mx","lat":39.73201,"state":"CA","long":-121.841985},"type":"Feature","geometry":{"type":"Point","coordinates":[-121.841985,39.73201]}},{"properties":{"tv homes":886910,"city":"Cincinnati","percent of us":0.797,"designated market area dma":"Cincinnati","id":"a626pr2ey148","lat":39.106441,"state":"OH","long":-84.504694},"type":"Feature","geometry":{"type":"Point","coordinates":[-84.504694,39.106441]}},{"properties":{"tv homes":109020,"city":"Clarksburg","percent of us":0.098,"designated market area dma":"Clarksburg Weston","id":"a626pr6koosb","lat":39.27942,"state":"WV","long":-80.340119},"type":"Feature","geometry":{"type":"Point","coordinates":[-80.340119,39.27942]}},{"properties":{"tv homes":1537500,"city":"Cleveland","percent of us":1.381,"designated market area dma":"Cleveland Akron  Canton","id":"a626pqzn4eoi","lat":41.504365,"state":"OH","long":-81.690459},"type":"Feature","geometry":{"type":"Point","coordinates":[-81.690459,41.504365]}},{"properties":{"tv homes":316630,"city":"Colorado Springs","percent of us":0.284,"designated market area dma":"Colorado Springs Pueblo","id":"a626pr20a8e4","lat":38.83311,"state":"CO","long":-104.821729},"type":"Feature","geometry":{"type":"Point","coordinates":[-104.821729,38.83311]}},{"properties":{"tv homes":170260,"city":"Columbia","percent of us":0.153,"designated market area dma":"Columbia Jefferson City","id":"a626pqsidfxu","lat":38.952174,"state":"MO","long":-92.334157},"type":"Feature","geometry":{"type":"Point","coordinates":[-92.334157,38.952174]}},{"properties":{"tv homes":377940,"city":"Columbia","percent of us":0.339,"designated market area dma":"Columbia SC","id":"a626pqt3gbrn","lat":33.99855,"state":"SC","long":-81.045249},"type":"Feature","geometry":{"type":"Point","coordinates":[-81.045249,33.99855]}},{"properties":{"tv homes":207180,"city":"Columbus","percent of us":0.186,"designated market area dma":"Columbus GA","id":"a626pr2rrkqh","lat":32.462925,"state":"GA","long":-84.987629},"type":"Feature","geometry":{"type":"Point","coordinates":[-84.987629,32.462925]}},{"properties":{"tv homes":898030,"city":"Columbus","percent of us":0.807,"designated market area dma":"Columbus OH","id":"a626pr570l8c","lat":39.962,"state":"OH","long":-83.003014},"type":"Feature","geometry":{"type":"Point","coordinates":[-83.003014,39.962]}},{"properties":{"tv homes":187150,"city":"Columbus","percent of us":0.168,"designated market area dma":"Columbus Tupelo West Point","id":"a626pqxpe7h1","lat":33.49509,"state":"MS","long":-88.428814},"type":"Feature","geometry":{"type":"Point","coordinates":[-88.428814,33.49509]}},{"properties":{"tv homes":194160,"city":"Corpus Christi","percent of us":0.174,"designated market area dma":"Corpus Christi","id":"a626pr4t4a4f","lat":27.79635,"state":"TX","long":-97.403564},"type":"Feature","geometry":{"type":"Point","coordinates":[-97.403564,27.79635]}},{"properties":{"tv homes":2378660,"city":"Dallas","percent of us":2.136,"designated market area dma":"Dallas Ft Worth","id":"a626pr6fcsrr","lat":32.778155,"state":"TX","long":-96.795404},"type":"Feature","geometry":{"type":"Point","coordinates":[-96.795404,32.778155]}},{"properties":{"tv homes":308360,"city":"Davenport","percent of us":0.277,"designated market area dma":"Davenport R Island Moline","id":"a626pr50chu4","lat":41.53826,"state":"IA","long":-90.576404},"type":"Feature","geometry":{"type":"Point","coordinates":[-90.576404,41.53826]}},{"properties":{"tv homes":531120,"city":"Dayton","percent of us":0.477,"designated market area dma":"Dayton","id":"a626pqvs5a2s","lat":39.759055,"state":"OH","long":-84.194439},"type":"Feature","geometry":{"type":"Point","coordinates":[-84.194439,39.759055]}},{"properties":{"tv homes":1431910,"city":"Denver","percent of us":1.286,"designated market area dma":"Denver","id":"a626pqwmtvmd","lat":39.74001,"state":"CO","long":-104.992259},"type":"Feature","geometry":{"type":"Point","coordinates":[-104.992259,39.74001]}},{"properties":{"tv homes":417900,"city":"Des Moines","percent of us":0.375,"designated market area dma":"Des Moines Ames","id":"a626pqyl7niq","lat":41.589785,"state":"IA","long":-93.615674},"type":"Feature","geometry":{"type":"Point","coordinates":[-93.615674,41.589785]}},{"properties":{"tv homes":1938320,"city":"Detroit","percent of us":1.741,"designated market area dma":"Detroit","id":"a626pqt1av9z","lat":42.331685,"state":"MI","long":-83.047924},"type":"Feature","geometry":{"type":"Point","coordinates":[-83.047924,42.331685]}},{"properties":{"tv homes":99410,"city":"Dothan","percent of us":0.089,"designated market area dma":"Dothan","id":"a626pqyeca2d","lat":31.22324,"state":"AL","long":-85.3933},"type":"Feature","geometry":{"type":"Point","coordinates":[-85.3933,31.22324]}},{"properties":{"tv homes":171780,"city":"Duluth","percent of us":0.154,"designated market area dma":"Duluth Superior","id":"a626pr2kl5tt","lat":46.787965,"state":"MN","long":-92.099849},"type":"Feature","geometry":{"type":"Point","coordinates":[-92.099849,46.787965]}},{"properties":{"tv homes":293700,"city":"El Paso","percent of us":0.264,"designated market area dma":"El Paso Las Cruces","id":"a626pqw5apxd","lat":31.759165,"state":"TX","long":-106.487494},"type":"Feature","geometry":{"type":"Point","coordinates":[-106.487494,31.759165]}},{"properties":{"tv homes":96690,"city":"Elmira","percent of us":0.087,"designated market area dma":"Elmira  Corning","id":"a626pr2vdo9d","lat":42.09041,"state":"NY","long":-76.798814},"type":"Feature","geometry":{"type":"Point","coordinates":[-76.798814,42.09041]}},{"properties":{"tv homes":157860,"city":"Erie","percent of us":0.142,"designated market area dma":"Erie","id":"a626pqw87t8f","lat":42.129445,"state":"PA","long":-80.085239},"type":"Feature","geometry":{"type":"Point","coordinates":[-80.085239,42.129445]}},{"properties":{"tv homes":231710,"city":"Eugene","percent of us":0.208,"designated market area dma":"Eugene","id":"a626pr0uo6hx","lat":44.04991,"state":"OR","long":-123.088919},"type":"Feature","geometry":{"type":"Point","coordinates":[-123.088919,44.04991]}},{"properties":{"tv homes":289730,"city":"Evansville","percent of us":0.26,"designated market area dma":"Evansville","id":"a626pr6dwqn2","lat":37.976911,"state":"IN","long":-87.564125},"type":"Feature","geometry":{"type":"Point","coordinates":[-87.564125,37.976911]}},{"properties":{"tv homes":33240,"city":"Fairbanks","percent of us":0.03,"designated market area dma":"Fairbanks","id":"a626pr7gktqu","lat":64.845202,"state":"AK","long":-147.72212},"type":"Feature","geometry":{"type":"Point","coordinates":[-147.72212,64.845202]}},{"properties":{"tv homes":235320,"city":"Fargo","percent of us":0.211,"designated market area dma":"Fargo Valley City","id":"a626pr2cnsl0","lat":46.87591,"state":"ND","long":-96.781764},"type":"Feature","geometry":{"type":"Point","coordinates":[-96.781764,46.87591]}},{"properties":{"tv homes":474430,"city":"Flint","percent of us":0.426,"designated market area dma":"Flint Saginaw Bay City","id":"a626pqsgyfwj","lat":43.010745,"state":"MI","long":-83.686019},"type":"Feature","geometry":{"type":"Point","coordinates":[-83.686019,43.010745]}},{"properties":{"tv homes":557380,"city":"Fresno","percent of us":0.501,"designated market area dma":"Fresno Visalia","id":"a626pr6ekhxr","lat":36.740615,"state":"CA","long":-119.785679},"type":"Feature","geometry":{"type":"Point","coordinates":[-119.785679,36.740615]}},{"properties":{"tv homes":479130,"city":"Ft. Myers","percent of us":0.43,"designated market area dma":"Ft Myers Naples","id":"a626pqygvove","lat":26.640845,"state":"FL","long":-81.868194},"type":"Feature","geometry":{"type":"Point","coordinates":[-81.868194,26.640845]}},{"properties":{"tv homes":280510,"city":"Ft. Smith","percent of us":0.252,"designated market area dma":"Ft Smith Fay Sprngdl Rgrs","id":"a626pqs4v0l5","lat":35.3846,"state":"AR","long":-94.421299},"type":"Feature","geometry":{"type":"Point","coordinates":[-94.421299,35.3846]}},{"properties":{"tv homes":271550,"city":"Ft. Wayne","percent of us":0.244,"designated market area dma":"Ft Wayne","id":"a626pqu6kl0o","lat":41.075525,"state":"IN","long":-85.099064},"type":"Feature","geometry":{"type":"Point","coordinates":[-85.099064,41.075525]}},{"properties":{"tv homes":119590,"city":"Gainesville","percent of us":0.107,"designated market area dma":"Gainesville","id":"a626pr5ui5fd","lat":29.65195,"state":"FL","long":-82.323184},"type":"Feature","geometry":{"type":"Point","coordinates":[-82.323184,29.65195]}},{"properties":{"tv homes":3980,"city":"Glendive","percent of us":0.004,"designated market area dma":"Glendive","id":"a626pqtwu5d1","lat":47.106145,"state":"MT","long":-104.714624},"type":"Feature","geometry":{"type":"Point","coordinates":[-104.714624,47.106145]}},{"properties":{"tv homes":69560,"city":"Grand Junction","percent of us":0.062,"designated market area dma":"Grand Junction Montrose","id":"a626pqs8w3eg","lat":39.06879,"state":"CO","long":-108.564454},"type":"Feature","geometry":{"type":"Point","coordinates":[-108.564454,39.06879]}},{"properties":{"tv homes":734670,"city":"Grand Rapids","percent of us":0.66,"designated market area dma":"Grand Rapids Kalmzoo B Crk","id":"a626pqvw2824","lat":42.96641,"state":"MI","long":-85.671179},"type":"Feature","geometry":{"type":"Point","coordinates":[-85.671179,42.96641]}},{"properties":{"tv homes":63510,"city":"Great Falls","percent of us":0.057,"designated market area dma":"Great Falls","id":"a626pqy60uwf","lat":47.507145,"state":"MT","long":-111.306074},"type":"Feature","geometry":{"type":"Point","coordinates":[-111.306074,47.507145]}},{"properties":{"tv homes":434760,"city":"Green Bay","percent of us":0.39,"designated market area dma":"Green Bay Appleton","id":"a626pqru9c4i","lat":44.512795,"state":"WI","long":-88.010159},"type":"Feature","geometry":{"type":"Point","coordinates":[-88.010159,44.512795]}},{"properties":{"tv homes":660570,"city":"Greensboro","percent of us":0.593,"designated market area dma":"Greensboro H Point W Salem","id":"a626pr0rl0sf","lat":36.068994,"state":"NC","long":-79.794704},"type":"Feature","geometry":{"type":"Point","coordinates":[-79.794704,36.068994]}},{"properties":{"tv homes":270420,"city":"Greenville","percent of us":0.243,"designated market area dma":"Greenville N.Bern Washngtn","id":"a626pqtnpxy7","lat":35.607195,"state":"NC","long":-77.380224},"type":"Feature","geometry":{"type":"Point","coordinates":[-77.380224,35.607195]}},{"properties":{"tv homes":826290,"city":"Greenville","percent of us":0.742,"designated market area dma":"Greenvll Spart Ashevll And","id":"a626pqs99nel","lat":34.84802,"state":"SC","long":-82.400219},"type":"Feature","geometry":{"type":"Point","coordinates":[-82.400219,34.84802]}},{"properties":{"tv homes":76830,"city":"Greenwood","percent of us":0.069,"designated market area dma":"Greenwood Greenville","id":"a626pqrnt72b","lat":34.191046,"state":"SC","long":-82.160744},"type":"Feature","geometry":{"type":"Point","coordinates":[-82.160744,34.191046]}},{"properties":{"tv homes":327070,"city":"Harlingen","percent of us":0.294,"designated market area dma":"Harlingen Wslco Brnsvl McA","id":"a626pqt3bgx2","lat":26.18986,"state":"TX","long":-97.695549},"type":"Feature","geometry":{"type":"Point","coordinates":[-97.695549,26.18986]}},{"properties":{"tv homes":713960,"city":"Harrisburg","percent of us":0.641,"designated market area dma":"Harrisburg Lncstr Leb York","id":"a626pr6tfnev","lat":40.259876,"state":"PA","long":-76.882222},"type":"Feature","geometry":{"type":"Point","coordinates":[-76.882222,40.259876]}},{"properties":{"tv homes":87630,"city":"Harrisonburg","percent of us":0.079,"designated market area dma":"Harrisonburg","id":"a626pqya8zc3","lat":38.451534,"state":"VA","long":-78.869047},"type":"Feature","geometry":{"type":"Point","coordinates":[-78.869047,38.451534]}},{"properties":{"tv homes":1014630,"city":"Hartford","percent of us":0.911,"designated market area dma":"Hartford New Haven","id":"a626pqzn37ka","lat":41.763325,"state":"CT","long":-72.674069},"type":"Feature","geometry":{"type":"Point","coordinates":[-72.674069,41.763325]}},{"properties":{"tv homes":111580,"city":"Hattiesburg","percent of us":0.1,"designated market area dma":"Hattiesburg Laurel","id":"a626pqxyqo90","lat":31.327357,"state":"MS","long":-89.290719},"type":"Feature","geometry":{"type":"Point","coordinates":[-89.290719,31.327357]}},{"properties":{"tv homes":25970,"city":"Helena","percent of us":0.023,"designated market area dma":"Helena","id":"a626pqu0mgie","lat":46.58976,"state":"MT","long":-112.021204},"type":"Feature","geometry":{"type":"Point","coordinates":[-112.021204,46.58976]}},{"properties":{"tv homes":419160,"city":"Honolulu","percent of us":0.376,"designated market area dma":"Honolulu","id":"a626pquupj1u","lat":21.304735,"state":"HI","long":-157.857619},"type":"Feature","geometry":{"type":"Point","coordinates":[-157.857619,21.304735]}},{"properties":{"tv homes":1982120,"city":"Houston","percent of us":1.78,"designated market area dma":"Houston","id":"a626pr2m0ydq","lat":29.76045,"state":"TX","long":-95.369784},"type":"Feature","geometry":{"type":"Point","coordinates":[-95.369784,29.76045]}},{"properties":{"tv homes":375270,"city":"Huntsville","percent of us":0.337,"designated market area dma":"Huntsville Decatur Flor","id":"a626pqvgyq71","lat":34.729121,"state":"AL","long":-86.584961},"type":"Feature","geometry":{"type":"Point","coordinates":[-86.584961,34.729121]}},{"properties":{"tv homes":116560,"city":"Idaho Falls","percent of us":0.105,"designated market area dma":"Idaho Falls Pocatello","id":"a626pqyxhctn","lat":43.492,"state":"ID","long":-112.041994},"type":"Feature","geometry":{"type":"Point","coordinates":[-112.041994,43.492]}},{"properties":{"tv homes":1060550,"city":"Indianapolis","percent of us":0.952,"designated market area dma":"Indianapolis","id":"a626pr7x4rdv","lat":39.76691,"state":"IN","long":-86.149964},"type":"Feature","geometry":{"type":"Point","coordinates":[-86.149964,39.76691]}},{"properties":{"tv homes":343550,"city":"Jackson","percent of us":0.309,"designated market area dma":"Jackson MS","id":"a626pr1caa0c","lat":32.29869,"state":"MS","long":-90.180489},"type":"Feature","geometry":{"type":"Point","coordinates":[-90.180489,32.29869]}},{"properties":{"tv homes":639110,"city":"Jacksonville","percent of us":0.574,"designated market area dma":"Jacksonville","id":"a626pr6ng67i","lat":30.33138,"state":"FL","long":-81.655799},"type":"Feature","geometry":{"type":"Point","coordinates":[-81.655799,30.33138]}},{"properties":{"tv homes":294160,"city":"Johnstown","percent of us":0.264,"designated market area dma":"Johnstown Altoona","id":"a626pqy955s0","lat":40.32726,"state":"PA","long":-78.918354},"type":"Feature","geometry":{"type":"Point","coordinates":[-78.918354,40.32726]}},{"properties":{"tv homes":89500,"city":"Jonesboro","percent of us":0.08,"designated market area dma":"Jonesboro","id":"a626pr7axcim","lat":35.83526,"state":"AR","long":-90.705054},"type":"Feature","geometry":{"type":"Point","coordinates":[-90.705054,35.83526]}},{"properties":{"tv homes":154640,"city":"Joplin","percent of us":0.139,"designated market area dma":"Joplin Pittsburg","id":"a626pqtpi08z","lat":38.498058,"state":"KS","long":-98.320213},"type":"Feature","geometry":{"type":"Point","coordinates":[-98.320213,38.498058]}},{"properties":{"tv homes":23910,"city":"Juneau","percent of us":0.021,"designated market area dma":"Juneau","id":"a626pr41rowk","lat":58.36773,"state":"AK","long":-134.579512},"type":"Feature","geometry":{"type":"Point","coordinates":[-134.579512,58.36773]}},{"properties":{"tv homes":913280,"city":"Kansas City","percent of us":0.82,"designated market area dma":"Kansas City","id":"a626pr24ucpi","lat":39.10296,"state":"MO","long":-94.583062},"type":"Feature","geometry":{"type":"Point","coordinates":[-94.583062,39.10296]}},{"properties":{"tv homes":523010,"city":"Knoxville","percent of us":0.47,"designated market area dma":"Knoxville","id":"a626pr7ifoa1","lat":35.960495,"state":"TN","long":-83.920914},"type":"Feature","geometry":{"type":"Point","coordinates":[-83.920914,35.960495]}},{"properties":{"tv homes":209870,"city":"La Crosse","percent of us":0.188,"designated market area dma":"La Crosse Eau Claire","id":"a626pquc3o07","lat":43.812625,"state":"WI","long":-91.251919},"type":"Feature","geometry":{"type":"Point","coordinates":[-91.251919,43.812625]}},{"properties":{"tv homes":64680,"city":"Lafayette","percent of us":0.058,"designated market area dma":"Lafayette  IN","id":"a626pqz8ecvt","lat":40.41737,"state":"IN","long":-86.876554},"type":"Feature","geometry":{"type":"Point","coordinates":[-86.876554,40.41737]}},{"properties":{"tv homes":225650,"city":"Lafayette","percent of us":0.203,"designated market area dma":"Lafayette LA","id":"a626pr02vb4t","lat":30.220325,"state":"LA","long":-92.017054},"type":"Feature","geometry":{"type":"Point","coordinates":[-92.017054,30.220325]}},{"properties":{"tv homes":94840,"city":"Lake Charles","percent of us":0.085,"designated market area dma":"Lake Charles","id":"a626pr294i6a","lat":30.224033,"state":"LA","long":-93.220111},"type":"Feature","geometry":{"type":"Point","coordinates":[-93.220111,30.224033]}},{"properties":{"tv homes":256190,"city":"Lansing","percent of us":0.23,"designated market area dma":"Lansing","id":"a626pqrzaxu7","lat":42.73202,"state":"MI","long":-84.552279},"type":"Feature","geometry":{"type":"Point","coordinates":[-84.552279,42.73202]}},{"properties":{"tv homes":65790,"city":"Laredo","percent of us":0.059,"designated market area dma":"Laredo","id":"a626pqyufzjz","lat":27.53092,"state":"TX","long":-99.502009},"type":"Feature","geometry":{"type":"Point","coordinates":[-99.502009,27.53092]}},{"properties":{"tv homes":671630,"city":"Las Vegas","percent of us":0.603,"designated market area dma":"Las Vegas","id":"a626pr44dqaz","lat":36.171915,"state":"NV","long":-115.139974},"type":"Feature","geometry":{"type":"Point","coordinates":[-115.139974,36.171915]}},{"properties":{"tv homes":483520,"city":"Lexington","percent of us":0.434,"designated market area dma":"Lexington","id":"a626pqwj070u","lat":38.048595,"state":"KY","long":-84.500319},"type":"Feature","geometry":{"type":"Point","coordinates":[-84.500319,38.048595]}},{"properties":{"tv homes":53180,"city":"Lima","percent of us":0.048,"designated market area dma":"Lima","id":"a626pqwa7ri0","lat":40.742695,"state":"OH","long":-84.107294},"type":"Feature","geometry":{"type":"Point","coordinates":[-84.107294,40.742695]}},{"properties":{"tv homes":275970,"city":"Lincoln","percent of us":0.248,"designated market area dma":"Lincoln Hastings Krny","id":"a626pqtk1yrq","lat":40.81361,"state":"NE","long":-96.707729},"type":"Feature","geometry":{"type":"Point","coordinates":[-96.707729,40.81361]}},{"properties":{"tv homes":539900,"city":"Little Rock","percent of us":0.485,"designated market area dma":"Little Rock Pine Bluff","id":"a626pr3iygw9","lat":34.748655,"state":"AR","long":-92.274494},"type":"Feature","geometry":{"type":"Point","coordinates":[-92.274494,34.748655]}},{"properties":{"tv homes":5611110,"city":"Los Angeles","percent of us":5.039,"designated market area dma":"Los Angeles","id":"a626pqw2kc1e","lat":34.05329,"state":"CA","long":-118.245009},"type":"Feature","geometry":{"type":"Point","coordinates":[-118.245009,34.05329]}},{"properties":{"tv homes":648190,"city":"Louisville","percent of us":0.582,"designated market area dma":"Louisville","id":"a626pr77ffzs","lat":38.25486,"state":"KY","long":-85.766404},"type":"Feature","geometry":{"type":"Point","coordinates":[-85.766404,38.25486]}},{"properties":{"tv homes":151610,"city":"Lubbock","percent of us":0.136,"designated market area dma":"Lubbock","id":"a626pqt8u5mq","lat":33.59233,"state":"TX","long":-101.855869},"type":"Feature","geometry":{"type":"Point","coordinates":[-101.855869,33.59233]}},{"properties":{"tv homes":230180,"city":"Macon","percent of us":0.207,"designated market area dma":"Macon","id":"a626pr6d59nn","lat":32.839685,"state":"GA","long":-83.627579},"type":"Feature","geometry":{"type":"Point","coordinates":[-83.627579,32.839685]}},{"properties":{"tv homes":369220,"city":"Madison","percent of us":0.332,"designated market area dma":"Madison","id":"a626pr609zlr","lat":43.072925,"state":"WI","long":-89.386659},"type":"Feature","geometry":{"type":"Point","coordinates":[-89.386659,43.072925]}},{"properties":{"tv homes":51090,"city":"Mankato","percent of us":0.046,"designated market area dma":"Mankato","id":"a626pr0tpzwf","lat":44.167597,"state":"MN","long":-94.002889},"type":"Feature","geometry":{"type":"Point","coordinates":[-94.002889,44.167597]}},{"properties":{"tv homes":164780,"city":"Medford","percent of us":0.148,"designated market area dma":"Medford Klamath Falls","id":"a626pr6eejh9","lat":42.32356,"state":"OR","long":-122.875614},"type":"Feature","geometry":{"type":"Point","coordinates":[-122.875614,42.32356]}},{"properties":{"tv homes":664290,"city":"Memphis","percent of us":0.597,"designated market area dma":"Memphis","id":"a626pr766g1s","lat":35.149657,"state":"TN","long":-90.048913},"type":"Feature","geometry":{"type":"Point","coordinates":[-90.048913,35.149657]}},{"properties":{"tv homes":74440,"city":"Meridian","percent of us":0.067,"designated market area dma":"Meridian","id":"a626pr3g6q7z","lat":32.36503,"state":"MS","long":-88.703069},"type":"Feature","geometry":{"type":"Point","coordinates":[-88.703069,32.36503]}},{"properties":{"tv homes":1538620,"city":"Miami","percent of us":1.382,"designated market area dma":"Miami Ft Lauderdale","id":"a626pqyxubm4","lat":25.728985,"state":"FL","long":-80.237419},"type":"Feature","geometry":{"type":"Point","coordinates":[-80.237419,25.728985]}},{"properties":{"tv homes":882990,"city":"Milwaukee","percent of us":0.793,"designated market area dma":"Milwaukee","id":"a626pr6sryn5","lat":43.04181,"state":"WI","long":-87.906844},"type":"Feature","geometry":{"type":"Point","coordinates":[-87.906844,43.04181]}},{"properties":{"tv homes":1678430,"city":"Minneapolis","percent of us":1.507,"designated market area dma":"Minneapolis St  Paul","id":"a626pqvyf005","lat":44.979035,"state":"MN","long":-93.264929},"type":"Feature","geometry":{"type":"Point","coordinates":[-93.264929,44.979035]}},{"properties":{"tv homes":135550,"city":"Minot","percent of us":0.122,"designated market area dma":"Minot Bismarck Dickinson","id":"a626pr77ri9j","lat":48.236115,"state":"ND","long":-101.296074},"type":"Feature","geometry":{"type":"Point","coordinates":[-101.296074,48.236115]}},{"properties":{"tv homes":106250,"city":"Missoula","percent of us":0.095,"designated market area dma":"Missoula","id":"a626pr0id3sp","lat":46.87278,"state":"MT","long":-113.996234},"type":"Feature","geometry":{"type":"Point","coordinates":[-113.996234,46.87278]}},{"properties":{"tv homes":524200,"city":"Mobile","percent of us":0.471,"designated market area dma":"Mobile Pensacola Ft Walt","id":"a626pr2q8vmv","lat":30.686395,"state":"AL","long":-88.053239},"type":"Feature","geometry":{"type":"Point","coordinates":[-88.053239,30.686395]}},{"properties":{"tv homes":178200,"city":"Monroe","percent of us":0.16,"designated market area dma":"Monroe El Dorado","id":"a626pr0si6xp","lat":32.50965,"state":"LA","long":-92.119049},"type":"Feature","geometry":{"type":"Point","coordinates":[-92.119049,32.50965]}},{"properties":{"tv homes":218390,"city":"Monterey","percent of us":0.196,"designated market area dma":"Monterey Salinas","id":"a626pqxgz2bk","lat":36.59758,"state":"CA","long":-121.896739},"type":"Feature","geometry":{"type":"Point","coordinates":[-121.896739,36.59758]}},{"properties":{"tv homes":241130,"city":"Montgomery","percent of us":0.217,"designated market area dma":"Montgomery Selma","id":"a626pr26cmdm","lat":32.38012,"state":"AL","long":-86.300629},"type":"Feature","geometry":{"type":"Point","coordinates":[-86.300629,32.38012]}},{"properties":{"tv homes":944100,"city":"Nashville","percent of us":0.848,"designated market area dma":"Nashville","id":"a626pqytbdru","lat":36.167762,"state":"TN","long":-86.778366},"type":"Feature","geometry":{"type":"Point","coordinates":[-86.778366,36.167762]}},{"properties":{"tv homes":566960,"city":"New Orleans","percent of us":0.509,"designated market area dma":"New Orleans","id":"a626pqwhzbok","lat":29.95369,"state":"LA","long":-90.077714},"type":"Feature","geometry":{"type":"Point","coordinates":[-90.077714,29.95369]}},{"properties":{"tv homes":7366950,"city":"New York","percent of us":6.616,"designated market area dma":"New York","id":"a626pqzqanql","lat":40.71455,"state":"NY","long":-74.007124},"type":"Feature","geometry":{"type":"Point","coordinates":[-74.007124,40.71455]}},{"properties":{"tv homes":712790,"city":"Norfolk","percent of us":0.64,"designated market area dma":"Norfolk Portsmth Newpt Nws","id":"a626pqspsoyn","lat":36.846825,"state":"VA","long":-76.285069},"type":"Feature","geometry":{"type":"Point","coordinates":[-76.285069,36.846825]}},{"properties":{"tv homes":135270,"city":"Odessa","percent of us":0.122,"designated market area dma":"Odessa Midland","id":"a626pr0ay0dm","lat":31.84915,"state":"TX","long":-102.375189},"type":"Feature","geometry":{"type":"Point","coordinates":[-102.375189,31.84915]}},{"properties":{"tv homes":662380,"city":"Oklahoma City","percent of us":0.595,"designated market area dma":"Oklahoma City","id":"a626pqtlgi92","lat":35.472005,"state":"OK","long":-97.520334},"type":"Feature","geometry":{"type":"Point","coordinates":[-97.520334,35.472005]}},{"properties":{"tv homes":403560,"city":"Omaha","percent of us":0.362,"designated market area dma":"Omaha","id":"a626pr740nuw","lat":41.260645,"state":"NE","long":-95.940469},"type":"Feature","geometry":{"type":"Point","coordinates":[-95.940469,41.260645]}},{"properties":{"tv homes":1395830,"city":"Orlando","percent of us":1.254,"designated market area dma":"Orlando Daytona BchMelbrn","id":"a626pqwug0e8","lat":28.53774,"state":"FL","long":-81.377389},"type":"Feature","geometry":{"type":"Point","coordinates":[-81.377389,28.53774]}},{"properties":{"tv homes":51470,"city":"Ottumwa","percent of us":0.046,"designated market area dma":"Ottumwa Kirksville","id":"a626pqvu37yn","lat":41.020125,"state":"IA","long":-92.415739},"type":"Feature","geometry":{"type":"Point","coordinates":[-92.415739,41.020125]}},{"properties":{"tv homes":384510,"city":"Paducah","percent of us":0.345,"designated market area dma":"Paducah Cape Girard Harsbg","id":"a626pr59bmtx","lat":37.08571,"state":"KY","long":-88.595834},"type":"Feature","geometry":{"type":"Point","coordinates":[-88.595834,37.08571]}},{"properties":{"tv homes":149880,"city":"Palm Springs","percent of us":0.135,"designated market area dma":"Palm Springs","id":"a626pqsny6cz","lat":33.823215,"state":"CA","long":-116.512114},"type":"Feature","geometry":{"type":"Point","coordinates":[-116.512114,33.823215]}},{"properties":{"tv homes":140790,"city":"Panama City","percent of us":0.126,"designated market area dma":"Panama City","id":"a626pqz649oa","lat":30.15987,"state":"FL","long":-85.660334},"type":"Feature","geometry":{"type":"Point","coordinates":[-85.660334,30.15987]}},{"properties":{"tv homes":63850,"city":"Parkersburg","percent of us":0.057,"designated market area dma":"Parkersburg","id":"a626pqxjm4uj","lat":39.263435,"state":"WV","long":-81.558299},"type":"Feature","geometry":{"type":"Point","coordinates":[-81.558299,39.263435]}},{"properties":{"tv homes":243280,"city":"Peoria","percent of us":0.219,"designated market area dma":"Peoria Bloomington","id":"a626pr3m9b0x","lat":40.69214,"state":"IL","long":-89.587764},"type":"Feature","geometry":{"type":"Point","coordinates":[-89.587764,40.69214]}},{"properties":{"tv homes":2941450,"city":"Philadelphia","percent of us":2.642,"designated market area dma":"Philadelphia","id":"a626pr2h8hqm","lat":39.95227,"state":"PA","long":-75.162369},"type":"Feature","geometry":{"type":"Point","coordinates":[-75.162369,39.95227]}},{"properties":{"tv homes":1725000,"city":"Phoenix","percent of us":1.549,"designated market area dma":"Phoenix Prescott","id":"a626pr3c4vuw","lat":33.44826,"state":"AZ","long":-112.075774},"type":"Feature","geometry":{"type":"Point","coordinates":[-112.075774,33.44826]}},{"properties":{"tv homes":1163150,"city":"Pittsburgh","percent of us":1.045,"designated market area dma":"Pittsburgh","id":"a626pqsw0vp5","lat":40.43831,"state":"PA","long":-79.997459},"type":"Feature","geometry":{"type":"Point","coordinates":[-79.997459,40.43831]}},{"properties":{"tv homes":409180,"city":"Portland","percent of us":0.367,"designated market area dma":"Portland Auburn","id":"a626pqxzq1sk","lat":43.659145,"state":"ME","long":-70.256654},"type":"Feature","geometry":{"type":"Point","coordinates":[-70.256654,43.659145]}},{"properties":{"tv homes":1117990,"city":"Portland","percent of us":1.004,"designated market area dma":"Portland OR","id":"a626pquos90m","lat":45.511795,"state":"OR","long":-122.675629},"type":"Feature","geometry":{"type":"Point","coordinates":[-122.675629,45.511795]}},{"properties":{"tv homes":633950,"city":"Providence","percent of us":0.569,"designated market area dma":"Providence New Bedford","id":"a626pr41z336","lat":41.823875,"state":"RI","long":-71.411994},"type":"Feature","geometry":{"type":"Point","coordinates":[-71.411994,41.823875]}},{"properties":{"tv homes":103690,"city":"Quincy","percent of us":0.093,"designated market area dma":"Quincy Hannibal Keokuk","id":"a626pqvjngx5","lat":42.252285,"state":"MA","long":-71.004164},"type":"Feature","geometry":{"type":"Point","coordinates":[-71.004164,42.252285]}},{"properties":{"tv homes":1006330,"city":"Raleigh-Durham","percent of us":0.904,"designated market area dma":"Raleigh Durham Fayetvlle","id":"a626pqyuopfi","lat":35.87289,"state":"SC","long":-78.792343},"type":"Feature","geometry":{"type":"Point","coordinates":[-78.792343,35.87289]}},{"properties":{"tv homes":93870,"city":"Rapid City","percent of us":0.084,"designated market area dma":"Rapid City","id":"a626pr676x0x","lat":44.081165,"state":"SD","long":-103.230889},"type":"Feature","geometry":{"type":"Point","coordinates":[-103.230889,44.081165]}},{"properties":{"tv homes":261250,"city":"Reno","percent of us":0.235,"designated market area dma":"Reno","id":"a626pr1k5beq","lat":39.524555,"state":"NV","long":-119.811649},"type":"Feature","geometry":{"type":"Point","coordinates":[-119.811649,39.524555]}},{"properties":{"tv homes":517800,"city":"Richmond","percent of us":0.465,"designated market area dma":"Richmond Petersburg","id":"a626pqub9p9x","lat":37.540545,"state":"VA","long":-77.433409},"type":"Feature","geometry":{"type":"Point","coordinates":[-77.433409,37.540545]}},{"properties":{"tv homes":445840,"city":"Roanoke","percent of us":0.4,"designated market area dma":"Roanoke Lynchburg","id":"a626pquov6j2","lat":37.271525,"state":"VA","long":-79.940534},"type":"Feature","geometry":{"type":"Point","coordinates":[-79.940534,37.271525]}},{"properties":{"tv homes":392630,"city":"Rochester","percent of us":0.353,"designated market area dma":"Rochester NY","id":"a626pqw2vlt1","lat":43.1555,"state":"NY","long":-77.616033},"type":"Feature","geometry":{"type":"Point","coordinates":[-77.616033,43.1555]}},{"properties":{"tv homes":143090,"city":"Rochester","percent of us":0.129,"designated market area dma":"Rochestr Mason City Austin","id":"a626pqrqcz7c","lat":44.01925,"state":"MN","long":-92.459779},"type":"Feature","geometry":{"type":"Point","coordinates":[-92.459779,44.01925]}},{"properties":{"tv homes":184560,"city":"Rockford","percent of us":0.166,"designated market area dma":"Rockford","id":"a626pqs8cwth","lat":42.2669,"state":"IL","long":-89.078354},"type":"Feature","geometry":{"type":"Point","coordinates":[-89.078354,42.2669]}},{"properties":{"tv homes":1368680,"city":"Sacramento","percent of us":1.229,"designated market area dma":"Sacramnto Stkton Modesto","id":"a626pqyvmrqp","lat":38.57906,"state":"CA","long":-121.490999},"type":"Feature","geometry":{"type":"Point","coordinates":[-121.490999,38.57906]}},{"properties":{"tv homes":150790,"city":"Salisbury","percent of us":0.135,"designated market area dma":"Salisbury","id":"a626pqyk0cp6","lat":38.365735,"state":"MD","long":-75.595319},"type":"Feature","geometry":{"type":"Point","coordinates":[-75.595319,38.365735]}},{"properties":{"tv homes":839170,"city":"Salt Lake City","percent of us":0.754,"designated market area dma":"Salt Lake City","id":"a626pr5q3qg2","lat":40.75952,"state":"UT","long":-111.888229},"type":"Feature","geometry":{"type":"Point","coordinates":[-111.888229,40.75952]}},{"properties":{"tv homes":52930,"city":"San Angelo","percent of us":0.048,"designated market area dma":"San Angelo","id":"a626pr1safzg","lat":31.4615,"state":"TX","long":-100.442424},"type":"Feature","geometry":{"type":"Point","coordinates":[-100.442424,31.4615]}},{"properties":{"tv homes":774470,"city":"San Antonio","percent of us":0.696,"designated market area dma":"San Antonio","id":"a626pr34xbwd","lat":29.42449,"state":"TX","long":-98.494624},"type":"Feature","geometry":{"type":"Point","coordinates":[-98.494624,29.42449]}},{"properties":{"tv homes":1030020,"city":"San Diego","percent of us":0.925,"designated market area dma":"San Diego","id":"a626pr27hv8p","lat":32.715685,"state":"CA","long":-117.161724},"type":"Feature","geometry":{"type":"Point","coordinates":[-117.161724,32.715685]}},{"properties":{"tv homes":2383570,"city":"San Francisco","percent of us":2.141,"designated market area dma":"San Francisco Oak San Jose","id":"a626pr70743t","lat":37.77916,"state":"CA","long":-122.420049},"type":"Feature","geometry":{"type":"Point","coordinates":[-122.420049,37.77916]}},{"properties":{"tv homes":227700,"city":"Santa Barbara","percent of us":0.205,"designated market area dma":"SantaBarbra SanMar SanLuOb","id":"a626pr4g6ha2","lat":34.419285,"state":"CA","long":-119.698824},"type":"Feature","geometry":{"type":"Point","coordinates":[-119.698824,34.419285]}},{"properties":{"tv homes":298130,"city":"Savannah","percent of us":0.268,"designated market area dma":"Savannah","id":"a626pqsc4bj1","lat":32.08078,"state":"GA","long":-81.090719},"type":"Feature","geometry":{"type":"Point","coordinates":[-81.090719,32.08078]}},{"properties":{"tv homes":1724450,"city":"Seattle","percent of us":1.549,"designated market area dma":"Seattle Tacoma","id":"a626pqxwafe6","lat":47.60358,"state":"WA","long":-122.329454},"type":"Feature","geometry":{"type":"Point","coordinates":[-122.329454,47.60358]}},{"properties":{"tv homes":124330,"city":"Sherman","percent of us":0.112,"designated market area dma":"Sherman Ada","id":"a626pqzmkh03","lat":33.63603,"state":"TX","long":-96.609149},"type":"Feature","geometry":{"type":"Point","coordinates":[-96.609149,33.63603]}},{"properties":{"tv homes":381200,"city":"Shreveport","percent of us":0.342,"designated market area dma":"Shreveport","id":"a626pr28l7ro","lat":32.514615,"state":"LA","long":-93.747274},"type":"Feature","geometry":{"type":"Point","coordinates":[-93.747274,32.514615]}},{"properties":{"tv homes":156480,"city":"Sioux City","percent of us":0.141,"designated market area dma":"Sioux City","id":"a626pr3nhnjt","lat":42.499793,"state":"IA","long":-96.420839},"type":"Feature","geometry":{"type":"Point","coordinates":[-96.420839,42.499793]}},{"properties":{"tv homes":247000,"city":"Sioux Falls","percent of us":0.222,"designated market area dma":"Sioux Falls Mitchell","id":"a626pqz07zzb","lat":43.54535,"state":"SD","long":-96.731284},"type":"Feature","geometry":{"type":"Point","coordinates":[-96.731284,43.54535]}},{"properties":{"tv homes":334370,"city":"South Bend","percent of us":0.3,"designated market area dma":"South Bend Elkhart","id":"a626pr0rh2qj","lat":41.679058,"state":"IN","long":-86.254044},"type":"Feature","geometry":{"type":"Point","coordinates":[-86.254044,41.679058]}},{"properties":{"tv homes":395490,"city":"Spokane","percent of us":0.355,"designated market area dma":"Spokane","id":"a626pqy4u7u6","lat":47.65726,"state":"WA","long":-117.412279},"type":"Feature","geometry":{"type":"Point","coordinates":[-117.412279,47.65726]}},{"properties":{"tv homes":402310,"city":"Springfield","percent of us":0.361,"designated market area dma":"Springfield  MO","id":"a626pqz787a5","lat":37.208975,"state":"MO","long":-93.291564},"type":"Feature","geometry":{"type":"Point","coordinates":[-93.291564,37.208975]}},{"properties":{"tv homes":264480,"city":"Springfield","percent of us":0.238,"designated market area dma":"Springfield Holyoke","id":"a626pr7tyxky","lat":39.801055,"state":"IL","long":-89.643604},"type":"Feature","geometry":{"type":"Point","coordinates":[-89.643604,39.801055]}},{"properties":{"tv homes":45840,"city":"St. Joseph","percent of us":0.041,"designated market area dma":"St  Joseph","id":"a626pr3zar6h","lat":39.7666,"state":"MO","long":-94.856074},"type":"Feature","geometry":{"type":"Point","coordinates":[-94.856074,39.7666]}},{"properties":{"tv homes":1228980,"city":"St. Louis","percent of us":1.104,"designated market area dma":"St Louis","id":"a626pqxobtrn","lat":38.62774,"state":"MO","long":-90.199514},"type":"Feature","geometry":{"type":"Point","coordinates":[-90.199514,38.62774]}},{"properties":{"tv homes":386940,"city":"Syracuse","percent of us":0.348,"designated market area dma":"Syracuse","id":"a626pr4e6ncf","lat":43.04999,"state":"NY","long":-76.147389},"type":"Feature","geometry":{"type":"Point","coordinates":[-76.147389,43.04999]}},{"properties":{"tv homes":266210,"city":"Tallahassee","percent of us":0.239,"designated market area dma":"Tallahassee Thomasville","id":"a626pqvkuu1i","lat":30.439775,"state":"FL","long":-84.280649},"type":"Feature","geometry":{"type":"Point","coordinates":[-84.280649,30.439775]}},{"properties":{"tv homes":1755750,"city":"Tampa","percent of us":1.577,"designated market area dma":"Tampa St  Pete Sarasota","id":"a626pr6nx51d","lat":27.94653,"state":"FL","long":-82.459269},"type":"Feature","geometry":{"type":"Point","coordinates":[-82.459269,27.94653]}},{"properties":{"tv homes":144880,"city":"Terre Haute","percent of us":0.13,"designated market area dma":"Terre Haute","id":"a626pr501jqc","lat":39.466495,"state":"IN","long":-87.413229},"type":"Feature","geometry":{"type":"Point","coordinates":[-87.413229,39.466495]}},{"properties":{"tv homes":425820,"city":"Toledo","percent of us":0.382,"designated market area dma":"Toledo","id":"a626pqsyucp8","lat":41.65381,"state":"OH","long":-83.536259},"type":"Feature","geometry":{"type":"Point","coordinates":[-83.536259,41.65381]}},{"properties":{"tv homes":171310,"city":"Topeka","percent of us":0.154,"designated market area dma":"Topeka","id":"a626pqzpsb68","lat":39.056735,"state":"KS","long":-95.677484},"type":"Feature","geometry":{"type":"Point","coordinates":[-95.677484,39.056735]}},{"properties":{"tv homes":248680,"city":"Traverse City","percent of us":0.223,"designated market area dma":"Traverse City Cadillac","id":"a626pr4uz90d","lat":44.759995,"state":"MI","long":-85.615839},"type":"Feature","geometry":{"type":"Point","coordinates":[-85.615839,44.759995]}},{"properties":{"tv homes":326560,"city":"Bristol","percent of us":0.293,"designated market area dma":"Tri Cities TN VA","id":"a626pqzw783w","lat":36.598545,"state":"VA","long":-82.180794},"type":"Feature","geometry":{"type":"Point","coordinates":[-82.180794,36.598545]}},{"properties":{"tv homes":433310,"city":"Tucson","percent of us":0.389,"designated market area dma":"Tucson  Sierra Vista","id":"a626pr77zrcv","lat":32.221553,"state":"AZ","long":-110.969754},"type":"Feature","geometry":{"type":"Point","coordinates":[-110.969754,32.221553]}},{"properties":{"tv homes":513090,"city":"Tulsa","percent of us":0.461,"designated market area dma":"Tulsa","id":"a626pqw7vy0q","lat":36.14975,"state":"OK","long":-95.993354},"type":"Feature","geometry":{"type":"Point","coordinates":[-95.993354,36.14975]}},{"properties":{"tv homes":61160,"city":"Twin Falls","percent of us":0.055,"designated market area dma":"Twin Falls","id":"a626pr5r4boo","lat":42.5562,"state":"ID","long":-114.469609},"type":"Feature","geometry":{"type":"Point","coordinates":[-114.469609,42.5562]}},{"properties":{"tv homes":258860,"city":"Tyler","percent of us":0.232,"designated market area dma":"Tyler Longview Lfkn Ncgd","id":"a626pr03khpo","lat":32.347475,"state":"TX","long":-95.294299},"type":"Feature","geometry":{"type":"Point","coordinates":[-95.294299,32.347475]}},{"properties":{"tv homes":106080,"city":"Utica","percent of us":0.095,"designated market area dma":"Utica","id":"a626pqxchrr2","lat":43.095808,"state":"NY","long":-75.242762},"type":"Feature","geometry":{"type":"Point","coordinates":[-75.242762,43.095808]}},{"properties":{"tv homes":30450,"city":"Victoria","percent of us":0.027,"designated market area dma":"Victoria","id":"a626pr1yvupj","lat":28.805965,"state":"TX","long":-97.003574},"type":"Feature","geometry":{"type":"Point","coordinates":[-97.003574,28.805965]}},{"properties":{"tv homes":311690,"city":"Waco","percent of us":0.28,"designated market area dma":"Waco Temple Bryan","id":"a626pr5aiyh6","lat":31.571821,"state":"TX","long":-97.149507},"type":"Feature","geometry":{"type":"Point","coordinates":[-97.149507,31.571821]}},{"properties":{"tv homes":2272120,"city":"Washington","percent of us":2.041,"designated market area dma":"Washington DC Hagrstwn","id":"a626pqzb00sz","lat":38.89037,"state":"DC","long":-77.031959},"type":"Feature","geometry":{"type":"Point","coordinates":[-77.031959,38.89037]}},{"properties":{"tv homes":94050,"city":"Watertown","percent of us":0.084,"designated market area dma":"Watertown","id":"a626pquqdlt9","lat":42.367615,"state":"MA","long":-71.187879},"type":"Feature","geometry":{"type":"Point","coordinates":[-71.187879,42.367615]}},{"properties":{"tv homes":180640,"city":"Wausau","percent of us":0.162,"designated market area dma":"Wausau Rhinelander","id":"a626pqsj8vq4","lat":44.959535,"state":"WI","long":-89.630309},"type":"Feature","geometry":{"type":"Point","coordinates":[-89.630309,44.959535]}},{"properties":{"tv homes":772140,"city":"West Palm Beach","percent of us":0.693,"designated market area dma":"West Palm Beach Ft Pierce","id":"a626pqy771f2","lat":26.714388,"state":"FL","long":-80.052689},"type":"Feature","geometry":{"type":"Point","coordinates":[-80.052689,26.714388]}},{"properties":{"tv homes":140950,"city":"Wheeling","percent of us":0.127,"designated market area dma":"Wheeling Steubenville","id":"a626pqs1f2bl","lat":40.063965,"state":"WV","long":-80.721424},"type":"Feature","geometry":{"type":"Point","coordinates":[-80.721424,40.063965]}},{"properties":{"tv homes":152380,"city":"Wichita Falls","percent of us":0.137,"designated market area dma":"Wichita Falls  Lawton","id":"a626pr6qhqw2","lat":33.90831,"state":"TX","long":-98.500994},"type":"Feature","geometry":{"type":"Point","coordinates":[-98.500994,33.90831]}},{"properties":{"tv homes":445860,"city":"Wichita","percent of us":0.4,"designated market area dma":"Wichita Hutchinson Plus","id":"a626pqwquvmx","lat":37.68698,"state":"KS","long":-97.335579},"type":"Feature","geometry":{"type":"Point","coordinates":[-97.335579,37.68698]}},{"properties":{"tv homes":590170,"city":"Wilkes Barre","percent of us":0.53,"designated market area dma":"Wilkes Barre Scranton","id":"a626pr01jj5e","lat":41.2426,"state":"PA","long":-75.877334},"type":"Feature","geometry":{"type":"Point","coordinates":[-75.877334,41.2426]}},{"properties":{"tv homes":174170,"city":"Wilmington","percent of us":0.156,"designated market area dma":"Wilmington","id":"a626pqussvv6","lat":39.740235,"state":"DE","long":-75.550844},"type":"Feature","geometry":{"type":"Point","coordinates":[-75.550844,39.740235]}},{"properties":{"tv homes":213780,"city":"Yakima","percent of us":0.192,"designated market area dma":"Yakima Pasco Rchlnd Knnwck","id":"a626pqwxz5mi","lat":46.604135,"state":"WA","long":-120.507049},"type":"Feature","geometry":{"type":"Point","coordinates":[-120.507049,46.604135]}},{"properties":{"tv homes":276550,"city":"Youngstown","percent of us":0.248,"designated market area dma":"Youngstown","id":"a626pqulrjk6","lat":41.0981,"state":"OH","long":-80.650789},"type":"Feature","geometry":{"type":"Point","coordinates":[-80.650789,41.0981]}},{"properties":{"tv homes":107360,"city":"Yuma","percent of us":0.096,"designated market area dma":"Yuma El Centro","id":"a626pqtmddgo","lat":32.68485,"state":"AZ","long":-114.624614},"type":"Feature","geometry":{"type":"Point","coordinates":[-114.624614,32.68485]}},{"properties":{"tv homes":33090,"city":"Zanesville","percent of us":0.03,"designated market area dma":"Zanesville","id":"a626pr0wtx5x","lat":39.940549,"state":"OH","long":-82.001389},"type":"Feature","geometry":{"type":"Point","coordinates":[-82.001389,39.940549]}}],"is_temporal":false,"author":{"url":null,"metadata":null,"contact_name":"","contact_address":"","source":null,"contact_phone":""},"source":null,"pagination":{"sort":null,"start":0,"total":204,"limit":1000000},"state":"complete","tags":"","published":"2014-08-11T08:14:49-04:00","id":7490}