{"type":"FeatureCollection","data_type":"Dataset","url_type":null,"permissions":[{"permissions":{"download":true,"view":true},"group_id":"everyone"}],"classification":null,"title":"Ports of Export","count":8,"stream_id":75347,"contributor":{"url":"http://geocommons.com/users/16052","name":"hpgenmotors"},"data_attributes":null,"calculation_params":null,"icon_link":null,"link":"http://geocommons.com/overlays/75347.json","extent":[-3.80787,-37.8132,144.963,43.461],"geometry_types":["point"],"unique_name":null,"name":"Ports of Export","feature_count":8,"description":"","next_feature":null,"is_raster":false,"short_classification":"Y","stats":{"latitude":{"max":43.46099325,"mean":16.00228806125,"variance":1120.33744261256,"stdev":33.4714421949901,"min":-37.81316249,"median":35.44377014},"longitude":{"max":144.9629857,"mean":112.771198528875,"variance":2398.59348450327,"stdev":48.9754375631629,"min":-3.807866769,"median":128.5680261}},"features":[{"properties":{"location name":"AAT","city":"Outerharbour","latitude":-34.77624438,"country":"Australia","service provider":"AAT","longitude":138.485489,"id":"a69x91zzjsuw","address":null,"state":"SA"},"type":"Feature","geometry":{"type":"Point","coordinates":[138.485489,-34.77624438]}},{"properties":{"location name":"Gunsan Port","city":"Gunsan","latitude":35.9676982,"country":"Korea","service provider":"Gunsan Port","longitude":126.7366802,"id":"a69x91vnm4zh","address":null,"state":"KR"},"type":"Feature","geometry":{"type":"Point","coordinates":[126.7366802,35.9676982]}},{"properties":{"location name":"Incheon Port","city":"Incheon","latitude":37.456292,"country":"Korea","service provider":"Incheon Port","longitude":126.7052796,"id":"a69x91m8ckxm","address":null,"state":"KR"},"type":"Feature","geometry":{"type":"Point","coordinates":[126.7052796,37.456292]}},{"properties":{"location name":"Laem Chabang","city":"Laem Chabang","latitude":13.08215843,"country":"Thailand","service provider":"Laem Chabang","longitude":100.8809299,"id":"a69x91yntuk7","address":null,"state":"TH"},"type":"Feature","geometry":{"type":"Point","coordinates":[100.8809299,13.08215843]}},{"properties":{"location name":"Masan Port","city":"Masan","latitude":35.19679934,"country":"Korea","service provider":"Masan Port","longitude":128.5680261,"id":"a69x91vp3901","address":null,"state":"KR"},"type":"Feature","geometry":{"type":"Point","coordinates":[128.5680261,35.19679934]}},{"properties":{"location name":"Melbourne (Webb Dock)","city":"Melbourne","latitude":-37.81316249,"country":"Australia","service provider":"Melbourne (Webb Dock)","longitude":144.9629857,"id":"a69x91mk137b","address":null,"state":"VIC"},"type":"Feature","geometry":{"type":"Point","coordinates":[144.9629857,-37.81316249]}},{"properties":{"location name":"Santander Port","city":"Santander","latitude":43.46099325,"country":"Spain","service provider":"Santander Port","longitude":-3.807866769,"id":"a69x91pdbfg5","address":null,"state":"SP"},"type":"Feature","geometry":{"type":"Point","coordinates":[-3.807866769,43.46099325]}},{"properties":{"location name":"YOKOHAMA Port","city":"YOKOHAMA","latitude":35.44377014,"country":"Japan","service provider":"YOKOHAMA Port","longitude":139.6380645,"id":"a69x91sdf4me","address":null,"state":"JP"},"type":"Feature","geometry":{"type":"Point","coordinates":[139.6380645,35.44377014]}}],"is_temporal":false,"author":{"url":"","metadata":"","contact_name":"","contact_address":"","source":"","contact_phone":""},"source":"","pagination":{"sort":null,"start":0,"total":8,"limit":1000000},"state":"complete","tags":"","published":"2014-08-10T18:34:39-04:00","id":75347}