{"type":"FeatureCollection","data_type":"Dataset","url_type":null,"permissions":[{"permissions":{"download":true,"view":true},"group_id":"everyone"}],"classification":null,"title":"working","count":15,"stream_id":76032,"contributor":{"url":"http://geocommons.com/users/18853","name":"myopic222"},"data_attributes":null,"calculation_params":null,"icon_link":null,"link":"http://geocommons.com/overlays/76032.json","extent":[0.0,0.0,0.0,0.0],"geometry_types":null,"unique_name":null,"name":"working","feature_count":15,"description":"","next_feature":null,"is_raster":false,"short_classification":"Y","stats":{"lng":{"max":null,"min":null,"median":null},"lat":{"max":null,"min":null,"median":null}},"features":[{"properties":{"name":"Atlas Distributing INC","city":"Auburn","address2":null,"zip":"01501","category":"Beer Store","special ( value should be 1 or 0)":null,"tags":null,"country":"USA","url":"'http://www.breweryreviews.com/atlas-distributing-inc-liqrs/'","lng":null,"description":null,"phone":"(508) 791-6221","fax":null,"id":"a6tzhun0u9kq","address":"44 Southbridge St","lat":null,"state":"MA"},"type":"Feature","geometry":null},{"properties":{"name":"Beauregard Liquors","city":"Gardner","address2":null,"zip":"01440","category":"Beer Store","special ( value should be 1 or 0)":null,"tags":null,"country":"USA","url":"'http://www.breweryreviews.com/beauregard-liquors/'","lng":null,"description":null,"phone":"(978) 632-0807","fax":null,"id":"a6tzhui6j63b","address":"11 West St","lat":null,"state":"MA"},"type":"Feature","geometry":null},{"properties":{"name":"Berkshire Brewing Co Inc","city":"South Deerfield","address2":null,"zip":"01373","category":"Brewery","special ( value should be 1 or 0)":null,"tags":null,"country":"USA","url":"'http://www.breweryreviews.com/berkshire-brewing-co-inc/'","lng":null,"description":null,"phone":"(413) 665-6600","fax":null,"id":"a6tzhuoa53f0","address":"12 Railroad St","lat":null,"state":"MA"},"type":"Feature","geometry":null},{"properties":{"name":"Berkshire Mountain Brewers","city":"Great Barrington","address2":null,"zip":"01230","category":"Brewery","special ( value should be 1 or 0)":null,"tags":null,"country":"USA","url":"'http://www.breweryreviews.com/berkshire-mountain-brewers/'","lng":null,"description":null,"phone":"(413) 528-8282","fax":null,"id":"a6tzhugqlzc1","address":"424 Stockbridge Rd","lat":null,"state":"MA"},"type":"Feature","geometry":null},{"properties":{"name":"Consolidated Beverage Inc","city":"Auburn","address2":null,"zip":"01501","category":"Brewery","special ( value should be 1 or 0)":null,"tags":null,"country":"USA","url":"'http://www.breweryreviews.com/consolidated-beverage-inc/'","lng":null,"description":null,"phone":"(508) 832-5311","fax":null,"id":"a6tzhukxs4z4","address":"12 Saint Mark St","lat":null,"state":"MA"},"type":"Feature","geometry":null},{"properties":{"name":"Eds Package Store","city":"North Adams","address2":null,"zip":"01247","category":"Beer Store","special ( value should be 1 or 0)":null,"tags":null,"country":"USA","url":"'http://www.breweryreviews.com/eds-package-store/'","lng":null,"description":null,"phone":"(413) 663-6190","fax":null,"id":"a6tzhuku7k4f","address":"594 Union St","lat":null,"state":"MA"},"type":"Feature","geometry":null},{"properties":{"name":"Girardi Distributors Llc","city":"Athol","address2":null,"zip":"01331","category":"Beer Store","special ( value should be 1 or 0)":null,"tags":null,"country":"USA","url":"'http://www.breweryreviews.com/girardi-distributors-llc/'","lng":null,"description":null,"phone":"(978) 249-3581","fax":null,"id":"a6tzhukqqfx4","address":"5 Railroad Pl","lat":null,"state":"MA"},"type":"Feature","geometry":null},{"properties":{"name":"LA Resistance Inc","city":"Holyoke","address2":null,"zip":"01040","category":"Brewery","special ( value should be 1 or 0)":null,"tags":null,"country":"USA","url":"'http://www.breweryreviews.com/la-resistance-inc/'","lng":null,"description":null,"phone":"(413) 420-0188","fax":null,"id":"a6tzhupfwlth","address":"108 Cabot St","lat":null,"state":"MA"},"type":"Feature","geometry":null},{"properties":{"name":"Lukes Beer &amp; Wine Convenience Store","city":"Palmer","address2":null,"zip":"01069","category":"Beer Store","special ( value should be 1 or 0)":null,"tags":null,"country":"USA","url":"'http://www.breweryreviews.com/lukes-beer-wine-convenience-store/'","lng":null,"description":null,"phone":"(413) 283-4765","fax":null,"id":"a6tzhutol9xb","address":"1478 N Main St","lat":null,"state":"MA"},"type":"Feature","geometry":null},{"properties":{"name":"Northampton Brewery","city":"Northampton","address2":null,"zip":"01060","category":"Brewery","special ( value should be 1 or 0)":null,"tags":null,"country":"USA","url":"'http://www.breweryreviews.com/northampton-brewery/'","lng":null,"description":null,"phone":"(413) 584-9903","fax":null,"id":"a6tzhuq7yaej","address":"11 Brewster CT","lat":null,"state":"MA"},"type":"Feature","geometry":null},{"properties":{"name":"Opa-Opa Brewing Co","city":"Southampton","address2":null,"zip":"01073","category":"Brewery","special ( value should be 1 or 0)":null,"tags":null,"country":"USA","url":"'http://www.breweryreviews.com/opa-opa-brewing-co/'","lng":null,"description":null,"phone":"(413) 527-8282","fax":null,"id":"a6tzhukxiwqp","address":"162 College Hwy","lat":null,"state":"MA"},"type":"Feature","geometry":null},{"properties":{"name":"Paper City Brewery Co Inc","city":"Holyoke","address2":null,"zip":"01040","category":"Brewery","special ( value should be 1 or 0)":null,"tags":null,"country":"USA","url":"'http://www.breweryreviews.com/paper-city-brewery-co-inc/'","lng":null,"description":null,"phone":"(413) 535-1588","fax":null,"id":"a6tzhuikdham","address":"108 Cabot St","lat":null,"state":"MA"},"type":"Feature","geometry":null},{"properties":{"name":"Pittsfield Brew Works","city":"Pittsfield","address2":null,"zip":"01201","category":"Brewery","special ( value should be 1 or 0)":null,"tags":null,"country":"USA","url":"'http://www.breweryreviews.com/pittsfield-brew-works/'","lng":null,"description":null,"phone":"(413) 997-3506","fax":null,"id":"a6tzhujotmj6","address":"34 Depot St","lat":null,"state":"MA"},"type":"Feature","geometry":null},{"properties":{"name":"Wachusett Brewing Co","city":"Westminster","address2":null,"zip":"01473","category":"Brewery","special ( value should be 1 or 0)":null,"tags":null,"country":"USA","url":"'http://www.breweryreviews.com/wachusett-brewing-co/'","lng":null,"description":null,"phone":"(978) 874-9965","fax":null,"id":"a6tzhuo0p49m","address":"175 State Rd E","lat":null,"state":"MA"},"type":"Feature","geometry":null},{"properties":{"name":"Yiannis Distrubuting Co","city":"Southampton","address2":null,"zip":"01073","category":"Brewery","special ( value should be 1 or 0)":null,"tags":null,"country":"USA","url":"'http://www.breweryreviews.com/yiannis-distrubuting-co/'","lng":null,"description":null,"phone":"(413) 527-8283","fax":null,"id":"a6tzhug6g9sp","address":"162 College Hwy","lat":null,"state":"MA"},"type":"Feature","geometry":null}],"is_temporal":false,"author":{"url":"","metadata":"","contact_name":"","contact_address":"","source":"","contact_phone":""},"source":"","pagination":{"sort":null,"start":0,"total":15,"limit":1000000},"state":"complete","tags":"","published":"2014-08-10T19:59:57-04:00","id":76032}