{"type":"FeatureCollection","data_type":"Dataset","url_type":null,"permissions":[{"permissions":{"download":true,"view":true},"group_id":"everyone"}],"classification":null,"title":"Uncleaned schoolyards","count":14,"stream_id":76726,"contributor":{"url":"http://geocommons.com/users/14526","name":"spogburn"},"data_attributes":null,"calculation_params":null,"icon_link":null,"link":"http://geocommons.com/overlays/76726.json","extent":[-120.626,46.5698,-119.614,47.8915],"geometry_types":["point"],"unique_name":null,"name":"Uncleaned schoolyards","feature_count":14,"description":"School yards on polluted ag lands that have not been cleaned up","next_feature":null,"is_raster":false,"short_classification":"Y","stats":{},"features":[{"properties":{"city":"Yakima","id":"a62f9wx4lbcq","school":"Apple Valley Elementary School","address":"7 N 88th Avenue"},"type":"Feature","geometry":{"type":"Point","coordinates":[-119.613673,47.218621]}},{"properties":{"city":"Chelan","id":"a62f9wq49356","school":"Chelan Alternative High School","address":"319 East Johnson Avenue"},"type":"Feature","geometry":{"type":"Point","coordinates":[-120.008728,47.840557]}},{"properties":{"city":"Chelan","id":"a62f9x30hb9u","school":"Chelan Middle School","address":"215 Webster Avenue"},"type":"Feature","geometry":{"type":"Point","coordinates":[-120.023599,47.836006]}},{"properties":{"city":"Yakima","id":"a62f9wy1qiz5","school":"East Valley Intermediate School","address":"1951 Beaudry Road"},"type":"Feature","geometry":{"type":"Point","coordinates":[-120.40383,46.569829]}},{"properties":{"city":"Yakima","id":"a62f9wqr2wp7","school":"Ike High School","address":"702 S 40th Avenue"},"type":"Feature","geometry":{"type":"Point","coordinates":[-120.561903,46.590861]}},{"properties":{"city":"Manson","id":"a62f9wxu8kks","school":"Manson High School","address":"1000 Totem Pole Road"},"type":"Feature","geometry":{"type":"Point","coordinates":[-120.154124,47.891518]}},{"properties":{"city":"Wenatchee","id":"a62f9wzfryd7","school":"Pioneer Middle School","address":"1620 Russell Street"},"type":"Feature","geometry":{"type":"Point","coordinates":[-120.323489,47.411618]}},{"properties":{"city":"Yakima","id":"a62f9wyuez9u","school":"Terrace Heights Elementary School","address":"4300 Maple Court"},"type":"Feature","geometry":{"type":"Point","coordinates":[-120.478955,46.59952]}},{"properties":{"city":"Wenatchee","id":"a62f9wyfniw5","school":"Wenatchee High School","address":"1101 Millerdale Avenue"},"type":"Feature","geometry":{"type":"Point","coordinates":[-120.327189,47.411632]}},{"properties":{"city":"Yakima","id":"a62f9wsj7fpi","school":"West Valley High School","address":"8902 Zier Road"},"type":"Feature","geometry":{"type":"Point","coordinates":[-120.626337,46.574839]}},{"properties":{"city":"Yakima","id":"a62f9x2c5rt1","school":"West Valley Junior High School","address":"7505 Zier Road"},"type":"Feature","geometry":{"type":"Point","coordinates":[-120.607759,46.574837]}},{"properties":{"city":"Yakima","id":"a62f9wxm0soe","school":"West Valley Middle School","address":"1500 S 75th Avenue"},"type":"Feature","geometry":{"type":"Point","coordinates":[-120.607074,46.578483]}},{"properties":{"city":"Yakima","id":"a62f9wtl7jik","school":"Whitney Elementary School","address":"4411 W Nob Hill Boulevard"},"type":"Feature","geometry":{"type":"Point","coordinates":[-120.567201,46.585386]}},{"properties":{"city":"Yakima","id":"a62f9x3440vy","school":"Wilson Middle School","address":"902 S 44th Avenue"},"type":"Feature","geometry":{"type":"Point","coordinates":[-120.567118,46.588456]}}],"is_temporal":false,"author":{"url":"","metadata":"","contact_name":"","contact_address":"","source":"","contact_phone":""},"source":"","pagination":{"sort":null,"start":0,"total":14,"limit":1000000},"state":"complete","tags":"cleanup,pollution,schoolyard,washington","published":"2014-08-10T20:35:12-04:00","id":76726}