{"type":"FeatureCollection","data_type":"Dataset","url_type":null,"permissions":[{"permissions":{"download":true,"view":true},"group_id":"everyone"}],"classification":null,"title":"Indie Record Stores","count":58,"stream_id":7702,"contributor":{"url":"http://geocommons.com/users/2","name":"data"},"data_attributes":null,"calculation_params":null,"icon_link":null,"link":"http://geocommons.com/overlays/7702.json","extent":[-122.632,25.7824,-70.5207,47.6237],"geometry_types":["point"],"unique_name":null,"name":"Indie Record Stores","feature_count":58,"description":"","next_feature":null,"is_raster":false,"short_classification":"Y","stats":{"date founded":{"max":2006,"mean":1642.86206896552,"variance":572258.682395644,"stdev":756.477813551491,"min":0,"median":1980},"lat":{"max":47.623693,"mean":37.4574961551724,"variance":23.6375790301322,"stdev":4.8618493425992,"min":25.782359,"median":38.591153},"long":{"max":-70.520649,"mean":-94.9850739827586,"variance":277.333935533534,"stdev":16.6533460761954,"min":-122.632304,"median":-87.887637}},"features":[{"properties":{"city":"Charleston","store name":"52.5 Records","date founded":1997,"id":"a6cl16fb957f","address":"516 King St.","lat":32.791315,"state":"SC","long":-79.939871},"type":"Feature","geometry":{"type":"Point","coordinates":[-79.939871,32.791315]}},{"properties":{"city":"Edgartown","store name":"Aboveground Records","date founded":1995,"id":"a6cl16ifbrxo","address":"Box 2568, #8 Great Harbor Triangle","lat":41.39088,"state":"MA","long":-70.520649},"type":"Feature","geometry":{"type":"Point","coordinates":[-70.520649,41.39088]}},{"properties":{"city":"Berkeley","store name":"Amoeba","date founded":1990,"id":"a6cl16fe92y1","address":"2455 Telegraph Avenue","lat":37.865887,"state":"CA","long":-122.258411},"type":"Feature","geometry":{"type":"Point","coordinates":[-122.258411,37.865887]}},{"properties":{"city":"Milwaukee","store name":"Atomic Records","date founded":0,"id":"a6cl16hwujw0","address":"1816 E Locust Street","lat":43.071234,"state":"WI","long":-87.887637},"type":"Feature","geometry":{"type":"Point","coordinates":[-87.887637,43.071234]}},{"properties":{"city":"San Luis Obispo","store name":"Boo Boo Records","date founded":1974,"id":"a6cl16c5cj84","address":"978 Monterey Street","lat":35.281814,"state":"CA","long":-120.661635},"type":"Feature","geometry":{"type":"Point","coordinates":[-120.661635,35.281814]}},{"properties":{"city":"Chapel Hill","store name":"CD Alley","date founded":0,"id":"a6cl16cqabwc","address":"405-C Franklin Street","lat":35.915823,"state":"NC","long":-79.049192},"type":"Feature","geometry":{"type":"Point","coordinates":[-79.049192,35.915823]}},{"properties":{"city":"Lexington","store name":"CD Central","date founded":1995,"id":"a6cl16m9v6ll","address":"377 S. Limestone","lat":38.041976,"state":"KY","long":-84.503427},"type":"Feature","geometry":{"type":"Point","coordinates":[-84.503427,38.041976]}},{"properties":{"city":"Jacksonville Beach","store name":"CD Connection","date founded":2000,"id":"a6cl16mkequv","address":"1908 3rd St. S.","lat":30.270523,"state":"FL","long":-81.388782},"type":"Feature","geometry":{"type":"Point","coordinates":[-81.388782,30.270523]}},{"properties":{"city":"Atlanta","store name":"Criminal Records","date founded":1999,"id":"a6cl16k4ghb3","address":"1154-A Euclid Avenue","lat":33.76501,"state":"GA","long":-84.349678},"type":"Feature","geometry":{"type":"Point","coordinates":[-84.349678,33.76501]}},{"properties":{"city":"Chicago","store name":"Dave's Records","date founded":0,"id":"a6cl16ig0ti0","address":"2604 North Clark Street","lat":41.929686,"state":"IL","long":-87.643184},"type":"Feature","geometry":{"type":"Point","coordinates":[-87.643184,41.929686]}},{"properties":{"city":"Decatur","store name":"Decatur CD","date founded":2003,"id":"a6cl16li3y8k","address":"356 West Ponce de Leon Ave.","lat":33.7755,"state":"GA","long":-84.301406},"type":"Feature","geometry":{"type":"Point","coordinates":[-84.301406,33.7755]}},{"properties":{"city":"Austin","store name":"End of An Ear","date founded":2005,"id":"a6cl16i8uotl","address":"2209 South 1st","lat":30.244212,"state":"TX","long":-97.757694},"type":"Feature","geometry":{"type":"Point","coordinates":[-97.757694,30.244212]}},{"properties":{"city":"St. Louis","store name":"Euclid Records","date founded":1986,"id":"a6cl16nqs460","address":"601 East Lockwood","lat":38.591153,"state":"MO","long":-90.341447},"type":"Feature","geometry":{"type":"Point","coordinates":[-90.341447,38.591153]}},{"properties":{"city":"Pleasant Ridge","store name":"Everybody's Records","date founded":1978,"id":"a6cl16pjrvae","address":"6106 Montgomery Rd.","lat":39.299422,"state":"OH","long":-84.562095},"type":"Feature","geometry":{"type":"Point","coordinates":[-84.562095,39.299422]}},{"properties":{"city":"Branford","store name":"Exile on Main Street","date founded":0,"id":"a6cl16oj5rba","address":"267 East Main St.","lat":41.292196,"state":"CT","long":-72.793083},"type":"Feature","geometry":{"type":"Point","coordinates":[-72.793083,41.292196]}},{"properties":{"city":"Long Beach","store name":"Fingerprints","date founded":1992,"id":"a6cl16oq0hta","address":"4612 E. 2nd Street","lat":33.761987,"state":"CA","long":-118.139335},"type":"Feature","geometry":{"type":"Point","coordinates":[-118.139335,33.761987]}},{"properties":{"city":"Norman","store name":"Guestroom Records","date founded":0,"id":"a6cl16glly5h","address":"125 E. Main St.","lat":35.221234,"state":"OK","long":-97.442937},"type":"Feature","geometry":{"type":"Point","coordinates":[-97.442937,35.221234]}},{"properties":{"city":"San Antonio","store name":"Hogwild Records","date founded":1980,"id":"a6cl16hxe6z1","address":"1824 N Main","lat":29.446296,"state":"TX","long":-98.494047},"type":"Feature","geometry":{"type":"Point","coordinates":[-98.494047,29.446296]}},{"properties":{"city":"Walla Walla","store name":"Hot Poop","date founded":1978,"id":"a6cl16lnfy50","address":"210 E. Main","lat":46.068849,"state":"WA","long":-118.336011},"type":"Feature","geometry":{"type":"Point","coordinates":[-118.336011,46.068849]}},{"properties":{"city":"Colorado Springs","store name":"Independent Records &amp; Video","date founded":1978,"id":"a6cl16e25wgl","address":"3030 East Platte Avenue","lat":38.839961,"state":"CO","long":-104.772774},"type":"Feature","geometry":{"type":"Point","coordinates":[-104.772774,38.839961]}},{"properties":{"city":"Indianapolis","store name":"Indy CD and Vinyl","date founded":2001,"id":"a6cl16fffjcy","address":"806 Broad Ripple Ave.","lat":39.869829,"state":"IN","long":-86.144495},"type":"Feature","geometry":{"type":"Point","coordinates":[-86.144495,39.869829]}},{"properties":{"city":"Portland","store name":"Jackpot Records","date founded":1997,"id":"a6cl16ftm7s0","address":"3574 SE Hawthorne","lat":45.512012,"state":"OR","long":-122.626781},"type":"Feature","geometry":{"type":"Point","coordinates":[-122.626781,45.512012]}},{"properties":{"city":"Darien","store name":"Johnny's","date founded":1975,"id":"a6cl16hcumjc","address":"45 Tokeneke Road","lat":41.076936,"state":"CT","long":-73.469066},"type":"Feature","geometry":{"type":"Point","coordinates":[-73.469066,41.076936]}},{"properties":{"city":"Lawrence","store name":"Kief's Downtown Music","date founded":1959,"id":"a6cl16dg6u7h","address":"823 Massachusetts St.","lat":38.96889,"state":"KS","long":-95.236083},"type":"Feature","geometry":{"type":"Point","coordinates":[-95.236083,38.96889]}},{"properties":{"city":"Indianapolis","store name":"LUNA Music Midtown","date founded":1994,"id":"a6cl16rclllw","address":"5202 North College Avenue","lat":39.847166,"state":"IN","long":-86.145969},"type":"Feature","geometry":{"type":"Point","coordinates":[-86.145969,39.847166]}},{"properties":{"city":"Bloomington","store name":"Landlocked Music","date founded":2006,"id":"a6cl16j44bfw","address":"202 N. Walnut Ave.","lat":39.167673,"state":"IN","long":-86.533471},"type":"Feature","geometry":{"type":"Point","coordinates":[-86.533471,39.167673]}},{"properties":{"city":"West Babylon","store name":"Looney Tunes","date founded":1971,"id":"a6cl16pwsyx4","address":"31 Brookvale Ave","lat":40.686418,"state":"NY","long":-73.347097},"type":"Feature","geometry":{"type":"Point","coordinates":[-73.347097,40.686418]}},{"properties":{"city":"Encinitas","store name":"Lou's Records","date founded":1980,"id":"a6cl16lqu10p","address":"434 North Coast Highway 101","lat":33.057182,"state":"CA","long":-117.298786},"type":"Feature","geometry":{"type":"Point","coordinates":[-117.298786,33.057182]}},{"properties":{"city":"Lawrence","store name":"Love Garden Sounds","date founded":1990,"id":"a6cl16hdl1kh","address":"936 1/2 Massachusetts St.","lat":38.966774,"state":"KS","long":-95.23575},"type":"Feature","geometry":{"type":"Point","coordinates":[-95.23575,38.966774]}},{"properties":{"city":"Charlotte","store name":"Lunchbox Records","date founded":2005,"id":"a6cl16do3cwc","address":"1419-A Central Ave.","lat":35.220711,"state":"NC","long":-80.814824},"type":"Feature","geometry":{"type":"Point","coordinates":[-80.814824,35.220711]}},{"properties":{"city":"San Diego","store name":"M-Theory Music Mission Hills","date founded":0,"id":"a6cl16ilygg5","address":"915 W Washington Street","lat":32.749653,"state":"CA","long":-117.171574},"type":"Feature","geometry":{"type":"Point","coordinates":[-117.171574,32.749653]}},{"properties":{"city":"Riverside","store name":"Mad Platter","date founded":1980,"id":"a6cl16nbfyfi","address":"1223 University Avenue #160","lat":33.975902,"state":"CA","long":-117.338466},"type":"Feature","geometry":{"type":"Point","coordinates":[-117.338466,33.975902]}},{"properties":{"city":"Portland","store name":"Music Millennium","date founded":1969,"id":"a6cl16oj0d33","address":"3158 E Burnside","lat":45.52273,"state":"OR","long":-122.632304},"type":"Feature","geometry":{"type":"Point","coordinates":[-122.632304,45.52273]}},{"properties":{"city":"Tuscaloosa","store name":"Oz Music","date founded":1980,"id":"a6cl16qcwvxm","address":"506 14th St","lat":33.200136,"state":"AL","long":-87.543334},"type":"Feature","geometry":{"type":"Point","coordinates":[-87.543334,33.200136]}},{"properties":{"city":"Winter Park","store name":"Park Avenue Compact Discs","date founded":1978,"id":"a6cl16fydex7","address":"528 Park Avenue South","lat":28.593718,"state":"FL","long":-81.350512},"type":"Feature","geometry":{"type":"Point","coordinates":[-81.350512,28.593718]}},{"properties":{"city":"Richmond","store name":"Plan 9","date founded":1985,"id":"a6cl16qrhukv","address":"3012 W. Cary Street","lat":37.552716,"state":"VA","long":-77.47902},"type":"Feature","geometry":{"type":"Point","coordinates":[-77.47902,37.552716]}},{"properties":{"city":"Princeton","store name":"Princeton Record Exchange","date founded":1980,"id":"a6cl16o0e1j7","address":"20 South Tulane St.","lat":40.350622,"state":"NJ","long":-74.658937},"type":"Feature","geometry":{"type":"Point","coordinates":[-74.658937,40.350622]}},{"properties":{"city":"Burlington","store name":"Pure Pop","date founded":1980,"id":"a6cl16jm54p2","address":"115 South Winooski Ave","lat":44.4769,"state":"VT","long":-73.211251},"type":"Feature","geometry":{"type":"Point","coordinates":[-73.211251,44.4769]}},{"properties":{"city":"Berkeley","store name":"Rasputin Music","date founded":1971,"id":"a6cl16mig8qn","address":"2401 Telegraph Ave.","lat":37.86682,"state":"CA","long":-122.258647},"type":"Feature","geometry":{"type":"Point","coordinates":[-122.258647,37.86682]}},{"properties":{"city":"Rochester","store name":"Record Archive","date founded":1983,"id":"a6cl16d7fnbj","address":"33 1/3 Rockwood St.","lat":43.144241,"state":"NY","long":-77.549505},"type":"Feature","geometry":{"type":"Point","coordinates":[-77.549505,43.144241]}},{"properties":{"city":"Roseville","store name":"Record Time","date founded":1983,"id":"a6cl16go2vsk","address":"27360 Gratiot Ave.","lat":42.497615,"state":"MI","long":-82.935943},"type":"Feature","geometry":{"type":"Point","coordinates":[-82.935943,42.497615]}},{"properties":{"city":"Claremont","store name":"Rhino Records","date founded":1981,"id":"a6cl16jskz7z","address":"235 Yale Avenue","lat":34.095986,"state":"CA","long":-117.718014},"type":"Feature","geometry":{"type":"Point","coordinates":[-117.718014,34.095986]}},{"properties":{"city":"Ventura","store name":"Salzer's Records","date founded":1966,"id":"a6cl16p7tcg1","address":"5777 Valentine Road","lat":34.251755,"state":"CA","long":-119.211896},"type":"Feature","geometry":{"type":"Point","coordinates":[-119.211896,34.251755]}},{"properties":{"city":"Cincinnati","store name":"Shake It Records","date founded":1999,"id":"a6cl16ql1mg1","address":"4156 Hamilton Ave","lat":39.16215,"state":"OH","long":-84.539382},"type":"Feature","geometry":{"type":"Point","coordinates":[-84.539382,39.16215]}},{"properties":{"city":"Seattle","store name":"Sonic Boom Records","date founded":0,"id":"a6cl16iq2hqv","address":"514 15th Avenue E.","lat":47.623693,"state":"WA","long":-122.312425},"type":"Feature","geometry":{"type":"Point","coordinates":[-122.312425,47.623693]}},{"properties":{"city":"Durango","store name":"Southwest Sound","date founded":0,"id":"a6cl16kg33db","address":"922 Main","lat":37.273681,"state":"CO","long":-107.880471},"type":"Feature","geometry":{"type":"Point","coordinates":[-107.880471,37.273681]}},{"properties":{"city":"Phoenix","store name":"Stinkweeds","date founded":0,"id":"a6cl16lmew4n","address":"12 W Camelback Road","lat":33.509452,"state":"AZ","long":-112.073924},"type":"Feature","geometry":{"type":"Point","coordinates":[-112.073924,33.509452]}},{"properties":{"city":"Madison","store name":"Strictly Discs","date founded":1988,"id":"a6cl16r6g5g2","address":"1900 Monroe Street","lat":43.064658,"state":"WI","long":-89.417776},"type":"Feature","geometry":{"type":"Point","coordinates":[-89.417776,43.064658]}},{"properties":{"city":"Ft. Collins","store name":"The Finest","date founded":1972,"id":"a6cl16g5j2j7","address":"1129 W. Elizabeth","lat":40.574505,"state":"CO","long":-105.096809},"type":"Feature","geometry":{"type":"Point","coordinates":[-105.096809,40.574505]}},{"properties":{"city":"Greely","store name":"The Finest","date founded":1972,"id":"a6cl16ldokwt","address":"2529 11th Avenue","lat":40.42328,"state":"CO","long":-104.694464},"type":"Feature","geometry":{"type":"Point","coordinates":[-104.694464,40.42328]}},{"properties":{"city":"Baltimore","store name":"The Sound Garden","date founded":1993,"id":"a6cl16f9o6hn","address":"1616 Thames Street","lat":39.281367,"state":"MD","long":-76.594448},"type":"Feature","geometry":{"type":"Point","coordinates":[-76.594448,39.281367]}},{"properties":{"city":"Denver","store name":"Twist and Shout","date founded":1988,"id":"a6cl16emuwve","address":"2508 E. Colfax Ave.","lat":39.740068,"state":"CO","long":-104.957205},"type":"Feature","geometry":{"type":"Point","coordinates":[-104.957205,39.740068]}},{"properties":{"city":"Miami Beach","store name":"Uncle Sam's Music","date founded":1985,"id":"a6cl16pgpf1k","address":"1141 Washington Ave.","lat":25.782359,"state":"FL","long":-80.13223},"type":"Feature","geometry":{"type":"Point","coordinates":[-80.13223,25.782359]}},{"properties":{"city":"St. Louis","store name":"Vintage Vinyl","date founded":1979,"id":"a6cl16g5i36m","address":"6610 Delmar Blvd","lat":38.655902,"state":"MO","long":-90.305762},"type":"Feature","geometry":{"type":"Point","coordinates":[-90.305762,38.655902]}},{"properties":{"city":"Tampa","store name":"Vinyl Fever","date founded":1981,"id":"a6cl16sef9f8","address":"4110 Henderson Blvd.","lat":27.927985,"state":"FL","long":-82.512335},"type":"Feature","geometry":{"type":"Point","coordinates":[-82.512335,27.927985]}},{"properties":{"city":"Austin","store name":"Waterloo Records","date founded":0,"id":"a6cl16m4mv1v","address":"600A North Lamar","lat":30.271856,"state":"TX","long":-97.754024},"type":"Feature","geometry":{"type":"Point","coordinates":[-97.754024,30.271856]}},{"properties":{"city":"Phoenix","store name":"Zia Records","date founded":1980,"id":"a6cl16pfy2jw","address":"1940 W. Indian School Road","lat":33.495177,"state":"AZ","long":-112.100763},"type":"Feature","geometry":{"type":"Point","coordinates":[-112.100763,33.495177]}},{"properties":{"city":"Louisville","store name":"earX-tacy","date founded":1985,"id":"a6cl16rumo9g","address":"1534 Bardstown Road","lat":38.231301,"state":"KY","long":-85.707253},"type":"Feature","geometry":{"type":"Point","coordinates":[-85.707253,38.231301]}}],"is_temporal":false,"author":{"url":"","metadata":"","contact_name":"","contact_address":"","source":"","contact_phone":""},"source":"","pagination":{"sort":null,"start":0,"total":58,"limit":1000000},"state":"complete","tags":"","published":"2014-08-11T08:45:13-04:00","id":7702}