{"type":"FeatureCollection","data_type":"Dataset","url_type":null,"permissions":[{"permissions":{"download":true,"view":true},"group_id":"everyone"}],"classification":null,"title":"Starbucks","count":62,"stream_id":77177,"contributor":{"url":"http://geocommons.com/users/19088","name":"ashukrish16"},"data_attributes":null,"calculation_params":null,"icon_link":null,"link":"http://geocommons.com/overlays/77177.json","extent":[-87.7085,41.8896,-87.6116,42.0192],"geometry_types":["point"],"unique_name":null,"name":"Starbucks","feature_count":62,"description":"","next_feature":null,"is_raster":false,"short_classification":"Y","stats":{"ARC_ZIP":{"max":60660,"mean":60622.4193548387,"variance":266.247488101533,"stdev":16.3170919008729,"min":60610,"median":60614},"STORENUM":{"max":121.0,"mean":71.741935483871,"variance":505.60444209413,"stdev":22.4856496925068,"min":22.0,"median":74.0},"Score":{"max":100,"mean":98.9838709677419,"variance":21.8521946060286,"stdev":4.67463309854673,"min":75,"median":100}},"features":[{"properties":{"Status":"M","Match_addr":"430 N CLARK ST, CHICAGO, IL, 60610","CITY":"CHICAGO","Side":"L","ZIP":"60610","ARC_City":"CHICAGO","ARC_ZIP":60610,"ARC_State":"IL","STORENUM":22.0,"STATE":"IL","Score":100,"id":"a62efvxaa8c0","ARC_Street":"430 N CLARK ST","ADDRESS":"430 N CLARK ST"},"type":"Feature","geometry":{"type":"Point","coordinates":[-87.6311517999797,41.8900545999998]}},{"properties":{"Status":"M","Match_addr":"414 N ORLEANS ST, CHICAGO, IL, 60610","CITY":"CHICAGO","Side":"L","ZIP":"60610","ARC_City":"CHICAGO","ARC_ZIP":60610,"ARC_State":"IL","STORENUM":29.0,"STATE":"IL","Score":100,"id":"a62efw3x1dh1","ARC_Street":"414 N ORLEANS ST","ADDRESS":"414 N ORLEANS ST"},"type":"Feature","geometry":{"type":"Point","coordinates":[-87.6370304225787,41.8896071769535]}},{"properties":{"Status":"M","Match_addr":"444 N MICHIGAN AVE, CHICAGO, IL, 60611","CITY":"CHICAGO","Side":"L","ZIP":"60611","ARC_City":"CHICAGO","ARC_ZIP":60611,"ARC_State":"IL","STORENUM":35.0,"STATE":"IL","Score":100,"id":"a62efvutcjga","ARC_Street":"444 N MICHIGAN AVE","ADDRESS":"444 N MICHIGAN AVE"},"type":"Feature","geometry":{"type":"Point","coordinates":[-87.6242500000153,41.8903885769266]}},{"properties":{"Status":"M","Match_addr":"600 N STATE ST, CHICAGO, IL, 60610","CITY":"CHICAGO","Side":"L","ZIP":"60610","ARC_City":"CHICAGO","ARC_ZIP":60610,"ARC_State":"IL","STORENUM":36.0,"STATE":"IL","Score":100,"id":"a62efw0me7vl","ARC_Street":"600 N STATE ST","ADDRESS":"600 N STATE ST"},"type":"Feature","geometry":{"type":"Point","coordinates":[-87.6282208999911,41.8925539699994]}},{"properties":{"Status":"M","Match_addr":"155 E ONTARIO ST, CHICAGO, IL, 60611","CITY":"CHICAGO","Side":"R","ZIP":"60611","ARC_City":"CHICAGO","ARC_ZIP":60611,"ARC_State":"IL","STORENUM":39.0,"STATE":"IL","Score":100,"id":"a62efvyy2cai","ARC_Street":"155 E ONTARIO ST","ADDRESS":"155 E ONTARIO ST"},"type":"Feature","geometry":{"type":"Point","coordinates":[-87.6194745880424,41.8934300066726]}},{"properties":{"Status":"M","Match_addr":"255 E GRAND AVE, CHICAGO, IL, 60611","CITY":"CHICAGO","Side":"R","ZIP":"60611","ARC_City":"CHICAGO","ARC_ZIP":60611,"ARC_State":"IL","STORENUM":40.0,"STATE":"IL","Score":100,"id":"a62efvz2y2oc","ARC_Street":"255 E GRAND AVE","ADDRESS":"255 E GRAND AVE"},"type":"Feature","geometry":{"type":"Point","coordinates":[-87.6210520588533,41.8918236188616]}},{"properties":{"Status":"M","Match_addr":"670 N MICHIGAN AVE, CHICAGO, IL, 60611","CITY":"CHICAGO","Side":"L","ZIP":"60611","ARC_City":"CHICAGO","ARC_ZIP":60611,"ARC_State":"IL","STORENUM":42.0,"STATE":"IL","Score":100,"id":"a62efvyjbirx","ARC_Street":"670 N MICHIGAN AVE","ADDRESS":"670 N MICHIGAN AVE"},"type":"Feature","geometry":{"type":"Point","coordinates":[-87.6242534333205,41.8944108900004]}},{"properties":{"Status":"M","Match_addr":"750 N FRANKLIN ST, CHICAGO, IL, 60610","CITY":"CHICAGO","Side":"L","ZIP":"60610","ARC_City":"CHICAGO","ARC_ZIP":60610,"ARC_State":"IL","STORENUM":43.0,"STATE":"IL","Score":100,"id":"a62efvqcwwnh","ARC_Street":"750 N FRANKLIN ST","ADDRESS":"750 N FRANKLIN ST"},"type":"Feature","geometry":{"type":"Point","coordinates":[-87.6358637332235,41.895955210004]}},{"properties":{"Status":"M","Match_addr":"42 E CHICAGO AVE, CHICAGO, IL, 60611","CITY":"CHICAGO","Side":"L","ZIP":"60611","ARC_City":"CHICAGO","ARC_ZIP":60611,"ARC_State":"IL","STORENUM":44.0,"STATE":"IL","Score":100,"id":"a62efw5hd2g0","ARC_Street":"42 E CHICAGO AVE","ADDRESS":"42 E CHICAGO AVE"},"type":"Feature","geometry":{"type":"Point","coordinates":[-87.6268476800607,41.8966936146362]}},{"properties":{"Status":"M","Match_addr":"251 E HURON ST, CHICAGO, IL, 60611","CITY":"CHICAGO","Side":"R","ZIP":"60611","ARC_City":"CHICAGO","ARC_ZIP":60611,"ARC_State":"IL","STORENUM":45.0,"STATE":"IL","Score":100,"id":"a62efvu49g5o","ARC_Street":"251 E HURON ST","ADDRESS":"251 E HURON ST"},"type":"Feature","geometry":{"type":"Point","coordinates":[-87.6216167881375,41.8949549955583]}},{"properties":{"Status":"M","Match_addr":"111 E CHESTNUT ST, CHICAGO, IL, 60611","CITY":"CHICAGO","Side":"R","ZIP":"60611","ARC_City":"CHICAGO","ARC_ZIP":60611,"ARC_State":"IL","STORENUM":46.0,"STATE":"IL","Score":100,"id":"a62efvsd55xw","ARC_Street":"111 E CHESTNUT ST","ADDRESS":"111 E CHESTNUT ST"},"type":"Feature","geometry":{"type":"Point","coordinates":[-87.6251400451421,41.8984290025582]}},{"properties":{"Status":"M","Match_addr":"828 N STATE ST, CHICAGO, IL, 60610","CITY":"CHICAGO","Side":"L","ZIP":"60610","ARC_City":"CHICAGO","ARC_ZIP":60610,"ARC_State":"IL","STORENUM":47.0,"STATE":"IL","Score":100,"id":"a62efvzpnhwv","ARC_Street":"828 N STATE ST","ADDRESS":"828 N STATE ST"},"type":"Feature","geometry":{"type":"Point","coordinates":[-87.6283500000008,41.8975440299984]}},{"properties":{"Status":"M","Match_addr":"401 E ONTARIO ST, CHICAGO, IL, 60611","CITY":"CHICAGO","Side":"R","ZIP":"60611","ARC_City":"CHICAGO","ARC_ZIP":60611,"ARC_State":"IL","STORENUM":48.0,"STATE":"IL","Score":100,"id":"a62efvxllcmv","ARC_Street":"401 E ONTARIO ST","ADDRESS":"401 E ONTARIO ST"},"type":"Feature","geometry":{"type":"Point","coordinates":[-87.6177220001061,41.8934330008553]}},{"properties":{"Status":"M","Match_addr":"932 N RUSH ST, CHICAGO, IL, 60611","CITY":"CHICAGO","Side":"L","ZIP":"60611","ARC_City":"CHICAGO","ARC_ZIP":60611,"ARC_State":"IL","STORENUM":51.0,"STATE":"IL","Score":100,"id":"a62efvwk2pvj","ARC_Street":"932 N RUSH ST","ADDRESS":"932 N RUSH ST"},"type":"Feature","geometry":{"type":"Point","coordinates":[-87.6272468338278,41.900022752351]}},{"properties":{"Status":"M","Match_addr":"600 E GRAND AVE, CHICAGO, IL, 60611","CITY":"CHICAGO","Side":"L","ZIP":"60611","ARC_City":"CHICAGO","ARC_ZIP":60611,"ARC_State":"IL","STORENUM":53.0,"STATE":"IL","Score":100,"id":"a62efvwuy701","ARC_Street":"600 E GRAND AVE","ADDRESS":"600 E GRAND AVE"},"type":"Feature","geometry":{"type":"Point","coordinates":[-87.6116403999911,41.8919282000107]}},{"properties":{"Status":"M","Match_addr":"39 W DIVISION ST, CHICAGO, IL, 60610","CITY":"CHICAGO","Side":"L","ZIP":"60610","ARC_City":"CHICAGO","ARC_ZIP":60610,"ARC_State":"IL","STORENUM":54.0,"STATE":"IL","Score":100,"id":"a62efw4qhjvf","ARC_Street":"39 W DIVISION ST","ADDRESS":"39 W DIVISION ST"},"type":"Feature","geometry":{"type":"Point","coordinates":[-87.6302831819204,41.9039733437266]}},{"properties":{"Status":"M","Match_addr":"520 N OGDEN AVE, CHICAGO, IL, 60622","CITY":"CHICAGO","Side":"L","ZIP":"60622","ARC_City":"CHICAGO","ARC_ZIP":60622,"ARC_State":"IL","STORENUM":56.0,"STATE":"IL","Score":100,"id":"a62efvurg713","ARC_Street":"520 N OGDEN AVE","ADDRESS":"520 N OGDEN AVE"},"type":"Feature","geometry":{"type":"Point","coordinates":[-87.65857880128,41.8916825336825]}},{"properties":{"Status":"M","Match_addr":"1229 N CLYBOURN AVE, CHICAGO, IL, 60610","CITY":"CHICAGO","Side":"R","ZIP":"60610","ARC_City":"CHICAGO","ARC_ZIP":60610,"ARC_State":"IL","STORENUM":57.0,"STATE":"IL","Score":100,"id":"a62efw547pqi","ARC_Street":"1229 N CLYBOURN AVE","ADDRESS":"1229 N CLYBOURN AVE"},"type":"Feature","geometry":{"type":"Point","coordinates":[-87.6404495482124,41.904341010602]}},{"properties":{"Status":"M","Match_addr":"106 W GERMANIA PL, CHICAGO, IL, 60610","CITY":"CHICAGO","Side":"R","ZIP":"60610","ARC_City":"CHICAGO","ARC_ZIP":60610,"ARC_State":"IL","STORENUM":58.0,"STATE":"IL","Score":100,"id":"a62efvtxxg2g","ARC_Street":"106 W GERMANIA PL","ADDRESS":"106 W GERMANIA PL"},"type":"Feature","geometry":{"type":"Point","coordinates":[-87.6319105469343,41.9105300002922]}},{"properties":{"Status":"M","Match_addr":"200 W NORTH AVE, CHICAGO, IL, 60614","CITY":"CHICAGO","Side":"R","ZIP":"60610","ARC_City":"CHICAGO","ARC_ZIP":60610,"ARC_State":"IL","STORENUM":59.0,"STATE":"IL","Score":100,"id":"a62efvxxksqw","ARC_Street":"200 W NORTH AVE","ADDRESS":"200 W NORTH AVE"},"type":"Feature","geometry":{"type":"Point","coordinates":[-87.6348509000122,41.9111891001324]}},{"properties":{"Status":"M","Match_addr":"1001 W NORTH AVE, CHICAGO, IL, 60622","CITY":"CHICAGO","Side":"L","ZIP":"60622","ARC_City":"CHICAGO","ARC_ZIP":60622,"ARC_State":"IL","STORENUM":61.0,"STATE":"IL","Score":100,"id":"a62efw1dkb7b","ARC_Street":"1001 W NORTH AVE","ADDRESS":"1001 W NORTH AVE"},"type":"Feature","geometry":{"type":"Point","coordinates":[-87.6533055000146,41.9107287700895]}},{"properties":{"Status":"M","Match_addr":"1701 W DIVISION ST, CHICAGO, IL, 60622","CITY":"CHICAGO","Side":"L","ZIP":"60622","ARC_City":"CHICAGO","ARC_ZIP":60622,"ARC_State":"IL","STORENUM":63.0,"STATE":"IL","Score":100,"id":"a62efvrs503l","ARC_Street":"1701 W DIVISION ST","ADDRESS":"1701 W DIVISION ST"},"type":"Feature","geometry":{"type":"Point","coordinates":[-87.6699680000021,41.9033587000435]}},{"properties":{"Status":"M","Match_addr":"2063 N CLARK ST, CHICAGO, IL, 60614","CITY":"CHICAGO","Side":"R","ZIP":"60614","ARC_City":"CHICAGO","ARC_ZIP":60614,"ARC_State":"IL","STORENUM":65.0,"STATE":"IL","Score":100,"id":"a62efw4oycat","ARC_Street":"2063 N CLARK ST","ADDRESS":"2063 N CLARK ST"},"type":"Feature","geometry":{"type":"Point","coordinates":[-87.6365395603467,41.9189677748789]}},{"properties":{"Status":"M","Match_addr":"1001 W ARMITAGE AVE, CHICAGO, IL, 60614","CITY":"CHICAGO","Side":"L","ZIP":"60614","ARC_City":"CHICAGO","ARC_ZIP":60614,"ARC_State":"IL","STORENUM":66.0,"STATE":"IL","Score":100,"id":"a62efvvq2a82","ARC_Street":"1001 W ARMITAGE AVE","ADDRESS":"1001 W ARMITAGE AVE"},"type":"Feature","geometry":{"type":"Point","coordinates":[-87.6535606000071,41.9181184301297]}},{"properties":{"Status":"M","Match_addr":"2200 N HALSTED ST, CHICAGO, IL, 60614","CITY":"CHICAGO","Side":"L","ZIP":"60614","ARC_City":"CHICAGO","ARC_ZIP":60614,"ARC_State":"IL","STORENUM":67.0,"STATE":"IL","Score":100,"id":"a62efw4eyoq5","ARC_Street":"2200 N HALSTED ST","ADDRESS":"2200 N HALSTED ST"},"type":"Feature","geometry":{"type":"Point","coordinates":[-87.6488497000187,41.9218854700065]}},{"properties":{"Status":"M","Match_addr":"2275 N LINCOLN AVE, CHICAGO, IL, 60614","CITY":"CHICAGO","Side":"R","ZIP":"60614","ARC_City":"CHICAGO","ARC_ZIP":60614,"ARC_State":"IL","STORENUM":68.0,"STATE":"IL","Score":100,"id":"a62efvq6j6b2","ARC_Street":"2275 N LINCOLN AVE","ADDRESS":"2275 N LINCOLN AVE"},"type":"Feature","geometry":{"type":"Point","coordinates":[-87.6458207021018,41.9233099995448]}},{"properties":{"Status":"M","Match_addr":"1588 N MILWAUKEE AVE, CHICAGO, IL, 60622","CITY":"CHICAGO","Side":"R","ZIP":"60622","ARC_City":"CHICAGO","ARC_ZIP":60622,"ARC_State":"IL","STORENUM":69.0,"STATE":"IL","Score":100,"id":"a62efvuopscf","ARC_Street":"1588 N MILWAUKEE AVE","ADDRESS":"1588 N MILWAUKEE AVE"},"type":"Feature","geometry":{"type":"Point","coordinates":[-87.6772723020757,41.9102730577981]}},{"properties":{"Status":"M","Match_addr":"959 W FULLERTON AVE, CHICAGO, IL, 60614","CITY":"CHICAGO","Side":"L","ZIP":"60614","ARC_City":"CHICAGO","ARC_ZIP":60614,"ARC_State":"IL","STORENUM":70.0,"STATE":"IL","Score":100,"id":"a62efvpmlzdm","ARC_Street":"959 W FULLERTON AVE","ADDRESS":"959 W FULLERTON AVE"},"type":"Feature","geometry":{"type":"Point","coordinates":[-87.6534307877798,41.9254241374429]}},{"properties":{"Status":"M","Match_addr":"2200 N CLYBOURN AVE, CHICAGO, IL, 60614","CITY":"CHICAGO","Side":"L","ZIP":"60614","ARC_City":"CHICAGO","ARC_ZIP":60614,"ARC_State":"IL","STORENUM":71.0,"STATE":"IL","Score":100,"id":"a62efw5v7op1","ARC_Street":"2200 N CLYBOURN AVE","ADDRESS":"2200 N CLYBOURN AVE"},"type":"Feature","geometry":{"type":"Point","coordinates":[-87.6644434993145,41.921631200262]}},{"properties":{"Status":"M","Match_addr":"2475 N LINCOLN AVE, CHICAGO, IL, 60614","CITY":"CHICAGO","Side":"R","ZIP":"60614","ARC_City":"CHICAGO","ARC_ZIP":60614,"ARC_State":"IL","STORENUM":72.0,"STATE":"IL","Score":100,"id":"a62efw578jfy","ARC_Street":"2475 N LINCOLN AVE","ADDRESS":"2475 N LINCOLN AVE"},"type":"Feature","geometry":{"type":"Point","coordinates":[-87.6509143941107,41.9269917107694]}},{"properties":{"Status":"M","Match_addr":"2525 N CLARK ST, CHICAGO, IL, 60614","CITY":"CHICAGO","Side":"R","ZIP":"60614","ARC_City":"CHICAGO","ARC_ZIP":60614,"ARC_State":"IL","STORENUM":73.0,"STATE":"IL","Score":100,"id":"a62efw3k25j9","ARC_Street":"2525 N CLARK ST","ADDRESS":"2525 N CLARK ST"},"type":"Feature","geometry":{"type":"Point","coordinates":[-87.6425199999117,41.9287250000136]}},{"properties":{"Status":"M","Match_addr":"1157 W WRIGHTWOOD AVE, CHICAGO, IL, 60614","CITY":"CHICAGO","Side":"L","ZIP":"60614","ARC_City":"CHICAGO","ARC_ZIP":60614,"ARC_State":"IL","STORENUM":74.0,"STATE":"IL","Score":100,"id":"a62efvw8mdtf","ARC_Street":"1157 W WRIGHTWOOD AVE","ADDRESS":"1157 W WRIGHTWOOD AVE"},"type":"Feature","geometry":{"type":"Point","coordinates":[-87.6576511431229,41.9290168875871]}},{"properties":{"Status":"M","Match_addr":"617 W DIVERSEY PKWY, CHICAGO, IL, 60614","CITY":"CHICAGO","Side":"L","ZIP":"60614","ARC_City":"CHICAGO","ARC_ZIP":60614,"ARC_State":"IL","STORENUM":75.0,"STATE":"IL","Score":100,"id":"a62efvrpqi89","ARC_Street":"617 W DIVERSEY PKWY","ADDRESS":"617 W DIVERSEY PKWY"},"type":"Feature","geometry":{"type":"Point","coordinates":[-87.6445257468512,41.932818217645]}},{"properties":{"Status":"M","Match_addr":"2454 N ASHLAND AVE, CHICAGO, IL, 60614","CITY":"CHICAGO","Side":"L","ZIP":"60614","ARC_City":"CHICAGO","ARC_ZIP":60614,"ARC_State":"IL","STORENUM":76.0,"STATE":"IL","Score":100,"id":"a62efvxj67mo","ARC_Street":"2454 N ASHLAND AVE","ADDRESS":"2454 N ASHLAND AVE"},"type":"Feature","geometry":{"type":"Point","coordinates":[-87.6681543332826,41.9261383333368]}},{"properties":{"Status":"M","Match_addr":"198 W DIVERSEY PKWY, CHICAGO, IL, 60657","CITY":"CHICAGO","Side":"R","ZIP":"60657","ARC_City":"CHICAGO","ARC_ZIP":60657,"ARC_State":"IL","STORENUM":77.0,"STATE":"IL","Score":86,"id":"a62efw0e1zdb","ARC_Street":"198 W DIVERSEY AVE","ADDRESS":"198 W DIVERSEY AVE"},"type":"Feature","geometry":{"type":"Point","coordinates":[-87.6353992823353,41.9333852198648]}},{"properties":{"Status":"M","Match_addr":"2551 N CLYBOURN AVE, CHICAGO, IL, 60614","CITY":"CHICAGO","Side":"R","ZIP":"60614","ARC_City":"CHICAGO","ARC_ZIP":60614,"ARC_State":"IL","STORENUM":78.0,"STATE":"IL","Score":76,"id":"a62efvy1io4l","ARC_Street":"2550 N CLYBOURN AVE","ADDRESS":"2550 N CLYBOURN AVE"},"type":"Feature","geometry":{"type":"Point","coordinates":[-87.6727105874572,41.9276198533494]}},{"properties":{"Status":"M","Match_addr":"1700 W DIVERSEY PKWY, CHICAGO, IL, 60657","CITY":"CHICAGO","Side":"R","ZIP":"60614","ARC_City":"CHICAGO","ARC_ZIP":60614,"ARC_State":"IL","STORENUM":79.0,"STATE":"IL","Score":100,"id":"a62efw4ocrv7","ARC_Street":"1700 W DIVERSEY PKWY","ADDRESS":"1700 W DIVERSEY PKWY"},"type":"Feature","geometry":{"type":"Point","coordinates":[-87.6709896000272,41.9324285002188]}},{"properties":{"Status":"M","Match_addr":"3184 N CLARK ST, CHICAGO, IL, 60657","CITY":"CHICAGO","Side":"L","ZIP":"60657","ARC_City":"CHICAGO","ARC_ZIP":60657,"ARC_State":"IL","STORENUM":80.0,"STATE":"IL","Score":100,"id":"a62efw0n9o71","ARC_Street":"3184 N CLARK ST","ADDRESS":"3184 N CLARK ST"},"type":"Feature","geometry":{"type":"Point","coordinates":[-87.6506400977319,41.9397936857044]}},{"properties":{"Status":"M","Match_addr":"3045 N GREENVIEW AVE, CHICAGO, IL, 60657","CITY":"CHICAGO","Side":"R","ZIP":"60657","ARC_City":"CHICAGO","ARC_ZIP":60657,"ARC_State":"IL","STORENUM":81.0,"STATE":"IL","Score":100,"id":"a62efvwh5367","ARC_Street":"3045 N GREENVIEW AVE","ADDRESS":"3045 N GREENVIEW AVE"},"type":"Feature","geometry":{"type":"Point","coordinates":[-87.6662105998915,41.9373162000179]}},{"properties":{"Status":"M","Match_addr":"2656 N ELSTON AVE, CHICAGO, IL, 60647","CITY":"CHICAGO","Side":"R","ZIP":"60647","ARC_City":"CHICAGO","ARC_ZIP":60647,"ARC_State":"IL","STORENUM":82.0,"STATE":"IL","Score":100,"id":"a62efw4lqooh","ARC_Street":"2656 N ELSTON AVE","ADDRESS":"2656 N ELSTON AVE"},"type":"Feature","geometry":{"type":"Point","coordinates":[-87.6840402591848,41.9295558179263]}},{"properties":{"Status":"M","Match_addr":"3358 N BROADWAY ST, CHICAGO, IL, 60657","CITY":"CHICAGO","Side":"L","ZIP":"60657","ARC_City":"CHICAGO","ARC_ZIP":60657,"ARC_State":"IL","STORENUM":83.0,"STATE":"IL","Score":100,"id":"a62efvy2z472","ARC_Street":"3358 N BROADWAY ST","ADDRESS":"3358 N BROADWAY ST"},"type":"Feature","geometry":{"type":"Point","coordinates":[-87.6451689954929,41.9434739430614]}},{"properties":{"Status":"M","Match_addr":"3359 N SOUTHPORT AVE, CHICAGO, IL, 60657","CITY":"CHICAGO","Side":"R","ZIP":"60657","ARC_City":"CHICAGO","ARC_ZIP":60657,"ARC_State":"IL","STORENUM":84.0,"STATE":"IL","Score":100,"id":"a62efvz2s0br","ARC_Street":"3359 N SOUTHPORT AVE","ADDRESS":"3359 N SOUTHPORT AVE"},"type":"Feature","geometry":{"type":"Point","coordinates":[-87.6640214749152,41.9429606425172]}},{"properties":{"Status":"M","Match_addr":"3356 N LINCOLN AVE, CHICAGO, IL, 60657","CITY":"CHICAGO","Side":"L","ZIP":"60657","ARC_City":"CHICAGO","ARC_ZIP":60657,"ARC_State":"IL","STORENUM":85.0,"STATE":"IL","Score":100,"id":"a62efw37vwsn","ARC_Street":"3356 N LINCOLN AVE","ADDRESS":"3356 N LINCOLN AVE"},"type":"Feature","geometry":{"type":"Point","coordinates":[-87.6707760789254,41.9426532538921]}},{"properties":{"Status":"M","Match_addr":"2543 N CALIFORNIA AVE, CHICAGO, IL, 60647","CITY":"CHICAGO","Side":"R","ZIP":"60647","ARC_City":"CHICAGO","ARC_ZIP":60647,"ARC_State":"IL","STORENUM":86.0,"STATE":"IL","Score":100,"id":"a62efvqmqyeo","ARC_Street":"2543 N CALIFORNIA AVE","ADDRESS":"2543 N CALIFORNIA AVE"},"type":"Feature","geometry":{"type":"Point","coordinates":[-87.697627314115,41.9272189857632]}},{"properties":{"Status":"M","Match_addr":"1023 W ADDISON ST, CHICAGO, IL, 60657","CITY":"CHICAGO","Side":"L","ZIP":"60613","ARC_City":"CHICAGO","ARC_ZIP":60613,"ARC_State":"IL","STORENUM":87.0,"STATE":"IL","Score":100,"id":"a62efvzbpoyl","ARC_Street":"1023 W ADDISON ST","ADDRESS":"1023 W ADDISON ST"},"type":"Feature","geometry":{"type":"Point","coordinates":[-87.6555267000232,41.9473815001541]}},{"properties":{"Status":"M","Match_addr":"2159 W BELMONT AVE, CHICAGO, IL, 60618","CITY":"CHICAGO","Side":"L","ZIP":"60618","ARC_City":"CHICAGO","ARC_ZIP":60618,"ARC_State":"IL","STORENUM":88.0,"STATE":"IL","Score":100,"id":"a62efw05o9vo","ARC_Street":"2159 W BELMONT AVE","ADDRESS":"2159 W BELMONT AVE"},"type":"Feature","geometry":{"type":"Point","coordinates":[-87.682346140929,41.9395782792028]}},{"properties":{"Status":"M","Match_addr":"3845 N BROADWAY ST, CHICAGO, IL, 60613","CITY":"CHICAGO","Side":"R","ZIP":"60613","ARC_City":"CHICAGO","ARC_ZIP":60613,"ARC_State":"IL","STORENUM":89.0,"STATE":"IL","Score":100,"id":"a62efvvkv24c","ARC_Street":"3845 N BROADWAY ST","ADDRESS":"3845 N BROADWAY ST"},"type":"Feature","geometry":{"type":"Point","coordinates":[-87.6497645204011,41.9522731327043]}},{"properties":{"Status":"M","Match_addr":"3400 N WESTERN AVE, CHICAGO, IL, 60618","CITY":"CHICAGO","Side":"R","ZIP":"60618","ARC_City":"CHICAGO","ARC_ZIP":60618,"ARC_State":"IL","STORENUM":90.0,"STATE":"IL","Score":100,"id":"a62efvz75ltz","ARC_Street":"3400 N WESTERN AVE","ADDRESS":"3400 N WESTERN AVE"},"type":"Feature","geometry":{"type":"Point","coordinates":[-87.6882500000006,41.9430934999983]}},{"properties":{"Status":"M","Match_addr":"4015 N LINCOLN AVE, CHICAGO, IL, 60618","CITY":"CHICAGO","Side":"R","ZIP":"60618","ARC_City":"CHICAGO","ARC_ZIP":60618,"ARC_State":"IL","STORENUM":91.0,"STATE":"IL","Score":100,"id":"a62efw5hmqtp","ARC_Street":"4015 N LINCOLN AVE","ADDRESS":"4015 N LINCOLN AVE"},"type":"Feature","geometry":{"type":"Point","coordinates":[-87.6791706254134,41.9548065185386]}},{"properties":{"Status":"M","Match_addr":"4355 N SHERIDAN RD, CHICAGO, IL, 60613","CITY":"CHICAGO","Side":"R","ZIP":"60613","ARC_City":"CHICAGO","ARC_ZIP":60613,"ARC_State":"IL","STORENUM":92.0,"STATE":"IL","Score":100,"id":"a62efw08n1g5","ARC_Street":"4355 N SHERIDAN RD","ADDRESS":"4355 N SHERIDAN RD"},"type":"Feature","geometry":{"type":"Point","coordinates":[-87.654910299934,41.96144341]}},{"properties":{"Status":"M","Match_addr":"2939 W ADDISON ST, CHICAGO, IL, 60618","CITY":"CHICAGO","Side":"L","ZIP":"60618","ARC_City":"CHICAGO","ARC_ZIP":60618,"ARC_State":"IL","STORENUM":93.0,"STATE":"IL","Score":100,"id":"a62efvr7yuc4","ARC_Street":"2939 W ADDISON ST","ADDRESS":"2939 W ADDISON ST"},"type":"Feature","geometry":{"type":"Point","coordinates":[-87.7014889999907,41.946732259428]}},{"properties":{"Status":"M","Match_addr":"1900 W MONTROSE AVE, CHICAGO, IL, 60640","CITY":"CHICAGO","Side":"R","ZIP":"60613","ARC_City":"CHICAGO","ARC_ZIP":60613,"ARC_State":"IL","STORENUM":94.0,"STATE":"IL","Score":100,"id":"a62efvxr7wqv","ARC_Street":"1900 W MONTROSE AVE","ADDRESS":"1900 W MONTROSE AVE"},"type":"Feature","geometry":{"type":"Point","coordinates":[-87.6761956000032,41.9615297002907]}},{"properties":{"Status":"M","Match_addr":"4600 N MAGNOLIA AVE, CHICAGO, IL, 60640","CITY":"CHICAGO","Side":"L","ZIP":"60640","ARC_City":"CHICAGO","ARC_ZIP":60640,"ARC_State":"IL","STORENUM":95.0,"STATE":"IL","Score":100,"id":"a62efw2ocgq1","ARC_Street":"4600 N MAGNOLIA AVE","ADDRESS":"4600 N MAGNOLIA AVE"},"type":"Feature","geometry":{"type":"Point","coordinates":[-87.6613500000098,41.9656336300062]}},{"properties":{"Status":"M","Match_addr":"4753 N BROADWAY ST, CHICAGO, IL, 60640","CITY":"CHICAGO","Side":"R","ZIP":"60640","ARC_City":"CHICAGO","ARC_ZIP":60640,"ARC_State":"IL","STORENUM":96.0,"STATE":"IL","Score":100,"id":"a62efvuxjrw3","ARC_Street":"4753 N BROADWAY ST","ADDRESS":"4753 N BROADWAY ST"},"type":"Feature","geometry":{"type":"Point","coordinates":[-87.6595199703187,41.96852686077]}},{"properties":{"Status":"M","Match_addr":"4553 N LINCOLN AVE, CHICAGO, IL, 60625","CITY":"CHICAGO","Side":"R","ZIP":"60625","ARC_City":"CHICAGO","ARC_ZIP":60625,"ARC_State":"IL","STORENUM":97.0,"STATE":"IL","Score":100,"id":"a62efw1n7g2c","ARC_Street":"4553 N LINCOLN AVE","ADDRESS":"4553 N LINCOLN AVE"},"type":"Feature","geometry":{"type":"Point","coordinates":[-87.6855527967726,41.9641477687849]}},{"properties":{"Status":"M","Match_addr":"2023 W ROSCOE ST, CHICAGO, IL, 60618","CITY":"CHICAGO","Side":"L","ZIP":"60618","ARC_City":"CHICAGO","ARC_ZIP":60618,"ARC_State":"IL","STORENUM":99.0,"STATE":"IL","Score":100,"id":"a62efvyd3l2h","ARC_Street":"2023 W ROSCOE ST","ADDRESS":"2023 W ROSCOE ST"},"type":"Feature","geometry":{"type":"Point","coordinates":[-87.679515342882,41.9432643983134]}},{"properties":{"Status":"M","Match_addr":"5300 N CLARK ST, CHICAGO, IL, 60640","CITY":"CHICAGO","Side":"L","ZIP":"60640","ARC_City":"CHICAGO","ARC_ZIP":60640,"ARC_State":"IL","STORENUM":102.0,"STATE":"IL","Score":100,"id":"a62efw11vlj0","ARC_Street":"5300 N CLARK ST","ADDRESS":"5300 N CLARK ST"},"type":"Feature","geometry":{"type":"Point","coordinates":[-87.6685908999898,41.9782482]}},{"properties":{"Status":"M","Match_addr":"4558 N KEDZIE AVE, CHICAGO, IL, 60625","CITY":"CHICAGO","Side":"L","ZIP":"60625","ARC_City":"CHICAGO","ARC_ZIP":60625,"ARC_State":"IL","STORENUM":103.0,"STATE":"IL","Score":100,"id":"a62efw2r5i1t","ARC_Street":"4558 N KEDZIE AVE","ADDRESS":"4558 N KEDZIE AVE"},"type":"Feature","geometry":{"type":"Point","coordinates":[-87.7084851792685,41.9639980680269]}},{"properties":{"Status":"M","Match_addr":"1070 W BRYN MAWR AVE, CHICAGO, IL, 60660","CITY":"CHICAGO","Side":"R","ZIP":"60660","ARC_City":"CHICAGO","ARC_ZIP":60660,"ARC_State":"IL","STORENUM":105.0,"STATE":"IL","Score":100,"id":"a62efw14j4wd","ARC_Street":"1070 W BRYN MAWR AVE","ADDRESS":"1070 W BRYN MAWR AVE"},"type":"Feature","geometry":{"type":"Point","coordinates":[-87.6577786295225,41.9839120966927]}},{"properties":{"Status":"M","Match_addr":"6009 N BROADWAY ST, CHICAGO, IL, 60660","CITY":"CHICAGO","Side":"R","ZIP":"60660","ARC_City":"CHICAGO","ARC_ZIP":60660,"ARC_State":"IL","STORENUM":107.0,"STATE":"IL","Score":100,"id":"a62efvux9492","ARC_Street":"6009 N BROADWAY ST","ADDRESS":"6009 N BROADWAY ST"},"type":"Feature","geometry":{"type":"Point","coordinates":[-87.6607143455567,41.9923468439301]}},{"properties":{"Status":"M","Match_addr":"6738 N SHERIDAN RD, CHICAGO, IL, 60626","CITY":"CHICAGO","Side":"L","ZIP":"60626","ARC_City":"CHICAGO","ARC_ZIP":60626,"ARC_State":"IL","STORENUM":110.0,"STATE":"IL","Score":100,"id":"a62efvxknoie","ARC_Street":"6738 N SHERIDAN RD","ADDRESS":"6738 N SHERIDAN RD"},"type":"Feature","geometry":{"type":"Point","coordinates":[-87.6612688748949,42.0047071000059]}},{"properties":{"Status":"M","Match_addr":"1699 W HOWARD ST, CHICAGO, IL, 60626","CITY":"CHICAGO","Side":"L","ZIP":"60626","ARC_City":"CHICAGO","ARC_ZIP":60626,"ARC_State":"IL","STORENUM":121.0,"STATE":"IL","Score":75,"id":"a62efw3lwqrr","ARC_Street":"1763 W HOWARD ST","ADDRESS":"1763 W HOWARD ST"},"type":"Feature","geometry":{"type":"Point","coordinates":[-87.673229700026,42.0192318001273]}}],"is_temporal":false,"author":{"url":"","metadata":"","contact_name":"","contact_address":"","source":"","contact_phone":""},"source":"","pagination":{"sort":null,"start":0,"total":62,"limit":1000000},"state":"complete","tags":"","published":"2014-08-10T21:03:19-04:00","id":77177}