{"type":"FeatureCollection","data_type":"Dataset","url_type":null,"permissions":[{"permissions":{"download":true,"view":true},"group_id":"everyone"}],"classification":null,"title":"Col_Tor_City_Imp","count":114,"stream_id":77256,"contributor":{"url":"http://geocommons.com/users/19139","name":"kcenac"},"data_attributes":null,"calculation_params":null,"icon_link":null,"link":"http://geocommons.com/overlays/77256.json","extent":[-124.026,25.7743,-71.006,44.98],"geometry_types":["point"],"unique_name":null,"name":"Col_Tor_City_Imp","feature_count":114,"description":"","next_feature":null,"is_raster":false,"short_classification":"Y","stats":{"impressions":{"max":3916310,"mean":120405.447368421,"variance":218055096076.125,"stdev":466963.698884748,"min":86,"median":6034},"geo_score":{"max":0.857,"mean":0.84978947368421,"variance":0.00053722962272939,"stdev":0.0231782143990729,"min":0.738,"median":0.857},"clicks":{"max":8018,"mean":237.008771929825,"variance":926802.097267505,"stdev":962.705612982237,"min":0,"median":9},"unique users":{"max":2189248,"mean":75103.4561403509,"variance":76975304255.5954,"stdev":277444.236299108,"min":27,"median":4436}},"features":[{"properties":{"city":"Florence","impressions":2647,"clicks":8,"geo_score":0.857,"unique users":2108,"id":"a6em6ae3mq2i","geo_precision":"city","state":"AL"},"type":"Feature","geometry":{"type":"Point","coordinates":[-87.686915,34.869601]}},{"properties":{"city":"Montgomery","impressions":2371,"clicks":9,"geo_score":0.857,"unique users":1840,"id":"a6em6a42t2i3","geo_precision":"city","state":"AL"},"type":"Feature","geometry":{"type":"Point","coordinates":[-86.299969,32.366805]}},{"properties":{"city":"Huntsville","impressions":4170,"clicks":5,"geo_score":0.857,"unique users":3194,"id":"a6em6a4m9yf1","geo_precision":"city","state":"AL"},"type":"Feature","geometry":{"type":"Point","coordinates":[-86.556439,34.718428]}},{"properties":{"city":"Mobile","impressions":7961,"clicks":10,"geo_score":0.857,"unique users":6637,"id":"a6em6aara76m","geo_precision":"city","state":"AL"},"type":"Feature","geometry":{"type":"Point","coordinates":[-88.043054,30.694357]}},{"properties":{"city":"Dothan","impressions":758,"clicks":1,"geo_score":0.857,"unique users":637,"id":"a6em6a38bl7n","geo_precision":"city","state":"AL"},"type":"Feature","geometry":{"type":"Point","coordinates":[-85.371845,31.148124]}},{"properties":{"city":"Birmingham","impressions":16111,"clicks":29,"geo_score":0.857,"unique users":11565,"id":"a6em6adz51fk","geo_precision":"city","state":"AL"},"type":"Feature","geometry":{"type":"Point","coordinates":[-86.80249,33.520661]}},{"properties":{"city":"Little Rock","impressions":7669,"clicks":15,"geo_score":0.857,"unique users":6147,"id":"a6em6af5is0m","geo_precision":"city","state":"AR"},"type":"Feature","geometry":{"type":"Point","coordinates":[-92.289595,34.746481]}},{"properties":{"city":"Jonesboro","impressions":235,"clicks":0,"geo_score":0.857,"unique users":195,"id":"a6em6a9hieaz","geo_precision":"city","state":"AR"},"type":"Feature","geometry":{"type":"Point","coordinates":[-90.623071,35.835847]}},{"properties":{"city":"Monroe","impressions":4688,"clicks":9,"geo_score":0.857,"unique users":3275,"id":"a6em6ahihyvy","geo_precision":"city","state":"AR"},"type":"Feature","geometry":{"type":"Point","coordinates":[-91.224126,34.670187]}},{"properties":{"city":"Fort Smith","impressions":1986,"clicks":1,"geo_score":0.857,"unique users":1147,"id":"a6em6a3fpnuh","geo_precision":"city","state":"AR"},"type":"Feature","geometry":{"type":"Point","coordinates":[-94.398548,35.385924]}},{"properties":{"city":"Yuma","impressions":537,"clicks":0,"geo_score":0.857,"unique users":427,"id":"a6em6a4edw8n","geo_precision":"city","state":"AZ"},"type":"Feature","geometry":{"type":"Point","coordinates":[-114.624397,32.725325]}},{"properties":{"city":"Phoenix","impressions":1930838,"clicks":3864,"geo_score":0.857,"unique users":1222983,"id":"a6em6aa2gvu9","geo_precision":"city","state":"AZ"},"type":"Feature","geometry":{"type":"Point","coordinates":[-112.074037,33.448377]}},{"properties":{"city":"Tucson","impressions":83810,"clicks":19,"geo_score":0.857,"unique users":52061,"id":"a6em6a4pm2yn","geo_precision":"city","state":"AZ"},"type":"Feature","geometry":{"type":"Point","coordinates":[-110.926479,32.221743]}},{"properties":{"city":"Los Angeles","impressions":163444,"clicks":258,"geo_score":0.857,"unique users":125270,"id":"a6em6abqn3vl","geo_precision":"city","state":"CA"},"type":"Feature","geometry":{"type":"Point","coordinates":[-118.243685,34.052234]}},{"properties":{"city":"San Francisco","impressions":123828,"clicks":145,"geo_score":0.857,"unique users":93133,"id":"a6em6a6e3osv","geo_precision":"city","state":"CA"},"type":"Feature","geometry":{"type":"Point","coordinates":[-122.419416,37.77493]}},{"properties":{"city":"Fresno","impressions":21129,"clicks":10,"geo_score":0.857,"unique users":14351,"id":"a6em6a7ikrs1","geo_precision":"city","state":"CA"},"type":"Feature","geometry":{"type":"Point","coordinates":[-119.772366,36.747727]}},{"properties":{"city":"Palm Springs","impressions":7203,"clicks":13,"geo_score":0.857,"unique users":5108,"id":"a6em6a7xwryz","geo_precision":"city","state":"CA"},"type":"Feature","geometry":{"type":"Point","coordinates":[-116.545292,33.830296]}},{"properties":{"city":"Monterey","impressions":6350,"clicks":8,"geo_score":0.857,"unique users":5171,"id":"a6em6a32wjez","geo_precision":"city","state":"CA"},"type":"Feature","geometry":{"type":"Point","coordinates":[-121.688623,36.521811]}},{"properties":{"city":"Santa Barbara","impressions":9899,"clicks":9,"geo_score":0.857,"unique users":7407,"id":"a6em6adhv64z","geo_precision":"city","state":"CA"},"type":"Feature","geometry":{"type":"Point","coordinates":[-119.69819,34.420831]}},{"properties":{"city":"Sacramento","impressions":39091,"clicks":55,"geo_score":0.857,"unique users":31074,"id":"a6em6acq60pw","geo_precision":"city","state":"CA"},"type":"Feature","geometry":{"type":"Point","coordinates":[-121.4944,38.581572]}},{"properties":{"city":"Eureka","impressions":2552,"clicks":4,"geo_score":0.857,"unique users":2058,"id":"a6em6acqnoho","geo_precision":"city","state":"CA"},"type":"Feature","geometry":{"type":"Point","coordinates":[-124.025773,40.646324]}},{"properties":{"city":"Bakersfield","impressions":2966,"clicks":2,"geo_score":0.857,"unique users":2260,"id":"a6em6agr9of0","geo_precision":"city","state":"CA"},"type":"Feature","geometry":{"type":"Point","coordinates":[-119.018713,35.373292]}},{"properties":{"city":"San Diego","impressions":29799,"clicks":44,"geo_score":0.857,"unique users":23717,"id":"a6em6aglclas","geo_precision":"city","state":"CA"},"type":"Feature","geometry":{"type":"Point","coordinates":[-117.157255,32.715329]}},{"properties":{"city":"Chico","impressions":8977,"clicks":22,"geo_score":0.857,"unique users":7210,"id":"a6em6a98d2kj","geo_precision":"city","state":"CA"},"type":"Feature","geometry":{"type":"Point","coordinates":[-121.840083,39.746159]}},{"properties":{"city":"Denver","impressions":113,"clicks":1,"geo_score":0.857,"unique users":95,"id":"a6em6aaatzsd","geo_precision":"city","state":"CO"},"type":"Feature","geometry":{"type":"Point","coordinates":[-104.984703,39.739154]}},{"properties":{"city":"Sherman","impressions":281,"clicks":1,"geo_score":0.857,"unique users":232,"id":"a6em6a5n6eqt","geo_precision":"city","state":"CT"},"type":"Feature","geometry":{"type":"Point","coordinates":[-73.490891,41.525631]}},{"properties":{"city":"Wilmington","impressions":7855,"clicks":12,"geo_score":0.857,"unique users":6248,"id":"a6em6a6xcaq9","geo_precision":"city","state":"DE"},"type":"Feature","geometry":{"type":"Point","coordinates":[-75.546589,39.745947]}},{"properties":{"city":"Gainesville","impressions":19447,"clicks":23,"geo_score":0.818,"unique users":13992,"id":"a6em6a9ki201","geo_precision":"city","state":"FL"},"type":"Feature","geometry":{"type":"Point","coordinates":[-85.354651,30.731305]}},{"properties":{"city":"Miami","impressions":35759,"clicks":65,"geo_score":0.857,"unique users":27404,"id":"a6em6a4m0hmi","geo_precision":"city","state":"FL"},"type":"Feature","geometry":{"type":"Point","coordinates":[-80.193659,25.774266]}},{"properties":{"city":"Orlando","impressions":55603,"clicks":64,"geo_score":0.857,"unique users":40419,"id":"a6em6aa0qf9c","geo_precision":"city","state":"FL"},"type":"Feature","geometry":{"type":"Point","coordinates":[-81.379237,28.538336]}},{"properties":{"city":"Tallahassee","impressions":9038,"clicks":5,"geo_score":0.857,"unique users":7036,"id":"a6em6ahzdfv0","geo_precision":"city","state":"FL"},"type":"Feature","geometry":{"type":"Point","coordinates":[-84.280733,30.438256]}},{"properties":{"city":"Tampa","impressions":68635,"clicks":123,"geo_score":0.857,"unique users":53749,"id":"a6em6aazxzk2","geo_precision":"city","state":"FL"},"type":"Feature","geometry":{"type":"Point","coordinates":[-82.458428,27.947522]}},{"properties":{"city":"Panama City","impressions":1466,"clicks":5,"geo_score":0.857,"unique users":1131,"id":"a6em6aiby4p1","geo_precision":"city","state":"FL"},"type":"Feature","geometry":{"type":"Point","coordinates":[-85.660206,30.158813]}},{"properties":{"city":"West Palm Beach","impressions":14347,"clicks":20,"geo_score":0.762,"unique users":11326,"id":"a6em6a3gy2cz","geo_precision":"city","state":"FL"},"type":"Feature","geometry":{"type":"Point","coordinates":[-80.035596,26.778118]}},{"properties":{"city":"Fort Myers","impressions":7809,"clicks":29,"geo_score":0.746,"unique users":5878,"id":"a6em6a9nj53i","geo_precision":"city","state":"FL"},"type":"Feature","geometry":{"type":"Point","coordinates":[-81.92122,30.435237]}},{"properties":{"city":"Jacksonville","impressions":13164,"clicks":21,"geo_score":0.857,"unique users":10337,"id":"a6em6a7qu217","geo_precision":"city","state":"FL"},"type":"Feature","geometry":{"type":"Point","coordinates":[-81.655651,30.332184]}},{"properties":{"city":"Augusta","impressions":3368,"clicks":14,"geo_score":0.857,"unique users":2573,"id":"a6em6aisstgb","geo_precision":"city","state":"GA"},"type":"Feature","geometry":{"type":"Point","coordinates":[-81.974838,33.47097]}},{"properties":{"city":"Macon","impressions":18421,"clicks":31,"geo_score":0.857,"unique users":9539,"id":"a6em6acesekg","geo_precision":"city","state":"GA"},"type":"Feature","geometry":{"type":"Point","coordinates":[-83.632402,32.840695]}},{"properties":{"city":"Atlanta","impressions":51522,"clicks":74,"geo_score":0.857,"unique users":38585,"id":"a6em6a4ckc2a","geo_precision":"city","state":"GA"},"type":"Feature","geometry":{"type":"Point","coordinates":[-84.387982,33.748995]}},{"properties":{"city":"Savannah","impressions":4766,"clicks":13,"geo_score":0.857,"unique users":3695,"id":"a6em6ai4hzxb","geo_precision":"city","state":"GA"},"type":"Feature","geometry":{"type":"Point","coordinates":[-81.099834,32.083541]}},{"properties":{"city":"Albany","impressions":2419,"clicks":6,"geo_score":0.857,"unique users":1604,"id":"a6em6ag45fc7","geo_precision":"city","state":"GA"},"type":"Feature","geometry":{"type":"Point","coordinates":[-84.176751,31.560674]}},{"properties":{"city":"Des Moines","impressions":349163,"clicks":576,"geo_score":0.857,"unique users":188910,"id":"a6em6a3beeb6","geo_precision":"city","state":"IA"},"type":"Feature","geometry":{"type":"Point","coordinates":[-93.609106,41.600545]}},{"properties":{"city":"Ottumwa","impressions":124,"clicks":0,"geo_score":0.857,"unique users":95,"id":"a6em6a6mvdk0","geo_precision":"city","state":"IA"},"type":"Feature","geometry":{"type":"Point","coordinates":[-92.409827,41.030933]}},{"properties":{"city":"Sioux City","impressions":1271,"clicks":1,"geo_score":0.857,"unique users":814,"id":"a6em6adsmy1e","geo_precision":"city","state":"IA"},"type":"Feature","geometry":{"type":"Point","coordinates":[-96.400307,42.499994]}},{"properties":{"city":"Chicago","impressions":3916310,"clicks":8018,"geo_score":0.857,"unique users":2189248,"id":"a6em6acxkrna","geo_precision":"city","state":"IL"},"type":"Feature","geometry":{"type":"Point","coordinates":[-87.650052,41.850033]}},{"properties":{"city":"Petersburg","impressions":5452,"clicks":6,"geo_score":0.857,"unique users":4598,"id":"a6em6a9ciuhm","geo_precision":"city","state":"IL"},"type":"Feature","geometry":{"type":"Point","coordinates":[-89.848165,40.011715]}},{"properties":{"city":"Topeka","impressions":1520,"clicks":1,"geo_score":0.857,"unique users":1187,"id":"a6em6a5ed1ds","geo_precision":"city","state":"KS"},"type":"Feature","geometry":{"type":"Point","coordinates":[-95.678037,39.048334]}},{"properties":{"city":"Wichita","impressions":8843,"clicks":13,"geo_score":0.857,"unique users":6838,"id":"a6em6aiue4ar","geo_precision":"city","state":"KS"},"type":"Feature","geometry":{"type":"Point","coordinates":[-97.337545,37.692236]}},{"properties":{"city":"Kansas City","impressions":483308,"clicks":1051,"geo_score":0.857,"unique users":320973,"id":"a6em6a5owz7j","geo_precision":"city","state":"KS"},"type":"Feature","geometry":{"type":"Point","coordinates":[-94.627457,39.114171]}},{"properties":{"city":"Paducah","impressions":2049,"clicks":0,"geo_score":0.857,"unique users":1243,"id":"a6em6a9kfulv","geo_precision":"city","state":"KY"},"type":"Feature","geometry":{"type":"Point","coordinates":[-88.713292,37.031586]}},{"properties":{"city":"Alexandria","impressions":1470,"clicks":1,"geo_score":0.857,"unique users":1254,"id":"a6em6ajab0bc","geo_precision":"city","state":"LA"},"type":"Feature","geometry":{"type":"Point","coordinates":[-92.445137,31.311294]}},{"properties":{"city":"New Orleans","impressions":16011,"clicks":18,"geo_score":0.857,"unique users":12486,"id":"a6em6a3i5vd5","geo_precision":"city","state":"LA"},"type":"Feature","geometry":{"type":"Point","coordinates":[-89.930956,30.068812]}},{"properties":{"city":"Lafayette","impressions":4290,"clicks":13,"geo_score":0.857,"unique users":3503,"id":"a6em6a48vmts","geo_precision":"city","state":"LA"},"type":"Feature","geometry":{"type":"Point","coordinates":[-92.066574,30.232955]}},{"properties":{"city":"Lake Charles","impressions":522,"clicks":1,"geo_score":0.857,"unique users":439,"id":"a6em6a6nlz8f","geo_precision":"city","state":"LA"},"type":"Feature","geometry":{"type":"Point","coordinates":[-93.217376,30.226595]}},{"properties":{"city":"Baton Rouge","impressions":5774,"clicks":11,"geo_score":0.857,"unique users":4436,"id":"a6em6aitxgve","geo_precision":"city","state":"LA"},"type":"Feature","geometry":{"type":"Point","coordinates":[-91.154551,30.450746]}},{"properties":{"city":"Shreveport","impressions":6457,"clicks":18,"geo_score":0.857,"unique users":4541,"id":"a6em6aa3854v","geo_precision":"city","state":"LA"},"type":"Feature","geometry":{"type":"Point","coordinates":[-93.750179,32.525152]}},{"properties":{"city":"Quincy","impressions":130,"clicks":0,"geo_score":0.857,"unique users":100,"id":"a6em6a7fcoc8","geo_precision":"city","state":"MA"},"type":"Feature","geometry":{"type":"Point","coordinates":[-71.006042,42.241799]}},{"properties":{"city":"Minneapolis","impressions":1962037,"clicks":3319,"geo_score":0.857,"unique users":1248813,"id":"a6em6a91l7k2","geo_precision":"city","state":"MN"},"type":"Feature","geometry":{"type":"Point","coordinates":[-93.263836,44.979965]}},{"properties":{"city":"Springfield","impressions":5586,"clicks":8,"geo_score":0.792,"unique users":4112,"id":"a6em6a9ix5xs","geo_precision":"city","state":"MO"},"type":"Feature","geometry":{"type":"Point","coordinates":[-91.237925,38.295605]}},{"properties":{"city":"Saint Louis","impressions":45383,"clicks":25,"geo_score":0.857,"unique users":29143,"id":"a6em6ahmc32e","geo_precision":"city","state":"MO"},"type":"Feature","geometry":{"type":"Point","coordinates":[-90.197889,38.627273]}},{"properties":{"city":"Joplin","impressions":700,"clicks":0,"geo_score":0.857,"unique users":540,"id":"a6em6ahqv4rg","geo_precision":"city","state":"MO"},"type":"Feature","geometry":{"type":"Point","coordinates":[-94.502663,37.113343]}},{"properties":{"city":"Saint Joseph","impressions":273,"clicks":0,"geo_score":0.857,"unique users":194,"id":"a6em6aakbmvo","geo_precision":"city","state":"MO"},"type":"Feature","geometry":{"type":"Point","coordinates":[-94.846632,39.768606]}},{"properties":{"city":"Hattiesburg","impressions":908,"clicks":0,"geo_score":0.857,"unique users":745,"id":"a6em6a8909vy","geo_precision":"city","state":"MS"},"type":"Feature","geometry":{"type":"Point","coordinates":[-89.28071,31.245138]}},{"properties":{"city":"Meridian","impressions":187,"clicks":0,"geo_score":0.857,"unique users":153,"id":"a6em6aemu1ey","geo_precision":"city","state":"MS"},"type":"Feature","geometry":{"type":"Point","coordinates":[-88.703656,32.36431]}},{"properties":{"city":"Greenwood","impressions":132,"clicks":0,"geo_score":0.857,"unique users":109,"id":"a6em6ai92r1i","geo_precision":"city","state":"MS"},"type":"Feature","geometry":{"type":"Point","coordinates":[-88.510048,34.217885]}},{"properties":{"city":"Biloxi","impressions":2963,"clicks":6,"geo_score":0.857,"unique users":2413,"id":"a6em6ab4xbbo","geo_precision":"city","state":"MS"},"type":"Feature","geometry":{"type":"Point","coordinates":[-88.978634,30.432454]}},{"properties":{"city":"Raleigh","impressions":54756,"clicks":95,"geo_score":0.857,"unique users":48189,"id":"a6em6ab8v17l","geo_precision":"city","state":"NC"},"type":"Feature","geometry":{"type":"Point","coordinates":[-78.638615,35.772096]}},{"properties":{"city":"Charlotte","impressions":20205,"clicks":49,"geo_score":0.857,"unique users":16279,"id":"a6em6a6xvj7v","geo_precision":"city","state":"NC"},"type":"Feature","geometry":{"type":"Point","coordinates":[-80.843127,35.227087]}},{"properties":{"city":"Greensboro","impressions":30982,"clicks":38,"geo_score":0.857,"unique users":25039,"id":"a6em6acva3w8","geo_precision":"city","state":"NC"},"type":"Feature","geometry":{"type":"Point","coordinates":[-79.791975,36.072636]}},{"properties":{"city":"North Platte","impressions":86,"clicks":0,"geo_score":0.857,"unique users":76,"id":"a6em6aec5n4c","geo_precision":"city","state":"NE"},"type":"Feature","geometry":{"type":"Point","coordinates":[-100.74907,41.102555]}},{"properties":{"city":"Omaha","impressions":531232,"clicks":697,"geo_score":0.857,"unique users":264936,"id":"a6em6ag90bkc","geo_precision":"city","state":"NE"},"type":"Feature","geometry":{"type":"Point","coordinates":[-95.937792,41.25861]}},{"properties":{"city":"Lincoln","impressions":15084,"clicks":22,"geo_score":0.857,"unique users":9498,"id":"a6em6a7vg5g4","geo_precision":"city","state":"NE"},"type":"Feature","geometry":{"type":"Point","coordinates":[-96.66696,40.800001]}},{"properties":{"city":"Albuquerque","impressions":361932,"clicks":620,"geo_score":0.857,"unique users":219451,"id":"a6em6a8vcxbt","geo_precision":"city","state":"NM"},"type":"Feature","geometry":{"type":"Point","coordinates":[-106.651137,35.084491]}},{"properties":{"city":"Reno","impressions":11897,"clicks":15,"geo_score":0.857,"unique users":8515,"id":"a6em6a3fonsv","geo_precision":"city","state":"NV"},"type":"Feature","geometry":{"type":"Point","coordinates":[-119.813803,39.529633]}},{"properties":{"city":"Las Vegas","impressions":8810,"clicks":8,"geo_score":0.857,"unique users":6886,"id":"a6em6a721bbk","geo_precision":"city","state":"NV"},"type":"Feature","geometry":{"type":"Point","coordinates":[-115.137223,36.174971]}},{"properties":{"city":"Columbus","impressions":1335,"clicks":2,"geo_score":0.776,"unique users":1042,"id":"a6em6ah8fxs4","geo_precision":"city","state":"OH"},"type":"Feature","geometry":{"type":"Point","coordinates":[-82.695724,39.998397]}},{"properties":{"city":"Columbus","impressions":689,"clicks":0,"geo_score":0.776,"unique users":578,"id":"a6em6aas2a65","geo_precision":"city","state":"OH"},"type":"Feature","geometry":{"type":"Point","coordinates":[-82.695724,39.998397]}},{"properties":{"city":"Tulsa","impressions":53920,"clicks":109,"geo_score":0.857,"unique users":33522,"id":"a6em6abq48l0","geo_precision":"city","state":"OK"},"type":"Feature","geometry":{"type":"Point","coordinates":[-95.992775,36.153982]}},{"properties":{"city":"Oklahoma City","impressions":4944,"clicks":18,"geo_score":0.857,"unique users":3906,"id":"a6em6a4s5cbe","geo_precision":"city","state":"OK"},"type":"Feature","geometry":{"type":"Point","coordinates":[-97.516428,35.46756]}},{"properties":{"city":"Medford","impressions":277,"clicks":1,"geo_score":0.857,"unique users":195,"id":"a6em6a6g4455","geo_precision":"city","state":"OR"},"type":"Feature","geometry":{"type":"Point","coordinates":[-122.72255,42.482623]}},{"properties":{"city":"Greenville","impressions":2432,"clicks":2,"geo_score":0.829,"unique users":1973,"id":"a6em6add18gv","geo_precision":"city","state":"PA"},"type":"Feature","geometry":{"type":"Point","coordinates":[-79.908381,40.067851]}},{"properties":{"city":"Columbia","impressions":2656,"clicks":9,"geo_score":0.857,"unique users":1751,"id":"a6em6aei5v9g","geo_precision":"city","state":"PA"},"type":"Feature","geometry":{"type":"Point","coordinates":[-76.369028,40.11675]}},{"properties":{"city":"Columbia","impressions":14511,"clicks":16,"geo_score":0.857,"unique users":11855,"id":"a6em6aff51wj","geo_precision":"city","state":"PA"},"type":"Feature","geometry":{"type":"Point","coordinates":[-76.369028,40.11675]}},{"properties":{"city":"Greenville","impressions":20926,"clicks":36,"geo_score":0.829,"unique users":16130,"id":"a6em6acl54jp","geo_precision":"city","state":"PA"},"type":"Feature","geometry":{"type":"Point","coordinates":[-79.908381,40.067851]}},{"properties":{"city":"Sioux Falls","impressions":95,"clicks":0,"geo_score":0.857,"unique users":27,"id":"a6em6aa6kfe6","geo_precision":"city","state":"SD"},"type":"Feature","geometry":{"type":"Point","coordinates":[-96.730328,43.546642]}},{"properties":{"city":"Knoxville","impressions":9637,"clicks":10,"geo_score":0.794,"unique users":8095,"id":"a6em6ad9jsql","geo_precision":"city","state":"TN"},"type":"Feature","geometry":{"type":"Point","coordinates":[-86.784443,36.16589]}},{"properties":{"city":"Jackson","impressions":7551,"clicks":10,"geo_score":0.857,"unique users":5957,"id":"a6em6a623qvf","geo_precision":"city","state":"TN"},"type":"Feature","geometry":{"type":"Point","coordinates":[-88.813947,35.614517]}},{"properties":{"city":"Memphis","impressions":10067,"clicks":7,"geo_score":0.857,"unique users":8169,"id":"a6em6aduu7le","geo_precision":"city","state":"TN"},"type":"Feature","geometry":{"type":"Point","coordinates":[-90.04898,35.149534]}},{"properties":{"city":"Chattanooga","impressions":2926,"clicks":1,"geo_score":0.857,"unique users":2320,"id":"a6em6afm8sz4","geo_precision":"city","state":"TN"},"type":"Feature","geometry":{"type":"Point","coordinates":[-85.30968,35.04563]}},{"properties":{"city":"Jackson","impressions":1052,"clicks":0,"geo_score":0.857,"unique users":868,"id":"a6em6aaj8u4u","geo_precision":"city","state":"TN"},"type":"Feature","geometry":{"type":"Point","coordinates":[-88.813947,35.614517]}},{"properties":{"city":"Nashville","impressions":24847,"clicks":30,"geo_score":0.857,"unique users":19318,"id":"a6em6aidt8ku","geo_precision":"city","state":"TN"},"type":"Feature","geometry":{"type":"Point","coordinates":[-86.784443,36.16589]}},{"properties":{"city":"Amarillo","impressions":28915,"clicks":68,"geo_score":0.857,"unique users":19182,"id":"a6em6a3s3058","geo_precision":"city","state":"TX"},"type":"Feature","geometry":{"type":"Point","coordinates":[-101.831297,35.221997]}},{"properties":{"city":"Harlingen","impressions":1869,"clicks":4,"geo_score":0.857,"unique users":1377,"id":"a6em6ai86qt3","geo_precision":"city","state":"TX"},"type":"Feature","geometry":{"type":"Point","coordinates":[-97.536807,26.185202]}},{"properties":{"city":"Abilene","impressions":984,"clicks":0,"geo_score":0.857,"unique users":848,"id":"a6em6ad453fb","geo_precision":"city","state":"TX"},"type":"Feature","geometry":{"type":"Point","coordinates":[-99.80213,32.344457]}},{"properties":{"city":"Wichita Falls","impressions":1158,"clicks":0,"geo_score":0.857,"unique users":877,"id":"a6em6af3wwa7","geo_precision":"city","state":"TX"},"type":"Feature","geometry":{"type":"Point","coordinates":[-98.493387,33.913709]}},{"properties":{"city":"Tyler","impressions":3268,"clicks":1,"geo_score":0.738,"unique users":2426,"id":"a6em6ahuinjo","geo_precision":"city","state":"TX"},"type":"Feature","geometry":{"type":"Point","coordinates":[-94.459924,32.153495]}},{"properties":{"city":"Lubbock","impressions":1737,"clicks":2,"geo_score":0.857,"unique users":1345,"id":"a6em6agc6kcg","geo_precision":"city","state":"TX"},"type":"Feature","geometry":{"type":"Point","coordinates":[-101.855167,33.577863]}},{"properties":{"city":"Austin","impressions":315695,"clicks":661,"geo_score":0.857,"unique users":208170,"id":"a6em6ahezpvy","geo_precision":"city","state":"TX"},"type":"Feature","geometry":{"type":"Point","coordinates":[-97.743061,30.267153]}},{"properties":{"city":"Beaumont","impressions":3887,"clicks":1,"geo_score":0.857,"unique users":2965,"id":"a6em6aeb45vx","geo_precision":"city","state":"TX"},"type":"Feature","geometry":{"type":"Point","coordinates":[-94.101846,30.086046]}},{"properties":{"city":"San Antonio","impressions":12909,"clicks":15,"geo_score":0.857,"unique users":9464,"id":"a6em6a9vvhfh","geo_precision":"city","state":"TX"},"type":"Feature","geometry":{"type":"Point","coordinates":[-98.493628,29.424122]}},{"properties":{"city":"El Paso","impressions":10409,"clicks":6,"geo_score":0.857,"unique users":8594,"id":"a6em6a4b7gcb","geo_precision":"city","state":"TX"},"type":"Feature","geometry":{"type":"Point","coordinates":[-106.486931,31.75872]}},{"properties":{"city":"Houston","impressions":1297572,"clicks":3859,"geo_score":0.816,"unique users":922839,"id":"a6em6afesnjk","geo_precision":"city","state":"TX"},"type":"Feature","geometry":{"type":"Point","coordinates":[-96.919704,29.845783]}},{"properties":{"city":"Victoria","impressions":244,"clicks":0,"geo_score":0.857,"unique users":205,"id":"a6em6a67w497","geo_precision":"city","state":"TX"},"type":"Feature","geometry":{"type":"Point","coordinates":[-96.776656,31.597946]}},{"properties":{"city":"Corpus Christi","impressions":4568,"clicks":4,"geo_score":0.857,"unique users":3701,"id":"a6em6aa65jgb","geo_precision":"city","state":"TX"},"type":"Feature","geometry":{"type":"Point","coordinates":[-97.396381,27.800583]}},{"properties":{"city":"Dallas","impressions":674095,"clicks":1446,"geo_score":0.857,"unique users":441012,"id":"a6em6a51rr8t","geo_precision":"city","state":"TX"},"type":"Feature","geometry":{"type":"Point","coordinates":[-96.806667,32.783056]}},{"properties":{"city":"Laredo","impressions":8478,"clicks":7,"geo_score":0.786,"unique users":4026,"id":"a6em6accc0ur","geo_precision":"city","state":"TX"},"type":"Feature","geometry":{"type":"Point","coordinates":[-102.907999,34.330354]}},{"properties":{"city":"Odessa","impressions":1303,"clicks":5,"geo_score":0.857,"unique users":1074,"id":"a6em6ag275ig","geo_precision":"city","state":"TX"},"type":"Feature","geometry":{"type":"Point","coordinates":[-102.367643,31.845682]}},{"properties":{"city":"Waco","impressions":6034,"clicks":2,"geo_score":0.857,"unique users":4361,"id":"a6em6aaxetd6","geo_precision":"city","state":"TX"},"type":"Feature","geometry":{"type":"Point","coordinates":[-97.14667,31.549333]}},{"properties":{"city":"San Angelo","impressions":620,"clicks":0,"geo_score":0.857,"unique users":494,"id":"a6em6ah5nh5r","geo_precision":"city","state":"TX"},"type":"Feature","geometry":{"type":"Point","coordinates":[-100.437038,31.463772]}},{"properties":{"city":"Salt Lake City","impressions":648,"clicks":2,"geo_score":0.857,"unique users":493,"id":"a6em6a9j4s5a","geo_precision":"city","state":"UT"},"type":"Feature","geometry":{"type":"Point","coordinates":[-111.891047,40.760779]}},{"properties":{"city":"Norfolk","impressions":331,"clicks":0,"geo_score":0.857,"unique users":252,"id":"a6em6a9gvqsa","geo_precision":"city","state":"VA"},"type":"Feature","geometry":{"type":"Point","coordinates":[-76.285218,36.846815]}},{"properties":{"city":"Madison","impressions":540721,"clicks":1004,"geo_score":0.857,"unique users":320530,"id":"a6em6a8flooe","geo_precision":"city","state":"WI"},"type":"Feature","geometry":{"type":"Point","coordinates":[-89.40123,43.073052]}},{"properties":{"city":"Charleston","impressions":3798,"clicks":4,"geo_score":0.857,"unique users":3111,"id":"a6em6agihgtj","geo_precision":"city","state":"WV"},"type":"Feature","geometry":{"type":"Point","coordinates":[-81.632624,38.34982]}},{"properties":{"city":"Cheyenne","impressions":234,"clicks":0,"geo_score":0.857,"unique users":168,"id":"a6em6ail3ytd","geo_precision":"city","state":"WY"},"type":"Feature","geometry":{"type":"Point","coordinates":[-104.820246,41.139981]}}],"is_temporal":false,"author":{"url":"","metadata":"","contact_name":"","contact_address":"","source":"","contact_phone":""},"source":"","pagination":{"sort":null,"start":0,"total":114,"limit":1000000},"state":"complete","tags":"","published":"2014-08-10T21:07:45-04:00","id":77256}