{"type":"FeatureCollection","data_type":"Dataset","url_type":null,"permissions":[{"permissions":{"download":true,"view":true},"group_id":"everyone"}],"classification":null,"title":"Discussions &quot;facilités linguistiques&quot; wikipedia Nl","count":24,"stream_id":7809,"contributor":{"url":"http://geocommons.com/users/1713","name":"alexcyclo"},"data_attributes":null,"calculation_params":null,"icon_link":null,"link":"http://geocommons.com/overlays/7809.json","extent":[-0.1167,50.45,6.2833,52.55],"geometry_types":["point"],"unique_name":null,"name":"Discussions \"facilités linguistiques\" wikipedia Nl","feature_count":24,"description":"","next_feature":null,"is_raster":false,"short_classification":"Y","stats":{"nl":{"max":7,"mean":1.25,"variance":1.5,"stdev":1.22474487139159,"min":1,"median":1},"lat":{"max":52.549999,"mean":51.1312424583333,"variance":0.320759653495389,"stdev":0.566356472105148,"min":50.450001,"median":50.866699},"long":{"max":6.2833,"mean":4.3763625,"variance":1.43348156853261,"stdev":1.1972809062758,"min":-0.1167,"median":4.3333}},"features":[{"properties":{"city":"London","adress ip":"128.40.76.3","nl":1,"id":"a65mjngl9efr","lat":51.5,"long":-0.1167},"type":"Feature","geometry":{"type":"Point","coordinates":[-0.1167,51.5]}},{"properties":{"city":"Brussels","adress ip":"193.191.216.3","nl":1,"id":"a65mjnlceioh","lat":50.833302,"long":4.3333},"type":"Feature","geometry":{"type":"Point","coordinates":[4.3333,50.833302]}},{"properties":{"city":"Kain","adress ip":"194.78.56.28","nl":1,"id":"a65mjnnposfp","lat":50.633301,"long":3.3667},"type":"Feature","geometry":{"type":"Point","coordinates":[3.3667,50.633301]}},{"properties":{"city":"Brussels","adress ip":"212.76.247.139","nl":1,"id":"a65mjnolvgg0","lat":50.833302,"long":4.3333},"type":"Feature","geometry":{"type":"Point","coordinates":[4.3333,50.833302]}},{"properties":{"city":"Ternat","adress ip":"213.118.69.123","nl":1,"id":"a65mjnd70u7x","lat":50.866699,"long":4.1833},"type":"Feature","geometry":{"type":"Point","coordinates":[4.1833,50.866699]}},{"properties":{"city":"Zaventem","adress ip":"213.219.164.117","nl":1,"id":"a65mjnoutm43","lat":50.883301,"long":4.4667},"type":"Feature","geometry":{"type":"Point","coordinates":[4.4667,50.883301]}},{"properties":{"city":"Vlist","adress ip":"217.112.119.178","nl":1,"id":"a65mjnf95y9b","lat":51.983299,"long":4.8167},"type":"Feature","geometry":{"type":"Point","coordinates":[4.8167,51.983299]}},{"properties":{"city":"Kampen","adress ip":"217.122.198.45","nl":1,"id":"a65mjnngkn81","lat":52.549999,"long":5.9167},"type":"Feature","geometry":{"type":"Point","coordinates":[5.9167,52.549999]}},{"properties":{"city":"Raalte","adress ip":"217.123.232.162","nl":1,"id":"a65mjnodd9qn","lat":52.383301,"long":6.2833},"type":"Feature","geometry":{"type":"Point","coordinates":[6.2833,52.383301]}},{"properties":{"city":"Leusden","adress ip":"217.149.210.16","nl":1,"id":"a65mjnl4zzz5","lat":52.116699,"long":5.4},"type":"Feature","geometry":{"type":"Point","coordinates":[5.4,52.116699]}},{"properties":{"city":"Hemiksem","adress ip":"81.240.195.54","nl":1,"id":"a65mjnoo587b","lat":51.150002,"long":4.35},"type":"Feature","geometry":{"type":"Point","coordinates":[4.35,51.150002]}},{"properties":{"city":"Brussels","adress ip":"81.242.189.221","nl":7,"id":"a65mjnm3lt4s","lat":50.833302,"long":4.3333},"type":"Feature","geometry":{"type":"Point","coordinates":[4.3333,50.833302]}},{"properties":{"city":"Brussels","adress ip":"81.242.214.196","nl":1,"id":"a65mjnl85ib8","lat":50.833302,"long":4.3333},"type":"Feature","geometry":{"type":"Point","coordinates":[4.3333,50.833302]}},{"properties":{"city":"Brussels","adress ip":"81.242.232.157","nl":1,"id":"a65mjney8ffj","lat":50.833302,"long":4.3333},"type":"Feature","geometry":{"type":"Point","coordinates":[4.3333,50.833302]}},{"properties":{"city":"Brussels","adress ip":"81.242.245.148","nl":1,"id":"a65mjnijzqaz","lat":50.833302,"long":4.3333},"type":"Feature","geometry":{"type":"Point","coordinates":[4.3333,50.833302]}},{"properties":{"city":"Morlanwelz","adress ip":"81.242.40.40","nl":1,"id":"a65mjnk8hvg2","lat":50.450001,"long":4.2332},"type":"Feature","geometry":{"type":"Point","coordinates":[4.2332,50.450001]}},{"properties":{"city":"Brugge","adress ip":"81.244.118.199","nl":1,"id":"a65mjnl447t9","lat":51.216702,"long":3.2332},"type":"Feature","geometry":{"type":"Point","coordinates":[3.2332,51.216702]}},{"properties":{"city":"Wavre","adress ip":"81.244.90.157","nl":1,"id":"a65mjnqs1lyr","lat":50.716702,"long":4.6167},"type":"Feature","geometry":{"type":"Point","coordinates":[4.6167,50.716702]}},{"properties":{"city":"Nieuwkerken-waas","adress ip":"81.82.10.145","nl":1,"id":"a65mjnigtaur","lat":51.200001,"long":4.1833},"type":"Feature","geometry":{"type":"Point","coordinates":[4.1833,51.200001]}},{"properties":{"city":"Zwijndrecht","adress ip":"82.174.37.199","nl":1,"id":"a65mjnrp4swr","lat":51.216702,"long":4.3333},"type":"Feature","geometry":{"type":"Point","coordinates":[4.3333,51.216702]}},{"properties":{"city":"Halle","adress ip":"84.193.6.31","nl":1,"id":"a65mjniw31gh","lat":50.733299,"long":4.2332},"type":"Feature","geometry":{"type":"Point","coordinates":[4.2332,50.733299]}},{"properties":{"city":"Maastricht","adress ip":"84.30.103.119","nl":1,"id":"a65mjnq60mln","lat":50.849998,"long":5.6833},"type":"Feature","geometry":{"type":"Point","coordinates":[5.6833,50.849998]}},{"properties":{"city":"Brussels","adress ip":"87.244.157.28","nl":1,"id":"a65mjnqtkmvu","lat":50.833302,"long":4.3333},"type":"Feature","geometry":{"type":"Point","coordinates":[4.3333,50.833302]}},{"properties":{"city":"Bilzen","adress ip":"87.67.5.215","nl":1,"id":"a65mjnm0coci","lat":50.866699,"long":5.5167},"type":"Feature","geometry":{"type":"Point","coordinates":[5.5167,50.866699]}}],"is_temporal":false,"author":{"url":"","metadata":"","contact_name":"","contact_address":"","source":"","contact_phone":""},"source":"","pagination":{"sort":null,"start":0,"total":24,"limit":1000000},"state":"complete","tags":"","published":"2014-08-11T08:55:39-04:00","id":7809}