{"type":"FeatureCollection","data_type":"Dataset","url_type":null,"permissions":[{"permissions":{"download":true,"view":true},"group_id":"everyone"}],"classification":null,"title":"Jared - Galleria of Jewelry Locations, USA, 12.2008","count":167,"stream_id":7822,"contributor":{"url":"http://geocommons.com/users/139","name":"Burkey"},"data_attributes":null,"calculation_params":null,"icon_link":null,"link":"http://geocommons.com/overlays/7822.json","extent":[-122.875,25.6863,-70.3388,47.821],"geometry_types":["point"],"unique_name":null,"name":"Jared - Galleria of Jewelry Locations, USA, 12.2008","feature_count":167,"description":"This dataset locates all the retail locations of Jared - Galleria of Jewelry across the USA as of 12.2008. The data comes from their website at jared.com. The data includes: store name, location, address, city, state, zip, phone, and lat/lon location. Th elat/lon location was determined by geocoding the street addresses using a geocoder at gpsvisualizer.com/geocoder.","next_feature":null,"is_raster":false,"short_classification":"Y","stats":{"lon":{"max":-70.338814,"mean":-90.4751761556886,"variance":190.009830357217,"stdev":13.7844053320126,"min":-122.874917,"median":-86.123875},"zip":{"max":98409,"mean":50986.6766467066,"variance":709266569.858669,"stdev":26632.0590615647,"min":3103,"median":46240},"lat":{"max":47.821021,"mean":37.0997003772455,"variance":27.9564549062596,"stdev":5.28738639653464,"min":25.686322,"median":38.65918}},"features":[{"properties":{"city":"Hillsboro","lon":-122.874917,"zip":97124,"store":"Jared - Galleria of Jewelry","phone":"(503) 645-0702","id":"a639wdr6wuej","address":"19200 NW Cornell Road","lat":45.534223,"location":"Tanasbourne","state":"OR"},"type":"Feature","geometry":{"type":"Point","coordinates":[-122.874917,45.534223]}},{"properties":{"city":"Tigard","lon":-122.749789,"zip":97224,"store":"Jared - Galleria of Jewelry","phone":"(503) 598-7431","id":"a639wdpvx1mn","address":"7162 SW Hazelfern Rd","lat":45.393463,"location":"The Pointe at Bridgeport","state":"OR"},"type":"Feature","geometry":{"type":"Point","coordinates":[-122.749789,45.393463]}},{"properties":{"city":"Clackamas","lon":-122.572019,"zip":97015,"store":"Jared - Galleria of Jewelry","phone":"(503) 659-1083","id":"a639wdp91lc1","address":"8854 SE Sunnyside Road","lat":45.433152,"location":"Clackamas Promenade","state":"OR"},"type":"Feature","geometry":{"type":"Point","coordinates":[-122.572019,45.433152]}},{"properties":{"city":"Tacoma","lon":-122.470036,"zip":98409,"store":"Jared - Galleria of Jewelry","phone":"(253) 472-2279","id":"a639wdj0girt","address":"2501 South 38th St","lat":47.222605,"location":"Lincoln Plaza Shopping Center","state":"WA"},"type":"Feature","geometry":{"type":"Point","coordinates":[-122.470036,47.222605]}},{"properties":{"city":"Lynnwood","lon":-122.272823,"zip":98036,"store":"Jared - Galleria of Jewelry","phone":"(425) 774-6933","id":"a639wdp3lpb6","address":"2925 196th St SW","lat":47.821021,"location":"Golde Creek Plaza II","state":"WA"},"type":"Feature","geometry":{"type":"Point","coordinates":[-122.272823,47.821021]}},{"properties":{"city":"Tukwila","lon":-122.262258,"zip":98188,"store":"Jared - Galleria of Jewelry","phone":"(206) 575-2428","id":"a639wdj3c084","address":"16840 Southcenter Pkwy","lat":47.45243,"location":"Parkway Square Shopping Center","state":"WA"},"type":"Feature","geometry":{"type":"Point","coordinates":[-122.262258,47.45243]}},{"properties":{"city":"Sacramento","lon":-121.426631,"zip":95815,"store":"Jared - Galleria of Jewelry","phone":"(916) 567-0930","id":"a639wdma1nwp","address":"1620 Arden Way","lat":38.599082,"location":"Arden Way aka Point West Crp Cnt","state":"CA"},"type":"Feature","geometry":{"type":"Point","coordinates":[-121.426631,38.599082]}},{"properties":{"city":"Roseville","lon":-121.265485,"zip":95678,"store":"Jared - Galleria of Jewelry","phone":"(916) 787-1701","id":"a639wdj4h3n2","address":"1128 Galleria Blvd","lat":38.770621,"location":"Ridge at Creekside","state":"CA"},"type":"Feature","geometry":{"type":"Point","coordinates":[-121.265485,38.770621]}},{"properties":{"city":"Reno","lon":-119.748294,"zip":89511,"store":"Jared - Galleria of Jewelry","phone":"(775) 850-2020","id":"a639wdz4rlvl","address":"13957 S Virginia St","lat":39.4057,"location":"Summit Sierra","state":"NV"},"type":"Feature","geometry":{"type":"Point","coordinates":[-119.748294,39.4057]}},{"properties":{"city":"Simi Valley","lon":-118.778083,"zip":93065,"store":"Jared - Galleria of Jewelry","phone":"(805) 583-9704","id":"a639wdszcx1b","address":"1115 Simi Town Center Way","lat":34.28456,"location":"Simi Valley Town Center","state":"CA"},"type":"Feature","geometry":{"type":"Point","coordinates":[-118.778083,34.28456]}},{"properties":{"city":"Palmdale","lon":-118.146029,"zip":93551,"store":"Jared - Galleria of Jewelry","phone":"(661) 947-6141","id":"a639wdo4d4s7","address":"849 West Rancho Vista Blvd","lat":34.602004,"location":"Sierra Commons","state":"CA"},"type":"Feature","geometry":{"type":"Point","coordinates":[-118.146029,34.602004]}},{"properties":{"city":"Chino Hills","lon":-117.72807,"zip":91709,"store":"Jared - Galleria of Jewelry","phone":"(909) 548-4636","id":"a639wdmetldq","address":"3585 Grand Ave","lat":34.001727,"location":"The Shoppes at Chino Hills","state":"CA"},"type":"Feature","geometry":{"type":"Point","coordinates":[-117.72807,34.001727]}},{"properties":{"city":"Rancho Cucamonga","lon":-117.530312,"zip":91730,"store":"Jared - Galleria of Jewelry","phone":"(909) 463-6161","id":"a639wdnuf5qq","address":"12430 Foothill Blvd","lat":34.106543,"location":"Victoria Gardens","state":"CA"},"type":"Feature","geometry":{"type":"Point","coordinates":[-117.530312,34.106543]}},{"properties":{"city":"San Diego","lon":-117.153446,"zip":92108,"store":"Jared - Galleria of Jewelry","phone":"(619) 278-0060","id":"a639wdmarjvc","address":"1025 Camino De La Reina","lat":32.76812,"location":"Westfield Mission Valley","state":"CA"},"type":"Feature","geometry":{"type":"Point","coordinates":[-117.153446,32.76812]}},{"properties":{"city":"National City","lon":-117.069291,"zip":91950,"store":"Jared - Galleria of Jewelry","phone":"(619) 267-1323","id":"a639wdw1or77","address":"2960 Plaza Bonita Rd","lat":32.658403,"location":"Plaza Bonita","state":"CA"},"type":"Feature","geometry":{"type":"Point","coordinates":[-117.069291,32.658403]}},{"properties":{"city":"Boise","lon":-116.282544,"zip":83704,"store":"Jared - Galleria of Jewelry","phone":"(208) 321-1999","id":"a639wdr9jscd","address":"247 N Milwaukee St","lat":43.607311,"location":"Westpark Shopping Center","state":"ID"},"type":"Feature","geometry":{"type":"Point","coordinates":[-116.282544,43.607311]}},{"properties":{"city":"Las Vegas","lon":-115.241834,"zip":89108,"store":"Jared - Galleria of Jewelry","phone":"(702) 647-6722","id":"a639wdnea8a4","address":"2110 N Rainbow","lat":36.198169,"location":"Best in the West","state":"NV"},"type":"Feature","geometry":{"type":"Point","coordinates":[-115.241834,36.198169]}},{"properties":{"city":"Henderson","lon":-115.0342,"zip":89014,"store":"Jared - Galleria of Jewelry","phone":"(702) 898-7392","id":"a639wdk8kc3h","address":"1071 W Sunset Rd","lat":36.063625,"location":"Eastgate Power Center","state":"NV"},"type":"Feature","geometry":{"type":"Point","coordinates":[-115.0342,36.063625]}},{"properties":{"city":"Glendale","lon":-112.221156,"zip":85308,"store":"Jared - Galleria of Jewelry","phone":"(623) 334-3033","id":"a639wdn9uy0l","address":"7520 W Bell Rd","lat":33.638453,"location":"Arrowhead Towne Center","state":"AZ"},"type":"Feature","geometry":{"type":"Point","coordinates":[-112.221156,33.638453]}},{"properties":{"city":"Phoenix","lon":-111.979133,"zip":85032,"store":"Jared - Galleria of Jewelry","phone":"(602) 569-6200","id":"a639wdsr72i2","address":"12656 N Tatum Blvd","lat":33.602018,"location":"Paradise Valley-Outparcel","state":"AZ"},"type":"Feature","geometry":{"type":"Point","coordinates":[-111.979133,33.602018]}},{"properties":{"city":"Chandler","lon":-111.966776,"zip":85226,"store":"Jared - Galleria of Jewelry","phone":"(480) 961-1919","id":"a639wdtpc7pc","address":"7181 W Ray Rd","lat":33.319649,"location":"Casa Paloma Shopping Center","state":"AZ"},"type":"Feature","geometry":{"type":"Point","coordinates":[-111.966776,33.319649]}},{"properties":{"city":"Scottsdale","lon":-111.92587,"zip":85251,"store":"Jared - Galleria of Jewelry","phone":"(480) 949-3100","id":"a639wdm468c3","address":"4545 N Scottsdale Rd","lat":33.503345,"location":"Scottsdale Renaissance","state":"AZ"},"type":"Feature","geometry":{"type":"Point","coordinates":[-111.92587,33.503345]}},{"properties":{"city":"Murray","lon":-111.889133,"zip":84107,"store":"Jared - Galleria of Jewelry","phone":"(801) 281-8989","id":"a639wdt80alp","address":"5928 South State St","lat":40.642242,"location":"59th &amp; S State","state":"UT"},"type":"Feature","geometry":{"type":"Point","coordinates":[-111.889133,40.642242]}},{"properties":{"city":"Mesa","lon":-111.754188,"zip":85204,"store":"Jared - Galleria of Jewelry","phone":"(480) 813-2091","id":"a639wdunjhsp","address":"1750 S Valvista Dr","lat":33.383384,"location":"Dana Park","state":"AZ"},"type":"Feature","geometry":{"type":"Point","coordinates":[-111.754188,33.383384]}},{"properties":{"city":"Tucson","lon":-110.977952,"zip":85705,"store":"Jared - Galleria of Jewelry","phone":"(520) 292-6265","id":"a639wdsu0khl","address":"4240 N Oracle Rd","lat":32.283772,"location":"SEC Oracle &amp; Wetmore","state":"AZ"},"type":"Feature","geometry":{"type":"Point","coordinates":[-110.977952,32.283772]}},{"properties":{"city":"Tucson","lon":-110.865274,"zip":85711,"store":"Jared - Galleria of Jewelry","phone":"(520) 514-9800","id":"a639wdv0ptns","address":"5955 E Broadway Blvd","lat":32.221812,"location":"Broadway Blvd","state":"AZ"},"type":"Feature","geometry":{"type":"Point","coordinates":[-110.865274,32.221812]}},{"properties":{"city":"Albuquerque","lon":-106.568638,"zip":87110,"store":"Jared - Galleria of Jewelry","phone":"(505) 830-3075","id":"a639wdxv91fp","address":"2260 Louisiana Blvd NE","lat":35.103821,"location":"ABQ Uptown","state":"NM"},"type":"Feature","geometry":{"type":"Point","coordinates":[-106.568638,35.103821]}},{"properties":{"city":"Lakewood","lon":-105.158435,"zip":80401,"store":"Jared - Galleria of Jewelry","phone":"(720) 497-0400","id":"a639wdq068eq","address":"14145 W Colfax Ave","lat":39.736213,"location":"Colorado Mills","state":"CO"},"type":"Feature","geometry":{"type":"Point","coordinates":[-105.158435,39.736213]}},{"properties":{"city":"Westminster","lon":-105.052871,"zip":80031,"store":"Jared - Galleria of Jewelry","phone":"(303) 426-4405","id":"a639wdjuxk6s","address":"9210 Sheridan Blvd","lat":39.863925,"location":"Westminster City Center","state":"CO"},"type":"Feature","geometry":{"type":"Point","coordinates":[-105.052871,39.863925]}},{"properties":{"city":"Englewood","lon":-104.878635,"zip":80112,"store":"Jared - Galleria of Jewelry","phone":"(303) 799-4739","id":"a639wdrck4en","address":"9535 E County Line Rd","lat":39.566207,"location":"Centennial Promenade","state":"CO"},"type":"Feature","geometry":{"type":"Point","coordinates":[-104.878635,39.566207]}},{"properties":{"city":"Aurora","lon":-104.824447,"zip":80012,"store":"Jared - Galleria of Jewelry","phone":"(303) 364-0800","id":"a639wdwk9k4s","address":"235 S Abilene St","lat":39.712147,"location":"Aurora City Place Shopping Center","state":"CO"},"type":"Feature","geometry":{"type":"Point","coordinates":[-104.824447,39.712147]}},{"properties":{"city":"Colorado Springs","lon":-104.793574,"zip":80920,"store":"Jared - Galleria of Jewelry","phone":"(719) 262-0701","id":"a639wdjilfkd","address":"1720 E Woodmen Rd","lat":38.932791,"location":"Woodmen Commons","state":"CO"},"type":"Feature","geometry":{"type":"Point","coordinates":[-104.793574,38.932791]}},{"properties":{"city":"San Antonio","lon":-98.603113,"zip":78257,"store":"Jared - Galleria of Jewelry","phone":"(210) 561-7280","id":"a639wdo9fjew","address":"17327 Interstate Hwy 10 W","lat":29.60711,"location":"The Rim","state":"TX"},"type":"Feature","geometry":{"type":"Point","coordinates":[-98.603113,29.60711]}},{"properties":{"city":"Selma","lon":-98.329754,"zip":78154,"store":"Jared - Galleria of Jewelry","phone":"(210) 945-0208","id":"a639wdpf9gwq","address":"8152 Agora Pkwy","lat":29.566288,"location":"The Forum at Olympia Parkway","state":"TX"},"type":"Feature","geometry":{"type":"Point","coordinates":[-98.329754,29.566288]}},{"properties":{"city":"Austin","lon":-97.838785,"zip":78749,"store":"Jared - Galleria of Jewelry","phone":"(512) 358-0277","id":"a639wdtmjhr8","address":"4301 W William Cannon Dr","lat":30.221984,"location":"The Shops at Arbor Trails","state":"TX"},"type":"Feature","geometry":{"type":"Point","coordinates":[-97.838785,30.221984]}},{"properties":{"city":"Cedar Park","lon":-97.803419,"zip":78613,"store":"Jared - Galleria of Jewelry","phone":"(512) 331-5448","id":"a639wdqfd8bl","address":"11047 Pecan Park","lat":30.469294,"location":"Lakeline Mall-Outparcel","state":"TX"},"type":"Feature","geometry":{"type":"Point","coordinates":[-97.803419,30.469294]}},{"properties":{"city":"Fort Worth","lon":-97.395062,"zip":76132,"store":"Jared - Galleria of Jewelry","phone":"(817) 346-1410","id":"a639wdm8c2q3","address":"4750 South Hulen St","lat":32.678395,"location":"Hulen Mall","state":"TX"},"type":"Feature","geometry":{"type":"Point","coordinates":[-97.395062,32.678395]}},{"properties":{"city":"Hurst","lon":-97.201673,"zip":76053,"store":"Jared - Galleria of Jewelry","phone":"(817) 284-5476","id":"a639wdrlouif","address":"1330 Pipeline Rd","lat":32.823819,"location":"North East Plaza","state":"TX"},"type":"Feature","geometry":{"type":"Point","coordinates":[-97.201673,32.823819]}},{"properties":{"city":"Arlington","lon":-97.13378,"zip":76015,"store":"Jared - Galleria of Jewelry","phone":"(817) 784-2744","id":"a639wdous7kc","address":"3951 S Cooper St","lat":32.681715,"location":"Parks at Arlington","state":"TX"},"type":"Feature","geometry":{"type":"Point","coordinates":[-97.13378,32.681715]}},{"properties":{"city":"Southlake","lon":-97.128759,"zip":76092,"store":"Jared - Galleria of Jewelry","phone":"(817) 251-0286","id":"a639wdmictqg","address":"1500 E Southlake Blvd","lat":32.941102,"location":"Southlake Town Square","state":"TX"},"type":"Feature","geometry":{"type":"Point","coordinates":[-97.128759,32.941102]}},{"properties":{"city":"Lewisville","lon":-96.968988,"zip":75067,"store":"Jared - Galleria of Jewelry","phone":"(972) 459-6738","id":"a639wdstmkx2","address":"2425 S Stemmons","lat":33.004438,"location":"Vista Ridge III","state":"TX"},"type":"Feature","geometry":{"type":"Point","coordinates":[-96.968988,33.004438]}},{"properties":{"city":"Frisco","lon":-96.805399,"zip":75034,"store":"Jared - Galleria of Jewelry","phone":"(214) 705-7354","id":"a639wdr8ue8b","address":"3110 Preston Rd","lat":33.104506,"location":"Frisco Village","state":"TX"},"type":"Feature","geometry":{"type":"Point","coordinates":[-96.805399,33.104506]}},{"properties":{"city":"Dallas","lon":-96.803721,"zip":75240,"store":"Jared - Galleria of Jewelry","phone":"(972) 960-9440","id":"a639wdo6o0te","address":"13149 Preston Rd","lat":32.927468,"location":"Valley View Mall Shopping Center","state":"TX"},"type":"Feature","geometry":{"type":"Point","coordinates":[-96.803721,32.927468]}},{"properties":{"city":"Plano","lon":-96.710578,"zip":75075,"store":"Jared - Galleria of Jewelry","phone":"(972) 578-9400","id":"a639wdsbwr5g","address":"301 W Plano Pkwy","lat":33.009256,"location":"Collin Creek Mall","state":"TX"},"type":"Feature","geometry":{"type":"Point","coordinates":[-96.710578,33.009256]}},{"properties":{"city":"Tulsa","lon":-95.881838,"zip":74133,"store":"Jared - Galleria of Jewelry","phone":"(918) 307-0867","id":"a639wdouptqh","address":"8522 East 71st St","lat":36.060667,"location":"Southern Trails Shopping Center","state":"OK"},"type":"Feature","geometry":{"type":"Point","coordinates":[-95.881838,36.060667]}},{"properties":{"city":"Sugar Land","lon":-95.626039,"zip":77478,"store":"Jared - Galleria of Jewelry","phone":"(281) 240-6200","id":"a639wdoycce5","address":"16010 Kensington Dr","lat":29.598821,"location":"Town Center Lakeside","state":"TX"},"type":"Feature","geometry":{"type":"Point","coordinates":[-95.626039,29.598821]}},{"properties":{"city":"Houston","lon":-95.53794,"zip":77070,"store":"Jared - Galleria of Jewelry","phone":"(281) 807-0316","id":"a639wdwdedok","address":"7400 FM 1960 W","lat":29.966419,"location":"Willowbrook","state":"TX"},"type":"Feature","geometry":{"type":"Point","coordinates":[-95.53794,29.966419]}},{"properties":{"city":"Houston","lon":-95.536202,"zip":77024,"store":"Jared - Galleria of Jewelry","phone":"(713) 647-0934","id":"a639wdr0zhtw","address":"9829 Katy Freeway","lat":29.783743,"location":"Memorial City","state":"TX"},"type":"Feature","geometry":{"type":"Point","coordinates":[-95.536202,29.783743]}},{"properties":{"city":"Pearland","lon":-95.395334,"zip":77581,"store":"Jared - Galleria of Jewelry","phone":"(713) 340-1655","id":"a639wdryy2o2","address":"11222 Broadway Street","lat":29.555514,"location":"Pearland Town Center","state":"TX"},"type":"Feature","geometry":{"type":"Point","coordinates":[-95.395334,29.555514]}},{"properties":{"city":"Humble","lon":-95.270725,"zip":77338,"store":"Jared - Galleria of Jewelry","phone":"(281) 446-8708","id":"a639wdpx0dxq","address":"10027 FM 1960 Bypass","lat":30.005123,"location":"Deerbrook Mall","state":"TX"},"type":"Feature","geometry":{"type":"Point","coordinates":[-95.270725,30.005123]}},{"properties":{"city":"Webster","lon":-95.138941,"zip":77598,"store":"Jared - Galleria of Jewelry","phone":"(281) 557-2340","id":"a639wdj45q1s","address":"1045 W Bay Area Blvd","lat":29.541469,"location":"Baybrook Gateway Shopping Center","state":"TX"},"type":"Feature","geometry":{"type":"Point","coordinates":[-95.138941,29.541469]}},{"properties":{"city":"Lenexa","lon":-94.723844,"zip":66215,"store":"Jared - Galleria of Jewelry","phone":"(913) 894-5200","id":"a639wdqxolch","address":"9510 Quivira Rd","lat":38.956101,"location":"Orchard Corners","state":"KS"},"type":"Feature","geometry":{"type":"Point","coordinates":[-94.723844,38.956101]}},{"properties":{"city":"Overland Park","lon":-94.66246,"zip":66223,"store":"Jared - Galleria of Jewelry","phone":"(913) 851-1500","id":"a639wdjy2d6i","address":"6675 W 135th St","lat":38.883512,"location":"Galleria Corbin Park","state":"KS"},"type":"Feature","geometry":{"type":"Point","coordinates":[-94.66246,38.883512]}},{"properties":{"city":"Independence","lon":-94.356979,"zip":64057,"store":"Jared - Galleria of Jewelry","phone":"(816) 795-7880","id":"a639wdwqvof4","address":"2116 Independence Center Dr","lat":39.04733,"location":"Independence Center","state":"MO"},"type":"Feature","geometry":{"type":"Point","coordinates":[-94.356979,39.04733]}},{"properties":{"city":"West Des Moines","lon":-93.809016,"zip":50266,"store":"Jared - Galleria of Jewelry","phone":"(515) 222-5351","id":"a639wduv71cv","address":"101 Jordan Creek Pky","lat":41.568902,"location":"Jordan Creek","state":"IA"},"type":"Feature","geometry":{"type":"Point","coordinates":[-93.809016,41.568902]}},{"properties":{"city":"Maple Grove","lon":-93.430065,"zip":55369,"store":"Jared - Galleria of Jewelry","phone":"(763) 424-3872","id":"a639wdreubif","address":"11905 Elm Creek Blvd N","lat":45.094472,"location":"The Shoppes at Arbor Lakes","state":"MN"},"type":"Feature","geometry":{"type":"Point","coordinates":[-93.430065,45.094472]}},{"properties":{"city":"Edina","lon":-93.319402,"zip":55435,"store":"Jared - Galleria of Jewelry","phone":"(612) 861-1800","id":"a639wdkecq8n","address":"6569 York Ave","lat":44.88425,"location":"Southdale Square Shopping Center","state":"MN"},"type":"Feature","geometry":{"type":"Point","coordinates":[-93.319402,44.88425]}},{"properties":{"city":"Burnsville","lon":-93.288183,"zip":55306,"store":"Jared - Galleria of Jewelry","phone":"(952) 898-1414","id":"a639wdq75xqk","address":"801 County Rd 42 W","lat":44.746173,"location":"Burnsville Center-Outparcel","state":"MN"},"type":"Feature","geometry":{"type":"Point","coordinates":[-93.288183,44.746173]}},{"properties":{"city":"Maplewood","lon":-93.017904,"zip":55109,"store":"Jared - Galleria of Jewelry","phone":"(651) 748-0246","id":"a639wduboup6","address":"3081 White Bear Ave N","lat":45.033934,"location":"Maplewood Mall-Outparcel","state":"MN"},"type":"Feature","geometry":{"type":"Point","coordinates":[-93.017904,45.033934]}},{"properties":{"city":"Chesterfield","lon":-90.544274,"zip":63017,"store":"Jared - Galleria of Jewelry","phone":"(636) 536-9733","id":"a639wdka8wa4","address":"975 Chesterfield Center Drive","lat":38.65918,"location":"Chesterfield Mall","state":"MO"},"type":"Feature","geometry":{"type":"Point","coordinates":[-90.544274,38.65918]}},{"properties":{"city":"Hazelwood","lon":-90.413462,"zip":63042,"store":"Jared - Galleria of Jewelry","phone":"(314) 298-1313","id":"a639wdwuivgc","address":"1700 St Louis Mills Cir","lat":38.786352,"location":"St Louis Mills","state":"MO"},"type":"Feature","geometry":{"type":"Point","coordinates":[-90.413462,38.786352]}},{"properties":{"city":"Richmond Heights","lon":-90.345245,"zip":63117,"store":"Jared - Galleria of Jewelry","phone":"(314) 721-5029","id":"a639wdnpwsjh","address":"21 The Boulevard Saint Louis","lat":38.635191,"location":"The Boulevard","state":"MO"},"type":"Feature","geometry":{"type":"Point","coordinates":[-90.345245,38.635191]}},{"properties":{"city":"Metairie","lon":-90.158366,"zip":70002,"store":"Jared - Galleria of Jewelry","phone":"(504) 885-2221","id":"a639wdvrds0g","address":"3400 Veterans Memorial Blvd","lat":30.00315,"location":"Metairie","state":"LA"},"type":"Feature","geometry":{"type":"Point","coordinates":[-90.158366,30.00315]}},{"properties":{"city":"Fairview Heights","lon":-89.984618,"zip":62208,"store":"Jared - Galleria of Jewelry","phone":"(618) 628-0657","id":"a639wdlp7k0w","address":"6530 N Illinois","lat":38.593634,"location":"St Clair Square","state":"IL"},"type":"Feature","geometry":{"type":"Point","coordinates":[-89.984618,38.593634]}},{"properties":{"city":"Cordova","lon":-89.792877,"zip":38016,"store":"Jared - Galleria of Jewelry","phone":"(901) 386-5805","id":"a639wdpqpg4f","address":"2293 N Germantown Pkwy","lat":35.187885,"location":"Countrywood Crossing","state":"TN"},"type":"Feature","geometry":{"type":"Point","coordinates":[-89.792877,35.187885]}},{"properties":{"city":"Collierville","lon":-89.720724,"zip":38017,"store":"Jared - Galleria of Jewelry","phone":"(901) 854-0965","id":"a639wdqfalen","address":"4615 Merchants Park Circle","lat":35.02062,"location":"Avenue(R) Carriage Crossing","state":"TN"},"type":"Feature","geometry":{"type":"Point","coordinates":[-89.720724,35.02062]}},{"properties":{"city":"Madison","lon":-89.502663,"zip":53719,"store":"Jared - Galleria of Jewelry","phone":"(608) 831-8228","id":"a639wdy2mdj5","address":"505 S Gammon Rd","lat":43.055873,"location":"West TowneMall/Gammon Rd","state":"WI"},"type":"Feature","geometry":{"type":"Point","coordinates":[-89.502663,43.055873]}},{"properties":{"city":"Appleton","lon":-88.476192,"zip":54913,"store":"Jared - Galleria of Jewelry","phone":"(920) 731-3313","id":"a639wdllhw1j","address":"141 N Casaloma Dr","lat":44.262689,"location":"Appleton","state":"WI"},"type":"Feature","geometry":{"type":"Point","coordinates":[-88.476192,44.262689]}},{"properties":{"city":"Algonquin","lon":-88.335823,"zip":60102,"store":"Jared - Galleria of Jewelry","phone":"(847) 458-5247","id":"a639wdoaobyn","address":"1504 Randall Rd","lat":42.152466,"location":"Algonquin Commons","state":"IL"},"type":"Feature","geometry":{"type":"Point","coordinates":[-88.335823,42.152466]}},{"properties":{"city":"St. Charles","lon":-88.26862,"zip":60174,"store":"Jared - Galleria of Jewelry","phone":"(630) 584-8382","id":"a639wdyt9pch","address":"3691 E Main St","lat":41.920944,"location":"Main St Commons","state":"IL"},"type":"Feature","geometry":{"type":"Point","coordinates":[-88.26862,41.920944]}},{"properties":{"city":"Aurora","lon":-88.206021,"zip":60504,"store":"Jared - Galleria of Jewelry","phone":"(630) 236-8550","id":"a639wdvfpa4x","address":"1016 N Rte 59","lat":41.773603,"location":"Meridian Square","state":"IL"},"type":"Feature","geometry":{"type":"Point","coordinates":[-88.206021,41.773603]}},{"properties":{"city":"Brookfield","lon":-88.113539,"zip":53005,"store":"Jared - Galleria of Jewelry","phone":"(262) 786-4917","id":"a639wdsfflj3","address":"16070 W Bluemound Rd","lat":43.036468,"location":"The Shoppes at Fountain Square","state":"WI"},"type":"Feature","geometry":{"type":"Point","coordinates":[-88.113539,43.036468]}},{"properties":{"city":"Bolingbrook","lon":-88.04034,"zip":60440,"store":"Jared - Galleria of Jewelry","phone":"(630) 783-0214","id":"a639wdtgb593","address":"693 E Boughton Rd","lat":41.722072,"location":"Promenade Pointe","state":"IL"},"type":"Feature","geometry":{"type":"Point","coordinates":[-88.04034,41.722072]}},{"properties":{"city":"Schaumburg","lon":-88.038523,"zip":60173,"store":"Jared - Galleria of Jewelry","phone":"(847) 995-0212","id":"a639wdsb8eir","address":"1700 E Woodfield Rd","lat":42.043411,"location":"Woodfield Road","state":"IL"},"type":"Feature","geometry":{"type":"Point","coordinates":[-88.038523,42.043411]}},{"properties":{"city":"Lombard","lon":-88.014829,"zip":60148,"store":"Jared - Galleria of Jewelry","phone":"(630) 705-1720","id":"a639wdl685bo","address":"2370 Fountain Square Dr","lat":41.873847,"location":"Fountain Square of Lombard","state":"IL"},"type":"Feature","geometry":{"type":"Point","coordinates":[-88.014829,41.873847]}},{"properties":{"city":"Vernon Hills","lon":-87.94913,"zip":60061,"store":"Jared - Galleria of Jewelry","phone":"(847) 680-0394","id":"a639wdtav7vd","address":"567 E Townline Rd","lat":42.240307,"location":"Vernon Hills","state":"IL"},"type":"Feature","geometry":{"type":"Point","coordinates":[-87.94913,42.240307]}},{"properties":{"city":"Orland Park","lon":-87.853067,"zip":60462,"store":"Jared - Galleria of Jewelry","phone":"(708) 364-1680","id":"a639wdtzyxwl","address":"15341 LaGrange Rd","lat":41.611358,"location":"Orland Park Place","state":"IL"},"type":"Feature","geometry":{"type":"Point","coordinates":[-87.853067,41.611358]}},{"properties":{"city":"Skokie","lon":-87.746625,"zip":60077,"store":"Jared - Galleria of Jewelry","phone":"(847) 675-7336","id":"a639wds667zy","address":"9747 Skokie Blvd","lat":42.057024,"location":"The Shops At One Orchard Place","state":"IL"},"type":"Feature","geometry":{"type":"Point","coordinates":[-87.746625,42.057024]}},{"properties":{"city":"Merrillville","lon":-87.310284,"zip":46410,"store":"Jared - Galleria of Jewelry","phone":"(219) 769-6238","id":"a639wdq263nj","address":"2196 Southlake Mall","lat":41.47027,"location":"Westfield Southlake-Outparcel","state":"IN"},"type":"Feature","geometry":{"type":"Point","coordinates":[-87.310284,41.47027]}},{"properties":{"city":"Franklin","lon":-86.822155,"zip":37067,"store":"Jared - Galleria of Jewelry","phone":"(615) 771-3922","id":"a639wdyc59ut","address":"549 Cool Springs Blvd","lat":35.947094,"location":"Thoroughbred Village","state":"TN"},"type":"Feature","geometry":{"type":"Point","coordinates":[-86.822155,35.947094]}},{"properties":{"city":"Goodlettsville","lon":-86.699984,"zip":37072,"store":"Jared - Galleria of Jewelry","phone":"(615) 855-2200","id":"a639wdq0t7dc","address":"914 Rivergate Pkwy","lat":36.298877,"location":"Rivergate Parkway","state":"TN"},"type":"Feature","geometry":{"type":"Point","coordinates":[-86.699984,36.298877]}},{"properties":{"city":"Murfreesboro","lon":-86.443344,"zip":37129,"store":"Jared - Galleria of Jewelry","phone":"(615) 893-5523","id":"a639wdqba0hj","address":"2645 Medical Center Parkway","lat":35.860864,"location":"Avenue at Murfreesboro","state":"TN"},"type":"Feature","geometry":{"type":"Point","coordinates":[-86.443344,35.860864]}},{"properties":{"city":"Mishawaka","lon":-86.18793,"zip":46545,"store":"Jared - Galleria of Jewelry","phone":"(574) 243-4966","id":"a639wdrvijtz","address":"6501 N Grape Rd","lat":41.71967,"location":"University Park","state":"IN"},"type":"Feature","geometry":{"type":"Point","coordinates":[-86.18793,41.71967]}},{"properties":{"city":"Greenwood","lon":-86.123875,"zip":46142,"store":"Jared - Galleria of Jewelry","phone":"(317) 881-0879","id":"a639wdugyf03","address":"729 West County Line Rd","lat":39.635402,"location":"Greenwood Park Mall","state":"IN"},"type":"Feature","geometry":{"type":"Point","coordinates":[-86.123875,39.635402]}},{"properties":{"city":"Indianapolis","lon":-86.111842,"zip":46240,"store":"Jared - Galleria of Jewelry","phone":"(317) 466-0710","id":"a639wdirxf2o","address":"8520 Keystone Crossing","lat":39.910875,"location":"Keystone Crossing","state":"IN"},"type":"Feature","geometry":{"type":"Point","coordinates":[-86.111842,39.910875]}},{"properties":{"city":"Grandville","lon":-85.753133,"zip":49418,"store":"Jared - Galleria of Jewelry","phone":"(616) 249-8229","id":"a639wdkydmuq","address":"3610 RiverTown Pkwy SW","lat":42.882144,"location":"RiverTown Crossings","state":"MI"},"type":"Feature","geometry":{"type":"Point","coordinates":[-85.753133,42.882144]}},{"properties":{"city":"Chattanooga","lon":-85.155561,"zip":37421,"store":"Jared - Galleria of Jewelry","phone":"(423) 499-5696","id":"a639wdun33ra","address":"2001 Gunbarrel Rd","lat":35.030508,"location":"Hamilton Place","state":"TN"},"type":"Feature","geometry":{"type":"Point","coordinates":[-85.155561,35.030508]}},{"properties":{"city":"Douglasville","lon":-84.739404,"zip":30135,"store":"Jared - Galleria of Jewelry","phone":"(770) 577-0864","id":"a639wdq5lnll","address":"9310 The Landings Dr","lat":33.729754,"location":"The Landings At Arbor Place","state":"GA"},"type":"Feature","geometry":{"type":"Point","coordinates":[-84.739404,33.729754]}},{"properties":{"city":"Kennesaw","lon":-84.571466,"zip":30144,"store":"Jared - Galleria of Jewelry","phone":"(678) 355-6585","id":"a639wdukp12g","address":"605 W Barret Pkwy","lat":34.007401,"location":"Town Center @ Cobb","state":"GA"},"type":"Feature","geometry":{"type":"Point","coordinates":[-84.571466,34.007401]}},{"properties":{"city":"Lexington","lon":-84.52424,"zip":40503,"store":"Jared - Galleria of Jewelry","phone":"(859) 271-0138","id":"a639wdqua5au","address":"111 W Reynolds Rd","lat":37.991488,"location":"Target Center","state":"KY"},"type":"Feature","geometry":{"type":"Point","coordinates":[-84.52424,37.991488]}},{"properties":{"city":"Springdale","lon":-84.466895,"zip":45246,"store":"Jared - Galleria of Jewelry","phone":"(513) 671-2532","id":"a639wdn0grje","address":"11681 Princeton Pike","lat":39.289787,"location":"Princeton Plaza Shopping Center","state":"OH"},"type":"Feature","geometry":{"type":"Point","coordinates":[-84.466895,39.289787]}},{"properties":{"city":"Cincinnati","lon":-84.380267,"zip":45236,"store":"Jared - Galleria of Jewelry","phone":"(513) 791-7677","id":"a639wdlv6iif","address":"7500 Kenwood Road","lat":39.199046,"location":"Sycamore Plaza at Kenwood","state":"OH"},"type":"Feature","geometry":{"type":"Point","coordinates":[-84.380267,39.199046]}},{"properties":{"city":"Atlanta","lon":-84.337692,"zip":30346,"store":"Jared - Galleria of Jewelry","phone":"(770) 393-4599","id":"a639wdpca2ch","address":"4503 Ashford-Dunwoody Rd","lat":33.923917,"location":"Park Place","state":"GA"},"type":"Feature","geometry":{"type":"Point","coordinates":[-84.337692,33.923917]}},{"properties":{"city":"Dayton","lon":-84.219603,"zip":45459,"store":"Jared - Galleria of Jewelry","phone":"(937) 432-9328","id":"a639wdvodljz","address":"2760 Miamisburg Centerville Rd","lat":39.636736,"location":"Dayton Mall","state":"OH"},"type":"Feature","geometry":{"type":"Point","coordinates":[-84.219603,39.636736]}},{"properties":{"city":"Duluth","lon":-84.134414,"zip":30096,"store":"Jared - Galleria of Jewelry","phone":"(770) 497-9433","id":"a639wdklnd0n","address":"2150 Pleasant Hill Rd NW","lat":33.958824,"location":"Gwinnett Place/Pleasant Hill Rd","state":"GA"},"type":"Feature","geometry":{"type":"Point","coordinates":[-84.134414,33.958824]}},{"properties":{"city":"Lithonia","lon":-84.08894,"zip":30038,"store":"Jared - Galleria of Jewelry","phone":"(678) 526-8398","id":"a639wdmk7jiq","address":"3001 Turner Hill Rd","lat":33.694471,"location":"The Marketplace at Stonecrest","state":"GA"},"type":"Feature","geometry":{"type":"Point","coordinates":[-84.08894,33.694471]}},{"properties":{"city":"Dayton","lon":-84.052512,"zip":45431,"store":"Jared - Galleria of Jewelry","phone":"(937) 426-7962","id":"a639wdoaltd1","address":"2711 N Fairfield Rd","lat":39.767969,"location":"Mall at Fairfield Commons-Outparcel","state":"OH"},"type":"Feature","geometry":{"type":"Point","coordinates":[-84.052512,39.767969]}},{"properties":{"city":"Knoxville","lon":-84.034129,"zip":37919,"store":"Jared - Galleria of Jewelry","phone":"(865) 691-8018","id":"a639wdxvqwgm","address":"222 Morrell Rd","lat":35.925519,"location":"Centre at Deane Hill","state":"TN"},"type":"Feature","geometry":{"type":"Point","coordinates":[-84.034129,35.925519]}},{"properties":{"city":"Buford","lon":-83.984909,"zip":30519,"store":"Jared - Galleria of Jewelry","phone":"(678) 546-0003","id":"a639wdjm6j2s","address":"3005 Mall of Georgia Blvd","lat":34.06186,"location":"Marketplace Mill Creek","state":"GA"},"type":"Feature","geometry":{"type":"Point","coordinates":[-83.984909,34.06186]}},{"properties":{"city":"Toledo","lon":-83.642553,"zip":43623,"store":"Jared - Galleria of Jewelry","phone":"(419) 480-0072","id":"a639wdys0y2t","address":"5011 Monroe St","lat":41.698203,"location":"Franklin Park","state":"OH"},"type":"Feature","geometry":{"type":"Point","coordinates":[-83.642553,41.698203]}},{"properties":{"city":"Novi","lon":-83.47636,"zip":48377,"store":"Jared - Galleria of Jewelry","phone":"(248) 449-6613","id":"a639wdjv69eg","address":"27795 Novi Rd","lat":42.494518,"location":"West Oaks II","state":"MI"},"type":"Feature","geometry":{"type":"Point","coordinates":[-83.47636,42.494518]}},{"properties":{"city":"Auburn Hills","lon":-83.304979,"zip":48326,"store":"Jared - Galleria of Jewelry","phone":"(248) 253-0488","id":"a639wdqj82m3","address":"3960 Baldwin Rd","lat":42.702051,"location":"Great Lakes Crossing","state":"MI"},"type":"Feature","geometry":{"type":"Point","coordinates":[-83.304979,42.702051]}},{"properties":{"city":"Dublin","lon":-83.130291,"zip":43017,"store":"Jared - Galleria of Jewelry","phone":"(614) 336-8576","id":"a639wdjzzxpt","address":"5061 Tuttle Crossing Blvd","lat":40.076184,"location":"Tuttle Crossing","state":"OH"},"type":"Feature","geometry":{"type":"Point","coordinates":[-83.130291,40.076184]}},{"properties":{"city":"Madison Heights","lon":-83.111869,"zip":48071,"store":"Jared - Galleria of Jewelry","phone":"(248) 733-9362","id":"a639wdjzmfep","address":"451 W 14 Mile Rd","lat":42.533954,"location":"W 14 Mile Rd","state":"MI"},"type":"Feature","geometry":{"type":"Point","coordinates":[-83.111869,42.533954]}},{"properties":{"city":"Utica","lon":-83.009003,"zip":48315,"store":"Jared - Galleria of Jewelry","phone":"(586) 997-9500","id":"a639wdo2o3aw","address":"45011 Park Ave","lat":42.627521,"location":"Utica Park Place","state":"MI"},"type":"Feature","geometry":{"type":"Point","coordinates":[-83.009003,42.627521]}},{"properties":{"city":"Columbus","lon":-82.977648,"zip":43240,"store":"Jared - Galleria of Jewelry","phone":"(614) 433-0671","id":"a639wdttngh9","address":"1499 Polaris Pkwy","lat":40.141206,"location":"Polaris Towne Center","state":"OH"},"type":"Feature","geometry":{"type":"Point","coordinates":[-82.977648,40.141206]}},{"properties":{"city":"Columbus","lon":-82.918594,"zip":43219,"store":"Jared - Galleria of Jewelry","phone":"(614) 476-6532","id":"a639wditeshb","address":"4159 Morse Crossing","lat":40.05521,"location":"Morse Crossing","state":"OH"},"type":"Feature","geometry":{"type":"Point","coordinates":[-82.918594,40.05521]}},{"properties":{"city":"St. Petersburg","lon":-82.731605,"zip":33710,"store":"Jared - Galleria of Jewelry","phone":"(727) 345-6144","id":"a639wdqcem6t","address":"6778 22nd Ave N","lat":27.79158,"location":"Tyrone Square/22nd Ave N","state":"FL"},"type":"Feature","geometry":{"type":"Point","coordinates":[-82.731605,27.79158]}},{"properties":{"city":"Clearwater","lon":-82.725484,"zip":33759,"store":"Jared - Galleria of Jewelry","phone":"(727) 797-4803","id":"a639wdmmla6q","address":"2705 Gulf To Bay Blvd","lat":27.960467,"location":"Clearwater Mall","state":"FL"},"type":"Feature","geometry":{"type":"Point","coordinates":[-82.725484,27.960467]}},{"properties":{"city":"Tampa","lon":-82.572711,"zip":33625,"store":"Jared - Galleria of Jewelry","phone":"(813) 926-0966","id":"a639wdsgvwv8","address":"8104 Citrus Park Dr","lat":28.065894,"location":"The Plaza at Citrus Park","state":"FL"},"type":"Feature","geometry":{"type":"Point","coordinates":[-82.572711,28.065894]}},{"properties":{"city":"Brandon","lon":-82.321189,"zip":33511,"store":"Jared - Galleria of Jewelry","phone":"(813) 657-5913","id":"a639wdk8n30v","address":"2206 W Brandon Blvd","lat":27.938592,"location":"Regency Square at Brandon","state":"FL"},"type":"Feature","geometry":{"type":"Point","coordinates":[-82.321189,27.938592]}},{"properties":{"city":"Augusta","lon":-82.08054,"zip":30907,"store":"Jared - Galleria of Jewelry","phone":"(706) 736-1018","id":"a639wdqygxkr","address":"3450 Wrightsboro Rd","lat":33.467212,"location":"Augusta Mall","state":"GA"},"type":"Feature","geometry":{"type":"Point","coordinates":[-82.08054,33.467212]}},{"properties":{"city":"North Olmsted","lon":-81.9076,"zip":44070,"store":"Jared - Galleria of Jewelry","phone":"(440) 686-0436","id":"a639wdpjg0qa","address":"25851 Brookpark Rd","lat":41.418706,"location":"Westfield Great Northern","state":"OH"},"type":"Feature","geometry":{"type":"Point","coordinates":[-81.9076,41.418706]}},{"properties":{"city":"Ft. Myers","lon":-81.869566,"zip":33907,"store":"Jared - Galleria of Jewelry","phone":"(239) 432-2663","id":"a639wdx405t6","address":"5050 Bell Tower Shops Ave","lat":26.552661,"location":"Bell Tower Shops-Outparcel","state":"FL"},"type":"Feature","geometry":{"type":"Point","coordinates":[-81.869566,26.552661]}},{"properties":{"city":"Estero","lon":-81.809716,"zip":33928,"store":"Jared - Galleria of Jewelry","phone":"(239) 495-1633","id":"a639wdwmx3cu","address":"23160 Via Villagio","lat":26.405071,"location":"Coconut Point","state":"FL"},"type":"Feature","geometry":{"type":"Point","coordinates":[-81.809716,26.405071]}},{"properties":{"city":"Akron","lon":-81.639118,"zip":44333,"store":"Jared - Galleria of Jewelry","phone":"(330) 665-1994","id":"a639wdl32b3t","address":"3900 Medina Rd","lat":41.135739,"location":"Montrose Centre","state":"OH"},"type":"Feature","geometry":{"type":"Point","coordinates":[-81.639118,41.135739]}},{"properties":{"city":"Jacksonville","lon":-81.528874,"zip":32246,"store":"Jared - Galleria of Jewelry","phone":"(904) 997-8122","id":"a639wdyjpayj","address":"4647 Town Center Pkwy","lat":30.259258,"location":"St John's Town Center","state":"FL"},"type":"Feature","geometry":{"type":"Point","coordinates":[-81.528874,30.259258]}},{"properties":{"city":"Cuyahoga Falls","lon":-81.478878,"zip":44221,"store":"Jared - Galleria of Jewelry","phone":"(330) 923-5200","id":"a639wdxx97xo","address":"380 Howe Ave","lat":41.118987,"location":"Plaza at Chapel Hill","state":"OH"},"type":"Feature","geometry":{"type":"Point","coordinates":[-81.478878,41.118987]}},{"properties":{"city":"Orlando","lon":-81.450667,"zip":32819,"store":"Jared - Galleria of Jewelry","phone":"(407) 248-9446","id":"a639wdmvl5m4","address":"5285 International Dr","lat":28.465944,"location":"International Drive Value Center","state":"FL"},"type":"Feature","geometry":{"type":"Point","coordinates":[-81.450667,28.465944]}},{"properties":{"city":"Canton","lon":-81.429861,"zip":44718,"store":"Jared - Galleria of Jewelry","phone":"(330) 966-9709","id":"a639wdk3cn46","address":"4381 Everhard Road NW","lat":40.859192,"location":"Belden","state":"OH"},"type":"Feature","geometry":{"type":"Point","coordinates":[-81.429861,40.859192]}},{"properties":{"city":"Kissimmee","lon":-81.427425,"zip":34741,"store":"Jared - Galleria of Jewelry","phone":"(407) 932-0265","id":"a639wdwun5l0","address":"2411 W Osceola Parkway","lat":28.342302,"location":"Loop West","state":"FL"},"type":"Feature","geometry":{"type":"Point","coordinates":[-81.427425,28.342302]}},{"properties":{"city":"Altamonte Springs","lon":-81.384837,"zip":32701,"store":"Jared - Galleria of Jewelry","phone":"(407) 339-0556","id":"a639wdv8n1lz","address":"229 E Altamonte Dr","lat":28.662213,"location":"Uptown Altamonte","state":"FL"},"type":"Feature","geometry":{"type":"Point","coordinates":[-81.384837,28.662213]}},{"properties":{"city":"Oviedo","lon":-81.235315,"zip":32765,"store":"Jared - Galleria of Jewelry","phone":"(407) 366-0086","id":"a639wdnuh9z8","address":"8275 Red Bug Lake Rd","lat":28.656182,"location":"Oviedo Marketplace","state":"FL"},"type":"Feature","geometry":{"type":"Point","coordinates":[-81.235315,28.656182]}},{"properties":{"city":"Pineville","lon":-80.879284,"zip":28134,"store":"Jared - Galleria of Jewelry","phone":"(704) 752-7800","id":"a639wdw1d7hl","address":"9530 Pineville Matthews Rd","lat":35.086379,"location":"Carolina Place Parkway","state":"NC"},"type":"Feature","geometry":{"type":"Point","coordinates":[-80.879284,35.086379]}},{"properties":{"city":"Charlotte","lon":-80.853638,"zip":28216,"store":"Jared - Galleria of Jewelry","phone":"(704) 921-0742","id":"a639wdk7v3mh","address":"10331 Perimeter Pkwy","lat":35.345028,"location":"Northlake Village","state":"NC"},"type":"Feature","geometry":{"type":"Point","coordinates":[-80.853638,35.345028]}},{"properties":{"city":"Concord","lon":-80.71607,"zip":28027,"store":"Jared - Galleria of Jewelry","phone":"(704) 979-6070","id":"a639wdvmh1yl","address":"8030 Concord Mills Blvd","lat":35.370369,"location":"The Pavillion at King's Grant","state":"NC"},"type":"Feature","geometry":{"type":"Point","coordinates":[-80.71607,35.370369]}},{"properties":{"city":"Miami","lon":-80.392462,"zip":33186,"store":"Jared - Galleria of Jewelry","phone":"(305) 630-3997","id":"a639wdue2jch","address":"12355 SW 88th St","lat":25.686322,"location":"Kendall Village Cnt/SW 88th St","state":"FL"},"type":"Feature","geometry":{"type":"Point","coordinates":[-80.392462,25.686322]}},{"properties":{"city":"Plantation","lon":-80.315761,"zip":33323,"store":"Jared - Galleria of Jewelry","phone":"(954) 476-7306","id":"a639wdre08yd","address":"12260 WSunrise Blvd","lat":26.152879,"location":"Plantation","state":"FL"},"type":"Feature","geometry":{"type":"Point","coordinates":[-80.315761,26.152879]}},{"properties":{"city":"Pembroke Pines","lon":-80.294261,"zip":33026,"store":"Jared - Galleria of Jewelry","phone":"(954) 437-0341","id":"a639wdx5zvp4","address":"11077 Pines Boulevard","lat":26.00803,"location":"Pembroke Lakes Square","state":"FL"},"type":"Feature","geometry":{"type":"Point","coordinates":[-80.294261,26.00803]}},{"properties":{"city":"Pittsburgh","lon":-80.174905,"zip":15275,"store":"Jared - Galleria of Jewelry","phone":"(412) 809-9050","id":"a639wdvgcuap","address":"100 McHolme Dr","lat":40.448801,"location":"The Pointe at North Fayette","state":"PA"},"type":"Feature","geometry":{"type":"Point","coordinates":[-80.174905,40.448801]}},{"properties":{"city":"Ft. Lauderdale","lon":-80.119631,"zip":33305,"store":"Jared - Galleria of Jewelry","phone":"(954) 630-0799","id":"a639wdky9c3m","address":"1630 N Federal Highway","lat":26.149202,"location":"Bal Harbour Square","state":"FL"},"type":"Feature","geometry":{"type":"Point","coordinates":[-80.119631,26.149202]}},{"properties":{"city":"Boynton Beach","lon":-80.090752,"zip":33426,"store":"Jared - Galleria of Jewelry","phone":"(561) 742-9082","id":"a639wdjz2e2o","address":"367 N Congress Ave","lat":26.529234,"location":"Boynton Commons","state":"FL"},"type":"Feature","geometry":{"type":"Point","coordinates":[-80.090752,26.529234]}},{"properties":{"city":"Palm Beach Gardens","lon":-80.090131,"zip":33410,"store":"Jared - Galleria of Jewelry","phone":"(561) 625-1012","id":"a639wdv3uib9","address":"11360 Legacy Ave","lat":26.84386,"location":"Legacy Place","state":"Fl"},"type":"Feature","geometry":{"type":"Point","coordinates":[-80.090131,26.84386]}},{"properties":{"city":"Pittsburgh","lon":-80.012178,"zip":15237,"store":"Jared - Galleria of Jewelry","phone":"(412) 369-6890","id":"a639wdsvo7ct","address":"7381 McKnight Rd","lat":40.539767,"location":"Ross Park/McKnight Rd","state":"PA"},"type":"Feature","geometry":{"type":"Point","coordinates":[-80.012178,40.539767]}},{"properties":{"city":"Greensboro","lon":-79.894641,"zip":27407,"store":"Jared - Galleria of Jewelry","phone":"(336) 855-0578","id":"a639wdll81xm","address":"4405 West Wendover Ave","lat":36.055776,"location":"Wendover Avenue","state":"NC"},"type":"Feature","geometry":{"type":"Point","coordinates":[-79.894641,36.055776]}},{"properties":{"city":"Monroeville","lon":-79.786648,"zip":15146,"store":"Jared - Galleria of Jewelry","phone":"(412) 374-0956","id":"a639wdoqclvv","address":"3767 William Penn Hwy","lat":40.435918,"location":"Holiday Centre","state":"PA"},"type":"Feature","geometry":{"type":"Point","coordinates":[-79.786648,40.435918]}},{"properties":{"city":"Durham","lon":-78.937891,"zip":27713,"store":"Jared - Galleria of Jewelry","phone":"(919) 572-9932","id":"a639wdox6ph6","address":"6813 Fayetteville Rd","lat":35.904503,"location":"Renaissance Center @ Southpoint","state":"NC"},"type":"Feature","geometry":{"type":"Point","coordinates":[-78.937891,35.904503]}},{"properties":{"city":"Amherst","lon":-78.822158,"zip":14228,"store":"Jared - Galleria of Jewelry","phone":"(716) 833-4359","id":"a639wdwojtjq","address":"1591 Niagara Falls Blvd","lat":42.998501,"location":"Boulevard Consumer Square","state":"NY"},"type":"Feature","geometry":{"type":"Point","coordinates":[-78.822158,42.998501]}},{"properties":{"city":"Cary","lon":-78.76274,"zip":27511,"store":"Jared - Galleria of Jewelry","phone":"(919) 460-8998","id":"a639wdn44c82","address":"1109 Walnut St","lat":35.771346,"location":"Cary Towne Center","state":"NC"},"type":"Feature","geometry":{"type":"Point","coordinates":[-78.76274,35.771346]}},{"properties":{"city":"Buffalo","lon":-78.762401,"zip":14225,"store":"Jared - Galleria of Jewelry","phone":"(716) 685-0328","id":"a639wdsi6nqm","address":"2009 Walden Ave","lat":42.908772,"location":"Wegmans Plaza","state":"NY"},"type":"Feature","geometry":{"type":"Point","coordinates":[-78.762401,42.908772]}},{"properties":{"city":"Raleigh","lon":-78.581507,"zip":27604,"store":"Jared - Galleria of Jewelry","phone":"(919) 792-9280","id":"a639wds4mtzf","address":"6100 Capital Blvd","lat":35.868119,"location":"Capital Boulevard","state":"NC"},"type":"Feature","geometry":{"type":"Point","coordinates":[-78.581507,35.868119]}},{"properties":{"city":"Rochester","lon":-77.629492,"zip":14623,"store":"Jared - Galleria of Jewelry","phone":"(585) 424-3950","id":"a639wdx6c8qo","address":"300 Hylan Dr","lat":43.085138,"location":"Jay Scutti Plaza North","state":"NY"},"type":"Feature","geometry":{"type":"Point","coordinates":[-77.629492,43.085138]}},{"properties":{"city":"Richmond","lon":-77.616914,"zip":23233,"store":"Jared - Galleria of Jewelry","phone":"(804) 364-4915","id":"a639wdkk2574","address":"11724 W Broad St","lat":37.652551,"location":"Short Pump Town Center","state":"VA"},"type":"Feature","geometry":{"type":"Point","coordinates":[-77.616914,37.652551]}},{"properties":{"city":"Richmond","lon":-77.604338,"zip":23235,"store":"Jared - Galleria of Jewelry","phone":"(804) 897-8380","id":"a639wditlp6p","address":"11230 Midlothian Tpke","lat":37.506202,"location":"Chesterfield Towne Center","state":"VA"},"type":"Feature","geometry":{"type":"Point","coordinates":[-77.604338,37.506202]}},{"properties":{"city":"Dulles","lon":-77.425624,"zip":20166,"store":"Jared - Galleria of Jewelry","phone":"(703) 433-2305","id":"a639wdxiwyit","address":"21115 Dulles Town Cir","lat":39.035123,"location":"Dulles Town Center","state":"VA"},"type":"Feature","geometry":{"type":"Point","coordinates":[-77.425624,39.035123]}},{"properties":{"city":"Fairfax","lon":-77.391316,"zip":22033,"store":"Jared - Galleria of Jewelry","phone":"(703) 818-8218","id":"a639wdk2phqi","address":"12960 Fair Lakes Center","lat":38.859818,"location":"Fair Lakes Center","state":"VA"},"type":"Feature","geometry":{"type":"Point","coordinates":[-77.391316,38.859818]}},{"properties":{"city":"Vienna","lon":-77.225832,"zip":22182,"store":"Jared - Galleria of Jewelry","phone":"(703) 893-0154","id":"a639wdj7hvbc","address":"8113 Leesburg Pike","lat":38.914594,"location":"Tyson's Corner","state":"VA"},"type":"Feature","geometry":{"type":"Point","coordinates":[-77.225832,38.914594]}},{"properties":{"city":"Waldorf","lon":-76.914742,"zip":20603,"store":"Jared - Galleria of Jewelry","phone":"(301) 638-0692","id":"a639wdmso0ko","address":"3088 Waldorf Market Place","lat":38.627523,"location":"Waldorf Marketplace","state":"MD"},"type":"Feature","geometry":{"type":"Point","coordinates":[-76.914742,38.627523]}},{"properties":{"city":"Hanover","lon":-76.730374,"zip":21076,"store":"Jared - Galleria of Jewelry","phone":"(410) 579-8595","id":"a639wdojwiby","address":"7684 Arundel Mills Blvd","lat":39.153018,"location":"Arundel Mills","state":"MD"},"type":"Feature","geometry":{"type":"Point","coordinates":[-76.730374,39.153018]}},{"properties":{"city":"Towson","lon":-76.581049,"zip":21286,"store":"Jared - Galleria of Jewelry","phone":"(410) 825-0690","id":"a639wdjk3vyh","address":"1238 Putty Hill Ave","lat":39.393207,"location":"Towson Place","state":"MD"},"type":"Feature","geometry":{"type":"Point","coordinates":[-76.581049,39.393207]}},{"properties":{"city":"Annapolis","lon":-76.544403,"zip":21401,"store":"Jared - Galleria of Jewelry","phone":"(410) 573-0160","id":"a639wdtboy7o","address":"180 Jennifer Road","lat":38.987172,"location":"Westfield Annapolis","state":"MD"},"type":"Feature","geometry":{"type":"Point","coordinates":[-76.544403,38.987172]}},{"properties":{"city":"Newport News","lon":-76.499259,"zip":23602,"store":"Jared - Galleria of Jewelry","phone":"(757) 881-9212","id":"a639wdmvsv6l","address":"12249 Jefferson Ave","lat":37.111708,"location":"Newport News","state":"VA"},"type":"Feature","geometry":{"type":"Point","coordinates":[-76.499259,37.111708]}},{"properties":{"city":"Baltimore","lon":-76.461147,"zip":21236,"store":"Jared - Galleria of Jewelry","phone":"(410) 931-5380","id":"a639wdonbzfq","address":"8332 Honeygo Blvd","lat":39.375065,"location":"White Marsh","state":"MD"},"type":"Feature","geometry":{"type":"Point","coordinates":[-76.461147,39.375065]}},{"properties":{"city":"Virginia Beach","lon":-76.068378,"zip":23452,"store":"Jared - Galleria of Jewelry","phone":"(757) 340-5181","id":"a639wdx5ioxk","address":"656 Phoenix Dr","lat":36.824044,"location":"Lynnhaven Parkway","state":"VA"},"type":"Feature","geometry":{"type":"Point","coordinates":[-76.068378,36.824044]}},{"properties":{"city":"Wilmington","lon":-75.54378,"zip":19803,"store":"Jared - Galleria of Jewelry","phone":"(302) 478-4240","id":"a639wdxmzkxz","address":"5327 Concord Pike","lat":39.829703,"location":"Route 202 Shopping Center","state":"DE"},"type":"Feature","geometry":{"type":"Point","coordinates":[-75.54378,39.829703]}},{"properties":{"city":"King of Prussia","lon":-75.382956,"zip":19406,"store":"Jared - Galleria of Jewelry","phone":"(610) 783-1830","id":"a639wdkktkqp","address":"625 West DeKalb Pike","lat":40.087654,"location":"King of Prussia","state":"PA"},"type":"Feature","geometry":{"type":"Point","coordinates":[-75.382956,40.087654]}},{"properties":{"city":"Willow Grove","lon":-75.119128,"zip":19090,"store":"Jared - Galleria of Jewelry","phone":"(215) 659-0128","id":"a639wdpihkqs","address":"10 Park Ave","lat":40.14293,"location":"Wilow Grove","state":"PA"},"type":"Feature","geometry":{"type":"Point","coordinates":[-75.119128,40.14293]}},{"properties":{"city":"Woodbury","lon":-75.090385,"zip":8096,"store":"Jared - Galleria of Jewelry","phone":"(856) 251-6956","id":"a639wdspsjke","address":"2000 Clements Bridge Rd","lat":39.837582,"location":"Deptford Landing","state":"NJ"},"type":"Feature","geometry":{"type":"Point","coordinates":[-75.090385,39.837582]}},{"properties":{"city":"Watchung","lon":-74.418724,"zip":7069,"store":"Jared - Galleria of Jewelry","phone":"(908) 222-8738","id":"a639wduizim4","address":"1529 Rt 22 West","lat":40.639843,"location":"Watchung Square","state":"NJ"},"type":"Feature","geometry":{"type":"Point","coordinates":[-74.418724,40.639843]}},{"properties":{"city":"Freehold","lon":-74.291191,"zip":7728,"store":"Jared - Galleria of Jewelry","phone":"(732) 625-1022","id":"a639wdqwklxi","address":"3710 Route 9","lat":40.256992,"location":"Freehold Raceway Mall","state":"NJ"},"type":"Feature","geometry":{"type":"Point","coordinates":[-74.291191,40.256992]}},{"properties":{"city":"Paramus","lon":-74.093391,"zip":7652,"store":"Jared - Galleria of Jewelry","phone":"(201) 226-0850","id":"a639wdprkcp0","address":"1500 Bergen Town Center","lat":40.947258,"location":"Bergen Town Center","state":"NJ"},"type":"Feature","geometry":{"type":"Point","coordinates":[-74.093391,40.947258]}},{"properties":{"city":"Eatontown","lon":-74.058708,"zip":7724,"store":"Jared - Galleria of Jewelry","phone":"(732) 542-0998","id":"a639wdxf6ud8","address":"184 Highway 35","lat":40.305149,"location":"Monmouth Mall","state":"NJ"},"type":"Feature","geometry":{"type":"Point","coordinates":[-74.058708,40.305149]}},{"properties":{"city":"Lake Grove","lon":-73.126501,"zip":11755,"store":"Jared - Galleria of Jewelry","phone":"(631) 580-4780","id":"a639wdpa99q0","address":"150 New Moriches Rd","lat":40.866843,"location":"Lake Grove Commons","state":"NY"},"type":"Feature","geometry":{"type":"Point","coordinates":[-73.126501,40.866843]}},{"properties":{"city":"Concord","lon":-71.48687,"zip":3301,"store":"Jared - Galleria of Jewelry","phone":"(603) 223-6847","id":"a639wdp8lhmv","address":"297 Loudon Rd","lat":43.226082,"location":"Patriot's Place Shopping Center","state":"NH"},"type":"Feature","geometry":{"type":"Point","coordinates":[-71.48687,43.226082]}},{"properties":{"city":"Manchester","lon":-71.436684,"zip":3103,"store":"Jared - Galleria of Jewelry","phone":"(603) 623-4089","id":"a639wdw31exc","address":"1571 South Willow St","lat":42.953682,"location":"Mall of New Hampshire","state":"NH"},"type":"Feature","geometry":{"type":"Point","coordinates":[-71.436684,42.953682]}},{"properties":{"city":"Newington","lon":-70.795113,"zip":3801,"store":"Jared - Galleria of Jewelry","phone":"(603) 431-0297","id":"a639wdl4blkz","address":"65 Gosling Road","lat":43.093914,"location":"Crossings at Fox Run-Outparcel","state":"NH"},"type":"Feature","geometry":{"type":"Point","coordinates":[-70.795113,43.093914]}},{"properties":{"city":"S. Portland","lon":-70.338814,"zip":4106,"store":"Jared - Galleria of Jewelry","phone":"(207) 773-5080","id":"a639wdwr9rsk","address":"7 Philbrook Ave","lat":43.632622,"location":"Maine Mall","state":"ME"},"type":"Feature","geometry":{"type":"Point","coordinates":[-70.338814,43.632622]}}],"is_temporal":false,"author":{"url":"http://jared.know-where.com/jared/","metadata":"","contact_name":"","contact_address":"","source":"Jared - Galleria of Jewelry","contact_phone":""},"source":"http://jared.know-where.com/jared/","pagination":{"sort":null,"start":0,"total":167,"limit":1000000},"state":"complete","tags":"diamonds,jareds,jewelry,retail,shopping","published":"2008-12-01T12:00:00Z","id":7822}