{"type":"FeatureCollection","data_type":"Dataset","url_type":null,"permissions":[{"permissions":{"download":true,"view":true},"group_id":"everyone"}],"classification":null,"title":"best living city in America","count":10,"stream_id":78610,"contributor":{"url":"http://geocommons.com/users/18971","name":"d831400089"},"data_attributes":null,"calculation_params":null,"icon_link":null,"link":"http://geocommons.com/overlays/78610.json","extent":[-120.455,29.9377,-76.1911,43.9077],"geometry_types":["point"],"unique_name":null,"name":"best living city in America","feature_count":10,"description":"","next_feature":null,"is_raster":false,"short_classification":"Y","stats":{"geo_score":{"max":1.0,"mean":0.9795,"variance":0.00144983333333333,"stdev":0.038076677025882,"min":0.889,"median":1.0}},"features":[{"properties":{"city":"Albuquerque","country":"United States","geo_score":1.0,"zip code":"87101","id":"a63gm1di0naw","geo_precision":"zip","state":"New Mexico"},"type":"Feature","geometry":{"type":"Point","coordinates":[-106.644831,35.199592]}},{"properties":{"city":"Auburn","country":"United States","geo_score":1.0,"zip code":"36830","id":"a63gm1au69x5","geo_precision":"zip","state":"Alabama"},"type":"Feature","geometry":{"type":"Point","coordinates":[-85.468222,32.547542]}},{"properties":{"city":"Austin","country":"United States","geo_score":1.0,"zip code":"78701","id":"a63gm1bb39oc","geo_precision":"zip","state":"Texas"},"type":"Feature","geometry":{"type":"Point","coordinates":[-97.741382,30.268335]}},{"properties":{"city":"Boise","country":"United States","geo_score":0.937,"zip code":"83701","id":"a63gm16fkri5","geo_precision":"zip","state":"Idaho"},"type":"Feature","geometry":{"type":"Point","coordinates":[-116.23198,43.603267]}},{"properties":{"city":"Durham","country":"United States","geo_score":1.0,"zip code":"27701","id":"a63gm1gunui4","geo_precision":"zip","state":"North Carolina"},"type":"Feature","geometry":{"type":"Point","coordinates":[-78.875467,36.004307]}},{"properties":{"city":"La Crosse","country":"United States","geo_score":1.0,"zip code":"54602","id":"a63gm15hguke","geo_precision":"zip","state":"Wisconsin"},"type":"Feature","geometry":{"type":"Point","coordinates":[-91.167621,43.907739]}},{"properties":{"city":"Loveland","country":"United States","geo_score":1.0,"zip code":"80539","id":"a63gm161c78g","geo_precision":"zip","state":"Colorado"},"type":"Feature","geometry":{"type":"Point","coordinates":[-105.163377,40.38636]}},{"properties":{"city":"San Luis Obispo","country":"United States","geo_score":1.0,"zip code":"93403","id":"a63gm1iaetub","geo_precision":"zip","state":"California"},"type":"Feature","geometry":{"type":"Point","coordinates":[-120.455345,35.347065]}},{"properties":{"city":"St. Augustine","country":"United States","geo_score":0.969,"zip code":"32085","id":"a63gm1cm1t18","geo_precision":"zip","state":"Florida"},"type":"Feature","geometry":{"type":"Point","coordinates":[-81.420603,29.937673]}},{"properties":{"city":"St. Clair","country":"United States","geo_score":0.889,"zip code":"17970","id":"a63gm1i7xbmb","geo_precision":"zip","state":"Pennsylvania"},"type":"Feature","geometry":{"type":"Point","coordinates":[-76.191054,40.710367]}}],"is_temporal":false,"author":{"url":"","metadata":"","contact_name":"","contact_address":"","source":"","contact_phone":""},"source":"","pagination":{"sort":null,"start":0,"total":10,"limit":1000000},"state":"complete","tags":"","published":"2014-08-10T22:33:09-04:00","id":78610}