{"type":"FeatureCollection","data_type":"Dataset","url_type":null,"permissions":[{"permissions":{"download":true,"view":true},"group_id":"everyone"}],"classification":null,"title":"WCMedicalBix2010abbrev","count":185,"stream_id":78635,"contributor":{"url":"http://geocommons.com/users/7156","name":"kate"},"data_attributes":null,"calculation_params":null,"icon_link":null,"link":"http://geocommons.com/overlays/78635.json","extent":[-82.4674,27.7157,-82.0593,28.3737],"geometry_types":["point"],"unique_name":null,"name":"WCMedicalBix2010abbrev","feature_count":185,"description":"","next_feature":null,"is_raster":false,"short_classification":"Y","stats":{"geo_score":{"max":0.902,"mean":0.544610810810811,"variance":0.0358358585781434,"stdev":0.189303614804745,"min":0.0,"median":0.512},"zip_code":{"max":null,"min":null,"median":null}},"features":[{"properties":{"city":"Wesley Chapel","business_name":"James P. Dameron","zip_code":"33543","geo_score":0.902,"phone":"(813) 907-7925","business_type":"Podiatry","business_opened":"1/5/2006","id":"a66htoz29yqq","address":"30638 Iverson Drive","geo_precision":"range"},"type":"Feature","geometry":{"type":"Point","coordinates":[-82.309126,28.175908]}},{"properties":{"city":"Wesley Chapel","business_name":"Advanced Audiology Of New Tampa LLC","zip_code":"33544","geo_score":0.512,"phone":"(813) 973-8400","business_type":"Speech Therapy","business_opened":"4/1/2007","id":"a66htp51k6ij","address":"27511 Cashford Circle","geo_precision":"zip"},"type":"Feature","geometry":{"type":"Point","coordinates":[-82.284738,28.271989]}},{"properties":{"city":"Wesley Chapel","business_name":"Advanced Comprehensive Elderly Care Services","zip_code":"33545","geo_score":0.0,"phone":"(813) 389-9563","business_type":null,"business_opened":"1/1/2006","id":"a66htox5ns21","address":"9432 Mckendree Road","geo_precision":"unmatched"},"type":"Feature","geometry":null},{"properties":{"city":"Wesley Chapel","business_name":"Albear Plastic Surgery PL","zip_code":"33544","geo_score":0.512,"phone":"(813) 929-7400","business_type":"Medicine","business_opened":"1/5/2007","id":"a66htou88ij9","address":"26844 Tannic Drive","geo_precision":"zip"},"type":"Feature","geometry":{"type":"Point","coordinates":[-82.284738,28.271989]}},{"properties":{"city":"Wesley Chapel","business_name":"Albert B. Boholst DMD PA","zip_code":"33544","geo_score":0.512,"phone":"(813) 973-8555","business_type":"Dentistry","business_opened":"8/23/2007","id":"a66htp1n2ovs","address":"27510 Cashford Circle","geo_precision":"zip"},"type":"Feature","geometry":{"type":"Point","coordinates":[-82.284738,28.271989]}},{"properties":{"city":"Wesley Chapel","business_name":"Albert B. Boholst DMD PA","zip_code":"33544","geo_score":0.512,"phone":"(813) 973-8555","business_type":"Dentistry","business_opened":"8/23/2007","id":"a66htov69tby","address":"27510 Cashford Circle","geo_precision":"zip"},"type":"Feature","geometry":{"type":"Point","coordinates":[-82.284738,28.271989]}},{"properties":{"city":"Wesley Chapel","business_name":"All Pediatrics PA","zip_code":"33544","geo_score":0.512,"phone":"(813) 333-9991","business_type":"Medicine","business_opened":"12/3/2008","id":"a66htopw4z11","address":"2615 Windguard Circle","geo_precision":"zip"},"type":"Feature","geometry":{"type":"Point","coordinates":[-82.284738,28.271989]}},{"properties":{"city":"Wesley Chapel","business_name":"All Pediatrics PA","zip_code":"33544","geo_score":0.512,"phone":"(813) 333-9991","business_type":"Medicine","business_opened":"12/3/2008","id":"a66htp0vo8ua","address":"2615 Windguard Circle","geo_precision":"zip"},"type":"Feature","geometry":{"type":"Point","coordinates":[-82.284738,28.271989]}},{"properties":{"city":"Wesley Chapel","business_name":"Allergy And Asthma Care PA","zip_code":"33544","geo_score":0.464,"phone":"(813) 388-6855","business_type":"Medicine","business_opened":"1/1/2011","id":"a66htp0csksz","address":"2407 Cypress Ridge Blvd.","geo_precision":"street"},"type":"Feature","geometry":{"type":"Point","coordinates":[-82.344905,27.715743]}},{"properties":{"city":"Wesley Chapel","business_name":"Angela Stocksdale","zip_code":"33544","geo_score":0.829,"phone":"(812) 428-3701","business_type":null,"business_opened":"10/1/2010","id":"a66htoruudpf","address":"27251 State Road 54","geo_precision":"range"},"type":"Feature","geometry":{"type":"Point","coordinates":[-82.365712,28.23822]}},{"properties":{"city":"Wesley Chapel","business_name":"Angelica Louise Anders","zip_code":"33545","geo_score":0.0,"phone":"(813) 376-6352","business_type":null,"business_opened":"8/2/2010","id":"a66htp0ikpu5","address":"30221 Eastport Drive","geo_precision":"unmatched"},"type":"Feature","geometry":null},{"properties":{"city":"Wesley Chapel","business_name":"Anna H Seo DDS PA","zip_code":"33544","geo_score":0.565,"phone":"(813) 991-5300","business_type":"Dentistry","business_opened":"5/18/2006","id":"a66htozpfl6f","address":"2242 Ashley Oaks Circle","geo_precision":"street"},"type":"Feature","geometry":{"type":"Point","coordinates":[-82.334915,27.872255]}},{"properties":{"city":"Wesley Chapel","business_name":"Augustine Chiropractic Center PA","zip_code":"33544","geo_score":0.76,"phone":"(813) 994-6008","business_type":"Medicine","business_opened":"8/2/2004","id":"a66htoysh82u","address":"5317 Village Market","geo_precision":"range"},"type":"Feature","geometry":{"type":"Point","coordinates":[-82.352084,28.235321]}},{"properties":{"city":"Wesley Chapel","business_name":"Bay Area Fitness &amp; Physical Therapy LLC","zip_code":"33543","geo_score":0.585,"phone":"(617) 921-8320","business_type":"Physical Therapy","business_opened":"4/1/2009","id":"a66htosaadji","address":"4203 Edenrock Place","geo_precision":"zip"},"type":"Feature","geometry":{"type":"Point","coordinates":[-82.327866,28.23973]}},{"properties":{"city":"Wesley Chapel","business_name":"Bay Area Urgent Care","zip_code":"33544","geo_score":0.829,"phone":"(813) 948-5400","business_type":"Medicine","business_opened":"9/20/2010","id":"a66htozd3dm7","address":"5504 Gateway Blvd.","geo_precision":"range"},"type":"Feature","geometry":{"type":"Point","coordinates":[-82.365064,28.227934]}},{"properties":{"city":"Wesley Chapel","business_name":"Brian T. Wells","zip_code":"33544","geo_score":0.512,"phone":"(813) 907-7668","business_type":"Dentistry","business_opened":"7/13/2007","id":"a66htp3tbr7o","address":"3757 Maryweather Lane","geo_precision":"zip"},"type":"Feature","geometry":{"type":"Point","coordinates":[-82.284738,28.271989]}},{"properties":{"city":"Wesley Chapel","business_name":"Center For Dermatology &amp; Skin Surgery Inc.","zip_code":"33544","geo_score":0.512,"phone":"(813) 977-3600","business_type":"Medicine","business_opened":"1/8/2008","id":"a66htouq56ur","address":"27612 Cashford Circle","geo_precision":"zip"},"type":"Feature","geometry":{"type":"Point","coordinates":[-82.284738,28.271989]}},{"properties":{"city":"Wesley Chapel","business_name":"Central Health Associates Inc.","zip_code":"33544","geo_score":0.565,"phone":"(863) 648-5300","business_type":"Medicine","business_opened":"9/15/2008","id":"a66htopsqbsr","address":"2224 Ashley Oaks Circle","geo_precision":"street"},"type":"Feature","geometry":{"type":"Point","coordinates":[-82.334915,27.872255]}},{"properties":{"city":"Wesley Chapel","business_name":"Christopher Sequenzia","zip_code":"33544","geo_score":0.565,"phone":"(813) 907-0430","business_type":"Physical Therapy","business_opened":"9/21/2006","id":"a66htoqhq2g1","address":"2008 Ashley Oaks Circle","geo_precision":"street"},"type":"Feature","geometry":{"type":"Point","coordinates":[-82.334915,27.872255]}},{"properties":{"city":"Wesley Chapel","business_name":"Cindy Floyd Psy D Inc.","zip_code":"33544","geo_score":0.512,"phone":"(813) 428-3548","business_type":"Psychiatry/Psychology","business_opened":"1/1/2009","id":"a66htp5ne0sm","address":"27356 Cashford Circle","geo_precision":"zip"},"type":"Feature","geometry":{"type":"Point","coordinates":[-82.284738,28.271989]}},{"properties":{"city":"Wesley Chapel","business_name":"Coast Dental Services Inc.","zip_code":"33544","geo_score":0.592,"phone":"(813) 288-1999","business_type":"Dentistry","business_opened":"5/1/2006","id":"a66htp32znp7","address":"5348 Bruce B. Downs Blvd.","geo_precision":"street"},"type":"Feature","geometry":{"type":"Point","coordinates":[-82.325727,28.237439]}},{"properties":{"city":"Wesley Chapel","business_name":"Coast Dental Services Inc.","zip_code":"33544","geo_score":0.592,"phone":"(813) 288-1999","business_type":"Dentistry","business_opened":"11/29/2004","id":"a66htp0olfqn","address":"5348 Bruce B. Downs Blvd.","geo_precision":"street"},"type":"Feature","geometry":{"type":"Point","coordinates":[-82.325727,28.237439]}},{"properties":{"city":"Wesley Chapel","business_name":"Coast Dental Services Inc.","zip_code":"33544","geo_score":0.592,"phone":"(813) 288-6232","business_type":"Dentistry","business_opened":"11/1/2006","id":"a66htp5jbj4m","address":"5348 Bruce B. Downs Blvd.","geo_precision":"street"},"type":"Feature","geometry":{"type":"Point","coordinates":[-82.325727,28.237439]}},{"properties":{"city":"Wesley Chapel","business_name":"Complemed LLC","zip_code":"33544","geo_score":0.512,"phone":"(813) 388-6865","business_type":"Osteopathy","business_opened":"8/18/2008","id":"a66htov2cup6","address":"2718 Windguard Circle","geo_precision":"zip"},"type":"Feature","geometry":{"type":"Point","coordinates":[-82.284738,28.271989]}},{"properties":{"city":"Wesley Chapel","business_name":"Cora Health Services Inc.","zip_code":"33544","geo_score":0.592,"phone":"(813) 991-1555","business_type":"Physical Therapy","business_opened":"9/11/2007","id":"a66htoqe886e","address":"1940 Bruce B. Downs Blvd.","geo_precision":"street"},"type":"Feature","geometry":{"type":"Point","coordinates":[-82.325727,28.237439]}},{"properties":{"city":"Wesley Chapel","business_name":"Cora Rehabilitation Clincs-New Tampa","zip_code":"33544","geo_score":0.592,"phone":"(813) 991-1555","business_type":"Physical Therapy","business_opened":"12/15/2003","id":"a66htovst1kw","address":"1940 Bruce B. Downs Blvd.","geo_precision":"street"},"type":"Feature","geometry":{"type":"Point","coordinates":[-82.325727,28.237439]}},{"properties":{"city":"Wesley Chapel","business_name":"Cora Rehabilitation Clincs-New Tampa","zip_code":"33544","geo_score":0.592,"phone":"(813) 991-1555","business_type":"Physical Therapy","business_opened":"9/24/2005","id":"a66htosxkmwa","address":"1940 Bruce B. Downs Blvd.","geo_precision":"street"},"type":"Feature","geometry":{"type":"Point","coordinates":[-82.325727,28.237439]}},{"properties":{"city":"Wesley Chapel","business_name":"DK Pediatrics","zip_code":"33544","geo_score":0.561,"phone":"(813) 973-2500","business_type":"Medicine","business_opened":"8/14/2006","id":"a66htozt36lm","address":"2236 Ashley Oak Circle","geo_precision":"street"},"type":"Feature","geometry":{"type":"Point","coordinates":[-82.334915,27.872255]}},{"properties":{"city":"Wesley Chapel","business_name":"DLM Home Care Services LLC","zip_code":"33543","geo_score":0.78,"phone":"(813) 412-3974","business_type":null,"business_opened":"8/1/2008","id":"a66htox5fpqo","address":"1944 Rensselaer Drive","geo_precision":"range"},"type":"Feature","geometry":{"type":"Point","coordinates":[-82.301325,28.184774]}},{"properties":{"city":"Wesley Chapel","business_name":"David A. Beach DMD MS PA","zip_code":"33544","geo_score":0.512,"phone":"(813) 907-8751","business_type":"Dentistry","business_opened":"8/27/2007","id":"a66htovo9hvo","address":"27605 Cashford Circle","geo_precision":"zip"},"type":"Feature","geometry":{"type":"Point","coordinates":[-82.284738,28.271989]}},{"properties":{"city":"Wesley Chapel","business_name":"David A. Beach DMD MS PA","zip_code":"33544","geo_score":0.512,"phone":"(813) 907-8751","business_type":"Dentistry","business_opened":"8/27/2007","id":"a66htozifegr","address":"27605 Cashford Circle","geo_precision":"zip"},"type":"Feature","geometry":{"type":"Point","coordinates":[-82.284738,28.271989]}},{"properties":{"city":"Wesley Chapel","business_name":"Dental Health Group","zip_code":"33544","geo_score":0.592,"phone":"(   )    -","business_type":"Dentistry","business_opened":"8/16/2010","id":"a66htorae25z","address":"1748 Bruce B. Downs Blvd.","geo_precision":"street"},"type":"Feature","geometry":{"type":"Point","coordinates":[-82.325727,28.237439]}},{"properties":{"city":"Wesley Chapel","business_name":"Dental Health Group","zip_code":"33544","geo_score":0.592,"phone":"(   )    -","business_type":"Dentistry","business_opened":"11/2/2009","id":"a66htoxil8rt","address":"1748 Bruce B. Downs Blvd.","geo_precision":"street"},"type":"Feature","geometry":{"type":"Point","coordinates":[-82.325727,28.237439]}},{"properties":{"city":"Wesley Chapel","business_name":"Dental Health Group","zip_code":"33544","geo_score":0.592,"phone":"(   )    -","business_type":"Dentistry","business_opened":"8/20/2008","id":"a66htp3b2tn2","address":"1748 Bruce B. Downs Blvd.","geo_precision":"street"},"type":"Feature","geometry":{"type":"Point","coordinates":[-82.325727,28.237439]}},{"properties":{"city":"Wesley Chapel","business_name":"Doctors Pain Management Group Of WC Inc","zip_code":"33543","geo_score":0.711,"phone":"(813) 994-2021","business_type":"Medicine","business_opened":"10/1/2005","id":"a66htotlqfx1","address":"29442 State Road 54","geo_precision":"street"},"type":"Feature","geometry":{"type":"Point","coordinates":[-82.329791,28.240449]}},{"properties":{"city":"Wesley Chapel","business_name":"Doctors Pain Management Group Of WC Inc","zip_code":"33543","geo_score":0.711,"phone":"(813) 994-2021","business_type":"Medicine","business_opened":"7/1/2008","id":"a66htosoqczw","address":"29442 State Road 54","geo_precision":"street"},"type":"Feature","geometry":{"type":"Point","coordinates":[-82.329791,28.240449]}},{"properties":{"city":"Wesley Chapel","business_name":"Doctors Pain Management Group Of WC Inc.","zip_code":"33543","geo_score":0.711,"phone":"(813) 994-2021","business_type":"Medicine","business_opened":"10/1/2005","id":"a66htotl8fxa","address":"29442 State Road 54","geo_precision":"street"},"type":"Feature","geometry":{"type":"Point","coordinates":[-82.329791,28.240449]}},{"properties":{"city":"Wesley Chapel","business_name":"Dr Pain Management Of Wesley Chapel Fl","zip_code":"33543","geo_score":0.711,"phone":"(813) 994-2021","business_type":"Medicine","business_opened":"5/1/2008","id":"a66htoy56lny","address":"29442 State Road 54","geo_precision":"street"},"type":"Feature","geometry":{"type":"Point","coordinates":[-82.329791,28.240449]}},{"properties":{"city":"Wesley Chapel","business_name":"Dr Pain Management Of Wesley Chapel Inc.","zip_code":"33543","geo_score":0.711,"phone":"(813) 994-2021","business_type":"Osteopathy","business_opened":"10/1/2005","id":"a66htp1j75op","address":"29442 State Road 54","geo_precision":"street"},"type":"Feature","geometry":{"type":"Point","coordinates":[-82.329791,28.240449]}},{"properties":{"city":"Wesley Chapel","business_name":"Dr Toshiya Arciaga &amp; Associates Inc.","zip_code":"33543","geo_score":0.463,"phone":"(727) 692-3784","business_type":"Optometry","business_opened":"10/30/2008","id":"a66htowcz2ij","address":"28330 Paseo Drive","geo_precision":"street"},"type":"Feature","geometry":{"type":"Point","coordinates":[-82.228484,28.207196]}},{"properties":{"city":"Wesley Chapel","business_name":"Dr. Brian Tribunella &amp; Associates","zip_code":"33544","geo_score":0.592,"phone":"(813) 310-1140","business_type":"Optometry","business_opened":"12/21/2009","id":"a66htot20ue3","address":"1201 Bruce B. Downs Blvd.","geo_precision":"street"},"type":"Feature","geometry":{"type":"Point","coordinates":[-82.325727,28.237439]}},{"properties":{"city":"Wesley Chapel","business_name":"Dr. Erica D. Berns","zip_code":"33544","geo_score":0.592,"phone":"(813) 929-3700","business_type":"Chiropractic","business_opened":"1/18/2007","id":"a66htp38o0nq","address":"1722 Bruce B. Downs Blvd.","geo_precision":"street"},"type":"Feature","geometry":{"type":"Point","coordinates":[-82.325727,28.237439]}},{"properties":{"city":"Wesley Chapel","business_name":"Dr. Jonathan F. Berns","zip_code":"33544","geo_score":0.592,"phone":"(813) 929-3700","business_type":"Chiropractic","business_opened":"1/18/2007","id":"a66htosl5o11","address":"1722 Bruce B. Downs Blvd.","geo_precision":"street"},"type":"Feature","geometry":{"type":"Point","coordinates":[-82.325727,28.237439]}},{"properties":{"city":"Wesley Chapel","business_name":"Easy Care LLC","zip_code":"33544","geo_score":0.829,"phone":"(813) 991-9292","business_type":null,"business_opened":"12/15/2008","id":"a66htoy06qs1","address":"27421 Wesley Chapel Blvd.","geo_precision":"range"},"type":"Feature","geometry":{"type":"Point","coordinates":[-82.362807,28.238257]}},{"properties":{"city":"Wesley Chapel","business_name":"Edward Amoah MD PA","zip_code":"33544","geo_score":0.512,"phone":"(813) 948-5180","business_type":"Medicine","business_opened":"8/6/2007","id":"a66htoybmlgm","address":"27455 Cashford Circle","geo_precision":"zip"},"type":"Feature","geometry":{"type":"Point","coordinates":[-82.284738,28.271989]}},{"properties":{"city":"Wesley Chapel","business_name":"Ent &amp; Facial Plastic Surg Specialist PL","zip_code":"33544","geo_score":0.638,"phone":"(813) 929-6673","business_type":"Medicine","business_opened":"11/1/2009","id":"a66htoruqs46","address":"2311 Cypress Cove","geo_precision":"range"},"type":"Feature","geometry":{"type":"Point","coordinates":[-82.457193,28.141907]}},{"properties":{"city":"Wesley Chapel","business_name":"Ent &amp; Facial Plastic Surgery Spec PL","zip_code":"33544","geo_score":0.638,"phone":"(813) 929-6673","business_type":"Osteopathy","business_opened":"6/1/2008","id":"a66htoqoqu7u","address":"2311 Cypress Cove","geo_precision":"range"},"type":"Feature","geometry":{"type":"Point","coordinates":[-82.457193,28.141907]}},{"properties":{"city":"Wesley Chapel","business_name":"Esther Leika M. Tatoy  MD","zip_code":"33544","geo_score":0.477,"phone":"(813) 973-7076","business_type":"Medicine","business_opened":"10/1/2003","id":"a66htp48xc6k","address":"27532 Cash Ford Circle","geo_precision":"street"},"type":"Feature","geometry":{"type":"Point","coordinates":[-82.278953,27.994284]}},{"properties":{"city":"Wesley Chapel","business_name":"Family Tree Medical Care PA","zip_code":"33544","geo_score":0.53,"phone":"(813) 991-7320","business_type":"Medicine","business_opened":"8/15/2007","id":"a66htp0peoik","address":"2312 Crestover Lane","geo_precision":"street"},"type":"Feature","geometry":{"type":"Point","coordinates":[-82.196103,28.245604]}},{"properties":{"city":"Wesley Chapel","business_name":"Family Wellness Center Of Tampa Inc.","zip_code":"33544","geo_score":0.512,"phone":"(813) 994-0611","business_type":"Medicine","business_opened":"6/16/2008","id":"a66htp2wctbi","address":"2718 Windguard Circle","geo_precision":"zip"},"type":"Feature","geometry":{"type":"Point","coordinates":[-82.284738,28.271989]}},{"properties":{"city":"Wesley Chapel","business_name":"Family Wellness Center Of Tampa Inc.","zip_code":"33544","geo_score":0.512,"phone":"(813) 994-0611","business_type":"Medicine","business_opened":"6/16/2008","id":"a66htopqn4or","address":"2718 Windguard Circle","geo_precision":"zip"},"type":"Feature","geometry":{"type":"Point","coordinates":[-82.284738,28.271989]}},{"properties":{"city":"Wesley Chapel","business_name":"Finao LLC","zip_code":"33544","geo_score":0.512,"phone":"(317) 706-1080","business_type":null,"business_opened":"3/1/2009","id":"a66htoy95ycd","address":"2824 Windguard Circle","geo_precision":"zip"},"type":"Feature","geometry":{"type":"Point","coordinates":[-82.284738,28.271989]}},{"properties":{"city":"Wesley Chapel","business_name":"Floirda Medical Clinic PA","zip_code":"33544","geo_score":0.512,"phone":"(813) 907-9992","business_type":"Speech Therapy","business_opened":"5/5/2008","id":"a66htoxivemx","address":"27634 Cashford Circle","geo_precision":"zip"},"type":"Feature","geometry":{"type":"Point","coordinates":[-82.284738,28.271989]}},{"properties":{"city":"Wesley Chapel","business_name":"Florida Medical Clinic PA","zip_code":"33544","geo_score":0.829,"phone":"(813) 991-9355","business_type":"Medicine","business_opened":"4/23/2003","id":"a66htorghakp","address":"27343 State Road 54","geo_precision":"range"},"type":"Feature","geometry":{"type":"Point","coordinates":[-82.364122,28.238381]}},{"properties":{"city":"Wesley Chapel","business_name":"Florida Medical Clinic PA","zip_code":"33544","geo_score":0.829,"phone":"(813) 991-9355","business_type":"Nursing","business_opened":"3/1/2004","id":"a66htow2oaiy","address":"27343 State Road 54","geo_precision":"range"},"type":"Feature","geometry":{"type":"Point","coordinates":[-82.364122,28.238381]}},{"properties":{"city":"Wesley Chapel","business_name":"Florida Medical Clinic PA","zip_code":"33544","geo_score":0.829,"phone":"(813) 991-9355","business_type":"Medicine","business_opened":"9/17/2007","id":"a66htoqfwoed","address":"27343 State Road 54","geo_precision":"range"},"type":"Feature","geometry":{"type":"Point","coordinates":[-82.364122,28.238381]}},{"properties":{"city":"Wesley Chapel","business_name":"Florida Medical Clinic PA","zip_code":"33544","geo_score":0.829,"phone":"(813) 991-9355","business_type":"Medicine","business_opened":"5/1/2002","id":"a66htovdjvz8","address":"27343 State Road 54","geo_precision":"range"},"type":"Feature","geometry":{"type":"Point","coordinates":[-82.364122,28.238381]}},{"properties":{"city":"Wesley Chapel","business_name":"Florida Medical Clinic PA","zip_code":"33544","geo_score":0.829,"phone":"(813) 991-9355","business_type":"Medicine","business_opened":"8/2/2010","id":"a66htos51s5p","address":"27343 State Road 54","geo_precision":"range"},"type":"Feature","geometry":{"type":"Point","coordinates":[-82.364122,28.238381]}},{"properties":{"city":"Wesley Chapel","business_name":"Florida Medical Clinic PA","zip_code":"33544","geo_score":0.829,"phone":"(813) 991-9355","business_type":"Osteopathy","business_opened":"9/1/1999","id":"a66htowh3w9m","address":"27343 State Road 54","geo_precision":"range"},"type":"Feature","geometry":{"type":"Point","coordinates":[-82.364122,28.238381]}},{"properties":{"city":"Wesley Chapel","business_name":"Florida Medical Clinic PA","zip_code":"33544","geo_score":0.512,"phone":"(813) 907-9992","business_type":"Speech Therapy","business_opened":"5/5/2008","id":"a66htorx3h11","address":"27634 Cashford Circle","geo_precision":"zip"},"type":"Feature","geometry":{"type":"Point","coordinates":[-82.284738,28.271989]}},{"properties":{"city":"Wesley Chapel","business_name":"Florida Medical Clinic PA","zip_code":"33544","geo_score":0.512,"phone":"(   )    -","business_type":"Medicine","business_opened":"4/1/2008","id":"a66htozm60s3","address":"27401 Cashford Circle","geo_precision":"zip"},"type":"Feature","geometry":{"type":"Point","coordinates":[-82.284738,28.271989]}},{"properties":{"city":"Wesley Chapel","business_name":"Florida Medical Clinic PA","zip_code":"33544","geo_score":0.512,"phone":"(813) 907-9992","business_type":"Medicine","business_opened":"5/5/2008","id":"a66htp2x5k60","address":"27634 Cashford Circle","geo_precision":"zip"},"type":"Feature","geometry":{"type":"Point","coordinates":[-82.284738,28.271989]}},{"properties":{"city":"Wesley Chapel","business_name":"Florida Medical Clinic PA","zip_code":"33544","geo_score":0.829,"phone":"(813) 991-9355","business_type":"Medicine","business_opened":"5/1/2002","id":"a66htozg27w2","address":"27343 State Road 54","geo_precision":"range"},"type":"Feature","geometry":{"type":"Point","coordinates":[-82.364122,28.238381]}},{"properties":{"city":"Wesley Chapel","business_name":"Florida Orthodontic Institute","zip_code":"33543","geo_score":0.71,"phone":"(813) 907-1888","business_type":"Dentistry","business_opened":"9/1/1998","id":"a66htp4mwvtv","address":"29438 State Road 54","geo_precision":"street"},"type":"Feature","geometry":{"type":"Point","coordinates":[-82.329791,28.240449]}},{"properties":{"city":"Wesley Chapel","business_name":"Ginger Fitness &amp; Rehabilitation Inc.","zip_code":"33544","geo_score":0.512,"phone":"(813) 631-9700","business_type":"Physical Therapy","business_opened":"5/15/2007","id":"a66htowy9tx7","address":"27553 Cashford Circle","geo_precision":"zip"},"type":"Feature","geometry":{"type":"Point","coordinates":[-82.284738,28.271989]}},{"properties":{"city":"Wesley Chapel","business_name":"Great Expressions Dental Centers","zip_code":"33544","geo_score":0.592,"phone":"(813) 907-1151","business_type":"Dentistry","business_opened":"8/1/2004","id":"a66htoxeom8q","address":"1748 Bruce B. Downs Blvd.","geo_precision":"street"},"type":"Feature","geometry":{"type":"Point","coordinates":[-82.325727,28.237439]}},{"properties":{"city":"Wesley Chapel","business_name":"Great Expressions Dental Centers","zip_code":"33544","geo_score":0.592,"phone":"(813) 907-1151","business_type":"Dentistry","business_opened":"4/5/2010","id":"a66htotniv3h","address":"1748 Bruce B. Downs Blvd.","geo_precision":"street"},"type":"Feature","geometry":{"type":"Point","coordinates":[-82.325727,28.237439]}},{"properties":{"city":"Wesley Chapel","business_name":"Gregory Todd Rehabilitation","zip_code":"33544","geo_score":0.565,"phone":"(813) 254-9475","business_type":"Physical Therapy","business_opened":"8/10/2006","id":"a66htoqe9t0o","address":"2008 Ashley Oaks Circle","geo_precision":"street"},"type":"Feature","geometry":{"type":"Point","coordinates":[-82.334915,27.872255]}},{"properties":{"city":"Wesley Chapel","business_name":"Gulf To Bay Integrative Pain Medicine An","zip_code":"33544","geo_score":0.561,"phone":"(813) 253-2273","business_type":"Medicine","business_opened":"9/22/2010","id":"a66htoqmddsj","address":"2014 Ashley Oak Circle","geo_precision":"street"},"type":"Feature","geometry":{"type":"Point","coordinates":[-82.334915,27.872255]}},{"properties":{"city":"Wesley Chapel","business_name":"Home Health Connection Inc.","zip_code":"33544","geo_score":0.512,"phone":"(813) 994-7826","business_type":"Medicine","business_opened":"1/26/2007","id":"a66htoxslo27","address":"27532 Cashford Circle","geo_precision":"zip"},"type":"Feature","geometry":{"type":"Point","coordinates":[-82.284738,28.271989]}},{"properties":{"city":"Wesley Chapel","business_name":"Housecall Supportive Services Inc.","zip_code":"33545","geo_score":0.0,"phone":"(225) 298-8811","business_type":null,"business_opened":"7/1/2005","id":"a66htp2557ph","address":"5815 Argerian Drive","geo_precision":"unmatched"},"type":"Feature","geometry":null},{"properties":{"city":"Wesley Chapel","business_name":"Independent Living Inc.","zip_code":"33544","geo_score":0.512,"phone":"(813) 963-6923","business_type":"Occupational Therapy","business_opened":"9/12/2009","id":"a66htp5dqp76","address":"27650 Cashford Circle","geo_precision":"zip"},"type":"Feature","geometry":{"type":"Point","coordinates":[-82.284738,28.271989]}},{"properties":{"city":"Wesley Chapel","business_name":"Insight Family Eyecare PA","zip_code":"33544","geo_score":0.48,"phone":"(813) 406-4993","business_type":"Optometry","business_opened":"10/26/2009","id":"a66htowrgj3o","address":"27607 State Road 56","geo_precision":"street"},"type":"Feature","geometry":{"type":"Point","coordinates":[-82.198148,28.37368]}},{"properties":{"city":"Wesley Chapel","business_name":"James G. Norman MD PA","zip_code":"33544","geo_score":0.52,"phone":"(813) 972-0000","business_type":"Medicine","business_opened":"6/1/2009","id":"a66htozrcvzo","address":"2400 Cypress Glen Drive","geo_precision":"street"},"type":"Feature","geometry":{"type":"Point","coordinates":[-82.467418,28.129085]}},{"properties":{"city":"Wesley Chapel","business_name":"Joan Hartley Lynch DDS","zip_code":"33543","geo_score":0.902,"phone":"(813) 991-0097","business_type":"Dentistry","business_opened":"7/26/1993","id":"a66htowq3j5j","address":"5713 Gray Road","geo_precision":"range"},"type":"Feature","geometry":{"type":"Point","coordinates":[-82.319251,28.239477]}},{"properties":{"city":"Wesley Chapel","business_name":"Jonathan Yousef","zip_code":"33545","geo_score":0.0,"phone":"(813) 991-4991","business_type":"Medicine","business_opened":"11/30/2007","id":"a66htp0nisrc","address":"5801 Argerian Drive","geo_precision":"unmatched"},"type":"Feature","geometry":null},{"properties":{"city":"Wesley Chapel","business_name":"Judith Sanders","zip_code":"33544","geo_score":0.592,"phone":"(813) 490-0912","business_type":"Nursing","business_opened":"1/1/2010","id":"a66htoz6euyl","address":"5400 Bruce B. Downs Blvd.","geo_precision":"street"},"type":"Feature","geometry":{"type":"Point","coordinates":[-82.325727,28.237439]}},{"properties":{"city":"Wesley Chapel","business_name":"Julius R Cubero PT Services","zip_code":"33544","geo_score":0.45,"phone":"(813) 505-1130","business_type":"Physical Therapy","business_opened":"2/6/2003","id":"a66htoxpqqwx","address":"27138 Fern Glade Court","geo_precision":"street"},"type":"Feature","geometry":{"type":"Point","coordinates":[-82.129331,28.011001]}},{"properties":{"city":"Wesley Chapel","business_name":"Justin Ryan Scott","zip_code":"33544","geo_score":0.592,"phone":"(813) 929-3700","business_type":"Chiropractic","business_opened":"7/7/2008","id":"a66htp069ai8","address":"1722 Bruce B. Downs Blvd.","geo_precision":"street"},"type":"Feature","geometry":{"type":"Point","coordinates":[-82.325727,28.237439]}},{"properties":{"city":"Wesley Chapel","business_name":"Kathleen Racich Do","zip_code":"33544","geo_score":0.61,"phone":"(813) 910-0919","business_type":"Medicine","business_opened":"2/13/2009","id":"a66htoqiomhw","address":"2237 Twelve Oaks Way","geo_precision":"range"},"type":"Feature","geometry":{"type":"Point","coordinates":[-82.418668,27.735773]}},{"properties":{"city":"Wesley Chapel","business_name":"Ken Robertson Ph D","zip_code":"33545","geo_score":0.0,"phone":"(904) 540-5310","business_type":"Psychiatry/Psychology","business_opened":"1/18/2008","id":"a66htoq23xrx","address":"4301 Crabapple Drive","geo_precision":"unmatched"},"type":"Feature","geometry":null},{"properties":{"city":"Wesley Chapel","business_name":"Laurie Burdman","zip_code":"33544","geo_score":0.512,"phone":"(813) 907-2228","business_type":"Dentistry","business_opened":"12/1/2007","id":"a66htovwkmvz","address":"26851 Tanic Drive","geo_precision":"zip"},"type":"Feature","geometry":{"type":"Point","coordinates":[-82.284738,28.271989]}},{"properties":{"city":"Wesley Chapel","business_name":"LaurieBurdman DDS PA","zip_code":"33544","geo_score":0.512,"phone":"(813) 907-2228","business_type":"Dentistry","business_opened":"12/1/2007","id":"a66htoyqrop4","address":"26851 Tanic Drive","geo_precision":"zip"},"type":"Feature","geometry":{"type":"Point","coordinates":[-82.284738,28.271989]}},{"properties":{"city":"Wesley Chapel","business_name":"Leanne Barbara Sullivan DMD","zip_code":"33543","geo_score":0.902,"phone":"(813) 991-0097","business_type":"Dentistry","business_opened":"8/5/2005","id":"a66htoykkn0f","address":"5713 Gray Road","geo_precision":"range"},"type":"Feature","geometry":{"type":"Point","coordinates":[-82.319251,28.239477]}},{"properties":{"city":"Wesley Chapel","business_name":"Levin Stephen F DPM PA","zip_code":"33544","geo_score":0.488,"phone":"(813) 973-3535","business_type":"Podiatry","business_opened":"11/15/2007","id":"a66htoy62l1a","address":"26827 Foggy Creek Road","geo_precision":"street"},"type":"Feature","geometry":{"type":"Point","coordinates":[-82.268174,28.181248]}},{"properties":{"city":"Wesley Chapel","business_name":"Life Source Family Chiropractic Inc.","zip_code":"33544","geo_score":0.592,"phone":"(813) 929-3700","business_type":"Chiropractic","business_opened":"1/18/2007","id":"a66htozc01ep","address":"1722 Bruce B. Downs Blvd.","geo_precision":"street"},"type":"Feature","geometry":{"type":"Point","coordinates":[-82.325727,28.237439]}},{"properties":{"city":"Wesley Chapel","business_name":"Lifetime Family Urgent Care LLC","zip_code":"33545","geo_score":0.0,"phone":"(813) 991-4991","business_type":"Medicine","business_opened":"11/30/2007","id":"a66htorn5qrd","address":"5801 Argerian Drive","geo_precision":"unmatched"},"type":"Feature","geometry":null},{"properties":{"city":"Wesley Chapel","business_name":"Little Clinic The","zip_code":"33544","geo_score":0.592,"phone":"(813) 490-0912","business_type":"Medicine","business_opened":"7/31/2008","id":"a66htp3v2ipv","address":"5400 Bruce B. Downs Blvd.","geo_precision":"street"},"type":"Feature","geometry":{"type":"Point","coordinates":[-82.325727,28.237439]}},{"properties":{"city":"Wesley Chapel","business_name":"Mankodi Kshemal","zip_code":"33543","geo_score":0.873,"phone":"(813) 994-4749","business_type":"Medicine","business_opened":"3/1/2003","id":"a66htp3dy5vg","address":"28959 State Road 54 West","geo_precision":"range"},"type":"Feature","geometry":{"type":"Point","coordinates":[-82.338333,28.2396]}},{"properties":{"city":"Wesley Chapel","business_name":"Martin Sandy MD","zip_code":"33544","geo_score":0.512,"phone":"(813) 977-3600","business_type":"Medicine","business_opened":"8/17/2010","id":"a66htopj7gvs","address":"27612 Cashford Circle","geo_precision":"zip"},"type":"Feature","geometry":{"type":"Point","coordinates":[-82.284738,28.271989]}},{"properties":{"city":"Wesley Chapel","business_name":"Masood U. Ansari","zip_code":"33544","geo_score":0.561,"phone":"(813) 892-4028","business_type":"Medicine","business_opened":"7/16/2008","id":"a66htoq76a95","address":"2204 Ashley Oak Circle","geo_precision":"street"},"type":"Feature","geometry":{"type":"Point","coordinates":[-82.334915,27.872255]}},{"properties":{"city":"Wesley Chapel","business_name":"Mcilwain Family Dentistry PA","zip_code":"33544","geo_score":0.488,"phone":"(813) 991-9893","business_type":"Dentistry","business_opened":"8/27/2007","id":"a66htp2mb1u3","address":"26908 Foggy Creek Road","geo_precision":"street"},"type":"Feature","geometry":{"type":"Point","coordinates":[-82.268174,28.181248]}},{"properties":{"city":"Wesley Chapel","business_name":"Mcilwain Family Dentistry PA","zip_code":"33544","geo_score":0.488,"phone":"(813) 991-9893","business_type":"Dentistry","business_opened":"8/27/2007","id":"a66htorv2fnp","address":"26908 Foggy Creek Road","geo_precision":"street"},"type":"Feature","geometry":{"type":"Point","coordinates":[-82.268174,28.181248]}},{"properties":{"city":"Wesley Chapel","business_name":"Mcilwain Family Dentistry PA","zip_code":"33544","geo_score":0.488,"phone":"(813) 991-9893","business_type":"Dentistry","business_opened":"8/27/2007","id":"a66htox1s86k","address":"26908 Foggy Creek Road","geo_precision":"street"},"type":"Feature","geometry":{"type":"Point","coordinates":[-82.268174,28.181248]}},{"properties":{"city":"Wesley Chapel","business_name":"Mcilwain Family Dentistry PA","zip_code":"33544","geo_score":0.488,"phone":"(813) 991-9893","business_type":"Dentistry","business_opened":"8/27/2007","id":"a66htovvrwrp","address":"26908 Foggy Creek Road","geo_precision":"street"},"type":"Feature","geometry":{"type":"Point","coordinates":[-82.268174,28.181248]}},{"properties":{"city":"Wesley Chapel","business_name":"Mcilwain Family Dentitstry PA","zip_code":"33544","geo_score":0.488,"phone":"(813) 991-9893","business_type":"Dentistry","business_opened":"8/27/2007","id":"a66htor025tn","address":"26908 Foggy Creek Road","geo_precision":"street"},"type":"Feature","geometry":{"type":"Point","coordinates":[-82.268174,28.181248]}},{"properties":{"city":"Wesley Chapel","business_name":"Medical Group Of Tampa Bay","zip_code":"33543","geo_score":0.902,"phone":"(813) 907-8430","business_type":"Medicine","business_opened":"9/2/2010","id":"a66htouzycsr","address":"30000 County Line Road","geo_precision":"range"},"type":"Feature","geometry":{"type":"Point","coordinates":[-82.347042,28.175893]}},{"properties":{"city":"Wesley Chapel","business_name":"Medical Group Of Tampa Bay Multi Spec Of","zip_code":"33544","geo_score":0.512,"phone":"(813) 788-0705","business_type":"Medicine","business_opened":"11/1/2010","id":"a66htoroszid","address":"27416 Cashford Circle","geo_precision":"zip"},"type":"Feature","geometry":{"type":"Point","coordinates":[-82.284738,28.271989]}},{"properties":{"city":"Wesley Chapel","business_name":"Medical Group Of Tampa Bay Urology","zip_code":"33544","geo_score":0.512,"phone":"(813) 779-1209","business_type":"Medicine","business_opened":"10/26/2010","id":"a66htovr9r2g","address":"27416 Cashford Circle","geo_precision":"zip"},"type":"Feature","geometry":{"type":"Point","coordinates":[-82.284738,28.271989]}},{"properties":{"city":"Wesley Chapel","business_name":"Minute Clinic LLC","zip_code":"33544","geo_score":0.592,"phone":"(866) 389-2727","business_type":"Medicine","business_opened":"9/19/2007","id":"a66htoyeu66i","address":"1929 Bruce B. Downs Blvd.","geo_precision":"street"},"type":"Feature","geometry":{"type":"Point","coordinates":[-82.325727,28.237439]}},{"properties":{"city":"Wesley Chapel","business_name":"More Than Words Speech Therapy Inc.","zip_code":"33544","geo_score":0.488,"phone":"(813) 862-8692","business_type":"Speech Therapy","business_opened":"4/1/2009","id":"a66htouytzjo","address":"26908 Foggy Creek Road","geo_precision":"street"},"type":"Feature","geometry":{"type":"Point","coordinates":[-82.268174,28.181248]}},{"properties":{"city":"Wesley Chapel","business_name":"Natasha Gooden MD","zip_code":"33544","geo_score":0.512,"phone":"(813) 286-0033","business_type":"Medicine","business_opened":"8/1/2008","id":"a66htp580ijn","address":"3743 Maryweather Lane","geo_precision":"zip"},"type":"Feature","geometry":{"type":"Point","coordinates":[-82.284738,28.271989]}},{"properties":{"city":"Wesley Chapel","business_name":"New Tampa Surgery Center Ltd.","zip_code":"33544","geo_score":0.464,"phone":"(813) 991-7575","business_type":"Medicine","business_opened":"9/1/2006","id":"a66htouebrbw","address":"2407 Cypress Ridge Blvd.","geo_precision":"street"},"type":"Feature","geometry":{"type":"Point","coordinates":[-82.344905,27.715743]}},{"properties":{"city":"Wesley Chapel","business_name":"Northwood Manor LLC","zip_code":"33544","geo_score":0.829,"phone":"(813) 929-1656","business_type":"CARE","business_opened":"8/31/2010","id":"a66htp1rm5io","address":"27737 Breakers Drive","geo_precision":"range"},"type":"Feature","geometry":{"type":"Point","coordinates":[-82.36179,28.179202]}},{"properties":{"city":"Wesley Chapel","business_name":"PA Resources Inc.","zip_code":"33544","geo_score":0.829,"phone":"(727) 278-6806","business_type":"Medicine","business_opened":"2/19/2008","id":"a66htoqu6whr","address":"27032 Hollybrook Trl","geo_precision":"range"},"type":"Feature","geometry":{"type":"Point","coordinates":[-82.368754,28.231579]}},{"properties":{"city":"Wesley Chapel","business_name":"Padgett Medical Center LLC","zip_code":"33544","geo_score":0.512,"phone":"(813) 907-2011","business_type":"Medicine","business_opened":"5/11/2010","id":"a66htowqrt0n","address":"3821 Maryweather Lane","geo_precision":"zip"},"type":"Feature","geometry":{"type":"Point","coordinates":[-82.284738,28.271989]}},{"properties":{"city":"Wesley Chapel","business_name":"Pain Medicine Inc.","zip_code":"33544","geo_score":0.512,"phone":"(863) 682-7246","business_type":"Medicine","business_opened":"1/27/2010","id":"a66htowmnpsv","address":"2607 Windguard Circle","geo_precision":"zip"},"type":"Feature","geometry":{"type":"Point","coordinates":[-82.284738,28.271989]}},{"properties":{"city":"Wesley Chapel","business_name":"Pain Medicine Inc.","zip_code":"33544","geo_score":0.512,"phone":"(863) 682-7246","business_type":"Medicine","business_opened":"1/27/2010","id":"a66htorvlrnn","address":"2607 Windguard Circle","geo_precision":"zip"},"type":"Feature","geometry":{"type":"Point","coordinates":[-82.284738,28.271989]}},{"properties":{"city":"Wesley Chapel","business_name":"Pasco Therapy Solutions LLC","zip_code":"33543","geo_score":0.902,"phone":"(813) 333-6653","business_type":"Physical Therapy","business_opened":"5/12/2010","id":"a66htoqg0mgb","address":"29515 Tansy Pass","geo_precision":"range"},"type":"Feature","geometry":{"type":"Point","coordinates":[-82.328797,28.175508]}},{"properties":{"city":"Wesley Chapel","business_name":"Paul D. Dipasquale","zip_code":"33544","geo_score":0.638,"phone":"(813) 929-6673","business_type":"Medicine","business_opened":"4/3/2009","id":"a66htowk9kqe","address":"2311 Cypress Cove","geo_precision":"range"},"type":"Feature","geometry":{"type":"Point","coordinates":[-82.457193,28.141907]}},{"properties":{"city":"Wesley Chapel","business_name":"Paul Glass OD  &amp; Associates PA","zip_code":"33544","geo_score":0.48,"phone":"(813) 973-4000","business_type":"Optometry","business_opened":"5/5/2005","id":"a66htp0wn7bm","address":"27727 State Road 56","geo_precision":"street"},"type":"Feature","geometry":{"type":"Point","coordinates":[-82.198148,28.37368]}},{"properties":{"city":"Wesley Chapel","business_name":"Pediatric Health Care Alliance PA","zip_code":"33544","geo_score":0.76,"phone":"(813) 973-0333","business_type":"Medicine","business_opened":"9/17/2007","id":"a66htoqzb9l4","address":"5259 Village Market","geo_precision":"range"},"type":"Feature","geometry":{"type":"Point","coordinates":[-82.352115,28.236338]}},{"properties":{"city":"Wesley Chapel","business_name":"Pediatric Health Care Alliance PA","zip_code":"33544","geo_score":0.76,"phone":"(813) 973-0333","business_type":"Medicine","business_opened":"6/30/2003","id":"a66htp0ni73j","address":"5259 Village Market","geo_precision":"range"},"type":"Feature","geometry":{"type":"Point","coordinates":[-82.352115,28.236338]}},{"properties":{"city":"Wesley Chapel","business_name":"Pediatric Health Care Alliance PA","zip_code":"33544","geo_score":0.76,"phone":"(813) 973-0333","business_type":"Medicine","business_opened":"9/28/1994","id":"a66htosxuuaj","address":"5259 Village Market","geo_precision":"range"},"type":"Feature","geometry":{"type":"Point","coordinates":[-82.352115,28.236338]}},{"properties":{"city":"Wesley Chapel","business_name":"Peggy J. Sterling OD PA","zip_code":"33543","geo_score":0.709,"phone":"(813) 996-2020","business_type":"Optometry","business_opened":"3/1/2008","id":"a66htp0s7i65","address":"29154 Chapel Park Drive","geo_precision":"street"},"type":"Feature","geometry":{"type":"Point","coordinates":[-82.331991,28.240378]}},{"properties":{"city":"Wesley Chapel","business_name":"Peter J. Szakacs","zip_code":"33544","geo_score":0.512,"phone":"(813) 973-4747","business_type":"Chiropractic","business_opened":"4/1/2006","id":"a66htowhwen4","address":"27454 Cashford Circle","geo_precision":"zip"},"type":"Feature","geometry":{"type":"Point","coordinates":[-82.284738,28.271989]}},{"properties":{"city":"Wesley Chapel","business_name":"Pinnacle Chiropractic Inc.","zip_code":"33545","geo_score":0.0,"phone":"(813) 907-9553","business_type":"Chiropractic","business_opened":"8/12/2002","id":"a66htp5elvz3","address":"5808 Boyette Road","geo_precision":"unmatched"},"type":"Feature","geometry":null},{"properties":{"city":"Wesley Chapel","business_name":"Point Of Care Clinics Primary Care","zip_code":"33544","geo_score":0.565,"phone":"(813) 994-8481","business_type":"Medicine","business_opened":"5/17/2000","id":"a66htp34gcmz","address":"2106 Ashley Oaks Circle","geo_precision":"street"},"type":"Feature","geometry":{"type":"Point","coordinates":[-82.334915,27.872255]}},{"properties":{"city":"Wesley Chapel","business_name":"Point Of Care Clinics Primary Care","zip_code":"33544","geo_score":0.565,"phone":"(813) 994-8481","business_type":"Medicine","business_opened":"9/1/2003","id":"a66htosw6mne","address":"2106 Ashley Oaks Circle","geo_precision":"street"},"type":"Feature","geometry":{"type":"Point","coordinates":[-82.334915,27.872255]}},{"properties":{"city":"Wesley Chapel","business_name":"Premier Heart &amp; Vascular Center","zip_code":"33544","geo_score":0.512,"phone":"(813) 788-1400","business_type":"Medicine","business_opened":"8/1/2009","id":"a66htp1ec84d","address":"27424 Casford Circle","geo_precision":"zip"},"type":"Feature","geometry":{"type":"Point","coordinates":[-82.284738,28.271989]}},{"properties":{"city":"Wesley Chapel","business_name":"Quantum Vitality Centres Inc.","zip_code":"33544","geo_score":0.512,"phone":"(813) 973-4747","business_type":null,"business_opened":"4/1/2006","id":"a66htozde2h3","address":"27454 Cashford Circle","geo_precision":"zip"},"type":"Feature","geometry":{"type":"Point","coordinates":[-82.284738,28.271989]}},{"properties":{"city":"Wesley Chapel","business_name":"Quest Diagnostic","zip_code":"33544","geo_score":0.488,"phone":"(813) 991-6329","business_type":"Medicine","business_opened":"1/7/2008","id":"a66htow06ol0","address":"26827 Foggy Creek Road","geo_precision":"street"},"type":"Feature","geometry":{"type":"Point","coordinates":[-82.268174,28.181248]}},{"properties":{"city":"Wesley Chapel","business_name":"Reflections Medical Aesthetics Inc.","zip_code":"33544","geo_score":0.512,"phone":"(727) 457-4358","business_type":"Medicine","business_opened":"9/29/2009","id":"a66htovd6sch","address":"2718 Windguard Circle","geo_precision":"zip"},"type":"Feature","geometry":{"type":"Point","coordinates":[-82.284738,28.271989]}},{"properties":{"city":"Wesley Chapel","business_name":"Regina Oyekoya","zip_code":"33544","geo_score":0.592,"phone":"(813) 490-0912","business_type":"Nursing","business_opened":"1/1/2010","id":"a66htp57d7z1","address":"5400 Bruce B. Downs Blvd.","geo_precision":"street"},"type":"Feature","geometry":{"type":"Point","coordinates":[-82.325727,28.237439]}},{"properties":{"city":"Wesley Chapel","business_name":"Renewal Rehabilitation Inc.","zip_code":"33544","geo_score":0.565,"phone":"(813) 254-9475","business_type":"Physical Therapy","business_opened":"8/1/2006","id":"a66htoqgzajw","address":"2008 Ashley Oaks Circle","geo_precision":"street"},"type":"Feature","geometry":{"type":"Point","coordinates":[-82.334915,27.872255]}},{"properties":{"city":"Wesley Chapel","business_name":"Robert E Luckey OD PA","zip_code":"33544","geo_score":0.512,"phone":"(813) 866-4004","business_type":"Optometry","business_opened":"3/23/2010","id":"a66htoqfyrc4","address":"27340 Cashford Circle","geo_precision":"zip"},"type":"Feature","geometry":{"type":"Point","coordinates":[-82.284738,28.271989]}},{"properties":{"city":"Wesley Chapel","business_name":"Robert M Michaud DMD Ph","zip_code":"33544","geo_score":0.512,"phone":"(813) 935-3585","business_type":"Medicine","business_opened":"8/22/2008","id":"a66htou63ehq","address":"27605 Cashford Circle","geo_precision":"zip"},"type":"Feature","geometry":{"type":"Point","coordinates":[-82.284738,28.271989]}},{"properties":{"city":"Wesley Chapel","business_name":"Rodolfo Enrique Maduro Jr.","zip_code":"33545","geo_score":0.0,"phone":"(813) 907-0548","business_type":"Physical Therapy","business_opened":"9/24/2010","id":"a66htotkhz2o","address":"5907 Arqerian Drive","geo_precision":"unmatched"},"type":"Feature","geometry":null},{"properties":{"city":"Wesley Chapel","business_name":"Rose Radiology Centers Inc.","zip_code":"33544","geo_score":0.512,"phone":"(813) 788-2900","business_type":"Medicine","business_opened":"8/13/2007","id":"a66htox4t7sv","address":"27662 Cashford Circle","geo_precision":"zip"},"type":"Feature","geometry":{"type":"Point","coordinates":[-82.284738,28.271989]}},{"properties":{"city":"Wesley Chapel","business_name":"Rosewood Chiropractic Center Inc.","zip_code":"33544","geo_score":0.565,"phone":"(813) 932-1609","business_type":"Chiropractic","business_opened":"4/10/2006","id":"a66htoqsaplo","address":"2142 Ashley Oaks Circle","geo_precision":"street"},"type":"Feature","geometry":{"type":"Point","coordinates":[-82.334915,27.872255]}},{"properties":{"city":"Wesley Chapel","business_name":"S &amp; Y Ventures LLC","zip_code":"33544","geo_score":0.512,"phone":"(813) 929-1500","business_type":"Medicine","business_opened":"5/23/2007","id":"a66htorcurn9","address":"27317 Cashford Circle","geo_precision":"zip"},"type":"Feature","geometry":{"type":"Point","coordinates":[-82.284738,28.271989]}},{"properties":{"city":"Wesley Chapel","business_name":"Select Physical Therapy","zip_code":"33545","geo_score":0.0,"phone":"(813) 907-0548","business_type":"Physical Therapy","business_opened":"11/12/2009","id":"a66htotiaw33","address":"5907 Argerian Drive","geo_precision":"unmatched"},"type":"Feature","geometry":null},{"properties":{"city":"Wesley Chapel","business_name":"Select Physical Therapy","zip_code":"33545","geo_score":0.0,"phone":"(727) 771-7377","business_type":"Physical Therapy","business_opened":"7/30/2008","id":"a66htovnr4hv","address":"5907 Argerian Drive","geo_precision":"unmatched"},"type":"Feature","geometry":null},{"properties":{"city":"Wesley Chapel","business_name":"Select Physical Therapy","zip_code":"33545","geo_score":0.0,"phone":"(717) 972-1100","business_type":"Medicine","business_opened":"1/7/2008","id":"a66htoxmx6ca","address":"5907 Argerian Drive","geo_precision":"unmatched"},"type":"Feature","geometry":null},{"properties":{"city":"Wesley Chapel","business_name":"Senior Home Care Inc.","zip_code":"33544","geo_score":0.512,"phone":"(813) 783-8145","business_type":null,"business_opened":"4/2/2007","id":"a66htotxlwzt","address":"2629 Windguard Circle","geo_precision":"zip"},"type":"Feature","geometry":{"type":"Point","coordinates":[-82.284738,28.271989]}},{"properties":{"city":"Wesley Chapel","business_name":"Serenity Dental At Seven Oaks","zip_code":"33544","geo_score":0.565,"phone":"(813) 907-0022","business_type":"Dentistry","business_opened":"8/4/2006","id":"a66htp2l23ja","address":"2154 Ashley Oaks Circle","geo_precision":"street"},"type":"Feature","geometry":{"type":"Point","coordinates":[-82.334915,27.872255]}},{"properties":{"city":"Wesley Chapel","business_name":"Seven Oaks Family &amp; Cosmetic Dentistry","zip_code":"33544","geo_score":0.565,"phone":"(813) 907-7313","business_type":"Dentistry","business_opened":"6/21/2006","id":"a66htozt8d3o","address":"2112 Ashley Oaks Circle","geo_precision":"street"},"type":"Feature","geometry":{"type":"Point","coordinates":[-82.334915,27.872255]}},{"properties":{"city":"Wesley Chapel","business_name":"Sheryl Ballinger","zip_code":"33544","geo_score":0.565,"phone":"(813) 932-1609","business_type":"Chiropractic","business_opened":"4/10/2006","id":"a66htovt6ikd","address":"2142 Ashley Oaks Circle","geo_precision":"street"},"type":"Feature","geometry":{"type":"Point","coordinates":[-82.334915,27.872255]}},{"properties":{"city":"Wesley Chapel","business_name":"Small World Pediatrics PA","zip_code":"33544","geo_score":0.512,"phone":"(813) 907-8001","business_type":"Medicine","business_opened":"11/1/2003","id":"a66htozcosfy","address":"2527 Windguard Circle","geo_precision":"zip"},"type":"Feature","geometry":{"type":"Point","coordinates":[-82.284738,28.271989]}},{"properties":{"city":"Wesley Chapel","business_name":"South Bay Neurology &amp; Total Spine Care","zip_code":"33544","geo_score":0.512,"phone":"(813) 634-3323","business_type":"Medicine","business_opened":"2/15/2007","id":"a66htp3w2zmz","address":"2726 Windguard Circle","geo_precision":"zip"},"type":"Feature","geometry":{"type":"Point","coordinates":[-82.284738,28.271989]}},{"properties":{"city":"Wesley Chapel","business_name":"Sunrise Neurology PA","zip_code":"33544","geo_score":0.512,"phone":"(813) 783-9799","business_type":"Medicine","business_opened":"9/4/2007","id":"a66htp4pt0rw","address":"2754 Windguard Circle","geo_precision":"zip"},"type":"Feature","geometry":{"type":"Point","coordinates":[-82.284738,28.271989]}},{"properties":{"city":"Wesley Chapel","business_name":"Susan Gryder","zip_code":"33544","geo_score":0.592,"phone":"(813) 490-0912","business_type":"Nursing","business_opened":"1/1/2010","id":"a66htozjz0ku","address":"5400 Bruce B. Downs Blvd.","geo_precision":"street"},"type":"Feature","geometry":{"type":"Point","coordinates":[-82.325727,28.237439]}},{"properties":{"city":"Wesley Chapel","business_name":"Suzanne Des Rosiers","zip_code":"33544","geo_score":0.592,"phone":"(813) 490-0912","business_type":"Nursing","business_opened":"1/1/2010","id":"a66htoxbbp8s","address":"5400 Bruce B. Downs Blvd.","geo_precision":"street"},"type":"Feature","geometry":{"type":"Point","coordinates":[-82.325727,28.237439]}},{"properties":{"city":"Wesley Chapel","business_name":"Sweta Shah OD","zip_code":"33544","geo_score":0.512,"phone":"(813) 789-6576","business_type":"Optometry","business_opened":"10/1/2007","id":"a66htoyr26zh","address":"27127 Firebush Drive","geo_precision":"zip"},"type":"Feature","geometry":{"type":"Point","coordinates":[-82.284738,28.271989]}},{"properties":{"city":"Wesley Chapel","business_name":"TSR Orthodontic Laboratory","zip_code":"33545","geo_score":0.0,"phone":"(813) 991-0313","business_type":"Dentistry","business_opened":"4/1/2003","id":"a66htoywd6mq","address":"30326 Double Drive","geo_precision":"unmatched"},"type":"Feature","geometry":null},{"properties":{"city":"Wesley Chapel","business_name":"Tags PLC","zip_code":"33544","geo_score":0.565,"phone":"(813) 907-7545","business_type":null,"business_opened":"1/1/2007","id":"a66htp0k3ss8","address":"2118 Ashley Oaks Circle","geo_precision":"street"},"type":"Feature","geometry":{"type":"Point","coordinates":[-82.334915,27.872255]}},{"properties":{"city":"Wesley Chapel","business_name":"Tampa Bay Psychiatric Services PL","zip_code":"33544","geo_score":0.512,"phone":"(813) 699-4020","business_type":"Medicine","business_opened":"1/1/2010","id":"a66htp335jny","address":"3848 Flatiron Loop","geo_precision":"zip"},"type":"Feature","geometry":{"type":"Point","coordinates":[-82.284738,28.271989]}},{"properties":{"city":"Wesley Chapel","business_name":"Tampa Ear Nose &amp; Throat Associates","zip_code":"33544","geo_score":0.488,"phone":"(813) 972-3353","business_type":"Medicine","business_opened":"12/10/2007","id":"a66htoyvmsf0","address":"26827 Foggy Creek Road","geo_precision":"street"},"type":"Feature","geometry":{"type":"Point","coordinates":[-82.268174,28.181248]}},{"properties":{"city":"Wesley Chapel","business_name":"Tampa Psychology","zip_code":"33544","geo_score":0.512,"phone":"(813) 545-7754","business_type":"Psychiatry/Psychology","business_opened":"7/2/2007","id":"a66htp5h82b2","address":"27356 Cashford Circle","geo_precision":"zip"},"type":"Feature","geometry":{"type":"Point","coordinates":[-82.284738,28.271989]}},{"properties":{"city":"Wesley Chapel","business_name":"Tara Jones","zip_code":"33544","geo_score":0.592,"phone":"(813) 490-0912","business_type":"Nursing","business_opened":"1/1/2010","id":"a66htoy8vzgt","address":"5400 Bruce B. Downs Blvd.","geo_precision":"street"},"type":"Feature","geometry":{"type":"Point","coordinates":[-82.325727,28.237439]}},{"properties":{"city":"Wesley Chapel","business_name":"Tendercare Pediatrics PA","zip_code":"33544","geo_score":0.512,"phone":"(813) 973-9900","business_type":"Medicine","business_opened":"3/15/2007","id":"a66htp0iq37s","address":"27432 Cashford Circle","geo_precision":"zip"},"type":"Feature","geometry":{"type":"Point","coordinates":[-82.284738,28.271989]}},{"properties":{"city":"Wesley Chapel","business_name":"The Growth Center PLLC","zip_code":"33544","geo_score":0.512,"phone":"(813) 994-5595","business_type":"Psychiatry/Psychology","business_opened":"3/10/2006","id":"a66htoxcyr54","address":"2816 Windguard Circle","geo_precision":"zip"},"type":"Feature","geometry":{"type":"Point","coordinates":[-82.284738,28.271989]}},{"properties":{"city":"Wesley Chapel","business_name":"Tower Imaging Inc.","zip_code":"33544","geo_score":0.53,"phone":"(813) 251-5822","business_type":"Medicine","business_opened":"11/1/2008","id":"a66htoyoz5rm","address":"2324 Oak Myrtle Lane","geo_precision":"street"},"type":"Feature","geometry":{"type":"Point","coordinates":[-82.059275,28.043297]}},{"properties":{"city":"Wesley Chapel","business_name":"Travel Doctor PL","zip_code":"33544","geo_score":0.561,"phone":"(813) 892-4028","business_type":"Medicine","business_opened":"7/16/2008","id":"a66htouieltb","address":"2204 Ashley Oak Circle","geo_precision":"street"},"type":"Feature","geometry":{"type":"Point","coordinates":[-82.334915,27.872255]}},{"properties":{"city":"Wesley Chapel","business_name":"Understanding Behavior Focus Center","zip_code":"33545","geo_score":0.0,"phone":"(813) 735-8176","business_type":"CARE","business_opened":"10/6/2008","id":"a66htozj7owe","address":"31212 Baclan Drive","geo_precision":"unmatched"},"type":"Feature","geometry":null},{"properties":{"city":"Wesley Chapel","business_name":"Wells Baur Endodontics PL","zip_code":"33544","geo_score":0.512,"phone":"(813) 907-7668","business_type":"Dentistry","business_opened":"7/13/2007","id":"a66htozq79gh","address":"3757 Maryweather Lane","geo_precision":"zip"},"type":"Feature","geometry":{"type":"Point","coordinates":[-82.284738,28.271989]}},{"properties":{"city":"Wesley Chapel","business_name":"Wesley Chapel Chiropractic LLC","zip_code":"33544","geo_score":0.829,"phone":"(813) 973-2261","business_type":"Chiropractic","business_opened":"9/1/2000","id":"a66htp34zkmw","address":"27210 Foamflower Blvd.","geo_precision":"range"},"type":"Feature","geometry":{"type":"Point","coordinates":[-82.365046,28.240802]}},{"properties":{"city":"Wesley Chapel","business_name":"Wesley Chapel Chiropractic LLC","zip_code":"33544","geo_score":0.829,"phone":"(813) 973-2261","business_type":"Chiropractic","business_opened":"9/1/2000","id":"a66htp0hqdsi","address":"27210 Foamflower Blvd.","geo_precision":"range"},"type":"Feature","geometry":{"type":"Point","coordinates":[-82.365046,28.240802]}},{"properties":{"city":"Wesley Chapel","business_name":"Wesley Chapel Dialysis LLC","zip_code":"33544","geo_score":0.387,"phone":"(727) 841-8818","business_type":"Medicine","business_opened":"9/16/2009","id":"a66htp4c2e4n","address":"2255 Green Hedge Way","geo_precision":"street"},"type":"Feature","geometry":{"type":"Point","coordinates":[-82.328149,28.241272]}},{"properties":{"city":"Wesley Chapel","business_name":"Wesley Chapel Family Practice","zip_code":"33543","geo_score":0.709,"phone":"(813) 907-6101","business_type":"Medicine","business_opened":"1/14/2010","id":"a66htp3r3x0k","address":"29164 Chapel Park Drive","geo_precision":"street"},"type":"Feature","geometry":{"type":"Point","coordinates":[-82.331991,28.240378]}},{"properties":{"city":"Wesley Chapel","business_name":"Wesley Chapel Internal Medicine &amp; Pediatrics PA","zip_code":"33544","geo_score":0.565,"phone":"(813) 929-3622","business_type":"Medicine","business_opened":"12/19/2005","id":"a66htp4aqd9k","address":"2038 Ashley Oaks Circle","geo_precision":"street"},"type":"Feature","geometry":{"type":"Point","coordinates":[-82.334915,27.872255]}},{"properties":{"city":"Wesley Chapel","business_name":"Wesley Chapel Medical Care","zip_code":"33544","geo_score":0.512,"phone":"(813) 964-8526","business_type":"Medicine","business_opened":"10/25/2008","id":"a66htp5fwkml","address":"2800 Windgurad Circle","geo_precision":"zip"},"type":"Feature","geometry":{"type":"Point","coordinates":[-82.284738,28.271989]}},{"properties":{"city":"Wesley Chapel","business_name":"Wesley Chapel Medical Care","zip_code":"33544","geo_score":0.512,"phone":"(813) 964-8526","business_type":"Dentistry","business_opened":"10/25/2008","id":"a66htp1atcuu","address":"2800 Windguard Circle","geo_precision":"zip"},"type":"Feature","geometry":{"type":"Point","coordinates":[-82.284738,28.271989]}},{"properties":{"city":"Wesley Chapel","business_name":"Wesley Chapel Medical Group Inc.","zip_code":"33544","geo_score":0.464,"phone":"(813) 994-3600","business_type":"Medicine","business_opened":"10/4/2010","id":"a66htp1nd9p1","address":"2604 Cypress Ridge Blvd.","geo_precision":"street"},"type":"Feature","geometry":{"type":"Point","coordinates":[-82.346143,27.715664]}},{"properties":{"city":"Wesley Chapel","business_name":"Wesley Chapel Orthodontics LLC","zip_code":"33544","geo_score":0.592,"phone":"(813) 973-0030","business_type":"Dentistry","business_opened":"6/1/2010","id":"a66htp37ufq9","address":"2653 Bruce B. Downs Blvd.","geo_precision":"street"},"type":"Feature","geometry":{"type":"Point","coordinates":[-82.325727,28.237439]}},{"properties":{"city":"Wesley Chapel","business_name":"Wesley Chapel Walk-In Clinic LLC","zip_code":"33544","geo_score":0.512,"phone":"(727) 494-5885","business_type":"Medicine","business_opened":"11/1/2010","id":"a66htoroshjw","address":"2553 Windguard Circle","geo_precision":"zip"},"type":"Feature","geometry":{"type":"Point","coordinates":[-82.284738,28.271989]}},{"properties":{"city":"Wesley Chapel","business_name":"Women's Care Florida","zip_code":"33544","geo_score":0.512,"phone":"(813) 286-0033","business_type":"Medicine","business_opened":"3/1/1998","id":"a66htp4bdmuf","address":"3743 Maryweather Lane","geo_precision":"zip"},"type":"Feature","geometry":{"type":"Point","coordinates":[-82.284738,28.271989]}},{"properties":{"city":"Wesley Chapel","business_name":"Women's Care Florida","zip_code":"33544","geo_score":0.512,"phone":"(813) 286-0033","business_type":"Medicine","business_opened":"3/1/2008","id":"a66htoxmyc4q","address":"26823 Tanic Drive","geo_precision":"zip"},"type":"Feature","geometry":{"type":"Point","coordinates":[-82.284738,28.271989]}},{"properties":{"city":"Wesley Chapel","business_name":"Women's Care Florida","zip_code":"33544","geo_score":0.512,"phone":"(813) 286-0033","business_type":"Medicine","business_opened":"3/1/2008","id":"a66htp05dibj","address":"26823 Tanic Drive","geo_precision":"zip"},"type":"Feature","geometry":{"type":"Point","coordinates":[-82.284738,28.271989]}},{"properties":{"city":"Wesley Chapel","business_name":"Women's Care Florida","zip_code":"33544","geo_score":0.512,"phone":"(813) 286-0033","business_type":"Medicine","business_opened":"3/1/2008","id":"a66htoxw0m4x","address":"26823 Tanic Drive","geo_precision":"zip"},"type":"Feature","geometry":{"type":"Point","coordinates":[-82.284738,28.271989]}},{"properties":{"city":"Wesley Chapel","business_name":"Women's Care Florida","zip_code":"33544","geo_score":0.512,"phone":"(813) 286-0033","business_type":"Nursing","business_opened":"3/31/2008","id":"a66htotej37x","address":"3743 Maryweather Lane","geo_precision":"zip"},"type":"Feature","geometry":{"type":"Point","coordinates":[-82.284738,28.271989]}},{"properties":{"city":"Wesley Chapel","business_name":"Women's Care Florida","zip_code":"33544","geo_score":0.512,"phone":"(813) 286-0033","business_type":"Medicine","business_opened":"3/1/2008","id":"a66htp374shu","address":"26823 Tanic Drive","geo_precision":"zip"},"type":"Feature","geometry":{"type":"Point","coordinates":[-82.284738,28.271989]}},{"properties":{"city":"Wesley Chapel","business_name":"Women's Care Florida","zip_code":"33544","geo_score":0.512,"phone":"(813) 973-0398","business_type":"Medicine","business_opened":"4/2/2007","id":"a66htp4vpwso","address":"3743 Maryweather Lane","geo_precision":"zip"},"type":"Feature","geometry":{"type":"Point","coordinates":[-82.284738,28.271989]}},{"properties":{"city":"Wesley Chapel","business_name":"Women's Care Florida","zip_code":"33544","geo_score":0.512,"phone":"(813) 973-0398","business_type":"Medicine","business_opened":"4/2/2007","id":"a66htp4lt06w","address":"3743 Maryweather Lane","geo_precision":"zip"},"type":"Feature","geometry":{"type":"Point","coordinates":[-82.284738,28.271989]}},{"properties":{"city":"Wesley Chapel","business_name":"Women's Care Florida LLP","zip_code":"33544","geo_score":0.512,"phone":"(813) 286-0033","business_type":"Nursing","business_opened":"3/16/2009","id":"a66htoq2hy8t","address":"26823 Tanic Drive","geo_precision":"zip"},"type":"Feature","geometry":{"type":"Point","coordinates":[-82.284738,28.271989]}},{"properties":{"city":"Wesley Chapel","business_name":"Women's Care Florida LLP","zip_code":"33544","geo_score":0.512,"phone":"(813) 286-0033","business_type":"Medicine","business_opened":"9/17/2009","id":"a66htot6jux9","address":"3743 Maryweather Lane","geo_precision":"zip"},"type":"Feature","geometry":{"type":"Point","coordinates":[-82.284738,28.271989]}},{"properties":{"city":"Wesley Chapel","business_name":"Women's Care Florida LLP","zip_code":"33544","geo_score":0.512,"phone":"(813) 286-0033","business_type":"Medicine","business_opened":"9/17/2009","id":"a66htozuhjk4","address":"3743 Maryweather Lane","geo_precision":"zip"},"type":"Feature","geometry":{"type":"Point","coordinates":[-82.284738,28.271989]}},{"properties":{"city":"Wesley Chapel","business_name":"Women's Care Florida LLP","zip_code":"33544","geo_score":0.512,"phone":"(813) 286-0033","business_type":"Medicine","business_opened":"9/17/2009","id":"a66htox2qw6f","address":"3743 Maryweather Lane","geo_precision":"zip"},"type":"Feature","geometry":{"type":"Point","coordinates":[-82.284738,28.271989]}},{"properties":{"city":"Wesley Chapel","business_name":"Women's Care Florida LLP","zip_code":"33544","geo_score":0.512,"phone":"(813) 286-0033","business_type":"Medicine","business_opened":"9/17/2009","id":"a66htosf6cbx","address":"3743 Maryweather Lane","geo_precision":"zip"},"type":"Feature","geometry":{"type":"Point","coordinates":[-82.284738,28.271989]}},{"properties":{"city":"Wesley Chapel","business_name":"Women's Care Florida LLP","zip_code":"33544","geo_score":0.512,"phone":"(813) 286-0033","business_type":"Medicine","business_opened":"1/5/2009","id":"a66htoyyussb","address":"26823 Tanic Drive","geo_precision":"zip"},"type":"Feature","geometry":{"type":"Point","coordinates":[-82.284738,28.271989]}},{"properties":{"city":"Wesley Chapel","business_name":"Women's Care Florida LLP","zip_code":"33544","geo_score":0.512,"phone":"(813) 286-0033","business_type":"Medicine","business_opened":"8/1/2009","id":"a66htotv7apq","address":"26823 Tanic Drive","geo_precision":"zip"},"type":"Feature","geometry":{"type":"Point","coordinates":[-82.284738,28.271989]}},{"properties":{"city":"Wesley Chapel","business_name":"Women's Care Florida LLP","zip_code":"33544","geo_score":0.512,"phone":"(813) 286-0033","business_type":"Medicine","business_opened":"9/17/2009","id":"a66htorgap9u","address":"3743 Maryweather Lane","geo_precision":"zip"},"type":"Feature","geometry":{"type":"Point","coordinates":[-82.284738,28.271989]}},{"properties":{"city":"Wesley Chapel","business_name":"World Class Chiropractic Center","zip_code":"33544","geo_score":0.512,"phone":"(813) 973-8883","business_type":"Chiropractic","business_opened":"7/16/2007","id":"a66htoulba34","address":"27732 Cashford Circle","geo_precision":"zip"},"type":"Feature","geometry":{"type":"Point","coordinates":[-82.284738,28.271989]}},{"properties":{"city":"Wesley Chapel","business_name":"World Class Chiropractic Center","zip_code":"33544","geo_score":0.512,"phone":"(813) 973-8883","business_type":"Chiropractic","business_opened":"7/16/2007","id":"a66htp4gt865","address":"27732 Cashford Circle","geo_precision":"zip"},"type":"Feature","geometry":{"type":"Point","coordinates":[-82.284738,28.271989]}},{"properties":{"city":"Wesley Chapel","business_name":"Zacharias J. Kalarickal","zip_code":"33543","geo_score":0.902,"phone":"(813) 991-5100","business_type":"Dentistry","business_opened":"5/21/2002","id":"a66htp3du17t","address":"28965 State Road 54","geo_precision":"range"},"type":"Feature","geometry":{"type":"Point","coordinates":[-82.338284,28.239615]}}],"is_temporal":false,"author":{"url":"","metadata":"","contact_name":"","contact_address":"","source":"","contact_phone":""},"source":"","pagination":{"sort":null,"start":0,"total":185,"limit":1000000},"state":"complete","tags":"","published":"2014-08-10T22:33:51-04:00","id":78635}