{"type":"FeatureCollection","data_type":"Dataset","url_type":null,"permissions":[{"permissions":{"download":true,"view":true},"group_id":"everyone"}],"classification":null,"title":"best university in china ","count":12,"stream_id":78740,"contributor":{"url":"http://geocommons.com/users/18917","name":"youmanszhao"},"data_attributes":null,"calculation_params":null,"icon_link":null,"link":"http://geocommons.com/overlays/78740.json","extent":[113.299,23.098,125.307,43.8837],"geometry_types":["point"],"unique_name":null,"name":"best university in china ","feature_count":12,"description":"This map shows the top 10 universities' locations in China. I add the basic informations to each site. What's more, the bigger size of the cycle, the better of the university. ","next_feature":null,"is_raster":false,"short_classification":"Y","stats":{"latitude":{"max":43.88369692,"mean":34.213206358,"variance":41.0548620179622,"stdev":6.4074068091516,"min":23.09796986,"median":32.05564493},"rank":{"max":10,"mean":5.5,"variance":9.16666666666667,"stdev":3.02765035409749,"min":1,"median":6},"rank showing":{"max":10,"mean":5.5,"variance":9.16666666666667,"stdev":3.02765035409749,"min":1,"median":6},"longitude":{"max":125.307312,"mean":118.37627051,"variance":13.904709815104,"stdev":3.72890195836576,"min":113.299255,"median":118.7802741}},"features":[{"properties":{"city":null,"latitude":null,"university":null,"country":null,"rank":null,"rank showing":null,"longitude":null,"id":"a63xsts5gxtv","province":"<img src=\"&lt;/body\">","address":null},"type":"Feature","geometry":null},{"properties":{"city":"Beijing","latitude":40.00108599,"university":"Tsing Hua University","country":"China","rank":2,"rank showing":9,"longitude":116.3242188,"id":"a63xstskohog","province":"Beijing","address":"Tshing Hua University, Haidian District,Beijing"},"type":"Feature","geometry":{"type":"Point","coordinates":[116.3242188,40.00108599]}},{"properties":{"city":"Beijing","latitude":39.97093698,"university":"Renmin University of China","country":"China","rank":8,"rank showing":3,"longitude":116.3140801,"id":"a63xstps73eo","province":"Beijing","address":"59 Zhong Guan Cun Avenue,Haidian District,Beijing"},"type":"Feature","geometry":{"type":"Point","coordinates":[116.3140801,39.97093698]}},{"properties":{"city":"Beijing","latitude":39.99185096,"university":"Peking University","country":"China","rank":1,"rank showing":10,"longitude":116.3099599,"id":"a63xstkzrm25","province":"Beijing","address":"No.5 Yiheyuan Road Haidian District,Beijing"},"type":"Feature","geometry":{"type":"Point","coordinates":[116.3099599,39.99185096]}},{"properties":{"city":null,"latitude":null,"university":null,"country":null,"rank":null,"rank showing":null,"longitude":null,"id":"a63xstk0hs5i","province":"Country:\nProvince:\nCity:\nAddress:\nIntroduction:","address":null},"type":"Feature","geometry":null},{"properties":{"city":"Guangzhou","latitude":23.09796986,"university":"Sun Yat-Sen University","country":"China","rank":10,"rank showing":1,"longitude":113.299255,"id":"a63xstmi1gl2","province":"Guangdong","address":"No. 135, Xingang Xi Road, Guangzhou"},"type":"Feature","geometry":{"type":"Point","coordinates":[113.299255,23.09796986]}},{"properties":{"city":"Wuhan","latitude":30.53919899,"university":"Wuhan University","country":"China","rank":7,"rank showing":4,"longitude":114.354544,"id":"a63xstppyqk8","province":"Hubei","address":"Luojia Hill,Wuhan, Hubei"},"type":"Feature","geometry":{"type":"Point","coordinates":[114.354544,30.53919899]}},{"properties":{"city":"Nanjing","latitude":32.05564493,"university":"Nanjing University","country":"China","rank":6,"rank showing":5,"longitude":118.7802741,"id":"a63xstqndfsx","province":"Jiangsu","address":"22 Hankou Road, Nanjing, Jiangsu"},"type":"Feature","geometry":{"type":"Point","coordinates":[118.7802741,32.05564493]}},{"properties":{"city":"Changchun","latitude":43.88369692,"university":"Jilin University","country":"China","rank":9,"rank showing":2,"longitude":125.307312,"id":"a63xstjob0ty","province":"Jilin","address":"2699 Qianjin Avenue,Changchun, Jilin"},"type":"Feature","geometry":{"type":"Point","coordinates":[125.307312,43.88369692]}},{"properties":{"city":"Shanghai","latitude":31.2984281,"university":"Fudan University","country":"China","rank":3,"rank showing":8,"longitude":121.5015582,"id":"a63xstmlusvc","province":"Shanghai","address":"No.220, Handan Road, Shanghai"},"type":"Feature","geometry":{"type":"Point","coordinates":[121.5015582,31.2984281]}},{"properties":{"city":"Shanghai","latitude":31.02925397,"university":"Shanghai Jiaotong University","country":"China","rank":5,"rank showing":6,"longitude":121.4481929,"id":"a63xstvgztbx","province":"Shanghai","address":"800 Dongchuan Road, Min Hang, Shanghai"},"type":"Feature","geometry":{"type":"Point","coordinates":[121.4481929,31.02925397]}},{"properties":{"city":"Hangzhou","latitude":30.26399688,"university":"Zhejiang University","country":"China","rank":4,"rank showing":7,"longitude":120.1233101,"id":"a63xstms22zh","province":"Zhejiang","address":"388 Yuhangtang Road , Hangzhou , Zhejiang"},"type":"Feature","geometry":{"type":"Point","coordinates":[120.1233101,30.26399688]}}],"is_temporal":false,"author":{"url":"","metadata":"","contact_name":"","contact_address":"","source":"from official webite of each university","contact_phone":""},"source":"","pagination":{"sort":null,"start":0,"total":12,"limit":1000000},"state":"complete","tags":"","published":"2014-08-10T22:41:54-04:00","id":78740}