{"type":"FeatureCollection","data_type":"Dataset","url_type":null,"permissions":[{"permissions":{"download":true,"view":true},"group_id":"everyone"}],"classification":null,"title":"Hotel in Hong Kong Island","count":19,"stream_id":79516,"contributor":{"url":"http://geocommons.com/users/18967","name":"iam3rivers"},"data_attributes":null,"calculation_params":null,"icon_link":null,"link":"http://geocommons.com/overlays/79516.json","extent":[114.148,22.2497,114.209,22.2921],"geometry_types":["point"],"unique_name":null,"name":"Hotel in Hong Kong Island","feature_count":19,"description":"Introduction to Map Mashups by River Lo","next_feature":null,"is_raster":false,"short_classification":"Y","stats":{"rating (star)":{"max":5,"mean":4.0,"variance":0.555555555555556,"stdev":0.74535599249993,"min":3,"median":4},"latitude":{"max":22.292089,"mean":22.2804044210526,"variance":8.37628084795288e-05,"stdev":0.00915220238410017,"min":22.249725,"median":22.280229},"longitude":{"max":114.208615,"mean":114.179191473684,"variance":0.000214561971263161,"stdev":0.0146479340271303,"min":114.147933,"median":114.180299}},"features":[{"properties":{"rating (star)":4,"latitude":22.27698,"hotel":"Butterfly On Morrison","region":"Hong Kong Island","hotel range (per night)":"HK$1500-HK$2000","longitude":114.18049,"telephone":"3962 8333","id":"a62otat3pec9","address":"39 Morrison Hill Road, Wanchai, Hong Kong"},"type":"Feature","geometry":{"type":"Point","coordinates":[114.18049,22.27698]}},{"properties":{"rating (star)":3,"latitude":22.285647,"hotel":"Central Park Hotel","region":"Hong Kong Island","hotel range (per night)":"HK$1200-HK$1800","longitude":114.147933,"telephone":"2850 8899","id":"a62otap28glg","address":"263 Hollywood Road, Central"},"type":"Feature","geometry":{"type":"Point","coordinates":[114.147933,22.285647]}},{"properties":{"rating (star)":4,"latitude":22.290337,"hotel":"City Garden Hotel","region":"Hong Kong Island","hotel range (per night)":"HK$1485-HK$1595","longitude":114.194137,"telephone":"2887 2888","id":"a62otatzowzy","address":"9 City Garden Road, North Point, Hong Kong"},"type":"Feature","geometry":{"type":"Point","coordinates":[114.194137,22.290337]}},{"properties":{"rating (star)":3,"latitude":22.274709,"hotel":"Cosmo Hotel","region":"Hong Kong Island","hotel range (per night)":"HK$1700-HK$2500","longitude":114.178518,"telephone":"3552 8388","id":"a62otahiqsou","address":"375-377 Queen's Road East, Wan Chai"},"type":"Feature","geometry":{"type":"Point","coordinates":[114.178518,22.274709]}},{"properties":{"rating (star)":5,"latitude":22.277422,"hotel":"Crowne Plaza, Hong Kong","region":"Hong Kong Island","hotel range (per night)":"HK$3080-HK$5280","longitude":114.182754,"telephone":"3980 3980","id":"a62otanlhlt4","address":"8 Leighton Road, Causeway Bay, Hong Kong"},"type":"Feature","geometry":{"type":"Point","coordinates":[114.182754,22.277422]}},{"properties":{"rating (star)":4,"latitude":22.285173,"hotel":"Empire Hotel Hong Kong - Causeway Bay","region":"Hong Kong Island","hotel range (per night)":"HK$1430-HK$1870","longitude":114.192088,"telephone":"3692 2333","id":"a62otaxpvvpz","address":"8 Wing Hing Street, Causeway Bay, Hong Kong"},"type":"Feature","geometry":{"type":"Point","coordinates":[114.192088,22.285173]}},{"properties":{"rating (star)":4,"latitude":22.277992,"hotel":"Empire Hotel Hong Kong - Wan Chai","region":"Hong Kong Island","hotel range (per night)":"HK$1650-HK$2250","longitude":114.17015,"telephone":"3692 2111","id":"a62otaxwwh9w","address":"33 Hennessy Road, Wanchai, Hong Kong"},"type":"Feature","geometry":{"type":"Point","coordinates":[114.17015,22.277992]}},{"properties":{"rating (star)":5,"latitude":22.281477,"hotel":"Grand Hyatt, Hong Kong","region":"Hong Kong Island","hotel range (per night)":"HK$3740-HK$3960","longitude":114.172223,"telephone":"2588 1234","id":"a62otahuxgcy","address":"1 Harbour Road, Wanchai, Hong Kong"},"type":"Feature","geometry":{"type":"Point","coordinates":[114.172223,22.281477]}},{"properties":{"rating (star)":5,"latitude":22.291563,"hotel":"Harbour Plaza, North Point","region":"Hong Kong Island","hotel range (per night)":"HK$2250-HK$3150","longitude":114.208615,"telephone":"2187 8888","id":"a62otao0s9gf","address":"King's Road, North Point"},"type":"Feature","geometry":{"type":"Point","coordinates":[114.208615,22.291563]}},{"properties":{"rating (star)":5,"latitude":22.27779,"hotel":"JW Marriott Hotel Hong Kong","region":"Hong Kong Island","hotel range (per night)":"HK$3740-HK$4180","longitude":114.165362,"telephone":"2810 8366","id":"a62otaq2o8a8","address":"One Pacific Place, 88 Queensway, Central, Hong Kong"},"type":"Feature","geometry":{"type":"Point","coordinates":[114.165362,22.27779]}},{"properties":{"rating (star)":4,"latitude":22.249725,"hotel":"L 'hotel Island South","region":"Hong Kong Island","hotel range (per night)":"HK$1030-HK$1340","longitude":114.168374,"telephone":"3968 8888","id":"a62otaljf3xs","address":"55-57 Wong Chuk Hang Road, Aberdeen, Hong Kong"},"type":"Feature","geometry":{"type":"Point","coordinates":[114.168374,22.249725]}},{"properties":{"rating (star)":4,"latitude":22.278735,"hotel":"Lanson Place Boutique Hotel","region":"Hong Kong Island","hotel range (per night)":"HK$2145-HK$2475","longitude":114.186777,"telephone":"3477 6888","id":"a62otal77ojv","address":"133 Leighton Road, Causeway Bay, Hong Kong"},"type":"Feature","geometry":{"type":"Point","coordinates":[114.186777,22.278735]}},{"properties":{"rating (star)":5,"latitude":22.281976,"hotel":"Mandarin Oriential, Hong Kong","region":"Hong Kong Island","hotel range (per night)":"HK$2860-HK$4230","longitude":114.159402,"telephone":"2522 0111","id":"a62otar43xjf","address":"5 Connaught Road, Central, Hong Kong"},"type":"Feature","geometry":{"type":"Point","coordinates":[114.159402,22.281976]}},{"properties":{"rating (star)":4,"latitude":22.277918,"hotel":"Metropark Hotel, Wanchai","region":"Hong Kong Island","hotel range (per night)":"HK$1800-HK$2250","longitude":114.170566,"telephone":"2861 1166","id":"a62otatnaufp","address":"41-49 Hennessy Road, Wanchai, Hong Kong"},"type":"Feature","geometry":{"type":"Point","coordinates":[114.170566,22.277918]}},{"properties":{"rating (star)":4,"latitude":22.288594,"hotel":"Newton Hotel, Hong Kong","region":"Hong Kong Island","hotel range (per night)":"HK$1100-HK$1600","longitude":114.19315,"telephone":"2807 2333","id":"a62otaj5qk1q","address":"218 Electric Road, Norh Point, Hong Kong"},"type":"Feature","geometry":{"type":"Point","coordinates":[114.19315,22.288594]}},{"properties":{"rating (star)":4,"latitude":22.281909,"hotel":"The Excelsior, Hong Kong","region":"Hong Kong Island","hotel range (per night)":"HK$1850-HK$2180","longitude":114.184433,"telephone":"2894 8888","id":"a62otaqlsvso","address":"281 Gloucester Road, Causeway Bay, Hong Kong"},"type":"Feature","geometry":{"type":"Point","coordinates":[114.184433,22.281909]}},{"properties":{"rating (star)":3,"latitude":22.280229,"hotel":"The Harbourview","region":"Hong Kong Island","hotel range (per night)":"HK$1400-HK$2000","longitude":114.171105,"telephone":"2802 0111","id":"a62otanabzvx","address":"4 Harbour Road, Wanchai, Hong Kong"},"type":"Feature","geometry":{"type":"Point","coordinates":[114.171105,22.280229]}},{"properties":{"rating (star)":3,"latitude":22.292089,"hotel":"The South China Hotel","region":"Hong Kong Island","hotel range (per night)":"HK$1450-HK$2000","longitude":114.198262,"telephone":"2503 1168","id":"a62otaqjat2v","address":"67-75 Java Road, North Point, Hong Kong"},"type":"Feature","geometry":{"type":"Point","coordinates":[114.198262,22.292089]}},{"properties":{"rating (star)":3,"latitude":22.277419,"hotel":"The South Pacific Hotel, Hong Kong","region":"Hong Kong Island","hotel range (per night)":"HK$850-HK$1500","longitude":114.180299,"telephone":"2572 3838","id":"a62otaltw47c","address":"23 Morrison Hill Road, Wanchai"},"type":"Feature","geometry":{"type":"Point","coordinates":[114.180299,22.277419]}}],"is_temporal":false,"author":{"url":"","metadata":"","contact_name":"","contact_address":"","source":"","contact_phone":""},"source":"","pagination":{"sort":null,"start":0,"total":19,"limit":1000000},"state":"complete","tags":"hong,hotel,kong,travel","published":"2010-12-12T14:21:37Z","id":79516}