{"type":"FeatureCollection","data_type":"Dataset","url_type":null,"permissions":[{"permissions":{"download":true,"view":true},"group_id":"everyone"}],"classification":null,"title":"Australian Roller Derby","count":86,"stream_id":79923,"contributor":{"url":"http://geocommons.com/users/12003","name":"LauraHale"},"data_attributes":null,"calculation_params":null,"icon_link":null,"link":"http://geocommons.com/overlays/79923.json","extent":[-122.253,-43.5333,174.767,63.0667],"geometry_types":["point"],"unique_name":null,"name":"Australian Roller Derby","feature_count":86,"description":"","next_feature":null,"is_raster":false,"short_classification":"Y","stats":{"geo_score":{"max":0.857,"mean":0.805988372093023,"variance":0.00234257633378933,"stdev":0.0484001687371989,"min":0.714,"median":0.8},"australian roller derby":{"max":699,"mean":22.593023255814,"variance":8252.80889192884,"stdev":90.8449717481867,"min":1,"median":1}},"features":[{"properties":{"city":"Abbotsford","country":"Australia","geo_score":0.857,"australian roller derby":1,"id":"a6dyfaz821l4","geo_precision":"zip","state":"Victoria"},"type":"Feature","geometry":{"type":"Point","coordinates":[-122.252570429,49.057976687]}},{"properties":{"city":"Adelaide","country":"Australia","geo_score":0.857,"australian roller derby":368,"id":"a6dyfb3ajwu6","geo_precision":"zip","state":"South Australia"},"type":"Feature","geometry":{"type":"Point","coordinates":[138.6,-34.9333333]}},{"properties":{"city":"Annandale","country":"Australia","geo_score":0.857,"australian roller derby":1,"id":"a6dyfausgvmx","geo_precision":"zip","state":"New South Wales"},"type":"Feature","geometry":{"type":"Point","coordinates":[-77.1963703,38.8303905]}},{"properties":{"city":"Apollo Bay","country":"Australia","geo_score":0.73,"australian roller derby":1,"id":"a6dyfaug32qa","geo_precision":"zip","state":"Victoria"},"type":"Feature","geometry":{"type":"Point","coordinates":[-11.7383333,7.9647222]}},{"properties":{"city":"Auckland","country":"New Zealand","geo_score":0.857,"australian roller derby":5,"id":"a6dyfb3dn7lj","geo_precision":"zip","state":"Auckland"},"type":"Feature","geometry":{"type":"Point","coordinates":[174.7666667,-36.8666667]}},{"properties":{"city":"Balcolyn","country":"Australia","geo_score":0.792,"australian roller derby":1,"id":"a6dyfazvf6eq","geo_precision":"zip","state":"New South Wales"},"type":"Feature","geometry":{"type":"Point","coordinates":[14.75,-11.4333333]}},{"properties":{"city":"Ballarat","country":"Australia","geo_score":0.857,"australian roller derby":4,"id":"a6dyfapnvju6","geo_precision":"zip","state":"Victoria"},"type":"Feature","geometry":{"type":"Point","coordinates":[143.85,-37.5666667]}},{"properties":{"city":"Bendigo","country":"Australia","geo_score":0.857,"australian roller derby":1,"id":"a6dyfb27weia","geo_precision":"zip","state":"Victoria"},"type":"Feature","geometry":{"type":"Point","coordinates":[144.2833333,-36.7666667]}},{"properties":{"city":"Blue Mountains","country":"Australia","geo_score":0.736,"australian roller derby":1,"id":"a6dyfaw2wfdj","geo_precision":"zip","state":"New South Wales"},"type":"Feature","geometry":{"type":"Point","coordinates":[-75.5622222,6.3388889]}},{"properties":{"city":"Brisbane","country":"Australia","geo_score":0.857,"australian roller derby":699,"id":"a6dyfax78gdv","geo_precision":"zip","state":"Queensland"},"type":"Feature","geometry":{"type":"Point","coordinates":[153.028092384338,-27.4679357321901]}},{"properties":{"city":"Broadbeach Gold Coast","country":"Australia","geo_score":0.782,"australian roller derby":1,"id":"a6dyfaszptre","geo_precision":"zip","state":"Queensland"},"type":"Feature","geometry":{"type":"Point","coordinates":[153.4333333,-28.0]}},{"properties":{"city":"Browns Plains","country":"Australia","geo_score":0.75,"australian roller derby":1,"id":"a6dyfb0j4eaq","geo_precision":"zip","state":"Queensland"},"type":"Feature","geometry":{"type":"Point","coordinates":[123.8833333,12.1166667]}},{"properties":{"city":"Brunswick","country":"Australia","geo_score":0.8,"australian roller derby":1,"id":"a6dyfapvbg06","geo_precision":"zip","state":"Victoria"},"type":"Feature","geometry":{"type":"Point","coordinates":[-78.2663883,34.0668378]}},{"properties":{"city":"Bundaberg","country":"Australia","geo_score":0.857,"australian roller derby":1,"id":"a6dyfaytlvpf","geo_precision":"zip","state":"Queensland"},"type":"Feature","geometry":{"type":"Point","coordinates":[152.35,-24.85]}},{"properties":{"city":"Burwood","country":"Australia","geo_score":0.768,"australian roller derby":3,"id":"a6dyfayidfnj","geo_precision":"zip","state":"New South Wales"},"type":"Feature","geometry":{"type":"Point","coordinates":[84.1166667,23.8333333]}},{"properties":{"city":"Cairns","country":"Australia","geo_score":0.768,"australian roller derby":3,"id":"a6dyfb02cygv","geo_precision":"zip","state":"Queensland"},"type":"Feature","geometry":{"type":"Point","coordinates":[-66.6166667,10.4666667]}},{"properties":{"city":"Canberra","country":"Australia","geo_score":0.857,"australian roller derby":12,"id":"a6dyfat3pv15","geo_precision":"zip","state":"Australian Capital Territory"},"type":"Feature","geometry":{"type":"Point","coordinates":[149.128074645996,-35.2834624726481]}},{"properties":{"city":"Chatswood","country":"Australia","geo_score":0.857,"australian roller derby":1,"id":"a6dyfasli2zi","geo_precision":"zip","state":"New South Wales"},"type":"Feature","geometry":{"type":"Point","coordinates":[151.1833333,-33.8]}},{"properties":{"city":"Christchurch","country":"New Zealand","geo_score":0.857,"australian roller derby":3,"id":"a6dyfaxjspbh","geo_precision":"zip","state":"Canterbury"},"type":"Feature","geometry":{"type":"Point","coordinates":[172.6333333,-43.5333333]}},{"properties":{"city":"Clare","country":"Australia","geo_score":0.771,"australian roller derby":1,"id":"a6dyfaxfjqy2","geo_precision":"zip","state":"South Australia"},"type":"Feature","geometry":{"type":"Point","coordinates":[78.1333333,13.1333333]}},{"properties":{"city":"Coffs Harbour","country":"Australia","geo_score":0.75,"australian roller derby":4,"id":"a6dyfapm0ino","geo_precision":"zip","state":"New South Wales"},"type":"Feature","geometry":{"type":"Point","coordinates":[8.7841667,34.425]}},{"properties":{"city":"Collingwood","country":"Australia","geo_score":0.857,"australian roller derby":1,"id":"a6dyfax7rnc5","geo_precision":"zip","state":"Victoria"},"type":"Feature","geometry":{"type":"Point","coordinates":[-80.216379865,44.483400662]}},{"properties":{"city":"Darlinghurst","country":"Australia","geo_score":0.798,"australian roller derby":1,"id":"a6dyfay2l7xb","geo_precision":"zip","state":"New South Wales"},"type":"Feature","geometry":{"type":"Point","coordinates":[-1.5666667,54.5333333]}},{"properties":{"city":"Darwin","country":"Australia","geo_score":0.857,"australian roller derby":2,"id":"a6dyfb3wiill","geo_precision":"zip","state":"Northern Territory"},"type":"Feature","geometry":{"type":"Point","coordinates":[130.841846466064,-12.4611336615902]}},{"properties":{"city":"Deepwater","country":"Australia","geo_score":0.857,"australian roller derby":1,"id":"a6dyfb36uoh6","geo_precision":"zip","state":"Queensland"},"type":"Feature","geometry":{"type":"Point","coordinates":[-93.7729902,38.26058]}},{"properties":{"city":"Endeavour Hills","country":"Australia","geo_score":0.745,"australian roller derby":1,"id":"a6dyfb2xh2z4","geo_precision":"zip","state":"Victoria"},"type":"Feature","geometry":{"type":"Point","coordinates":[85.2833333,25.3166667]}},{"properties":{"city":"Fitzroy","country":"Australia","geo_score":0.743,"australian roller derby":1,"id":"a6dyfau668ur","geo_precision":"zip","state":"Victoria"},"type":"Feature","geometry":{"type":"Point","coordinates":[25.8666667,63.0666667]}},{"properties":{"city":"Forititude Valley","country":"Australia","geo_score":0.741,"australian roller derby":1,"id":"a6dyfb1ls8of","geo_precision":"zip","state":"Queensland"},"type":"Feature","geometry":{"type":"Point","coordinates":[131.1394444,46.7216667]}},{"properties":{"city":"Fremantle","country":"Australia","geo_score":0.762,"australian roller derby":1,"id":"a6dyfascpasv","geo_precision":"zip","state":"Western Australia"},"type":"Feature","geometry":{"type":"Point","coordinates":[-72.7498308,44.0003417]}},{"properties":{"city":"Geelong","country":"Australia","geo_score":0.857,"australian roller derby":35,"id":"a6dyfb1gd8ze","geo_precision":"zip","state":"Victoria"},"type":"Feature","geometry":{"type":"Point","coordinates":[144.360694885254,-38.1471125837516]}},{"properties":{"city":"Gold Coast","country":"Australia","geo_score":0.857,"australian roller derby":51,"id":"a6dyfavlzq3m","geo_precision":"zip","state":"Queensland"},"type":"Feature","geometry":{"type":"Point","coordinates":[153.4333333,-28.0]}},{"properties":{"city":"Gosford","country":"Australia","geo_score":0.768,"australian roller derby":4,"id":"a6dyfasix9z2","geo_precision":"zip","state":"New South Wales"},"type":"Feature","geometry":{"type":"Point","coordinates":[22.0833333,48.2166667]}},{"properties":{"city":"Greymouth","country":"New Zealand","geo_score":0.857,"australian roller derby":1,"id":"a6dyfaylyxsv","geo_precision":"zip","state":"West Coast"},"type":"Feature","geometry":{"type":"Point","coordinates":[171.2,-42.4666667]}},{"properties":{"city":"Hobart","country":"Australia","geo_score":0.857,"australian roller derby":3,"id":"a6dyfb2givh5","geo_precision":"zip","state":"Tasmania"},"type":"Feature","geometry":{"type":"Point","coordinates":[147.3333333,-42.9166667]}},{"properties":{"city":"Hunter Region","country":"Australia","geo_score":0.762,"australian roller derby":1,"id":"a6dyfav2s5zk","geo_precision":"zip","state":"New South Wales"},"type":"Feature","geometry":{"type":"Point","coordinates":[-104.61779794,50.45008005]}},{"properties":{"city":"Hyde Park","country":"Australia","geo_score":0.732,"australian roller derby":1,"id":"a6dyfb1ym9zk","geo_precision":"zip","state":"South Australia"},"type":"Feature","geometry":{"type":"Point","coordinates":[2.6166667,9.35]}},{"properties":{"city":"Indooroopilly","country":"Australia","geo_score":0.769,"australian roller derby":1,"id":"a6dyfb1inrw6","geo_precision":"zip","state":"Queensland"},"type":"Feature","geometry":{"type":"Point","coordinates":[15.9166667,48.4]}},{"properties":{"city":"Ingham","country":"Australia","geo_score":0.786,"australian roller derby":1,"id":"a6dyfatqflsk","geo_precision":"zip","state":"Queensland"},"type":"Feature","geometry":{"type":"Point","coordinates":[-84.3833048,42.6000356]}},{"properties":{"city":"Ipswich","country":"Australia","geo_score":0.857,"australian roller derby":2,"id":"a6dyfb4buyfm","geo_precision":"zip","state":"Queensland"},"type":"Feature","geometry":{"type":"Point","coordinates":[1.15699768066406,52.0546544307833]}},{"properties":{"city":"Kalgoorlie","country":"Australia","geo_score":0.857,"australian roller derby":1,"id":"a6dyfb1cr50c","geo_precision":"zip","state":"Western Australia"},"type":"Feature","geometry":{"type":"Point","coordinates":[121.4666667,-30.75]}},{"properties":{"city":"Kuitpo","country":"Australia","geo_score":0.75,"australian roller derby":1,"id":"a6dyfasf7sju","geo_precision":"zip","state":"South Australia"},"type":"Feature","geometry":{"type":"Point","coordinates":[78.8166667,14.4666667]}},{"properties":{"city":"Lake Macquarie","country":"Australia","geo_score":0.747,"australian roller derby":1,"id":"a6dyfass1r7s","geo_precision":"zip","state":"New South Wales"},"type":"Feature","geometry":{"type":"Point","coordinates":[120.5936111,18.1988889]}},{"properties":{"city":"Launceston","country":"Australia","geo_score":0.857,"australian roller derby":4,"id":"a6dyfaz9grk1","geo_precision":"zip","state":"Tasmania"},"type":"Feature","geometry":{"type":"Point","coordinates":[147.1666667,-41.45]}},{"properties":{"city":"Logan","country":"Australia","geo_score":0.786,"australian roller derby":1,"id":"a6dyfapzulfl","geo_precision":"zip","state":"Queensland"},"type":"Feature","geometry":{"type":"Point","coordinates":[-121.4238414,38.4210209]}},{"properties":{"city":"Loganholme","country":"Australia","geo_score":0.779,"australian roller derby":1,"id":"a6dyfaxve43m","geo_precision":"zip","state":"Queensland"},"type":"Feature","geometry":{"type":"Point","coordinates":[-117.700309753418,33.59560402562]}},{"properties":{"city":"Mango Hill","country":"Australia","geo_score":0.762,"australian roller derby":1,"id":"a6dyfay0yqi1","geo_precision":"zip","state":"Queensland"},"type":"Feature","geometry":{"type":"Point","coordinates":[-86.2683333,12.1508333]}},{"properties":{"city":"Maroubra","country":"Australia","geo_score":0.786,"australian roller derby":1,"id":"a6dyfaqnyasx","geo_precision":"zip","state":"New South Wales"},"type":"Feature","geometry":{"type":"Point","coordinates":[15.6466667,46.5547222]}},{"properties":{"city":"Melbourne","country":"Australia","geo_score":0.857,"australian roller derby":203,"id":"a6dyfb1030qw","geo_precision":"zip","state":"Victoria"},"type":"Feature","geometry":{"type":"Point","coordinates":[144.963322877884,-37.8139965641595]}},{"properties":{"city":"Mildura","country":"Australia","geo_score":0.857,"australian roller derby":1,"id":"a6dyfb1vco5s","geo_precision":"zip","state":"Victoria"},"type":"Feature","geometry":{"type":"Point","coordinates":[142.15,-34.2]}},{"properties":{"city":"Mooloolaba","country":"Australia","geo_score":0.857,"australian roller derby":2,"id":"a6dyfaxmykmz","geo_precision":"zip","state":"Queensland"},"type":"Feature","geometry":{"type":"Point","coordinates":[153.1166667,-26.6833333]}},{"properties":{"city":"Mount Barker","country":"Australia","geo_score":0.753,"australian roller derby":6,"id":"a6dyfauq1zxb","geo_precision":"zip","state":"South Australia"},"type":"Feature","geometry":{"type":"Point","coordinates":[124.8441667,1.5016667]}},{"properties":{"city":"Mount Gambier","country":"Australia","geo_score":0.759,"australian roller derby":1,"id":"a6dyfavbfeql","geo_precision":"zip","state":"South Australia"},"type":"Feature","geometry":{"type":"Point","coordinates":[-77.1997039,39.1501072]}},{"properties":{"city":"Nathan","country":"Australia","geo_score":0.794,"australian roller derby":1,"id":"a6dyfavo7inv","geo_precision":"zip","state":"Queensland"},"type":"Feature","geometry":{"type":"Point","coordinates":[118.6666667,-27.05]}},{"properties":{"city":"New England","country":"Australia","geo_score":0.814,"australian roller derby":1,"id":"a6dyfarkrlyq","geo_precision":"zip","state":"New South Wales"},"type":"Feature","geometry":{"type":"Point","coordinates":[-0.703125,52.1604545577471]}},{"properties":{"city":"Newcastle","country":"Australia","geo_score":0.857,"australian roller derby":41,"id":"a6dyfazqprcf","geo_precision":"zip","state":"New South Wales"},"type":"Feature","geometry":{"type":"Point","coordinates":[151.776466369629,-32.9271483615446]}},{"properties":{"city":"Newstead","country":"Australia","geo_score":0.857,"australian roller derby":1,"id":"a6dyfarxozoh","geo_precision":"zip","state":"Queensland"},"type":"Feature","geometry":{"type":"Point","coordinates":[147.1666667,-41.4333333]}},{"properties":{"city":"Newtown","country":"Australia","geo_score":0.837,"australian roller derby":6,"id":"a6dyfaz6kqik","geo_precision":"zip","state":"New South Wales"},"type":"Feature","geometry":{"type":"Point","coordinates":[-71.2092214,42.3370414]}},{"properties":{"city":"Noosa","country":"Australia","geo_score":0.743,"australian roller derby":4,"id":"a6dyfaumopmf","geo_precision":"zip","state":"Queensland"},"type":"Feature","geometry":{"type":"Point","coordinates":[7.26608276367188,43.703126104186]}},{"properties":{"city":"North Sydney","country":"Australia","geo_score":0.792,"australian roller derby":1,"id":"a6dyfay24y5x","geo_precision":"zip","state":"New South Wales"},"type":"Feature","geometry":{"type":"Point","coordinates":[151.207323074341,-33.8678499639382]}},{"properties":{"city":"Northcote","country":"Australia","geo_score":0.8,"australian roller derby":1,"id":"a6dyfaw8omcl","geo_precision":"zip","state":"Victoria"},"type":"Feature","geometry":{"type":"Point","coordinates":[-111.9602196,41.3071645]}},{"properties":{"city":"Oak Flats","country":"Australia","geo_score":0.732,"australian roller derby":1,"id":"a6dyfaydqoaf","geo_precision":"zip","state":"New South Wales"},"type":"Feature","geometry":{"type":"Point","coordinates":[-81.5439619,28.5691677]}},{"properties":{"city":"Parramatta","country":"Australia","geo_score":0.8,"australian roller derby":1,"id":"a6dyfb0jo8ot","geo_precision":"zip","state":"New South Wales"},"type":"Feature","geometry":{"type":"Point","coordinates":[-39.3621870863309,-4.14739035251798]}},{"properties":{"city":"Penrith","country":"Australia","geo_score":0.816,"australian roller derby":1,"id":"a6dyfase24kr","geo_precision":"zip","state":"New South Wales"},"type":"Feature","geometry":{"type":"Point","coordinates":[-3.18,51.4347222]}},{"properties":{"city":"Perth","country":"Australia","geo_score":0.857,"australian roller derby":66,"id":"a6dyfaq0xgcg","geo_precision":"zip","state":"Western Australia"},"type":"Feature","geometry":{"type":"Point","coordinates":[115.8333333,-31.9333333]}},{"properties":{"city":"Pimpama","country":"Australia","geo_score":0.857,"australian roller derby":1,"id":"a6dyfaz6ovzf","geo_precision":"zip","state":"Queensland"},"type":"Feature","geometry":{"type":"Point","coordinates":[153.3,-27.8166667]}},{"properties":{"city":"Richmond","country":"Australia","geo_score":0.796,"australian roller derby":1,"id":"a6dyfb1xv6wo","geo_precision":"zip","state":"Victoria"},"type":"Feature","geometry":{"type":"Point","coordinates":[-74.1495875,40.5834379]}},{"properties":{"city":"Rockhampton","country":"Australia","geo_score":0.857,"australian roller derby":1,"id":"a6dyfazbhw9l","geo_precision":"zip","state":"Queensland"},"type":"Feature","geometry":{"type":"Point","coordinates":[150.5,-23.3833333]}},{"properties":{"city":"Roxby Downs","country":"Australia","geo_score":0.714,"australian roller derby":1,"id":"a6dyfav6tohz","geo_precision":"zip","state":"South Australia"},"type":"Feature","geometry":{"type":"Point","coordinates":[-86.250271,35.7503468]}},{"properties":{"city":"Shellharbour","country":"Australia","geo_score":0.786,"australian roller derby":1,"id":"a6dyfb2bfkn3","geo_precision":"zip","state":"New South Wales"},"type":"Feature","geometry":{"type":"Point","coordinates":[64.4944444,33.6702778]}},{"properties":{"city":"Southport","country":"Australia","geo_score":0.857,"australian roller derby":1,"id":"a6dyfapov81q","geo_precision":"zip","state":"Queensland"},"type":"Feature","geometry":{"type":"Point","coordinates":[-3.0,53.6666667]}},{"properties":{"city":"Stanwell Park","country":"Australia","geo_score":0.726,"australian roller derby":1,"id":"a6dyfayy1kso","geo_precision":"zip","state":"New South Wales"},"type":"Feature","geometry":{"type":"Point","coordinates":[2.6166667,9.35]}},{"properties":{"city":"Subiaco","country":"Australia","geo_score":0.816,"australian roller derby":1,"id":"a6dyfb4tjgdd","geo_precision":"zip","state":"Western Australia"},"type":"Feature","geometry":{"type":"Point","coordinates":[120.2333333,14.9]}},{"properties":{"city":"Sufers Paradise","country":"Australia","geo_score":0.796,"australian roller derby":1,"id":"a6dyfaron5pt","geo_precision":"zip","state":"Queensland"},"type":"Feature","geometry":{"type":"Point","coordinates":[-115.1466648,36.0971945]}},{"properties":{"city":"Sunshine Coast","country":"Australia","geo_score":0.747,"australian roller derby":15,"id":"a6dyfb09ae80","geo_precision":"zip","state":"Queensland"},"type":"Feature","geometry":{"type":"Point","coordinates":[113.8672222,35.3088889]}},{"properties":{"city":"Surfers Paradise","country":"Australia","geo_score":0.79,"australian roller derby":1,"id":"a6dyfb16jjvo","geo_precision":"zip","state":"Queensland"},"type":"Feature","geometry":{"type":"Point","coordinates":[-115.1466648,36.0971945]}},{"properties":{"city":"Surry Hills","country":"Australia","geo_score":0.743,"australian roller derby":1,"id":"a6dyfarfpa1m","geo_precision":"zip","state":"New South Wales"},"type":"Feature","geometry":{"type":"Point","coordinates":[7.7,11.0666667]}},{"properties":{"city":"Sydney","country":"Australia","geo_score":0.857,"australian roller derby":260,"id":"a6dyfb2didmg","geo_precision":"zip","state":"New South Wales"},"type":"Feature","geometry":{"type":"Point","coordinates":[151.207323074341,-33.8678499639382]}},{"properties":{"city":"Toowoomba","country":"Australia","geo_score":0.857,"australian roller derby":9,"id":"a6dyfb2m8hny","geo_precision":"zip","state":"Queensland"},"type":"Feature","geometry":{"type":"Point","coordinates":[151.9666667,-27.55]}},{"properties":{"city":"Torquay","country":"Australia","geo_score":0.735,"australian roller derby":5,"id":"a6dyfazqoous","geo_precision":"zip","state":"Victoria"},"type":"Feature","geometry":{"type":"Point","coordinates":[81.2833333,21.1833333]}},{"properties":{"city":"Torrensville","country":"Australia","geo_score":0.762,"australian roller derby":1,"id":"a6dyfazm8pwe","geo_precision":"zip","state":"South Australia"},"type":"Feature","geometry":{"type":"Point","coordinates":[9.7666667,51.5]}},{"properties":{"city":"Townsville","country":"Australia","geo_score":0.857,"australian roller derby":22,"id":"a6dyfaroumnu","geo_precision":"zip","state":"Queensland"},"type":"Feature","geometry":{"type":"Point","coordinates":[146.8,-19.25]}},{"properties":{"city":"Wamberal","country":"Australia","geo_score":0.794,"australian roller derby":1,"id":"a6dyfarxatxh","geo_precision":"zip","state":"New South Wales"},"type":"Feature","geometry":{"type":"Point","coordinates":[-98.0986204,29.9974362]}},{"properties":{"city":"Wellington","country":"New Zealand","geo_score":0.857,"australian roller derby":9,"id":"a6dyfawpz3jx","geo_precision":"zip","state":"Wellington"},"type":"Feature","geometry":{"type":"Point","coordinates":[174.7666667,-41.2833333]}},{"properties":{"city":"West End","country":"Australia","geo_score":0.755,"australian roller derby":1,"id":"a6dyfay0t90u","geo_precision":"zip","state":"Queensland"},"type":"Feature","geometry":{"type":"Point","coordinates":[121.65,-8.8333333]}},{"properties":{"city":"Whyalla","country":"Australia","geo_score":0.857,"australian roller derby":1,"id":"a6dyfatpo2es","geo_precision":"zip","state":"South Australia"},"type":"Feature","geometry":{"type":"Point","coordinates":[137.5833333,-33.0333333]}},{"properties":{"city":"Wollongong","country":"Australia","geo_score":0.857,"australian roller derby":37,"id":"a6dyfb27ylkn","geo_precision":"zip","state":"New South Wales"},"type":"Feature","geometry":{"type":"Point","coordinates":[150.8833333,-34.4333333]}}],"is_temporal":false,"author":{"url":"","metadata":"","contact_name":"","contact_address":"","source":"","contact_phone":""},"source":"","pagination":{"sort":null,"start":0,"total":86,"limit":1000000},"state":"complete","tags":"","published":"2010-11-23T17:00:00Z","id":79923}