{"type":"FeatureCollection","data_type":"Dataset","url_type":null,"permissions":[{"permissions":{"download":true,"view":true},"group_id":"everyone"}],"classification":null,"title":"PCPs","count":771,"stream_id":80401,"contributor":{"url":"http://geocommons.com/users/15085","name":"tramdotcom"},"data_attributes":null,"calculation_params":null,"icon_link":null,"link":"http://geocommons.com/overlays/80401.json","extent":[-122.482,33.7509,-73.9954,41.982],"geometry_types":["point"],"unique_name":null,"name":"PCPs","feature_count":771,"description":"","next_feature":null,"is_raster":false,"short_classification":"Y","stats":{"geo_score":{"max":1.0,"mean":0.870584954604412,"variance":0.0145302171239915,"stdev":0.12054135026617,"min":0.353,"median":0.897}},"features":[{"properties":{"city":"MOUNTAIN VIEW","zip":"94040","geo_score":0.691,"id":"a634relld2h3","address":"100 N MOFFETT BLVD STE 101","geo_precision":"range","state":"CA"},"type":"Feature","geometry":{"type":"Point","coordinates":[-122.07786,37.39555]}},{"properties":{"city":"MOUNTAIN VIEW","zip":"94040","geo_score":0.691,"id":"a634reke3eao","address":"100 N MOFFETT BLVD STE 101","geo_precision":"range","state":"CA"},"type":"Feature","geometry":{"type":"Point","coordinates":[-122.07786,37.39555]}},{"properties":{"city":"MOUNTAIN VIEW","zip":"94040","geo_score":0.691,"id":"a634redr4m5j","address":"100 N MOFFETT BLVD STE 101","geo_precision":"range","state":"CA"},"type":"Feature","geometry":{"type":"Point","coordinates":[-122.07786,37.39555]}},{"properties":{"city":"MOUNTAIN VIEW","zip":"94043","geo_score":0.854,"id":"a634re72z9sz","address":"100 N MOFFETT STE 101","geo_precision":"range","state":"CA"},"type":"Feature","geometry":{"type":"Point","coordinates":[-122.07786,37.39555]}},{"properties":{"city":"SANTA CLARA","zip":"95050","geo_score":0.916,"id":"a634ree2p67i","address":"100 N WINCHESTER BLVD STE 260","geo_precision":"range","state":"CA"},"type":"Feature","geometry":{"type":"Point","coordinates":[-121.950196,37.326969]}},{"properties":{"city":"SANTA CLARA","zip":"95050","geo_score":0.916,"id":"a634redsy6pg","address":"100 N WINCHESTER BLVD STE 260","geo_precision":"range","state":"CA"},"type":"Feature","geometry":{"type":"Point","coordinates":[-121.950196,37.326969]}},{"properties":{"city":"SANTA CLARA","zip":"95050","geo_score":0.916,"id":"a634refw42v3","address":"100 N WINCHESTER BLVD STE 260","geo_precision":"range","state":"CA"},"type":"Feature","geometry":{"type":"Point","coordinates":[-121.950196,37.326969]}},{"properties":{"city":"SANTA CLARA","zip":"95050","geo_score":0.916,"id":"a634reaelu7m","address":"100 N WINCHESTER BLVD STE 260","geo_precision":"range","state":"CA"},"type":"Feature","geometry":{"type":"Point","coordinates":[-121.950196,37.326969]}},{"properties":{"city":"SANTA CLARA","zip":"95050","geo_score":0.916,"id":"a634rearg5rb","address":"100 N WINCHESTER BLVD STE 264","geo_precision":"range","state":"CA"},"type":"Feature","geometry":{"type":"Point","coordinates":[-121.950196,37.326969]}},{"properties":{"city":"LOS ALTOS","zip":"94024","geo_score":0.89,"id":"a634re6l9ipd","address":"1000 FREMONT AVE STE 108","geo_precision":"range","state":"CA"},"type":"Feature","geometry":{"type":"Point","coordinates":[-122.08687,37.35246]}},{"properties":{"city":"CUPERTINO","zip":"95014","geo_score":0.513,"id":"a634rejkbkuy","address":"10011 N FOOTHILL STE 105","geo_precision":"street","state":"CA"},"type":"Feature","geometry":{"type":"Point","coordinates":[-122.06914,37.331377]}},{"properties":{"city":"CUPERTINO","zip":"95014","geo_score":0.922,"id":"a634re6ycpe8","address":"10050 BUBB RD","geo_precision":"range","state":"CA"},"type":"Feature","geometry":{"type":"Point","coordinates":[-122.051827,37.322149]}},{"properties":{"city":"CUPERTINO","zip":"95014","geo_score":0.805,"id":"a634rej078h7","address":"10050 BUBB RD STE 3","geo_precision":"range","state":"CA"},"type":"Feature","geometry":{"type":"Point","coordinates":[-122.051827,37.322149]}},{"properties":{"city":"CUPERTINO","zip":"95014","geo_score":0.805,"id":"a634rea2cabt","address":"10050 BUBB RD STE 3","geo_precision":"range","state":"CA"},"type":"Feature","geometry":{"type":"Point","coordinates":[-122.051827,37.322149]}},{"properties":{"city":"FULLERTON","zip":"92835","geo_score":0.902,"id":"a634re8i8ebr","address":"101 LAGUNA RD STE B","geo_precision":"range","state":"CA"},"type":"Feature","geometry":{"type":"Point","coordinates":[-117.92955,33.89254]}},{"properties":{"city":"CUPERTINO","zip":"95014","geo_score":0.824,"id":"a634redgkh7b","address":"10373 TORRE AVE STE G","geo_precision":"range","state":"CA"},"type":"Feature","geometry":{"type":"Point","coordinates":[-122.029224,37.317871]}},{"properties":{"city":"SAN JOSE","zip":"95125","geo_score":1.0,"id":"a634reato2dh","address":"1040 LINCOLN AVE","geo_precision":"range","state":"CA"},"type":"Feature","geometry":{"type":"Point","coordinates":[-121.902849,37.310907]}},{"properties":{"city":"SAN JOSE","zip":"95125","geo_score":1.0,"id":"a634re77sicw","address":"1040 LINCOLN AVE","geo_precision":"range","state":"CA"},"type":"Feature","geometry":{"type":"Point","coordinates":[-121.902849,37.310907]}},{"properties":{"city":"SAN JOSE","zip":"95125","geo_score":1.0,"id":"a634reanp8fd","address":"1040 LINCOLN AVE","geo_precision":"range","state":"CA"},"type":"Feature","geometry":{"type":"Point","coordinates":[-121.902849,37.310907]}},{"properties":{"city":"SAN JOSE","zip":"95125","geo_score":1.0,"id":"a634re7y20hj","address":"1040 LINCOLN AVE","geo_precision":"range","state":"CA"},"type":"Feature","geometry":{"type":"Point","coordinates":[-121.902849,37.310907]}},{"properties":{"city":"SAN JOSE","zip":"95125","geo_score":1.0,"id":"a634red4osfm","address":"1040 LINCOLN AVE","geo_precision":"range","state":"CA"},"type":"Feature","geometry":{"type":"Point","coordinates":[-121.902849,37.310907]}},{"properties":{"city":"SAN JOSE","zip":"95125","geo_score":1.0,"id":"a634red7xpc4","address":"1040 LINCOLN AVE","geo_precision":"range","state":"CA"},"type":"Feature","geometry":{"type":"Point","coordinates":[-121.902849,37.310907]}},{"properties":{"city":"SAN JOSE","zip":"95125","geo_score":1.0,"id":"a634rec8tedx","address":"1040 LINCOLN AVE","geo_precision":"range","state":"CA"},"type":"Feature","geometry":{"type":"Point","coordinates":[-121.902849,37.310907]}},{"properties":{"city":"SAN JOSE","zip":"95125","geo_score":1.0,"id":"a634ref1zq50","address":"1040 LINCOLN AVE","geo_precision":"range","state":"CA"},"type":"Feature","geometry":{"type":"Point","coordinates":[-121.902849,37.310907]}},{"properties":{"city":"SAN JOSE","zip":"95125","geo_score":1.0,"id":"a634redn6hep","address":"1040 LINCOLN AVE","geo_precision":"range","state":"CA"},"type":"Feature","geometry":{"type":"Point","coordinates":[-121.902849,37.310907]}},{"properties":{"city":"SAN JOSE","zip":"95125","geo_score":1.0,"id":"a634re5z755x","address":"1040 LINCOLN AVE","geo_precision":"range","state":"CA"},"type":"Feature","geometry":{"type":"Point","coordinates":[-121.902849,37.310907]}},{"properties":{"city":"SAN JOSE","zip":"95125","geo_score":1.0,"id":"a634rea9tohu","address":"1040 LINCOLN AVE","geo_precision":"range","state":"CA"},"type":"Feature","geometry":{"type":"Point","coordinates":[-121.902849,37.310907]}},{"properties":{"city":"SAN JOSE","zip":"95125","geo_score":1.0,"id":"a634re7o4hku","address":"1040 LINCOLN AVE","geo_precision":"range","state":"CA"},"type":"Feature","geometry":{"type":"Point","coordinates":[-121.902849,37.310907]}},{"properties":{"city":"CUPERTINO","zip":"95014","geo_score":0.832,"id":"a634re5lsnhx","address":"10430 S DE ANZA BL STE E220","geo_precision":"range","state":"CA"},"type":"Feature","geometry":{"type":"Point","coordinates":[-122.032356,37.316613]}},{"properties":{"city":"CUPERTINO","zip":"95014","geo_score":0.819,"id":"a634ree7wfp8","address":"10430 S DE ANZA BLVD STE 130","geo_precision":"range","state":"CA"},"type":"Feature","geometry":{"type":"Point","coordinates":[-122.032356,37.316613]}},{"properties":{"city":"SAN JOSE","zip":"95126","geo_score":0.883,"id":"a634reh00i77","address":"1046 W TAYLOR ST STE 100","geo_precision":"range","state":"CA"},"type":"Feature","geometry":{"type":"Point","coordinates":[-121.917592,37.337677]}},{"properties":{"city":"SAN JOSE","zip":"95126","geo_score":0.883,"id":"a634relmovj1","address":"1046 W TAYLOR ST STE 100","geo_precision":"range","state":"CA"},"type":"Feature","geometry":{"type":"Point","coordinates":[-121.917592,37.337677]}},{"properties":{"city":"SAN JOSE","zip":"95128","geo_score":0.507,"id":"a634rekiqr97","address":"105 N. BASCOM AVENUE SUITE 102","geo_precision":"street","state":"CA"},"type":"Feature","geometry":{"type":"Point","coordinates":[-121.931949,37.323382]}},{"properties":{"city":"SAN JOSE","zip":"95125","geo_score":0.914,"id":"a634rec7gaap","address":"1055 MINNESOTA AVE STE 11","geo_precision":"range","state":"CA"},"type":"Feature","geometry":{"type":"Point","coordinates":[-121.896311,37.304227]}},{"properties":{"city":"SAN JOSE","zip":"95125","geo_score":0.914,"id":"a634re6jxk0s","address":"1055 MINNESOTA AVE STE 11","geo_precision":"range","state":"CA"},"type":"Feature","geometry":{"type":"Point","coordinates":[-121.896311,37.304227]}},{"properties":{"city":"SAN JOSE","zip":"95129","geo_score":1.0,"id":"a634rekbxiuh","address":"1062 SARATOGA AVE","geo_precision":"range","state":"CA"},"type":"Feature","geometry":{"type":"Point","coordinates":[-121.977854,37.307314]}},{"properties":{"city":"SAN JOSE","zip":"95129","geo_score":1.0,"id":"a634regugzyh","address":"1079 S DE ANZA BLVD","geo_precision":"range","state":"CA"},"type":"Feature","geometry":{"type":"Point","coordinates":[-122.032256,37.307054]}},{"properties":{"city":"SANTA CLARA","zip":"95050","geo_score":0.91,"id":"a634rel751oy","address":"1080 SCOTT BLVD STE 5","geo_precision":"range","state":"CA"},"type":"Feature","geometry":{"type":"Point","coordinates":[-121.9593,37.346165]}},{"properties":{"city":"SAN JOSE","zip":"95128","geo_score":0.858,"id":"a634re7zorj0","address":"1101 S WINCHESTER BL STE H186","geo_precision":"range","state":"CA"},"type":"Feature","geometry":{"type":"Point","coordinates":[-121.950016,37.30703]}},{"properties":{"city":"SAN JOSE","zip":"95128","geo_score":0.862,"id":"a634reh9bnu6","address":"1101 S WINCHESTER BLV STE F164","geo_precision":"range","state":"CA"},"type":"Feature","geometry":{"type":"Point","coordinates":[-121.950016,37.30703]}},{"properties":{"city":"SAN JOSE","zip":"95125","geo_score":0.805,"id":"a634rebt7p3l","address":"1101 S WINCHESTER BLVD","geo_precision":"range","state":"CA"},"type":"Feature","geometry":{"type":"Point","coordinates":[-121.950016,37.30703]}},{"properties":{"city":"SAN JOSE","zip":"95128","geo_score":0.909,"id":"a634re6bs27m","address":"1101 S WINCHESTER BLVD A101","geo_precision":"range","state":"CA"},"type":"Feature","geometry":{"type":"Point","coordinates":[-121.950016,37.30703]}},{"properties":{"city":"SAN JOSE","zip":"95128","geo_score":0.878,"id":"a634re6tl6gv","address":"1101 S WINCHESTER BLVD ST N267","geo_precision":"range","state":"CA"},"type":"Feature","geometry":{"type":"Point","coordinates":[-121.950016,37.30703]}},{"properties":{"city":"MILPITAS","zip":"95035","geo_score":0.961,"id":"a634reia0b9b","address":"1103 S PARK VICTORIA","geo_precision":"range","state":"CA"},"type":"Feature","geometry":{"type":"Point","coordinates":[-121.876265,37.42005]}},{"properties":{"city":"SUNNYVALE","zip":"94086","geo_score":0.89,"id":"a634re5uga6w","address":"111 W EVELYN AVE STE 106","geo_precision":"range","state":"CA"},"type":"Feature","geometry":{"type":"Point","coordinates":[-122.029925,37.377634]}},{"properties":{"city":"MILPITAS","zip":"95035","geo_score":1.0,"id":"a634reb580oy","address":"1113 S PARK VICTORIA DR","geo_precision":"range","state":"CA"},"type":"Feature","geometry":{"type":"Point","coordinates":[-121.876219,37.419863]}},{"properties":{"city":"SANTA CLARA","zip":"95050","geo_score":0.91,"id":"a634relqvyoy","address":"1150 SCOTT BLVD STE B1","geo_precision":"range","state":"CA"},"type":"Feature","geometry":{"type":"Point","coordinates":[-121.959306,37.347037]}},{"properties":{"city":"SANTA CLARA","zip":"95050","geo_score":0.91,"id":"a634rehf3xa1","address":"1150 SCOTT BLVD STE D1","geo_precision":"range","state":"CA"},"type":"Feature","geometry":{"type":"Point","coordinates":[-121.959306,37.347037]}},{"properties":{"city":"SAN JOSE","zip":"95126","geo_score":1.0,"id":"a634refr0prv","address":"1168 PARK AVE","geo_precision":"range","state":"CA"},"type":"Feature","geometry":{"type":"Point","coordinates":[-121.913247,37.32593]}},{"properties":{"city":"MOUNTAIN VIEW","zip":"94040","geo_score":0.875,"id":"a634rehbhs6f","address":"1174 CASTRO ST STE 250","geo_precision":"range","state":"CA"},"type":"Feature","geometry":{"type":"Point","coordinates":[-122.08623,37.381564]}},{"properties":{"city":"CAMPBELL","zip":"95008","geo_score":0.894,"id":"a634re8vrq3d","address":"1190 DELL AVE STE L","geo_precision":"range","state":"CA"},"type":"Feature","geometry":{"type":"Point","coordinates":[-121.953054,37.26845]}},{"properties":{"city":"SAN JOSE","zip":"95128","geo_score":0.817,"id":"a634rekx5wyo","address":"1190 S BASCOM AVE STE 244","geo_precision":"range","state":"CA"},"type":"Feature","geometry":{"type":"Point","coordinates":[-121.931732,37.304321]}},{"properties":{"city":"SAN JOSE","zip":"95115","geo_score":0.805,"id":"a634re73jtr4","address":"121 BERNAL RD","geo_precision":"range","state":"CA"},"type":"Feature","geometry":{"type":"Point","coordinates":[-121.774062,37.22991]}},{"properties":{"city":"SUNNYVALE","zip":"94085","geo_score":0.89,"id":"a634re8aln0z","address":"1210 E ARQUES AVE STE 203","geo_precision":"range","state":"CA"},"type":"Feature","geometry":{"type":"Point","coordinates":[-121.998222,37.3805]}},{"properties":{"city":"PALO ALTO","zip":"94306","geo_score":1.0,"id":"a634rejen18l","address":"122 SHERMAN AVE","geo_precision":"range","state":"CA"},"type":"Feature","geometry":{"type":"Point","coordinates":[-122.141762,37.428227]}},{"properties":{"city":"SAN JOSE","zip":"95128","geo_score":0.927,"id":"a634rekqxl1w","address":"123 CIRO AVE","geo_precision":"range","state":"CA"},"type":"Feature","geometry":{"type":"Point","coordinates":[-121.938238,37.326909]}},{"properties":{"city":"SAN JOSE","zip":"95128","geo_score":0.843,"id":"a634rejn0n91","address":"123 DI SALVO AVE STE C","geo_precision":"range","state":"CA"},"type":"Feature","geometry":{"type":"Point","coordinates":[-121.937112,37.327055]}},{"properties":{"city":"SAN JOSE","zip":"95128","geo_score":0.847,"id":"a634redwi8t8","address":"123 DI SALVO STE D","geo_precision":"range","state":"CA"},"type":"Feature","geometry":{"type":"Point","coordinates":[-121.937112,37.327055]}},{"properties":{"city":"SAN JOSE","zip":"95128","geo_score":0.927,"id":"a634recv6dao","address":"123 DISALVO AVE","geo_precision":"range","state":"CA"},"type":"Feature","geometry":{"type":"Point","coordinates":[-121.937112,37.327055]}},{"properties":{"city":"SAN JOSE","zip":"95128","geo_score":0.927,"id":"a634rek1i66r","address":"123 DISALVO AVE","geo_precision":"range","state":"CA"},"type":"Feature","geometry":{"type":"Point","coordinates":[-121.937112,37.327055]}},{"properties":{"city":"SUNNYVALE","zip":"94089","geo_score":1.0,"id":"a634relq8mj6","address":"1237 REAMWOOD AVE","geo_precision":"range","state":"CA"},"type":"Feature","geometry":{"type":"Point","coordinates":[-121.988531,37.405209]}},{"properties":{"city":"SAN JOSE","zip":"95128","geo_score":0.792,"id":"a634ree978vg","address":"125 CIRO AVE STE 220","geo_precision":"range","state":"CA"},"type":"Feature","geometry":{"type":"Point","coordinates":[-121.938238,37.326897]}},{"properties":{"city":"SAN JOSE","zip":"95128","geo_score":0.792,"id":"a634rehygp6l","address":"125 CIRO AVE STE 240","geo_precision":"range","state":"CA"},"type":"Feature","geometry":{"type":"Point","coordinates":[-121.938238,37.326897]}},{"properties":{"city":"SAN JOSE","zip":"95116","geo_score":0.897,"id":"a634re5uy6cq","address":"125 N JACKSON AVE STE 101","geo_precision":"range","state":"CA"},"type":"Feature","geometry":{"type":"Point","coordinates":[-121.846378,37.36147]}},{"properties":{"city":"SAN JOSE","zip":"95128","geo_score":0.927,"id":"a634reky6n7i","address":"1250 S WINCHESTER BLVD","geo_precision":"range","state":"CA"},"type":"Feature","geometry":{"type":"Point","coordinates":[-121.949986,37.302856]}},{"properties":{"city":"SUNNYVALE","zip":"94089","geo_score":1.0,"id":"a634recqxlp7","address":"1255 REAMWOOD AVE","geo_precision":"range","state":"CA"},"type":"Feature","geometry":{"type":"Point","coordinates":[-121.988508,37.406102]}},{"properties":{"city":"SUNNYVALE","zip":"94089","geo_score":1.0,"id":"a634redc6ib5","address":"1255 REAMWOOD AVE","geo_precision":"range","state":"CA"},"type":"Feature","geometry":{"type":"Point","coordinates":[-121.988508,37.406102]}},{"properties":{"city":"SANTA CLARA","zip":"95050","geo_score":0.91,"id":"a634re6raq9b","address":"1280 SCOTT BLVD STE A","geo_precision":"range","state":"CA"},"type":"Feature","geometry":{"type":"Point","coordinates":[-121.959317,37.348926]}},{"properties":{"city":"SARATOGA","zip":"95070","geo_score":0.847,"id":"a634recck4jw","address":"12900 SARATOGA AVE STE A1","geo_precision":"range","state":"CA"},"type":"Feature","geometry":{"type":"Point","coordinates":[-122.003632,37.280604]}},{"properties":{"city":"SARATOGA","zip":"95070","geo_score":0.925,"id":"a634redqliy1","address":"12945 SARATOGA AVE","geo_precision":"range","state":"CA"},"type":"Feature","geometry":{"type":"Point","coordinates":[-122.003775,37.280425]}},{"properties":{"city":"SARATOGA","zip":"95070","geo_score":0.835,"id":"a634rekc9tv8","address":"12961 VILLAGE DR STE A","geo_precision":"range","state":"CA"},"type":"Feature","geometry":{"type":"Point","coordinates":[-122.004625,37.281066]}},{"properties":{"city":"MENLO PARK","zip":"94025","geo_score":0.97,"id":"a634refgjf6p","address":"1300 CRANE ST","geo_precision":"range","state":"CA"},"type":"Feature","geometry":{"type":"Point","coordinates":[-122.187531,37.452409]}},{"properties":{"city":"SAN JOSE","zip":"95125","geo_score":0.902,"id":"a634rebhoxvt","address":"1314 LINCOLN AVE STE 2F","geo_precision":"range","state":"CA"},"type":"Feature","geometry":{"type":"Point","coordinates":[-121.898359,37.30479]}},{"properties":{"city":"SAN JOSE","zip":"95125","geo_score":1.0,"id":"a634rec0qkms","address":"1333 MERIDIAN AVE","geo_precision":"range","state":"CA"},"type":"Feature","geometry":{"type":"Point","coordinates":[-121.913613,37.301593]}},{"properties":{"city":"SAN JOSE","zip":"95125","geo_score":1.0,"id":"a634rebuahun","address":"1333 MERIDIAN AVE","geo_precision":"range","state":"CA"},"type":"Feature","geometry":{"type":"Point","coordinates":[-121.913613,37.301593]}},{"properties":{"city":"SAN JOSE","zip":"95125","geo_score":1.0,"id":"a634rehtil10","address":"1333 MERIDIAN AVE","geo_precision":"range","state":"CA"},"type":"Feature","geometry":{"type":"Point","coordinates":[-121.913613,37.301593]}},{"properties":{"city":"SAN JOSE","zip":"95125","geo_score":1.0,"id":"a634ref2qr73","address":"1333 MERIDIAN AVE","geo_precision":"range","state":"CA"},"type":"Feature","geometry":{"type":"Point","coordinates":[-121.913613,37.301593]}},{"properties":{"city":"SAN JOSE","zip":"95125","geo_score":1.0,"id":"a634rek6q2ad","address":"1333 MERIDIAN AVE","geo_precision":"range","state":"CA"},"type":"Feature","geometry":{"type":"Point","coordinates":[-121.913613,37.301593]}},{"properties":{"city":"SAN JOSE","zip":"95125","geo_score":1.0,"id":"a634recy8p7d","address":"1333 MERIDIAN AVE","geo_precision":"range","state":"CA"},"type":"Feature","geometry":{"type":"Point","coordinates":[-121.913613,37.301593]}},{"properties":{"city":"SAN JOSE","zip":"95125","geo_score":1.0,"id":"a634rea813t9","address":"1333 MERIDIAN AVE","geo_precision":"range","state":"CA"},"type":"Feature","geometry":{"type":"Point","coordinates":[-121.913613,37.301593]}},{"properties":{"city":"SAN JOSE","zip":"95125","geo_score":1.0,"id":"a634refmb7ty","address":"1333 MERIDIAN AVE","geo_precision":"range","state":"CA"},"type":"Feature","geometry":{"type":"Point","coordinates":[-121.913613,37.301593]}},{"properties":{"city":"SAN JOSE","zip":"95125","geo_score":1.0,"id":"a634re79r9in","address":"1333 MERIDIAN AVE","geo_precision":"range","state":"CA"},"type":"Feature","geometry":{"type":"Point","coordinates":[-121.913613,37.301593]}},{"properties":{"city":"SAN JOSE","zip":"95125","geo_score":1.0,"id":"a634reipuclc","address":"1333 MERIDIAN AVE","geo_precision":"range","state":"CA"},"type":"Feature","geometry":{"type":"Point","coordinates":[-121.913613,37.301593]}},{"properties":{"city":"SAN JOSE","zip":"95125","geo_score":1.0,"id":"a634rek0r27n","address":"1333 MERIDIAN AVE","geo_precision":"range","state":"CA"},"type":"Feature","geometry":{"type":"Point","coordinates":[-121.913613,37.301593]}},{"properties":{"city":"SAN JOSE","zip":"95132","geo_score":0.819,"id":"a634refu6j9l","address":"1333 PIEDMONT RD STE 101","geo_precision":"range","state":"CA"},"type":"Feature","geometry":{"type":"Point","coordinates":[-121.847462,37.400913]}},{"properties":{"city":"SAN JOSE","zip":"95119","geo_score":0.927,"id":"a634recl0crj","address":"134 MARTINVALE LN STE A","geo_precision":"range","state":"CA"},"type":"Feature","geometry":{"type":"Point","coordinates":[-121.777942,37.230278]}},{"properties":{"city":"SAN JOSE","zip":"95116","geo_score":0.897,"id":"a634ref7ss2i","address":"135 N JACKSON AVE STE 103","geo_precision":"range","state":"CA"},"type":"Feature","geometry":{"type":"Point","coordinates":[-121.846549,37.361603]}},{"properties":{"city":"SAN JOSE","zip":"95116","geo_score":0.897,"id":"a634relkylkw","address":"135 N JACKSON AVE STE 201","geo_precision":"range","state":"CA"},"type":"Feature","geometry":{"type":"Point","coordinates":[-121.846549,37.361603]}},{"properties":{"city":"SAN JOSE","zip":"95116","geo_score":0.897,"id":"a634relnunxk","address":"135 N JACKSON AVE STE 203","geo_precision":"range","state":"CA"},"type":"Feature","geometry":{"type":"Point","coordinates":[-121.846549,37.361603]}},{"properties":{"city":"MOUNTAIN VIEW","zip":"94040","geo_score":0.743,"id":"a634rebn0vfx","address":"1350 GRANT RD STE 14A","geo_precision":"range","state":"CA"},"type":"Feature","geometry":{"type":"Point","coordinates":[-122.074873,37.378035]}},{"properties":{"city":"SAN JOSE","zip":"95128","geo_score":0.927,"id":"a634reb0bjfj","address":"1373 S BASCOM AVE","geo_precision":"range","state":"CA"},"type":"Feature","geometry":{"type":"Point","coordinates":[-121.931694,37.299881]}},{"properties":{"city":"SAN JOSE","zip":"95128","geo_score":0.927,"id":"a634reifck3c","address":"1373 S BASCOM AVE","geo_precision":"range","state":"CA"},"type":"Feature","geometry":{"type":"Point","coordinates":[-121.931694,37.299881]}},{"properties":{"city":"SAN MATEO","zip":"94403","geo_score":0.927,"id":"a634re97470m","address":"14 W 41ST AVE","geo_precision":"range","state":"CA"},"type":"Feature","geometry":{"type":"Point","coordinates":[-122.29145,37.530414]}},{"properties":{"city":"SANTA CLARA","zip":"95050","geo_score":0.916,"id":"a634rejdyvmi","address":"1400 COLEMAN AVE STE D26","geo_precision":"range","state":"CA"},"type":"Feature","geometry":{"type":"Point","coordinates":[-121.938568,37.358041]}},{"properties":{"city":"SAN JOSE","zip":"95126","geo_score":1.0,"id":"a634re5g3sum","address":"1425 PARK AVE","geo_precision":"range","state":"CA"},"type":"Feature","geometry":{"type":"Point","coordinates":[-121.91885,37.329659]}},{"properties":{"city":"LOS GATOS","zip":"95032","geo_score":0.805,"id":"a634regxo790","address":"143 E MAIN ST","geo_precision":"range","state":"CA"},"type":"Feature","geometry":{"type":"Point","coordinates":[-121.977834,37.221151]}},{"properties":{"city":"LOS GATOS","zip":"95032","geo_score":0.805,"id":"a634reku7zd9","address":"143 E MAIN ST","geo_precision":"range","state":"CA"},"type":"Feature","geometry":{"type":"Point","coordinates":[-121.977834,37.221151]}},{"properties":{"city":"LOS GATOS","zip":"95032","geo_score":0.805,"id":"a634recnbzys","address":"143 E MAIN ST","geo_precision":"range","state":"CA"},"type":"Feature","geometry":{"type":"Point","coordinates":[-121.977834,37.221151]}},{"properties":{"city":"LOS GATOS","zip":"95032","geo_score":0.805,"id":"a634red4uhx4","address":"143 E MAIN ST","geo_precision":"range","state":"CA"},"type":"Feature","geometry":{"type":"Point","coordinates":[-121.977834,37.221151]}},{"properties":{"city":"MILPITAS","zip":"95035","geo_score":1.0,"id":"a634rejy5pzj","address":"143 S MAIN ST","geo_precision":"range","state":"CA"},"type":"Feature","geometry":{"type":"Point","coordinates":[-121.906608,37.42843]}},{"properties":{"city":"SAN JOSE","zip":"95129","geo_score":0.922,"id":"a634reiorqxu","address":"1440 S DE ANZA BLVD STE A","geo_precision":"range","state":"CA"},"type":"Feature","geometry":{"type":"Point","coordinates":[-122.03237,37.297949]}},{"properties":{"city":"SAN JOSE","zip":"95116","geo_score":0.897,"id":"a634reh4ty66","address":"145 N JACKSON AVE SUITE A","geo_precision":"range","state":"CA"},"type":"Feature","geometry":{"type":"Point","coordinates":[-121.846684,37.361736]}},{"properties":{"city":"LOS GATOS","zip":"95032","geo_score":0.768,"id":"a634regzcqu7","address":"14601 S BASCOM AVE STE 100","geo_precision":"range","state":"CA"},"type":"Feature","geometry":{"type":"Point","coordinates":[-121.949526,37.256749]}},{"properties":{"city":"LOS GATOS","zip":"95032","geo_score":0.768,"id":"a634reim28pn","address":"14601 S BASCOM AVE STE 220","geo_precision":"range","state":"CA"},"type":"Feature","geometry":{"type":"Point","coordinates":[-121.949526,37.256749]}},{"properties":{"city":"LOS GATOS","zip":"95032","geo_score":0.768,"id":"a634red0rgzw","address":"14601 S BASCOM AVE STE 220","geo_precision":"range","state":"CA"},"type":"Feature","geometry":{"type":"Point","coordinates":[-121.949526,37.256749]}},{"properties":{"city":"LOS GATOS","zip":"95032","geo_score":0.768,"id":"a634regp4r58","address":"14601 S BASCOM AVE STE 220","geo_precision":"range","state":"CA"},"type":"Feature","geometry":{"type":"Point","coordinates":[-121.949526,37.256749]}},{"properties":{"city":"LOS GATOS","zip":"95032","geo_score":0.768,"id":"a634reitqrxq","address":"14651 S BASCOM AVE STE 230","geo_precision":"range","state":"CA"},"type":"Feature","geometry":{"type":"Point","coordinates":[-121.950191,37.25595]}},{"properties":{"city":"LOS GATOS","zip":"95032","geo_score":0.768,"id":"a634reb66ofq","address":"14651 S BASCOM AVE STE 230","geo_precision":"range","state":"CA"},"type":"Feature","geometry":{"type":"Point","coordinates":[-121.950191,37.25595]}},{"properties":{"city":"LOS GATOS","zip":"95032","geo_score":0.768,"id":"a634rejo0fef","address":"14651 S BASCOM AVE STE 230","geo_precision":"range","state":"CA"},"type":"Feature","geometry":{"type":"Point","coordinates":[-121.950191,37.25595]}},{"properties":{"city":"LOS GATOS","zip":"95032","geo_score":0.768,"id":"a634rehrkmgx","address":"14651 S BASCOM AVE STE 230","geo_precision":"range","state":"CA"},"type":"Feature","geometry":{"type":"Point","coordinates":[-121.950191,37.25595]}},{"properties":{"city":"LOS GATOS","zip":"95032","geo_score":0.768,"id":"a634reizl1fj","address":"14651 S BASCOM AVE STE 230","geo_precision":"range","state":"CA"},"type":"Feature","geometry":{"type":"Point","coordinates":[-121.950191,37.25595]}},{"properties":{"city":"LOS GATOS","zip":"95032","geo_score":0.768,"id":"a634rejfppzl","address":"14651 S BASCOM AVE STE 230","geo_precision":"range","state":"CA"},"type":"Feature","geometry":{"type":"Point","coordinates":[-121.950191,37.25595]}},{"properties":{"city":"LOS GATOS","zip":"95032","geo_score":0.768,"id":"a634re8iur7d","address":"14651 S BASCOM AVE STE 230","geo_precision":"range","state":"CA"},"type":"Feature","geometry":{"type":"Point","coordinates":[-121.950191,37.25595]}},{"properties":{"city":"LOS GATOS","zip":"95032","geo_score":0.768,"id":"a634red4i9db","address":"14651 S BASCOM AVE STE 230","geo_precision":"range","state":"CA"},"type":"Feature","geometry":{"type":"Point","coordinates":[-121.950191,37.25595]}},{"properties":{"city":"LOS GATOS","zip":"95032","geo_score":0.768,"id":"a634reixwki6","address":"14651 S BASCOM AVE STE 230","geo_precision":"range","state":"CA"},"type":"Feature","geometry":{"type":"Point","coordinates":[-121.950191,37.25595]}},{"properties":{"city":"LOS GATOS","zip":"95032","geo_score":0.768,"id":"a634reke3mlz","address":"14651 S BASCOM AVE STE 230","geo_precision":"range","state":"CA"},"type":"Feature","geometry":{"type":"Point","coordinates":[-121.950191,37.25595]}},{"properties":{"city":"LOS GATOS","zip":"95032","geo_score":0.758,"id":"a634redtybia","address":"14651 SO BASCOM AVE STE 102","geo_precision":"range","state":"CA"},"type":"Feature","geometry":{"type":"Point","coordinates":[-121.950191,37.25595]}},{"properties":{"city":"SANTA CLARA","zip":"95051","geo_score":0.89,"id":"a634regozjqp","address":"1470 HALFORD AVE STE 168","geo_precision":"range","state":"CA"},"type":"Feature","geometry":{"type":"Point","coordinates":[-121.99926,37.351694]}},{"properties":{"city":"LOS GATOS","zip":"95032","geo_score":0.922,"id":"a634refqxdc9","address":"14911 NATIONAL AVE STE 7","geo_precision":"range","state":"CA"},"type":"Feature","geometry":{"type":"Point","coordinates":[-121.951474,37.251662]}},{"properties":{"city":"LOS GATOS","zip":"95032","geo_score":0.922,"id":"a634re8d0wxg","address":"14981 NATIONAL AVE STE 5","geo_precision":"range","state":"CA"},"type":"Feature","geometry":{"type":"Point","coordinates":[-121.95126,37.250832]}},{"properties":{"city":"LOS GATOS","zip":"95032","geo_score":0.922,"id":"a634regggbgu","address":"14981 NATIONAL AVE STE 6","geo_precision":"range","state":"CA"},"type":"Feature","geometry":{"type":"Point","coordinates":[-121.95126,37.250832]}},{"properties":{"city":"LOS GATOS","zip":"95032","geo_score":0.922,"id":"a634re64ok2p","address":"14981 NATIONAL AVE STE 6","geo_precision":"range","state":"CA"},"type":"Feature","geometry":{"type":"Point","coordinates":[-121.95126,37.250832]}},{"properties":{"city":"SAN JOSE","zip":"95116","geo_score":0.897,"id":"a634regvx7e9","address":"150 N JACKSON AVE STE 100","geo_precision":"range","state":"CA"},"type":"Feature","geometry":{"type":"Point","coordinates":[-121.846893,37.362007]}},{"properties":{"city":"SAN JOSE","zip":"95116","geo_score":0.897,"id":"a634rebbuj8z","address":"150 N JACKSON AVE STE 105","geo_precision":"range","state":"CA"},"type":"Feature","geometry":{"type":"Point","coordinates":[-121.846893,37.362007]}},{"properties":{"city":"CAMPBRLL","zip":"95008","geo_score":0.885,"id":"a634rebcx4me","address":"1500 HAMILTON AVE STE 212","geo_precision":"range","state":"CA"},"type":"Feature","geometry":{"type":"Point","coordinates":[-121.923622,37.294379]}},{"properties":{"city":"LOS GATOS","zip":"95032","geo_score":0.927,"id":"a634re9imurb","address":"15000 LOS GATOS BLVD STE 3","geo_precision":"range","state":"CA"},"type":"Feature","geometry":{"type":"Point","coordinates":[-121.953057,37.252455]}},{"properties":{"city":"LOS GATOS","zip":"95032","geo_score":0.927,"id":"a634recftcbd","address":"15000 LOS GATOS BLVD STE 4","geo_precision":"range","state":"CA"},"type":"Feature","geometry":{"type":"Point","coordinates":[-121.953057,37.252455]}},{"properties":{"city":"LOS GATOS","zip":"95032","geo_score":0.927,"id":"a634re83lujk","address":"15000 LOS GATOS BLVD STE 4","geo_precision":"range","state":"CA"},"type":"Feature","geometry":{"type":"Point","coordinates":[-121.953057,37.252455]}},{"properties":{"city":"LOS GATOS","zip":"95032","geo_score":0.897,"id":"a634regvyf63","address":"15195 NATIONAL AVE STE 203","geo_precision":"range","state":"CA"},"type":"Feature","geometry":{"type":"Point","coordinates":[-121.950327,37.247531]}},{"properties":{"city":"LOS GATOS","zip":"95032","geo_score":0.897,"id":"a634regwispj","address":"15195 NATIONAL AVE STE 203","geo_precision":"range","state":"CA"},"type":"Feature","geometry":{"type":"Point","coordinates":[-121.950327,37.247531]}},{"properties":{"city":"LOS GATOS","zip":"95032","geo_score":0.897,"id":"a634re9l0klb","address":"15195 NATIONAL AVE STE 205","geo_precision":"range","state":"CA"},"type":"Feature","geometry":{"type":"Point","coordinates":[-121.950327,37.247531]}},{"properties":{"city":"SAN JOSE","zip":"95125","geo_score":0.897,"id":"a634regkk797","address":"1530 MERIDIAN AVE STE 150","geo_precision":"range","state":"CA"},"type":"Feature","geometry":{"type":"Point","coordinates":[-121.913561,37.296933]}},{"properties":{"city":"SAN JOSE","zip":"95121","geo_score":0.533,"id":"a634re80tcrx","address":"1569 LEXANN AVE STE 112","geo_precision":"street","state":"CA"},"type":"Feature","geometry":{"type":"Point","coordinates":[-121.826891,37.312529]}},{"properties":{"city":"SAN JOSE","zip":"95121","geo_score":0.533,"id":"a634rei3wjy2","address":"1569 LEXANN AVE STE 114","geo_precision":"street","state":"CA"},"type":"Feature","geometry":{"type":"Point","coordinates":[-121.826891,37.312529]}},{"properties":{"city":"SAN JOSE","zip":"95121","geo_score":0.533,"id":"a634rejxfmmx","address":"1569 LEXANN AVE STE 120","geo_precision":"street","state":"CA"},"type":"Feature","geometry":{"type":"Point","coordinates":[-121.826891,37.312529]}},{"properties":{"city":"SAN JOSE","zip":"95121","geo_score":0.533,"id":"a634rec9fcaq","address":"1569 LEXANN AVE STE 122","geo_precision":"street","state":"CA"},"type":"Feature","geometry":{"type":"Point","coordinates":[-121.826891,37.312529]}},{"properties":{"city":"SAN JOSE","zip":"95121","geo_score":0.533,"id":"a634rej6t3tv","address":"1569 LEXANN AVE STE 128","geo_precision":"street","state":"CA"},"type":"Feature","geometry":{"type":"Point","coordinates":[-121.826891,37.312529]}},{"properties":{"city":"SAN JOSE","zip":"95121","geo_score":0.533,"id":"a634reljt7k6","address":"1569 LEXANN AVE STE 206","geo_precision":"street","state":"CA"},"type":"Feature","geometry":{"type":"Point","coordinates":[-121.826891,37.312529]}},{"properties":{"city":"SAN JOSE","zip":"95121","geo_score":0.533,"id":"a634re5zb5vf","address":"1569 LEXANN AVE STE 230","geo_precision":"street","state":"CA"},"type":"Feature","geometry":{"type":"Point","coordinates":[-121.826891,37.312529]}},{"properties":{"city":"SAN JOSE","zip":"95121","geo_score":0.533,"id":"a634re91ke3h","address":"1569 LEXANN AVE STE 232","geo_precision":"street","state":"CA"},"type":"Feature","geometry":{"type":"Point","coordinates":[-121.826891,37.312529]}},{"properties":{"city":"SAN JOSE","zip":"95121","geo_score":0.533,"id":"a634rea9ny0l","address":"1569 LEXANN AVE STE 232","geo_precision":"street","state":"CA"},"type":"Feature","geometry":{"type":"Point","coordinates":[-121.826891,37.312529]}},{"properties":{"city":"SANTA CRUZ","zip":"95060","geo_score":0.827,"id":"a634rejr213f","address":"157 VAN NESS AVE STE 1","geo_precision":"range","state":"CA"},"type":"Feature","geometry":{"type":"Point","coordinates":[-122.036434,36.968349]}},{"properties":{"city":"SAN JOSE","zip":"95128","geo_score":0.65,"id":"a634rebr4oie","address":"1580 S WINCHESTER BLVD STE 202","geo_precision":"street","state":"CA"},"type":"Feature","geometry":{"type":"Point","coordinates":[-121.949924,37.29758]}},{"properties":{"city":"CAMPBELL","zip":"95008","geo_score":0.916,"id":"a634reb1egsj","address":"1580 S WINCHESTER BLVD STE 202","geo_precision":"range","state":"CA"},"type":"Feature","geometry":{"type":"Point","coordinates":[-121.9498,37.295125]}},{"properties":{"city":"CAMPBELL","zip":"95008","geo_score":0.886,"id":"a634reku81at","address":"1580 SO WINCHESTER STE 202","geo_precision":"range","state":"CA"},"type":"Feature","geometry":{"type":"Point","coordinates":[-121.9498,37.295125]}},{"properties":{"city":"LOS GATOS","zip":"95032","geo_score":0.878,"id":"a634rednuou3","address":"15810 LOS GATOS BLVD","geo_precision":"range","state":"CA"},"type":"Feature","geometry":{"type":"Point","coordinates":[-121.961687,37.238607]}},{"properties":{"city":"SANTA CLARA","zip":"95050","geo_score":0.955,"id":"a634reg2acgb","address":"1588 HOMESTEAD RD MB10","geo_precision":"range","state":"CA"},"type":"Feature","geometry":{"type":"Point","coordinates":[-121.95109,37.34638]}},{"properties":{"city":"SANTA CLARA","zip":"95050","geo_score":0.922,"id":"a634reh07tzh","address":"1588 HOMESTEAD RD STE 5","geo_precision":"range","state":"CA"},"type":"Feature","geometry":{"type":"Point","coordinates":[-121.95109,37.34638]}},{"properties":{"city":"LOS GATOS","zip":"95032","geo_score":0.938,"id":"a634regzpk8l","address":"15899 LOS GATOS ALMADEN STE 7","geo_precision":"range","state":"CA"},"type":"Feature","geometry":{"type":"Point","coordinates":[-121.947641,37.243617]}},{"properties":{"city":"LOS GATOS","zip":"95032","geo_score":0.927,"id":"a634re663ekt","address":"15951 LOS GATOS BLVD STE 6","geo_precision":"range","state":"CA"},"type":"Feature","geometry":{"type":"Point","coordinates":[-121.96266,37.23666]}},{"properties":{"city":"CAMPBELL","zip":"95008","geo_score":0.902,"id":"a634rei2x00g","address":"1600 W CAMPBELL AVE STE 202","geo_precision":"range","state":"CA"},"type":"Feature","geometry":{"type":"Point","coordinates":[-121.978111,37.285937]}},{"properties":{"city":"CAMPBELL","zip":"95008","geo_score":0.902,"id":"a634rec5nifm","address":"1600 W CAMPBELL AVE STE 202","geo_precision":"range","state":"CA"},"type":"Feature","geometry":{"type":"Point","coordinates":[-121.978111,37.285937]}},{"properties":{"city":"CUPERTINO","zip":"95014","geo_score":0.819,"id":"a634reg7kse3","address":"1601 S DE ANZA BLVD STE 111","geo_precision":"range","state":"CA"},"type":"Feature","geometry":{"type":"Point","coordinates":[-122.032259,37.296018]}},{"properties":{"city":"SAN JOSE","zip":"95124","geo_score":0.85,"id":"a634refpemtn","address":"1610 BLOSSOM HILL RD STE 1","geo_precision":"range","state":"CA"},"type":"Feature","geometry":{"type":"Point","coordinates":[-121.904066,37.236359]}},{"properties":{"city":"VAN NUYS","zip":"91406","geo_score":1.0,"id":"a634regkoxo6","address":"16129 COHASSET ST","geo_precision":"range","state":"CA"},"type":"Feature","geometry":{"type":"Point","coordinates":[-118.48419,34.20662]}},{"properties":{"city":"PINOLE","zip":"94564","geo_score":0.854,"id":"a634relq985b","address":"1617 CANYON DRIVE  SUITE 301","geo_precision":"range","state":"CA"},"type":"Feature","geometry":{"type":"Point","coordinates":[-122.302026,37.995511]}},{"properties":{"city":"ALVISO","zip":"95002","geo_score":1.0,"id":"a634re8fhjhc","address":"1621 GOLD ST","geo_precision":"range","state":"CA"},"type":"Feature","geometry":{"type":"Point","coordinates":[-121.976077,37.423918]}},{"properties":{"city":"ALVISO","zip":"95002","geo_score":1.0,"id":"a634reih9ckn","address":"1621 GOLD ST","geo_precision":"range","state":"CA"},"type":"Feature","geometry":{"type":"Point","coordinates":[-121.976077,37.423918]}},{"properties":{"city":"SAN JOSE","zip":"95112","geo_score":0.405,"id":"a634recnw8uk","address":"1621 GOLD STREET","geo_precision":"street","state":"CA"},"type":"Feature","geometry":{"type":"Point","coordinates":[-121.842496,37.394683]}},{"properties":{"city":"SAN JOSE","zip":"95121","geo_score":0.977,"id":"a634rek602z5","address":"1624 E CAPITOL EXPWY","geo_precision":"range","state":"CA"},"type":"Feature","geometry":{"type":"Point","coordinates":[-121.810766,37.307223]}},{"properties":{"city":"SAN JOSE","zip":"95126","geo_score":0.89,"id":"a634reeutobd","address":"1625 THE ALAMEDA STE 512","geo_precision":"range","state":"CA"},"type":"Feature","geometry":{"type":"Point","coordinates":[-121.91718,37.335946]}},{"properties":{"city":"CAMPBELL","zip":"95008","geo_score":1.0,"id":"a634re5v5iqs","address":"163 E HAMILTON AVE","geo_precision":"range","state":"CA"},"type":"Feature","geometry":{"type":"Point","coordinates":[-121.946567,37.294166]}},{"properties":{"city":"SAN JOSE","zip":"95121","geo_score":1.0,"id":"a634re5rw7pd","address":"1642 E CAPITOL EXPY","geo_precision":"range","state":"CA"},"type":"Feature","geometry":{"type":"Point","coordinates":[-121.810354,37.307588]}},{"properties":{"city":"SAN JOSE","zip":"95121","geo_score":1.0,"id":"a634rej0rbnf","address":"1642 E CAPITOL EXPY","geo_precision":"range","state":"CA"},"type":"Feature","geometry":{"type":"Point","coordinates":[-121.810354,37.307588]}},{"properties":{"city":"SAN JOSE","zip":"95121","geo_score":0.916,"id":"a634re8i2xho","address":"1661 BURDETTE DR STE 1","geo_precision":"range","state":"CA"},"type":"Feature","geometry":{"type":"Point","coordinates":[-121.825936,37.31978]}},{"properties":{"city":"SAN JOSE","zip":"95121","geo_score":0.916,"id":"a634re7hrcu9","address":"1661 BURDETTE DR STE N","geo_precision":"range","state":"CA"},"type":"Feature","geometry":{"type":"Point","coordinates":[-121.825936,37.31978]}},{"properties":{"city":"SAN JOSE","zip":"95128","geo_score":0.927,"id":"a634regdt8zc","address":"167 N BASCOM AVE","geo_precision":"range","state":"CA"},"type":"Feature","geometry":{"type":"Point","coordinates":[-121.931978,37.326492]}},{"properties":{"city":"SAN JOSE","zip":"95128","geo_score":0.927,"id":"a634rei8jsma","address":"167 N BASCOM AVE","geo_precision":"range","state":"CA"},"type":"Feature","geometry":{"type":"Point","coordinates":[-121.931978,37.326492]}},{"properties":{"city":"SAN JOSE","zip":"95116","geo_score":0.695,"id":"a634rek2gs9q","address":"1675 BURDETTE DR STE 202","geo_precision":"range","state":"CA"},"type":"Feature","geometry":{"type":"Point","coordinates":[-121.825816,37.319883]}},{"properties":{"city":"SAN JOSE","zip":"95126","geo_score":1.0,"id":"a634reknoyr3","address":"1691 THE ALAMEDA","geo_precision":"range","state":"CA"},"type":"Feature","geometry":{"type":"Point","coordinates":[-121.918953,37.337379]}},{"properties":{"city":"SAN JOSE","zip":"95126","geo_score":1.0,"id":"a634rea10j1y","address":"1691 THE ALAMEDA","geo_precision":"range","state":"CA"},"type":"Feature","geometry":{"type":"Point","coordinates":[-121.918953,37.337379]}},{"properties":{"city":"SAN JOSE","zip":"95126","geo_score":1.0,"id":"a634re9p6ca3","address":"1691 THE ALAMEDA","geo_precision":"range","state":"CA"},"type":"Feature","geometry":{"type":"Point","coordinates":[-121.918953,37.337379]}},{"properties":{"city":"SAN JOSE","zip":"95126","geo_score":1.0,"id":"a634re7z4doy","address":"1691 THE ALAMEDA","geo_precision":"range","state":"CA"},"type":"Feature","geometry":{"type":"Point","coordinates":[-121.918953,37.337379]}},{"properties":{"city":"SAN JOSE","zip":"95126","geo_score":1.0,"id":"a634re5o01i5","address":"1691 THE ALAMEDA","geo_precision":"range","state":"CA"},"type":"Feature","geometry":{"type":"Point","coordinates":[-121.918953,37.337379]}},{"properties":{"city":"SAN JOSE","zip":"95126","geo_score":1.0,"id":"a634redoadb8","address":"1691 THE ALAMEDA","geo_precision":"range","state":"CA"},"type":"Feature","geometry":{"type":"Point","coordinates":[-121.918953,37.337379]}},{"properties":{"city":"SAN JOSE","zip":"95126","geo_score":1.0,"id":"a634re5bahnu","address":"1691 THE ALAMEDA","geo_precision":"range","state":"CA"},"type":"Feature","geometry":{"type":"Point","coordinates":[-121.918953,37.337379]}},{"properties":{"city":"SAN JOSE","zip":"95126","geo_score":1.0,"id":"a634refuzie6","address":"1691 THE ALAMEDA","geo_precision":"range","state":"CA"},"type":"Feature","geometry":{"type":"Point","coordinates":[-121.918953,37.337379]}},{"properties":{"city":"SAN JOSE","zip":"95126","geo_score":1.0,"id":"a634reje9kq6","address":"1691 THE ALAMEDA","geo_precision":"range","state":"CA"},"type":"Feature","geometry":{"type":"Point","coordinates":[-121.918953,37.337379]}},{"properties":{"city":"SAN JOSE","zip":"95126","geo_score":1.0,"id":"a634re9us197","address":"1691 THE ALAMEDA","geo_precision":"range","state":"CA"},"type":"Feature","geometry":{"type":"Point","coordinates":[-121.918953,37.337379]}},{"properties":{"city":"SAN JOSE","zip":"95126","geo_score":1.0,"id":"a634re7cycps","address":"1691 THE ALAMEDA","geo_precision":"range","state":"CA"},"type":"Feature","geometry":{"type":"Point","coordinates":[-121.918953,37.337379]}},{"properties":{"city":"SAN JOSE","zip":"95126","geo_score":1.0,"id":"a634regv2iq8","address":"1691 THE ALAMEDA","geo_precision":"range","state":"CA"},"type":"Feature","geometry":{"type":"Point","coordinates":[-121.918953,37.337379]}},{"properties":{"city":"SAN JOSE","zip":"95128","geo_score":0.805,"id":"a634rehz82lw","address":"1691 THE ALAMEDA","geo_precision":"range","state":"CA"},"type":"Feature","geometry":{"type":"Point","coordinates":[-121.918953,37.337379]}},{"properties":{"city":"SAN JOSE","zip":"95126","geo_score":1.0,"id":"a634recubfxh","address":"1691 THE ALAMEDA","geo_precision":"range","state":"CA"},"type":"Feature","geometry":{"type":"Point","coordinates":[-121.918953,37.337379]}},{"properties":{"city":"SAN JOSE","zip":"95126","geo_score":1.0,"id":"a634re7fyohh","address":"1691 THE ALAMEDA","geo_precision":"range","state":"CA"},"type":"Feature","geometry":{"type":"Point","coordinates":[-121.918953,37.337379]}},{"properties":{"city":"SAN JOSE","zip":"95126","geo_score":1.0,"id":"a634redr304o","address":"1691 THE ALAMEDA","geo_precision":"range","state":"CA"},"type":"Feature","geometry":{"type":"Point","coordinates":[-121.918953,37.337379]}},{"properties":{"city":"SAN JOSE","zip":"95126","geo_score":1.0,"id":"a634rejnm977","address":"1691 THE ALAMEDA","geo_precision":"range","state":"CA"},"type":"Feature","geometry":{"type":"Point","coordinates":[-121.918953,37.337379]}},{"properties":{"city":"SAN JOSE","zip":"95126","geo_score":1.0,"id":"a634recfqxyu","address":"1691 THE ALAMEDA","geo_precision":"range","state":"CA"},"type":"Feature","geometry":{"type":"Point","coordinates":[-121.918953,37.337379]}},{"properties":{"city":"SAN JOSE","zip":"95126","geo_score":1.0,"id":"a634reglxt8w","address":"1691 THE ALAMEDA","geo_precision":"range","state":"CA"},"type":"Feature","geometry":{"type":"Point","coordinates":[-121.918953,37.337379]}},{"properties":{"city":"SAN JOSE","zip":"95126","geo_score":1.0,"id":"a634re5jcg0u","address":"1691 THE ALAMEDA","geo_precision":"range","state":"CA"},"type":"Feature","geometry":{"type":"Point","coordinates":[-121.918953,37.337379]}},{"properties":{"city":"SAN JOSE","zip":"95126","geo_score":1.0,"id":"a634rej9lfdv","address":"1691 THE ALAMEDA","geo_precision":"range","state":"CA"},"type":"Feature","geometry":{"type":"Point","coordinates":[-121.918953,37.337379]}},{"properties":{"city":"SAN JOSE","zip":"95126","geo_score":1.0,"id":"a634re90zqsw","address":"1691 THE ALAMEDA","geo_precision":"range","state":"CA"},"type":"Feature","geometry":{"type":"Point","coordinates":[-121.918953,37.337379]}},{"properties":{"city":"SAN JOSE","zip":"95126","geo_score":1.0,"id":"a634ref9b4gu","address":"1691 THE ALAMEDA","geo_precision":"range","state":"CA"},"type":"Feature","geometry":{"type":"Point","coordinates":[-121.918953,37.337379]}},{"properties":{"city":"SAN JOSE","zip":"95126","geo_score":1.0,"id":"a634reazxvhu","address":"1691 THE ALAMEDA","geo_precision":"range","state":"CA"},"type":"Feature","geometry":{"type":"Point","coordinates":[-121.918953,37.337379]}},{"properties":{"city":"SAN JOSE","zip":"95126","geo_score":1.0,"id":"a634reemp6a5","address":"1691 THE ALAMEDA","geo_precision":"range","state":"CA"},"type":"Feature","geometry":{"type":"Point","coordinates":[-121.918953,37.337379]}},{"properties":{"city":"SAN JOSE","zip":"95126","geo_score":1.0,"id":"a634re6vr8ik","address":"1691 THE ALAMEDA","geo_precision":"range","state":"CA"},"type":"Feature","geometry":{"type":"Point","coordinates":[-121.918953,37.337379]}},{"properties":{"city":"SAN JOSE","zip":"95126","geo_score":1.0,"id":"a634reclcqh7","address":"1691 THE ALAMEDA","geo_precision":"range","state":"CA"},"type":"Feature","geometry":{"type":"Point","coordinates":[-121.918953,37.337379]}},{"properties":{"city":"SAN JOSE","zip":"95121","geo_score":0.89,"id":"a634rectnbdq","address":"1693 FLANIGAN DR STE 100","geo_precision":"range","state":"CA"},"type":"Feature","geometry":{"type":"Point","coordinates":[-121.822968,37.319069]}},{"properties":{"city":"SAN JOSE","zip":"95121","geo_score":0.89,"id":"a634ref7ce98","address":"1693 FLANIGAN DR STE 101","geo_precision":"range","state":"CA"},"type":"Feature","geometry":{"type":"Point","coordinates":[-121.822968,37.319069]}},{"properties":{"city":"SAN JOSE","zip":"95116","geo_score":0.922,"id":"a634reai3llc","address":"1695 ALUM ROCK AVE STE 3","geo_precision":"range","state":"CA"},"type":"Feature","geometry":{"type":"Point","coordinates":[-121.855714,37.352732]}},{"properties":{"city":"SAN JOSE","zip":"95116","geo_score":0.922,"id":"a634refclrzd","address":"1695 ALUM ROCK AVE STE 3","geo_precision":"range","state":"CA"},"type":"Feature","geometry":{"type":"Point","coordinates":[-121.855714,37.352732]}},{"properties":{"city":"SAN JOSE","zip":"95116","geo_score":0.922,"id":"a634reefzej2","address":"1695 ALUM ROCK AVE STE 3","geo_precision":"range","state":"CA"},"type":"Feature","geometry":{"type":"Point","coordinates":[-121.855714,37.352732]}},{"properties":{"city":"SAN JOSE","zip":"95116","geo_score":0.922,"id":"a634ref7soeg","address":"1695 ALUM ROCK AVE STE 5","geo_precision":"range","state":"CA"},"type":"Feature","geometry":{"type":"Point","coordinates":[-121.855714,37.352732]}},{"properties":{"city":"SAN JOSE","zip":"95116","geo_score":0.909,"id":"a634re6ym9j8","address":"1695 ALUM ROCK AVE STE 7A","geo_precision":"range","state":"CA"},"type":"Feature","geometry":{"type":"Point","coordinates":[-121.855714,37.352732]}},{"properties":{"city":"SUNNYVALE","zip":"94087","geo_score":0.875,"id":"a634reepcgjk","address":"1698 S WOLFE RD STE 100","geo_precision":"range","state":"CA"},"type":"Feature","geometry":{"type":"Point","coordinates":[-122.01416,37.33774]}},{"properties":{"city":"SAN JOSE","zip":"95125","geo_score":0.941,"id":"a634reiebjbj","address":"1706 WILLOW STE E","geo_precision":"range","state":"CA"},"type":"Feature","geometry":{"type":"Point","coordinates":[-121.917228,37.302262]}},{"properties":{"city":"SAN JOSE","zip":"95131","geo_score":0.875,"id":"a634re6sns7z","address":"1715 LUNDY AVE STE 132","geo_precision":"range","state":"CA"},"type":"Feature","geometry":{"type":"Point","coordinates":[-121.887501,37.389271]}},{"properties":{"city":"SAN JOSE","zip":"95126","geo_score":0.927,"id":"a634recu91ua","address":"173 N MORRISON AVE STE D","geo_precision":"range","state":"CA"},"type":"Feature","geometry":{"type":"Point","coordinates":[-121.908468,37.332765]}},{"properties":{"city":"MILPITAS","zip":"95035","geo_score":1.0,"id":"a634ref7fpce","address":"174 S MAIN ST","geo_precision":"range","state":"CA"},"type":"Feature","geometry":{"type":"Point","coordinates":[-121.906562,37.428266]}},{"properties":{"city":"SAN JOSE","zip":"95125","geo_score":1.0,"id":"a634rejdioc1","address":"1746 HAMILTON AVE","geo_precision":"range","state":"CA"},"type":"Feature","geometry":{"type":"Point","coordinates":[-121.916756,37.294409]}},{"properties":{"city":"SAN JOSE","zip":"95116","geo_score":0.897,"id":"a634recri056","address":"175 N JACKSON AVE STE 109","geo_precision":"range","state":"CA"},"type":"Feature","geometry":{"type":"Point","coordinates":[-121.846993,37.362137]}},{"properties":{"city":"SAN JOSE","zip":"95116","geo_score":0.897,"id":"a634reh7yh4w","address":"175 N JACKSON AVE STE 110","geo_precision":"range","state":"CA"},"type":"Feature","geometry":{"type":"Point","coordinates":[-121.846993,37.362137]}},{"properties":{"city":"SAN JOSE","zip":"95116","geo_score":0.897,"id":"a634rehmpke1","address":"175 N JACKSON AVE STE 209","geo_precision":"range","state":"CA"},"type":"Feature","geometry":{"type":"Point","coordinates":[-121.846993,37.362137]}},{"properties":{"city":"SAN JOSE","zip":"95110","geo_score":0.902,"id":"a634reds5cao","address":"1754 TECHNOLOGY DR STE 133","geo_precision":"range","state":"CA"},"type":"Feature","geometry":{"type":"Point","coordinates":[-121.919136,37.368111]}},{"properties":{"city":"SAN JOSE","zip":"95110","geo_score":0.902,"id":"a634reas3w4k","address":"1754 TECHNOLOGY DR STE 225","geo_precision":"range","state":"CA"},"type":"Feature","geometry":{"type":"Point","coordinates":[-121.919136,37.368111]}},{"properties":{"city":"SAN JOSE","zip":"95110","geo_score":0.902,"id":"a634rek3e4p2","address":"1754 TECHNOLOGY DR STE 225","geo_precision":"range","state":"CA"},"type":"Feature","geometry":{"type":"Point","coordinates":[-121.919136,37.368111]}},{"properties":{"city":"MORGAN HILL","zip":"95037","geo_score":0.79,"id":"a634recaidt3","address":"17705 HALE AVE STE I-1","geo_precision":"range","state":"CA"},"type":"Feature","geometry":{"type":"Point","coordinates":[-121.658349,37.128339]}},{"properties":{"city":"MILPITAS","zip":"95035","geo_score":1.0,"id":"a634reg4y4xm","address":"1776 N MILPITAS BLVD","geo_precision":"range","state":"CA"},"type":"Feature","geometry":{"type":"Point","coordinates":[-121.911126,37.45594]}},{"properties":{"city":"REDWOOD CITY","zip":"94061","geo_score":0.89,"id":"a634redejf84","address":"1779 WOODSIDE RD STE 102","geo_precision":"range","state":"CA"},"type":"Feature","geometry":{"type":"Point","coordinates":[-122.229131,37.453853]}},{"properties":{"city":"NORTHRIDGE","zip":"91325","geo_score":0.902,"id":"a634ree7izzu","address":"18000 DEVONSHIRE ST","geo_precision":"range","state":"CA"},"type":"Feature","geometry":{"type":"Point","coordinates":[-118.5251,34.257266]}},{"properties":{"city":"SARATOGA","zip":"95070","geo_score":0.628,"id":"a634reew7ybp","address":"1848 SARATOGA AVE BLDG 6A","geo_precision":"street","state":"CA"},"type":"Feature","geometry":{"type":"Point","coordinates":[-121.995007,37.289017]}},{"properties":{"city":"MORGAN HILL","zip":"95037","geo_score":0.867,"id":"a634relmta3w","address":"18511 MISSION VIEW DR","geo_precision":"range","state":"CA"},"type":"Feature","geometry":{"type":"Point","coordinates":[-121.647073,37.156397]}},{"properties":{"city":"MORGAN HILL","zip":"95037","geo_score":0.8,"id":"a634redlwld4","address":"18550 DE PAUL DR STE 10","geo_precision":"range","state":"CA"},"type":"Feature","geometry":{"type":"Point","coordinates":[-121.648301,37.153917]}},{"properties":{"city":"MORGAN HILL","zip":"95037","geo_score":0.745,"id":"a634redbf04u","address":"18550 DE PAUL ST STE 208","geo_precision":"range","state":"CA"},"type":"Feature","geometry":{"type":"Point","coordinates":[-121.648301,37.153917]}},{"properties":{"city":"MORGAN HILL","zip":"95037","geo_score":0.787,"id":"a634re6jslyv","address":"18550 DEPAUL DR STE 100","geo_precision":"range","state":"CA"},"type":"Feature","geometry":{"type":"Point","coordinates":[-121.648301,37.153917]}},{"properties":{"city":"MORGAN HILL","zip":"95037","geo_score":0.787,"id":"a634redxr3pv","address":"18550 DEPAUL DR STE 101","geo_precision":"range","state":"CA"},"type":"Feature","geometry":{"type":"Point","coordinates":[-121.648301,37.153917]}},{"properties":{"city":"MORGAN HILL","zip":"95037","geo_score":0.787,"id":"a634relobffr","address":"18550 DEPAUL DR STE 102","geo_precision":"range","state":"CA"},"type":"Feature","geometry":{"type":"Point","coordinates":[-121.648301,37.153917]}},{"properties":{"city":"MORGAN HILL","zip":"95037","geo_score":0.787,"id":"a634rejvhgvv","address":"18550 DEPAUL DR STE 205","geo_precision":"range","state":"CA"},"type":"Feature","geometry":{"type":"Point","coordinates":[-121.648301,37.153917]}},{"properties":{"city":"SAN JOSE","zip":"95116","geo_score":0.922,"id":"a634rean661w","address":"1865 ALUM ROCK AVE STE B","geo_precision":"range","state":"CA"},"type":"Feature","geometry":{"type":"Point","coordinates":[-121.852679,37.354244]}},{"properties":{"city":"SARATOGA","zip":"95070","geo_score":0.779,"id":"a634ree1c9o4","address":"18805 COX AVENUE STE 110","geo_precision":"range","state":"CA"},"type":"Feature","geometry":{"type":"Point","coordinates":[-122.000859,37.280477]}},{"properties":{"city":"CUPERTINO","zip":"95014","geo_score":0.863,"id":"a634rebuszdt","address":"19028 STEVENS CREEK BLVD STE D","geo_precision":"range","state":"CA"},"type":"Feature","geometry":{"type":"Point","coordinates":[-122.004999,37.32295]}},{"properties":{"city":"SARATOGA","zip":"95070","geo_score":0.808,"id":"a634rebys1xv","address":"19040 COX AVE STE 1","geo_precision":"range","state":"CA"},"type":"Feature","geometry":{"type":"Point","coordinates":[-122.004666,37.281873]}},{"properties":{"city":"CAMPBELL","zip":"95008","geo_score":0.916,"id":"a634relttjjx","address":"1925 S WINCHESTER BLVD STE 204","geo_precision":"range","state":"CA"},"type":"Feature","geometry":{"type":"Point","coordinates":[-121.949765,37.2884]}},{"properties":{"city":"SAN JOSE","zip":"95112","geo_score":1.0,"id":"a634rebvrdb2","address":"195 E VIRGINIA ST","geo_precision":"range","state":"CA"},"type":"Feature","geometry":{"type":"Point","coordinates":[-121.878097,37.325703]}},{"properties":{"city":"SAN JOSE","zip":"95112","geo_score":1.0,"id":"a634rej060nz","address":"195 E VIRGINIA ST","geo_precision":"range","state":"CA"},"type":"Feature","geometry":{"type":"Point","coordinates":[-121.878097,37.325703]}},{"properties":{"city":"SAN JOSE","zip":"95112","geo_score":1.0,"id":"a634re8zf1t3","address":"195 E VIRGINIA ST","geo_precision":"range","state":"CA"},"type":"Feature","geometry":{"type":"Point","coordinates":[-121.878097,37.325703]}},{"properties":{"city":"SAN JOSE","zip":"95112","geo_score":1.0,"id":"a634reh9w9lx","address":"195 E VIRGINIA ST","geo_precision":"range","state":"CA"},"type":"Feature","geometry":{"type":"Point","coordinates":[-121.878097,37.325703]}},{"properties":{"city":"SAN JOSE","zip":"95112","geo_score":1.0,"id":"a634regcr7p8","address":"195 E VIRGINIA ST","geo_precision":"range","state":"CA"},"type":"Feature","geometry":{"type":"Point","coordinates":[-121.878097,37.325703]}},{"properties":{"city":"SAN JOSE","zip":"95112","geo_score":1.0,"id":"a634re9th42h","address":"195 E VIRGINIA ST","geo_precision":"range","state":"CA"},"type":"Feature","geometry":{"type":"Point","coordinates":[-121.878097,37.325703]}},{"properties":{"city":"SAN JOSE","zip":"95112","geo_score":1.0,"id":"a634rebcbl5w","address":"195 E VIRGINIA ST","geo_precision":"range","state":"CA"},"type":"Feature","geometry":{"type":"Point","coordinates":[-121.878097,37.325703]}},{"properties":{"city":"SAN JOSE","zip":"95121","geo_score":0.809,"id":"a634re99oafo","address":"1952 ABORN RD","geo_precision":"street","state":"CA"},"type":"Feature","geometry":{"type":"Point","coordinates":[-121.808069,37.311433]}},{"properties":{"city":"SAN JOSE","zip":"95112","geo_score":0.902,"id":"a634reaff1x5","address":"196 N THIRD ST","geo_precision":"range","state":"CA"},"type":"Feature","geometry":{"type":"Point","coordinates":[-121.890586,37.340076]}},{"properties":{"city":"DAVIS","zip":"95616","geo_score":0.902,"id":"a634regs34df","address":"1970 LAKE BLVD STE 4","geo_precision":"range","state":"CA"},"type":"Feature","geometry":{"type":"Point","coordinates":[-121.78617,38.560758]}},{"properties":{"city":"SAN JOSE","zip":"95126","geo_score":1.0,"id":"a634re6li1ej","address":"1972 THE ALAMEDA","geo_precision":"range","state":"CA"},"type":"Feature","geometry":{"type":"Point","coordinates":[-121.924794,37.342217]}},{"properties":{"city":"SAN JOSE","zip":"95126","geo_score":1.0,"id":"a634re6v1obw","address":"1972 THE ALAMEDA","geo_precision":"range","state":"CA"},"type":"Feature","geometry":{"type":"Point","coordinates":[-121.924794,37.342217]}},{"properties":{"city":"CUPERTINO","zip":"95014","geo_score":0.834,"id":"a634re7t16fg","address":"19925 STEVENS CREEK BL STE 118","geo_precision":"range","state":"CA"},"type":"Feature","geometry":{"type":"Point","coordinates":[-122.02157,37.322842]}},{"properties":{"city":"SAN JOSE","zip":"95116","geo_score":0.829,"id":"a634rebm2ura","address":"200 JOSE FIGUERES AVE STE","geo_precision":"range","state":"CA"},"type":"Feature","geometry":{"type":"Point","coordinates":[-121.850739,37.36131]}},{"properties":{"city":"SAN JOSE","zip":"95116","geo_score":0.794,"id":"a634re7oqx8w","address":"200 JOSE FIGUERES AVE STE 205","geo_precision":"range","state":"CA"},"type":"Feature","geometry":{"type":"Point","coordinates":[-121.850739,37.36131]}},{"properties":{"city":"SAN JOSE","zip":"95116","geo_score":0.794,"id":"a634reh80l77","address":"200 JOSE FIGUERES AVE STE 220","geo_precision":"range","state":"CA"},"type":"Feature","geometry":{"type":"Point","coordinates":[-121.850739,37.36131]}},{"properties":{"city":"SAN JOSE","zip":"95116","geo_score":0.794,"id":"a634re7f1msh","address":"200 JOSE FIGUERES AVE STE 230","geo_precision":"range","state":"CA"},"type":"Feature","geometry":{"type":"Point","coordinates":[-121.850739,37.36131]}},{"properties":{"city":"SAN JOSE","zip":"95116","geo_score":0.794,"id":"a634ree3zi5g","address":"200 JOSE FIGUERES AVE STE 250","geo_precision":"range","state":"CA"},"type":"Feature","geometry":{"type":"Point","coordinates":[-121.850739,37.36131]}},{"properties":{"city":"SAN JOSE","zip":"95116","geo_score":0.794,"id":"a634rel6olkh","address":"200 JOSE FIGUERES AVE STE 260","geo_precision":"range","state":"CA"},"type":"Feature","geometry":{"type":"Point","coordinates":[-121.850739,37.36131]}},{"properties":{"city":"SAN JOSE","zip":"95116","geo_score":0.794,"id":"a634rebyx28p","address":"200 JOSE FIGUERES AVE STE 260","geo_precision":"range","state":"CA"},"type":"Feature","geometry":{"type":"Point","coordinates":[-121.850739,37.36131]}},{"properties":{"city":"SAN JOSE","zip":"95116","geo_score":0.794,"id":"a634rekwt6k6","address":"200 JOSE FIGUERES AVE STE 270","geo_precision":"range","state":"CA"},"type":"Feature","geometry":{"type":"Point","coordinates":[-121.850739,37.36131]}},{"properties":{"city":"SAN JOSE","zip":"95116","geo_score":0.794,"id":"a634re7xbgl4","address":"200 JOSE FIGUERES AVE STE 300","geo_precision":"range","state":"CA"},"type":"Feature","geometry":{"type":"Point","coordinates":[-121.850739,37.36131]}},{"properties":{"city":"SAN JOSE","zip":"95116","geo_score":0.794,"id":"a634relb6wqw","address":"200 JOSE FIGUERES AVE STE 340","geo_precision":"range","state":"CA"},"type":"Feature","geometry":{"type":"Point","coordinates":[-121.850739,37.36131]}},{"properties":{"city":"SAN JOSE","zip":"95116","geo_score":0.794,"id":"a634regevi34","address":"200 JOSE FIGUERES AVE STE 340","geo_precision":"range","state":"CA"},"type":"Feature","geometry":{"type":"Point","coordinates":[-121.850739,37.36131]}},{"properties":{"city":"SAN JOSE","zip":"95116","geo_score":0.794,"id":"a634recqkun1","address":"200 JOSE FIGUERES AVE STE 355","geo_precision":"range","state":"CA"},"type":"Feature","geometry":{"type":"Point","coordinates":[-121.850739,37.36131]}},{"properties":{"city":"SAN JOSE","zip":"95116","geo_score":0.794,"id":"a634re83efad","address":"200 JOSE FIGUERES AVE STE 380","geo_precision":"range","state":"CA"},"type":"Feature","geometry":{"type":"Point","coordinates":[-121.850739,37.36131]}},{"properties":{"city":"SAN JOSE","zip":"95116","geo_score":0.794,"id":"a634rekn1dlk","address":"200 JOSE FIGUERES AVE STE 390","geo_precision":"range","state":"CA"},"type":"Feature","geometry":{"type":"Point","coordinates":[-121.850739,37.36131]}},{"properties":{"city":"SAN JOSE","zip":"95116","geo_score":0.794,"id":"a634rels2swz","address":"200 JOSE FIGUERES AVE STE 430","geo_precision":"range","state":"CA"},"type":"Feature","geometry":{"type":"Point","coordinates":[-121.850739,37.36131]}},{"properties":{"city":"SAN JOSE","zip":"95116","geo_score":0.794,"id":"a634re70zold","address":"200 JOSE FIGUERES AVE STE 430","geo_precision":"range","state":"CA"},"type":"Feature","geometry":{"type":"Point","coordinates":[-121.850739,37.36131]}},{"properties":{"city":"SAN JOSE","zip":"95116","geo_score":0.794,"id":"a634redc6qgm","address":"200 JOSE FIGUERES AVE STE 435","geo_precision":"range","state":"CA"},"type":"Feature","geometry":{"type":"Point","coordinates":[-121.850739,37.36131]}},{"properties":{"city":"SAN JOSE","zip":"95116","geo_score":0.794,"id":"a634rehkdsof","address":"200 JOSE FIGUERES AVE STE 455","geo_precision":"range","state":"CA"},"type":"Feature","geometry":{"type":"Point","coordinates":[-121.850739,37.36131]}},{"properties":{"city":"SAN JOSE","zip":"95116","geo_score":0.794,"id":"a634re8venkr","address":"200 JOSE FIGUERES AVE STE 460","geo_precision":"range","state":"CA"},"type":"Feature","geometry":{"type":"Point","coordinates":[-121.850739,37.36131]}},{"properties":{"city":"SAN JOSE","zip":"95116","geo_score":0.794,"id":"a634recysi2v","address":"200 JOSE FIGUERES AVE STE 485","geo_precision":"range","state":"CA"},"type":"Feature","geometry":{"type":"Point","coordinates":[-121.850739,37.36131]}},{"properties":{"city":"SAN JOSE","zip":"95116","geo_score":0.922,"id":"a634re9d3dco","address":"200 N JACKSON AVE STE C","geo_precision":"range","state":"CA"},"type":"Feature","geometry":{"type":"Point","coordinates":[-121.847768,37.36283]}},{"properties":{"city":"SAN JOSE","zip":"95128","geo_score":0.829,"id":"a634reh2su58","address":"2000 W HEDDING ST STE 10","geo_precision":"range","state":"CA"},"type":"Feature","geometry":{"type":"Point","coordinates":[-121.93456,37.331965]}},{"properties":{"city":"SAN JOSE","zip":"95126","geo_score":0.715,"id":"a634reebok7z","address":"2020 FOREST AVE STE 6","geo_precision":"range","state":"CA"},"type":"Feature","geometry":{"type":"Point","coordinates":[-121.933603,37.326934]}},{"properties":{"city":"SAN JOSE","zip":"95128","geo_score":0.837,"id":"a634re9mdw8s","address":"2020 FOREST AVE STE 7","geo_precision":"range","state":"CA"},"type":"Feature","geometry":{"type":"Point","coordinates":[-121.933603,37.326934]}},{"properties":{"city":"SAN JOSE","zip":"95128","geo_score":0.837,"id":"a634redm12j1","address":"2020 FOREST AVE STE 8","geo_precision":"range","state":"CA"},"type":"Feature","geometry":{"type":"Point","coordinates":[-121.933603,37.326934]}},{"properties":{"city":"SAN JOSE","zip":"95128","geo_score":0.837,"id":"a634re5lar93","address":"2025 FOREST AVE STE 8","geo_precision":"range","state":"CA"},"type":"Feature","geometry":{"type":"Point","coordinates":[-121.933767,37.326841]}},{"properties":{"city":"CUPERTINO","zip":"95014","geo_score":0.922,"id":"a634ree07uvg","address":"20289 STEVENS CREEK BLVD","geo_precision":"range","state":"CA"},"type":"Feature","geometry":{"type":"Point","coordinates":[-122.02984,37.322824]}},{"properties":{"city":"SAN JOSE","zip":"95128","geo_score":0.81,"id":"a634rej9t3jl","address":"2030 FOREST AVE STE 110","geo_precision":"range","state":"CA"},"type":"Feature","geometry":{"type":"Point","coordinates":[-121.934101,37.326901]}},{"properties":{"city":"SAN JOSE","zip":"95128","geo_score":0.81,"id":"a634rei42bfa","address":"2030 FOREST AVE STE 110","geo_precision":"range","state":"CA"},"type":"Feature","geometry":{"type":"Point","coordinates":[-121.934101,37.326901]}},{"properties":{"city":"CUPERTINO","zip":"95014","geo_score":0.824,"id":"a634redkdpa4","address":"20380 TOWN CENTER LN STE 215","geo_precision":"range","state":"CA"},"type":"Feature","geometry":{"type":"Point","coordinates":[-122.030359,37.318101]}},{"properties":{"city":"SAN JOSE","zip":"95128","geo_score":0.81,"id":"a634reavip4x","address":"2039 FOREST AVE STE 206","geo_precision":"range","state":"CA"},"type":"Feature","geometry":{"type":"Point","coordinates":[-121.933852,37.326852]}},{"properties":{"city":"SAN JOSE","zip":"95128","geo_score":0.81,"id":"a634reep0w4j","address":"2039 FOREST AVE STE 303","geo_precision":"range","state":"CA"},"type":"Feature","geometry":{"type":"Point","coordinates":[-121.933852,37.326852]}},{"properties":{"city":"CUPERTINO","zip":"95014","geo_score":0.812,"id":"a634rec07z38","address":"20395 PACIFICA DR STE 101","geo_precision":"range","state":"CA"},"type":"Feature","geometry":{"type":"Point","coordinates":[-122.030757,37.316179]}},{"properties":{"city":"SAN JOSE","zip":"95128","geo_score":0.822,"id":"a634reecgd1p","address":"2040 FOREST AVE STE 1A","geo_precision":"range","state":"CA"},"type":"Feature","geometry":{"type":"Point","coordinates":[-121.933937,37.326864]}},{"properties":{"city":"SAN JOSE","zip":"95128","geo_score":0.837,"id":"a634redmi49a","address":"2040 FOREST AVE STE 3","geo_precision":"range","state":"CA"},"type":"Feature","geometry":{"type":"Point","coordinates":[-121.933937,37.326864]}},{"properties":{"city":"SAN JOSE","zip":"95128","geo_score":0.837,"id":"a634rehawteh","address":"2040 FOREST AVE STE 8","geo_precision":"range","state":"CA"},"type":"Feature","geometry":{"type":"Point","coordinates":[-121.933937,37.326864]}},{"properties":{"city":"SAN JOSE","zip":"95128","geo_score":0.837,"id":"a634re5m92we","address":"2040 FOREST AVE STE 8","geo_precision":"range","state":"CA"},"type":"Feature","geometry":{"type":"Point","coordinates":[-121.933937,37.326864]}},{"properties":{"city":"SAN JOSE","zip":"95125","geo_score":1.0,"id":"a634re7w19y4","address":"2048 LINCOLN AVE","geo_precision":"range","state":"CA"},"type":"Feature","geometry":{"type":"Point","coordinates":[-121.890176,37.293488]}},{"properties":{"city":"SAN JOSE","zip":"95125","geo_score":1.0,"id":"a634rec0r5wl","address":"2052 LINCOLN AVE","geo_precision":"range","state":"CA"},"type":"Feature","geometry":{"type":"Point","coordinates":[-121.890132,37.293448]}},{"properties":{"city":"CUPERTINO","zip":"95014","geo_score":0.922,"id":"a634re8rtjkm","address":"20555 PROSPECT RD","geo_precision":"range","state":"CA"},"type":"Feature","geometry":{"type":"Point","coordinates":[-122.03298,37.293859]}},{"properties":{"city":"CUPERTINO","zip":"95014","geo_score":0.922,"id":"a634ref8v27r","address":"20555 PROSPECT ROAD","geo_precision":"range","state":"CA"},"type":"Feature","geometry":{"type":"Point","coordinates":[-122.03298,37.293859]}},{"properties":{"city":"CUPERTINO","zip":"95014","geo_score":0.922,"id":"a634reafjxpv","address":"20555 PROSPECT ROAD","geo_precision":"range","state":"CA"},"type":"Feature","geometry":{"type":"Point","coordinates":[-122.03298,37.293859]}},{"properties":{"city":"SAN JOSE","zip":"95121","geo_score":0.865,"id":"a634re849ohy","address":"2060 ABORN RD STE 100","geo_precision":"range","state":"CA"},"type":"Feature","geometry":{"type":"Point","coordinates":[-121.807325,37.311581]}},{"properties":{"city":"CUPERTINO","zip":"95014","geo_score":0.922,"id":"a634re9r3b00","address":"20600 MARIANI AVE","geo_precision":"range","state":"CA"},"type":"Feature","geometry":{"type":"Point","coordinates":[-122.02671,37.33024]}},{"properties":{"city":"SAN JOSE","zip":"95128","geo_score":0.837,"id":"a634reijy2zj","address":"2081 FOREST AVE STE 2","geo_precision":"range","state":"CA"},"type":"Feature","geometry":{"type":"Point","coordinates":[-121.936014,37.32708]}},{"properties":{"city":"CUPERTINO","zip":"95014","geo_score":0.834,"id":"a634regeh4f1","address":"20823 STEVENS CREEK BL STE 200","geo_precision":"range","state":"CA"},"type":"Feature","geometry":{"type":"Point","coordinates":[-122.036882,37.322801]}},{"properties":{"city":"CUPERTINO","zip":"95014","geo_score":0.834,"id":"a634reer8iku","address":"20823 STEVENS CREEK BL STE 200","geo_precision":"range","state":"CA"},"type":"Feature","geometry":{"type":"Point","coordinates":[-122.036882,37.322801]}},{"properties":{"city":"SAN JOSE","zip":"95116","geo_score":0.909,"id":"a634recuj8k0","address":"210 N JACKSON AVE STE 10","geo_precision":"range","state":"CA"},"type":"Feature","geometry":{"type":"Point","coordinates":[-121.847779,37.362845]}},{"properties":{"city":"SAN JOSE","zip":"95116","geo_score":0.909,"id":"a634re95kyls","address":"210 N JACKSON AVE STE 20","geo_precision":"range","state":"CA"},"type":"Feature","geometry":{"type":"Point","coordinates":[-121.847779,37.362845]}},{"properties":{"city":"SAN JOSE","zip":"95116","geo_score":0.909,"id":"a634rej0je36","address":"210 N JACKSON AVE STE 20","geo_precision":"range","state":"CA"},"type":"Feature","geometry":{"type":"Point","coordinates":[-121.847779,37.362845]}},{"properties":{"city":"SAN JOSE","zip":"95128","geo_score":0.81,"id":"a634reijy4i5","address":"2100 FOREST AVE STE 109","geo_precision":"range","state":"CA"},"type":"Feature","geometry":{"type":"Point","coordinates":[-121.937112,37.327055]}},{"properties":{"city":"SAN JOSE","zip":"95128","geo_score":0.81,"id":"a634rebx10tw","address":"2100 FOREST AVENUE STE 107","geo_precision":"range","state":"CA"},"type":"Feature","geometry":{"type":"Point","coordinates":[-121.937112,37.327055]}},{"properties":{"city":"SAN JOSE","zip":"95128","geo_score":0.81,"id":"a634re6y73nv","address":"2101 FOREST AVE STE 106","geo_precision":"range","state":"CA"},"type":"Feature","geometry":{"type":"Point","coordinates":[-121.937112,37.327055]}},{"properties":{"city":"SAN JOSE","zip":"95128","geo_score":0.81,"id":"a634re73dp7w","address":"2101 FOREST AVE STE 114","geo_precision":"range","state":"CA"},"type":"Feature","geometry":{"type":"Point","coordinates":[-121.937112,37.327055]}},{"properties":{"city":"SAN JOSE","zip":"95128","geo_score":0.81,"id":"a634rebyhi1h","address":"2101 FOREST AVE STE 128","geo_precision":"range","state":"CA"},"type":"Feature","geometry":{"type":"Point","coordinates":[-121.937112,37.327055]}},{"properties":{"city":"CUPERTINO","zip":"95014","geo_score":0.844,"id":"a634relr8nbv","address":"21020 HOMESTEAD RD STE 2","geo_precision":"range","state":"CA"},"type":"Feature","geometry":{"type":"Point","coordinates":[-122.04312,37.33756]}},{"properties":{"city":"SAN JOSE","zip":"95128","geo_score":0.927,"id":"a634refvvli8","address":"2105 FOREST AVE","geo_precision":"range","state":"CA"},"type":"Feature","geometry":{"type":"Point","coordinates":[-121.937337,37.327055]}},{"properties":{"city":"SAN JOSE","zip":"95128","geo_score":0.927,"id":"a634relpo7h3","address":"2105 FOREST AVE","geo_precision":"range","state":"CA"},"type":"Feature","geometry":{"type":"Point","coordinates":[-121.937337,37.327055]}},{"properties":{"city":"SAN JOSE","zip":"95128","geo_score":0.81,"id":"a634rea4jr2v","address":"2110 FOREST AVE 2ND FLOOR","geo_precision":"range","state":"CA"},"type":"Feature","geometry":{"type":"Point","coordinates":[-121.937606,37.327055]}},{"properties":{"city":"SAN JOSE","zip":"95116","geo_score":1.0,"id":"a634reeyl90y","address":"2110 MCKEE RD","geo_precision":"range","state":"CA"},"type":"Feature","geometry":{"type":"Point","coordinates":[-121.853837,37.362748]}},{"properties":{"city":"SAN JOSE","zip":"95112","geo_score":0.887,"id":"a634re86uzrm","address":"2114 SENTER RD STE 15","geo_precision":"range","state":"CA"},"type":"Feature","geometry":{"type":"Point","coordinates":[-121.851772,37.311831]}},{"properties":{"city":"SAN JOSE","zip":"95112","geo_score":0.887,"id":"a634re7hzzns","address":"2114 SENTER RD STE 24","geo_precision":"range","state":"CA"},"type":"Feature","geometry":{"type":"Point","coordinates":[-121.851772,37.311831]}},{"properties":{"city":"SAN JOSE","zip":"95126","geo_score":1.0,"id":"a634reh9rolx","address":"2145 THE ALAMEDA","geo_precision":"range","state":"CA"},"type":"Feature","geometry":{"type":"Point","coordinates":[-121.929932,37.343888]}},{"properties":{"city":"SAN JOSE","zip":"95126","geo_score":1.0,"id":"a634re5r4dp0","address":"2145 THE ALAMEDA","geo_precision":"range","state":"CA"},"type":"Feature","geometry":{"type":"Point","coordinates":[-121.929932,37.343888]}},{"properties":{"city":"SAN JOSE","zip":"95126","geo_score":1.0,"id":"a634rekb7b9r","address":"2145 THE ALAMEDA","geo_precision":"range","state":"CA"},"type":"Feature","geometry":{"type":"Point","coordinates":[-121.929932,37.343888]}},{"properties":{"city":"CUPERTINO","zip":"95014","geo_score":0.922,"id":"a634redtb172","address":"21607 STEVENS CREEK BLVD","geo_precision":"range","state":"CA"},"type":"Feature","geometry":{"type":"Point","coordinates":[-122.052824,37.322812]}},{"properties":{"city":"PALO ALTO","zip":"94306","geo_score":0.912,"id":"a634relcysy1","address":"220 S CALIFORNIA AVE STE 100","geo_precision":"range","state":"CA"},"type":"Feature","geometry":{"type":"Point","coordinates":[-122.143284,37.428204]}},{"properties":{"city":"SAN JOSE","zip":"95128","geo_score":0.741,"id":"a634re6r3ulg","address":"2206 BUSINESS CIR STE B","geo_precision":"range","state":"CA"},"type":"Feature","geometry":{"type":"Point","coordinates":[-121.931968,37.32264]}},{"properties":{"city":"SAN JOSE","zip":"95128","geo_score":0.824,"id":"a634reea77pz","address":"2211 MOORPARK AVE STE 230","geo_precision":"range","state":"CA"},"type":"Feature","geometry":{"type":"Point","coordinates":[-121.932151,37.316129]}},{"properties":{"city":"SAN JOSE","zip":"95116","geo_score":1.0,"id":"a634re7kd19b","address":"225 N JACKSON AVE","geo_precision":"range","state":"CA"},"type":"Feature","geometry":{"type":"Point","coordinates":[-121.84768,37.362803]}},{"properties":{"city":"SAN JOSE","zip":"95116","geo_score":1.0,"id":"a634reaza01v","address":"225 N JACKSON AVE","geo_precision":"range","state":"CA"},"type":"Feature","geometry":{"type":"Point","coordinates":[-121.84768,37.362803]}},{"properties":{"city":"SAN JOSE","zip":"95116","geo_score":1.0,"id":"a634re7z0rf9","address":"225 N JACKSON AVE","geo_precision":"range","state":"CA"},"type":"Feature","geometry":{"type":"Point","coordinates":[-121.84768,37.362803]}},{"properties":{"city":"SAN JOSE","zip":"95116","geo_score":1.0,"id":"a634ref4xqlz","address":"225 N JACKSON AVE","geo_precision":"range","state":"CA"},"type":"Feature","geometry":{"type":"Point","coordinates":[-121.84768,37.362803]}},{"properties":{"city":"SAN JOSE","zip":"95116","geo_score":1.0,"id":"a634recap59j","address":"225 N JACKSON AVE","geo_precision":"range","state":"CA"},"type":"Feature","geometry":{"type":"Point","coordinates":[-121.84768,37.362803]}},{"properties":{"city":"SAN JOSE","zip":"95116","geo_score":1.0,"id":"a634re9sojjb","address":"225 N JACKSON AVE","geo_precision":"range","state":"CA"},"type":"Feature","geometry":{"type":"Point","coordinates":[-121.84768,37.362803]}},{"properties":{"city":"SAN JOSE","zip":"95116","geo_score":1.0,"id":"a634re7yn0qk","address":"225 N JACKSON AVE","geo_precision":"range","state":"CA"},"type":"Feature","geometry":{"type":"Point","coordinates":[-121.84768,37.362803]}},{"properties":{"city":"SAN JOSE","zip":"95116","geo_score":1.0,"id":"a634reihcrbg","address":"225 N JACKSON AVE","geo_precision":"range","state":"CA"},"type":"Feature","geometry":{"type":"Point","coordinates":[-121.84768,37.362803]}},{"properties":{"city":"SAN JOSE","zip":"95116","geo_score":1.0,"id":"a634red8w3r9","address":"225 N JACKSON AVE","geo_precision":"range","state":"CA"},"type":"Feature","geometry":{"type":"Point","coordinates":[-121.84768,37.362803]}},{"properties":{"city":"SAN JOSE","zip":"95116","geo_score":1.0,"id":"a634ree3fygs","address":"225 N JACKSON AVE","geo_precision":"range","state":"CA"},"type":"Feature","geometry":{"type":"Point","coordinates":[-121.84768,37.362803]}},{"properties":{"city":"SAN JOSE","zip":"95116","geo_score":1.0,"id":"a634re9l80x4","address":"225 N JACKSON AVE","geo_precision":"range","state":"CA"},"type":"Feature","geometry":{"type":"Point","coordinates":[-121.84768,37.362803]}},{"properties":{"city":"SAN JOSE","zip":"95116","geo_score":1.0,"id":"a634reb5fqdl","address":"225 N JACKSON AVE","geo_precision":"range","state":"CA"},"type":"Feature","geometry":{"type":"Point","coordinates":[-121.84768,37.362803]}},{"properties":{"city":"MOUNTAIN VIEW","zip":"94040","geo_score":1.0,"id":"a634re9amqsc","address":"225 SAN ANTONIO RD","geo_precision":"range","state":"CA"},"type":"Feature","geometry":{"type":"Point","coordinates":[-122.108972,37.407482]}},{"properties":{"city":"MOUNTAIN VIEW","zip":"94040","geo_score":0.914,"id":"a634relln9fs","address":"225 SAN ANTONIO RD STE 11","geo_precision":"range","state":"CA"},"type":"Feature","geometry":{"type":"Point","coordinates":[-122.108972,37.407482]}},{"properties":{"city":"SAN JOSE","zip":"95116","geo_score":0.922,"id":"a634re8frk31","address":"226 N JACKSON AVE STE 7","geo_precision":"range","state":"CA"},"type":"Feature","geometry":{"type":"Point","coordinates":[-121.847797,37.362868]}},{"properties":{"city":"MOUNTAIN VIEW","zip":"94040","geo_score":0.647,"id":"a634re5ext7y","address":"2290 EL CAMINO REAL STE 4","geo_precision":"street","state":"CA"},"type":"Feature","geometry":{"type":"Point","coordinates":[-122.05831,37.374541]}},{"properties":{"city":"MOUNTAIN VIEW","zip":"94040","geo_score":0.638,"id":"a634rejijc26","address":"2290 EL CAMINO REAL WEST STE 8","geo_precision":"street","state":"CA"},"type":"Feature","geometry":{"type":"Point","coordinates":[-122.05831,37.374541]}},{"properties":{"city":"SAN JOSE","zip":"95116","geo_score":1.0,"id":"a634rej1iu0g","address":"2340 MONTPELIER DR","geo_precision":"range","state":"CA"},"type":"Feature","geometry":{"type":"Point","coordinates":[-121.848422,37.364682]}},{"properties":{"city":"SAN JOSE","zip":"95116","geo_score":0.927,"id":"a634relgjo9i","address":"2340 MONTPELIER DR STE A","geo_precision":"range","state":"CA"},"type":"Feature","geometry":{"type":"Point","coordinates":[-121.848422,37.364682]}},{"properties":{"city":"SAN JOSE","zip":"95116","geo_score":0.927,"id":"a634reb900b4","address":"2340 MONTPELIER DR STE A","geo_precision":"range","state":"CA"},"type":"Feature","geometry":{"type":"Point","coordinates":[-121.848422,37.364682]}},{"properties":{"city":"SAN JOSE","zip":"95116","geo_score":0.927,"id":"a634rehuun4w","address":"2340 MONTPELIER DR STE A","geo_precision":"range","state":"CA"},"type":"Feature","geometry":{"type":"Point","coordinates":[-121.848422,37.364682]}},{"properties":{"city":"SAN JOSE","zip":"95116","geo_score":0.927,"id":"a634ref9xr3d","address":"2340 MONTPELIER DR STE A","geo_precision":"range","state":"CA"},"type":"Feature","geometry":{"type":"Point","coordinates":[-121.848422,37.364682]}},{"properties":{"city":"SAN JOSE","zip":"95116","geo_score":0.927,"id":"a634re92pgr5","address":"2340 MONTPELIER DR STE A","geo_precision":"range","state":"CA"},"type":"Feature","geometry":{"type":"Point","coordinates":[-121.848422,37.364682]}},{"properties":{"city":"SAN JOSE","zip":"95116","geo_score":0.927,"id":"a634re8o2zo9","address":"2340 MONTPELIER DR STE A","geo_precision":"range","state":"CA"},"type":"Feature","geometry":{"type":"Point","coordinates":[-121.848422,37.364682]}},{"properties":{"city":"SANTA CLARA","zip":"95050","geo_score":0.727,"id":"a634rej6bdzo","address":"2344 EL CAMINO REAL STE 105","geo_precision":"range","state":"CA"},"type":"Feature","geometry":{"type":"Point","coordinates":[-121.966388,37.35228]}},{"properties":{"city":"SANTA CLARA","zip":"95050","geo_score":0.727,"id":"a634rearx1r7","address":"2344 EL CAMINO REAL STE 105","geo_precision":"range","state":"CA"},"type":"Feature","geometry":{"type":"Point","coordinates":[-121.966388,37.35228]}},{"properties":{"city":"SAN JOSE","zip":"95116","geo_score":0.878,"id":"a634rek72oup","address":"2360 MCKEE RD STE 10","geo_precision":"range","state":"CA"},"type":"Feature","geometry":{"type":"Point","coordinates":[-121.847582,37.367032]}},{"properties":{"city":"SAN JOSE","zip":"95116","geo_score":0.912,"id":"a634reksu5wt","address":"2360 MCKEE RD STE1","geo_precision":"range","state":"CA"},"type":"Feature","geometry":{"type":"Point","coordinates":[-121.847582,37.367032]}},{"properties":{"city":"SAN JOSE","zip":"95128","geo_score":0.927,"id":"a634re5i10nx","address":"2375 FOREST AVE","geo_precision":"range","state":"CA"},"type":"Feature","geometry":{"type":"Point","coordinates":[-121.94548,37.326966]}},{"properties":{"city":"SAN JOSE","zip":"95116","geo_score":1.0,"id":"a634recmjs16","address":"2385 MONTPELIER DR","geo_precision":"range","state":"CA"},"type":"Feature","geometry":{"type":"Point","coordinates":[-121.847557,37.365228]}},{"properties":{"city":"SAN JOSE","zip":"95138","geo_score":1.0,"id":"a634regmbe1k","address":"2386 BENTLEY RIDGE DR","geo_precision":"range","state":"CA"},"type":"Feature","geometry":{"type":"Point","coordinates":[-121.773915,37.285893]}},{"properties":{"city":"SAN JOSE","zip":"95116","geo_score":0.927,"id":"a634redbs3av","address":"2395 MONTPELIER DR STE 4","geo_precision":"range","state":"CA"},"type":"Feature","geometry":{"type":"Point","coordinates":[-121.847355,37.365347]}},{"properties":{"city":"SAN JOSE","zip":"95116","geo_score":0.927,"id":"a634rea8nyc5","address":"2395 MONTPELIER DR STE 4","geo_precision":"range","state":"CA"},"type":"Feature","geometry":{"type":"Point","coordinates":[-121.847355,37.365347]}},{"properties":{"city":"SAN JOSE","zip":"95116","geo_score":0.927,"id":"a634ree3s394","address":"2395 MONTPELIER DR STE 6","geo_precision":"range","state":"CA"},"type":"Feature","geometry":{"type":"Point","coordinates":[-121.847355,37.365347]}},{"properties":{"city":"SAN JOSE","zip":"95128","geo_score":0.824,"id":"a634reclz2ak","address":"2400 MOORPARK AVE STE 300","geo_precision":"range","state":"CA"},"type":"Feature","geometry":{"type":"Point","coordinates":[-121.936242,37.316106]}},{"properties":{"city":"SAN JOSE","zip":"95128","geo_score":0.824,"id":"a634rekpli8r","address":"2400 MOORPARK AVE STE 300","geo_precision":"range","state":"CA"},"type":"Feature","geometry":{"type":"Point","coordinates":[-121.936242,37.316106]}},{"properties":{"city":"SAN JOSE","zip":"95128","geo_score":0.824,"id":"a634re7thubi","address":"2400 MOORPARK AVE STE 300","geo_precision":"range","state":"CA"},"type":"Feature","geometry":{"type":"Point","coordinates":[-121.936242,37.316106]}},{"properties":{"city":"SAN JOSE","zip":"95128","geo_score":0.824,"id":"a634rea9elgr","address":"2400 MOORPARK AVE STE 300","geo_precision":"range","state":"CA"},"type":"Feature","geometry":{"type":"Point","coordinates":[-121.936242,37.316106]}},{"properties":{"city":"SAN JOSE","zip":"95128","geo_score":0.824,"id":"a634reljhee4","address":"2400 MOORPARK AVE STE 300","geo_precision":"range","state":"CA"},"type":"Feature","geometry":{"type":"Point","coordinates":[-121.936242,37.316106]}},{"properties":{"city":"SAN JOSE","zip":"95128","geo_score":0.824,"id":"a634reijvgof","address":"2400 MOORPARK AVE STE 300","geo_precision":"range","state":"CA"},"type":"Feature","geometry":{"type":"Point","coordinates":[-121.936242,37.316106]}},{"properties":{"city":"SAN JOSE","zip":"95128","geo_score":0.824,"id":"a634rec1hjay","address":"2400 MOORPARK AVE STE 300","geo_precision":"range","state":"CA"},"type":"Feature","geometry":{"type":"Point","coordinates":[-121.936242,37.316106]}},{"properties":{"city":"SAN JOSE","zip":"95128","geo_score":0.824,"id":"a634regtyyie","address":"2400 MOORPARK AVE STE 300","geo_precision":"range","state":"CA"},"type":"Feature","geometry":{"type":"Point","coordinates":[-121.936242,37.316106]}},{"properties":{"city":"SAN JOSE","zip":"95128","geo_score":0.824,"id":"a634re6fsf4u","address":"2400 MOORPARK AVE STE 300","geo_precision":"range","state":"CA"},"type":"Feature","geometry":{"type":"Point","coordinates":[-121.936242,37.316106]}},{"properties":{"city":"SAN JOSE","zip":"95128","geo_score":0.824,"id":"a634redo5ftz","address":"2400 MOORPARK AVE STE 300","geo_precision":"range","state":"CA"},"type":"Feature","geometry":{"type":"Point","coordinates":[-121.936242,37.316106]}},{"properties":{"city":"SAN JOSE","zip":"95128","geo_score":0.824,"id":"a634reatyxz7","address":"2400 MOORPARK AVE STE 319","geo_precision":"range","state":"CA"},"type":"Feature","geometry":{"type":"Point","coordinates":[-121.936242,37.316106]}},{"properties":{"city":"SAN JOSE","zip":"95128","geo_score":0.824,"id":"a634regpu83a","address":"2400 MOORPARK AVE STE 319","geo_precision":"range","state":"CA"},"type":"Feature","geometry":{"type":"Point","coordinates":[-121.936242,37.316106]}},{"properties":{"city":"SAN JOSE","zip":"95128","geo_score":0.824,"id":"a634refgtph5","address":"2400 MOORPARK AVE STE 319","geo_precision":"range","state":"CA"},"type":"Feature","geometry":{"type":"Point","coordinates":[-121.936242,37.316106]}},{"properties":{"city":"SAN JOSE","zip":"95128","geo_score":0.824,"id":"a634refwinp0","address":"2400 MOORPARK AVE STE 319","geo_precision":"range","state":"CA"},"type":"Feature","geometry":{"type":"Point","coordinates":[-121.936242,37.316106]}},{"properties":{"city":"SAN JOSE","zip":"95128","geo_score":0.824,"id":"a634rebjb4k7","address":"2400 MOORPARK AVE STE 319","geo_precision":"range","state":"CA"},"type":"Feature","geometry":{"type":"Point","coordinates":[-121.936242,37.316106]}},{"properties":{"city":"SAN JOSE","zip":"95124","geo_score":0.815,"id":"a634re85ec0k","address":"2410 SAMARITAN DR STE 201","geo_precision":"range","state":"CA"},"type":"Feature","geometry":{"type":"Point","coordinates":[-121.944707,37.251087]}},{"properties":{"city":"SAN JOSE","zip":"95124","geo_score":0.815,"id":"a634rejxskqq","address":"2410 SAMARITAN DR STE 201","geo_precision":"range","state":"CA"},"type":"Feature","geometry":{"type":"Point","coordinates":[-121.944707,37.251087]}},{"properties":{"city":"SAN JOSE","zip":"95124","geo_score":0.815,"id":"a634re68p5tm","address":"2410 SAMARITAN DR STE 201","geo_precision":"range","state":"CA"},"type":"Feature","geometry":{"type":"Point","coordinates":[-121.944707,37.251087]}},{"properties":{"city":"SAN JOSE","zip":"95124","geo_score":0.815,"id":"a634regfnulx","address":"2410 SAMARITAN DR STE 201","geo_precision":"range","state":"CA"},"type":"Feature","geometry":{"type":"Point","coordinates":[-121.944707,37.251087]}},{"properties":{"city":"SAN JOSE","zip":"95124","geo_score":0.815,"id":"a634reb3b6gk","address":"2410 SAMARITAN DR STE 201","geo_precision":"range","state":"CA"},"type":"Feature","geometry":{"type":"Point","coordinates":[-121.944707,37.251087]}},{"properties":{"city":"SAN JOSE","zip":"95128","geo_score":0.927,"id":"a634refqsonc","address":"2411 FOREST AVE","geo_precision":"range","state":"CA"},"type":"Feature","geometry":{"type":"Point","coordinates":[-121.946445,37.326968]}},{"properties":{"city":"LOS ANGELES","zip":"90021","geo_score":1.0,"id":"a634re86rvo0","address":"2425 PORTER ST","geo_precision":"range","state":"CA"},"type":"Feature","geometry":{"type":"Point","coordinates":[-118.229307,34.026627]}},{"properties":{"city":"SAN JOSE","zip":"95116","geo_score":0.872,"id":"a634refwk942","address":"244 N JACKSON ST STE 203","geo_precision":"range","state":"CA"},"type":"Feature","geometry":{"type":"Point","coordinates":[-121.848848,37.36403]}},{"properties":{"city":"MILPITAS","zip":"95035","geo_score":1.0,"id":"a634re7g9kev","address":"246 RANCH DR","geo_precision":"range","state":"CA"},"type":"Feature","geometry":{"type":"Point","coordinates":[-121.919285,37.429606]}},{"properties":{"city":"SAN JOSE","zip":"95124","geo_score":0.919,"id":"a634rejeo533","address":"2460 SAMARITAN DR","geo_precision":"range","state":"CA"},"type":"Feature","geometry":{"type":"Point","coordinates":[-121.946885,37.2511]}},{"properties":{"city":"SAN JOSE","zip":"95124","geo_score":0.919,"id":"a634rech6idc","address":"2460 SAMARITAN DR","geo_precision":"range","state":"CA"},"type":"Feature","geometry":{"type":"Point","coordinates":[-121.946885,37.2511]}},{"properties":{"city":"SAN JOSE","zip":"95124","geo_score":0.919,"id":"a634re5reif7","address":"2460 SAMARITAN DR","geo_precision":"range","state":"CA"},"type":"Feature","geometry":{"type":"Point","coordinates":[-121.946885,37.2511]}},{"properties":{"city":"SAN JOSE","zip":"95124","geo_score":0.919,"id":"a634rek0cypf","address":"2460 SAMARITAN DR","geo_precision":"range","state":"CA"},"type":"Feature","geometry":{"type":"Point","coordinates":[-121.946885,37.2511]}},{"properties":{"city":"SAN JOSE","zip":"95124","geo_score":0.919,"id":"a634re7ag8p2","address":"2460 SAMARITAN DR","geo_precision":"range","state":"CA"},"type":"Feature","geometry":{"type":"Point","coordinates":[-121.946885,37.2511]}},{"properties":{"city":"SAN JOSE","zip":"95124","geo_score":0.919,"id":"a634re8v9m04","address":"2460 SAMARITAN DR","geo_precision":"range","state":"CA"},"type":"Feature","geometry":{"type":"Point","coordinates":[-121.946885,37.2511]}},{"properties":{"city":"SAN JOSE","zip":"95121","geo_score":0.887,"id":"a634reir3rq4","address":"2470 ALVIN AVE STE 80","geo_precision":"range","state":"CA"},"type":"Feature","geometry":{"type":"Point","coordinates":[-121.826312,37.319173]}},{"properties":{"city":"SAN JOSE","zip":"95121","geo_score":0.887,"id":"a634ree9wvxm","address":"2470 ALVIN AVE STE 80","geo_precision":"range","state":"CA"},"type":"Feature","geometry":{"type":"Point","coordinates":[-121.826312,37.319173]}},{"properties":{"city":"SAN JOSE","zip":"95121","geo_score":0.887,"id":"a634re7hlh8v","address":"2470 ALVIN AVE STE 80","geo_precision":"range","state":"CA"},"type":"Feature","geometry":{"type":"Point","coordinates":[-121.826312,37.319173]}},{"properties":{"city":"SAN JOSE","zip":"95121","geo_score":0.887,"id":"a634redwp4od","address":"2470 ALVIN AVE STE 80","geo_precision":"range","state":"CA"},"type":"Feature","geometry":{"type":"Point","coordinates":[-121.826312,37.319173]}},{"properties":{"city":"SAN JOSE","zip":"95121","geo_score":0.887,"id":"a634reee6l3i","address":"2470 ALVIN AVE STE 80","geo_precision":"range","state":"CA"},"type":"Feature","geometry":{"type":"Point","coordinates":[-121.826312,37.319173]}},{"properties":{"city":"SAN JOSE","zip":"95121","geo_score":0.887,"id":"a634relklump","address":"2470 ALVIN AVE STE 80","geo_precision":"range","state":"CA"},"type":"Feature","geometry":{"type":"Point","coordinates":[-121.826312,37.319173]}},{"properties":{"city":"SAN JOSE","zip":"95121","geo_score":0.887,"id":"a634refrm8ze","address":"2471 ALVIN AVE STE 70","geo_precision":"range","state":"CA"},"type":"Feature","geometry":{"type":"Point","coordinates":[-121.827202,37.319475]}},{"properties":{"city":"MOUNTAIN VIEW","zip":"94040","geo_score":0.89,"id":"a634re8mhzb0","address":"2485 HOSPITAL DR STE 200","geo_precision":"range","state":"CA"},"type":"Feature","geometry":{"type":"Point","coordinates":[-122.08192,37.368914]}},{"properties":{"city":"MOUNTAIN VIEW","zip":"94040","geo_score":0.89,"id":"a634re790shn","address":"2485 HOSPITAL DR STE 200","geo_precision":"range","state":"CA"},"type":"Feature","geometry":{"type":"Point","coordinates":[-122.08192,37.368914]}},{"properties":{"city":"MOUNTAIN VIEW","zip":"94040","geo_score":0.89,"id":"a634reg2ti7h","address":"2485 HOSPITAL DR STE 200","geo_precision":"range","state":"CA"},"type":"Feature","geometry":{"type":"Point","coordinates":[-122.08192,37.368914]}},{"properties":{"city":"MOUNTAIN VIEW","zip":"94040","geo_score":0.89,"id":"a634rei65rkm","address":"2485 HOSPITAL DR STE 200","geo_precision":"range","state":"CA"},"type":"Feature","geometry":{"type":"Point","coordinates":[-122.08192,37.368914]}},{"properties":{"city":"MOUNTAIN VIEW","zip":"94040","geo_score":0.89,"id":"a634rekfz726","address":"2485 HOSPITAL DR STE 200","geo_precision":"range","state":"CA"},"type":"Feature","geometry":{"type":"Point","coordinates":[-122.08192,37.368914]}},{"properties":{"city":"MOUNTAIN VIEW","zip":"94040","geo_score":0.89,"id":"a634re8tw1tx","address":"2485 HOSPITAL DR STE 204","geo_precision":"range","state":"CA"},"type":"Feature","geometry":{"type":"Point","coordinates":[-122.08192,37.368914]}},{"properties":{"city":"MOUNTAIN VIEW","zip":"94040","geo_score":0.89,"id":"a634recji24h","address":"2485 HOSPITAL DR STE 221","geo_precision":"range","state":"CA"},"type":"Feature","geometry":{"type":"Point","coordinates":[-122.08192,37.368914]}},{"properties":{"city":"MOUNTAIN VIEW","zip":"94040","geo_score":0.89,"id":"a634reivqtq9","address":"2490 HOSPITAL DR STE 103","geo_precision":"range","state":"CA"},"type":"Feature","geometry":{"type":"Point","coordinates":[-122.08192,37.368826]}},{"properties":{"city":"SAN JOSE","zip":"95112","geo_score":0.84,"id":"a634recc078u","address":"25 N 14TH ST STE 540","geo_precision":"range","state":"CA"},"type":"Feature","geometry":{"type":"Point","coordinates":[-121.877443,37.342888]}},{"properties":{"city":"SAN JOSE","zip":"95112","geo_score":0.84,"id":"a634reamwho4","address":"25 N 14TH ST STE 780","geo_precision":"range","state":"CA"},"type":"Feature","geometry":{"type":"Point","coordinates":[-121.877443,37.342888]}},{"properties":{"city":"SAN JOSE","zip":"95112","geo_score":0.84,"id":"a634re806ktp","address":"25 N 14TH ST STE 870","geo_precision":"range","state":"CA"},"type":"Feature","geometry":{"type":"Point","coordinates":[-121.877443,37.342888]}},{"properties":{"city":"SAN JOSE","zip":"95112","geo_score":0.84,"id":"a634rekh27ft","address":"25 N 14TH ST STE 920","geo_precision":"range","state":"CA"},"type":"Feature","geometry":{"type":"Point","coordinates":[-121.877443,37.342888]}},{"properties":{"city":"SAN JOSE","zip":"95112","geo_score":0.84,"id":"a634reeaoc7w","address":"25 N 14TH STREET STE 520","geo_precision":"range","state":"CA"},"type":"Feature","geometry":{"type":"Point","coordinates":[-121.877443,37.342888]}},{"properties":{"city":"MOUNTAIN VIEW","zip":"94040","geo_score":1.0,"id":"a634regzw3cx","address":"2500 GRANT RD","geo_precision":"range","state":"CA"},"type":"Feature","geometry":{"type":"Point","coordinates":[-122.077883,37.368345]}},{"properties":{"city":"SAN JOSE","zip":"95124","geo_score":0.815,"id":"a634re9fmwkd","address":"2505 SAMARITAN DR STE 202","geo_precision":"range","state":"CA"},"type":"Feature","geometry":{"type":"Point","coordinates":[-121.949807,37.251259]}},{"properties":{"city":"SAN JOSE","zip":"95124","geo_score":0.827,"id":"a634redzjoly","address":"2505 SAMARITAN DR STE 30","geo_precision":"range","state":"CA"},"type":"Feature","geometry":{"type":"Point","coordinates":[-121.949807,37.251259]}},{"properties":{"city":"SAN JOSE","zip":"95124","geo_score":0.827,"id":"a634reaofab0","address":"2505 SAMARITAN DR STE 30","geo_precision":"range","state":"CA"},"type":"Feature","geometry":{"type":"Point","coordinates":[-121.949807,37.251259]}},{"properties":{"city":"SAN JOSE","zip":"95124","geo_score":0.815,"id":"a634rea7e50w","address":"2505 SAMARITAN DR STE 607","geo_precision":"range","state":"CA"},"type":"Feature","geometry":{"type":"Point","coordinates":[-121.949807,37.251259]}},{"properties":{"city":"SAN JOSE","zip":"95124","geo_score":0.815,"id":"a634reaboa03","address":"2505 SAMARITAN DR STE 607","geo_precision":"range","state":"CA"},"type":"Feature","geometry":{"type":"Point","coordinates":[-121.949807,37.251259]}},{"properties":{"city":"SAN JOSE","zip":"95124","geo_score":0.815,"id":"a634regdroyd","address":"2505 SAMARITAN DR STE 607","geo_precision":"range","state":"CA"},"type":"Feature","geometry":{"type":"Point","coordinates":[-121.949807,37.251259]}},{"properties":{"city":"CAMPBELL","zip":"95008","geo_score":1.0,"id":"a634re6d0oks","address":"251 LLEWELLYN AVE","geo_precision":"range","state":"CA"},"type":"Feature","geometry":{"type":"Point","coordinates":[-121.958375,37.291228]}},{"properties":{"city":"SAN JOSE","zip":"95124","geo_score":0.841,"id":"a634rehw85do","address":"2512 SAMARITAN CT STE A","geo_precision":"range","state":"CA"},"type":"Feature","geometry":{"type":"Point","coordinates":[-121.94986,37.251205]}},{"properties":{"city":"SAN JOSE","zip":"95124","geo_score":0.841,"id":"a634refjmrcy","address":"2512 SAMARITAN CT STE H","geo_precision":"range","state":"CA"},"type":"Feature","geometry":{"type":"Point","coordinates":[-121.94986,37.251205]}},{"properties":{"city":"SAN JOSE","zip":"95124","geo_score":0.841,"id":"a634rel4rng9","address":"2512 SAMARITAN CT STE M","geo_precision":"range","state":"CA"},"type":"Feature","geometry":{"type":"Point","coordinates":[-121.94986,37.251205]}},{"properties":{"city":"SAN JOSE","zip":"95124","geo_score":0.841,"id":"a634reektvo1","address":"2516 SAMARITAN CT STE A","geo_precision":"range","state":"CA"},"type":"Feature","geometry":{"type":"Point","coordinates":[-121.949878,37.251188]}},{"properties":{"city":"SAN JOSE","zip":"95124","geo_score":0.841,"id":"a634recoe9ia","address":"2516 SAMARITAN DR STE A","geo_precision":"range","state":"CA"},"type":"Feature","geometry":{"type":"Point","coordinates":[-121.949943,37.251408]}},{"properties":{"city":"SAN JOSE","zip":"95124","geo_score":0.841,"id":"a634redxv7pf","address":"2516 SAMARITAN DR STE A","geo_precision":"range","state":"CA"},"type":"Feature","geometry":{"type":"Point","coordinates":[-121.949943,37.251408]}},{"properties":{"city":"SAN JOSE","zip":"95124","geo_score":0.841,"id":"a634rea1cdn7","address":"2516 SAMARITAN DR STE A","geo_precision":"range","state":"CA"},"type":"Feature","geometry":{"type":"Point","coordinates":[-121.949943,37.251408]}},{"properties":{"city":"SAN JOSE","zip":"95124","geo_score":0.841,"id":"a634reeoyxwm","address":"2516 SAMARITAN DR STE A","geo_precision":"range","state":"CA"},"type":"Feature","geometry":{"type":"Point","coordinates":[-121.949943,37.251408]}},{"properties":{"city":"SAN JOSE","zip":"95124","geo_score":0.841,"id":"a634re7edaxb","address":"2516 SAMARITAN DR STE A","geo_precision":"range","state":"CA"},"type":"Feature","geometry":{"type":"Point","coordinates":[-121.949943,37.251408]}},{"properties":{"city":"CAMPBELL","zip":"95008","geo_score":0.89,"id":"a634re91lfy1","address":"2542 S BASCOM AVE STE 207","geo_precision":"range","state":"CA"},"type":"Feature","geometry":{"type":"Point","coordinates":[-121.932711,37.276349]}},{"properties":{"city":"CAMPBELL","zip":"95008","geo_score":0.89,"id":"a634rei5v2e8","address":"2542 S BASCOM AVE STE 207","geo_precision":"range","state":"CA"},"type":"Feature","geometry":{"type":"Point","coordinates":[-121.932711,37.276349]}},{"properties":{"city":"HAYWARD","zip":"94545","geo_score":1.0,"id":"a634re7mjzuy","address":"2547 BARRINGTON CT","geo_precision":"range","state":"CA"},"type":"Feature","geometry":{"type":"Point","coordinates":[-122.140354,37.655625]}},{"properties":{"city":"MOUNTAIN VIEW","zip":"94043","geo_score":1.0,"id":"a634recvjoqd","address":"2557 WYANDOTTE ST","geo_precision":"range","state":"CA"},"type":"Feature","geometry":{"type":"Point","coordinates":[-122.100547,37.416945]}},{"properties":{"city":"MOUNTAIN VIEW","zip":"94043","geo_score":1.0,"id":"a634re6jhvru","address":"2557 WYANDOTTE ST","geo_precision":"range","state":"CA"},"type":"Feature","geometry":{"type":"Point","coordinates":[-122.100547,37.416945]}},{"properties":{"city":"SAN JOSE","zip":"95124","geo_score":0.815,"id":"a634re7s6gvf","address":"2577 SAMARITAN DR STE 720","geo_precision":"range","state":"CA"},"type":"Feature","geometry":{"type":"Point","coordinates":[-121.950839,37.253058]}},{"properties":{"city":"SAN JOSE","zip":"95124","geo_score":0.815,"id":"a634redo33ir","address":"2577 SAMARITAN DR STE 720","geo_precision":"range","state":"CA"},"type":"Feature","geometry":{"type":"Point","coordinates":[-121.950839,37.253058]}},{"properties":{"city":"SAN JOSE","zip":"95124","geo_score":0.815,"id":"a634rejc2tio","address":"2577 SAMARITAN DR STE 725","geo_precision":"range","state":"CA"},"type":"Feature","geometry":{"type":"Point","coordinates":[-121.950839,37.253058]}},{"properties":{"city":"SAN JOSE","zip":"95124","geo_score":0.815,"id":"a634reh6yb04","address":"2577 SAMARITAN DR STE 725","geo_precision":"range","state":"CA"},"type":"Feature","geometry":{"type":"Point","coordinates":[-121.950839,37.253058]}},{"properties":{"city":"SAN JOSE","zip":"95124","geo_score":0.815,"id":"a634rek8g4kf","address":"2577 SAMARITAN DR STE 725","geo_precision":"range","state":"CA"},"type":"Feature","geometry":{"type":"Point","coordinates":[-121.950839,37.253058]}},{"properties":{"city":"SAN JOSE","zip":"95124","geo_score":0.815,"id":"a634reby8oww","address":"2577 SAMARITAN DR STE 725","geo_precision":"range","state":"CA"},"type":"Feature","geometry":{"type":"Point","coordinates":[-121.950839,37.253058]}},{"properties":{"city":"SAN JOSE","zip":"95124","geo_score":0.815,"id":"a634rekzak89","address":"2577 SAMARITAN DR STE 740","geo_precision":"range","state":"CA"},"type":"Feature","geometry":{"type":"Point","coordinates":[-121.950839,37.253058]}},{"properties":{"city":"SAN JOSE","zip":"95124","geo_score":0.815,"id":"a634recjwwt5","address":"2577 SAMARITAN DR STE 745","geo_precision":"range","state":"CA"},"type":"Feature","geometry":{"type":"Point","coordinates":[-121.950839,37.253058]}},{"properties":{"city":"SAN JOSE","zip":"95124","geo_score":0.815,"id":"a634re92x1ed","address":"2577 SAMARITAN DR STE 755","geo_precision":"range","state":"CA"},"type":"Feature","geometry":{"type":"Point","coordinates":[-121.950839,37.253058]}},{"properties":{"city":"SAN JOSE","zip":"95124","geo_score":0.815,"id":"a634rebtki4q","address":"2577 SAMARITAN DR STE 830","geo_precision":"range","state":"CA"},"type":"Feature","geometry":{"type":"Point","coordinates":[-121.950839,37.253058]}},{"properties":{"city":"SAN JOSE","zip":"95124","geo_score":0.815,"id":"a634rej4xps1","address":"2577 SAMARITAN DR STE 830","geo_precision":"range","state":"CA"},"type":"Feature","geometry":{"type":"Point","coordinates":[-121.950839,37.253058]}},{"properties":{"city":"SAN JOSE","zip":"95124","geo_score":0.815,"id":"a634recenuzf","address":"2577 SAMARITAN DR STE 830","geo_precision":"range","state":"CA"},"type":"Feature","geometry":{"type":"Point","coordinates":[-121.950839,37.253058]}},{"properties":{"city":"SAN JOSE","zip":"95124","geo_score":0.815,"id":"a634reegm172","address":"2577 SAMARITAN DR STE 830","geo_precision":"range","state":"CA"},"type":"Feature","geometry":{"type":"Point","coordinates":[-121.950839,37.253058]}},{"properties":{"city":"SAN JOSE","zip":"95124","geo_score":0.815,"id":"a634re78se44","address":"2577 SAMARITAN DR STE 830","geo_precision":"range","state":"CA"},"type":"Feature","geometry":{"type":"Point","coordinates":[-121.950839,37.253058]}},{"properties":{"city":"SAN JOSE","zip":"95124","geo_score":0.815,"id":"a634reioaccz","address":"2577 SAMARITAN DR STE 860","geo_precision":"range","state":"CA"},"type":"Feature","geometry":{"type":"Point","coordinates":[-121.950839,37.253058]}},{"properties":{"city":"SAN JOSE","zip":"95124","geo_score":0.919,"id":"a634refxfr4s","address":"2581 SAMARITAN DR","geo_precision":"range","state":"CA"},"type":"Feature","geometry":{"type":"Point","coordinates":[-121.950973,37.253082]}},{"properties":{"city":"SAN JOSE","zip":"95124","geo_score":0.919,"id":"a634recyvymg","address":"2581 SAMARITAN DR","geo_precision":"range","state":"CA"},"type":"Feature","geometry":{"type":"Point","coordinates":[-121.950973,37.253082]}},{"properties":{"city":"SAN JOSE","zip":"95124","geo_score":0.815,"id":"a634re9tal93","address":"2581 SAMARITAN DR STE 100","geo_precision":"range","state":"CA"},"type":"Feature","geometry":{"type":"Point","coordinates":[-121.950973,37.253082]}},{"properties":{"city":"SAN JOSE","zip":"95124","geo_score":0.815,"id":"a634re7xrm4y","address":"2581 SAMARITAN DR STE 100","geo_precision":"range","state":"CA"},"type":"Feature","geometry":{"type":"Point","coordinates":[-121.950973,37.253082]}},{"properties":{"city":"SAN JOSE","zip":"95124","geo_score":0.815,"id":"a634redi6k0y","address":"2581 SAMARITAN DR STE 100","geo_precision":"range","state":"CA"},"type":"Feature","geometry":{"type":"Point","coordinates":[-121.950973,37.253082]}},{"properties":{"city":"SAN JOSE","zip":"95124","geo_score":0.815,"id":"a634re84zfd2","address":"2581 SAMARITAN DR STE 100","geo_precision":"range","state":"CA"},"type":"Feature","geometry":{"type":"Point","coordinates":[-121.950973,37.253082]}},{"properties":{"city":"SAN JOSE","zip":"95124","geo_score":0.815,"id":"a634ref339u9","address":"2581 SAMARITAN DR STE 100","geo_precision":"range","state":"CA"},"type":"Feature","geometry":{"type":"Point","coordinates":[-121.950973,37.253082]}},{"properties":{"city":"SAN JOSE","zip":"95124","geo_score":0.815,"id":"a634ref3ib5z","address":"2581 SAMARITAN DR STE 100","geo_precision":"range","state":"CA"},"type":"Feature","geometry":{"type":"Point","coordinates":[-121.950973,37.253082]}},{"properties":{"city":"SAN JOSE","zip":"95124","geo_score":0.815,"id":"a634reg0nb9e","address":"2581 SAMARITAN DR STE 100","geo_precision":"range","state":"CA"},"type":"Feature","geometry":{"type":"Point","coordinates":[-121.950973,37.253082]}},{"properties":{"city":"SAN JOSE","zip":"95124","geo_score":0.815,"id":"a634reds4tqg","address":"2581 SAMARITAN DR STE 100","geo_precision":"range","state":"CA"},"type":"Feature","geometry":{"type":"Point","coordinates":[-121.950973,37.253082]}},{"properties":{"city":"SAN JOSE","zip":"95124","geo_score":0.815,"id":"a634re5w10yb","address":"2581 SAMARITAN DR STE 100","geo_precision":"range","state":"CA"},"type":"Feature","geometry":{"type":"Point","coordinates":[-121.950973,37.253082]}},{"properties":{"city":"SAN JOSE","zip":"95124","geo_score":0.815,"id":"a634rekgsfg7","address":"2581 SAMARITAN DR STE 100","geo_precision":"range","state":"CA"},"type":"Feature","geometry":{"type":"Point","coordinates":[-121.950973,37.253082]}},{"properties":{"city":"SAN JOSE","zip":"95124","geo_score":0.815,"id":"a634recmul9c","address":"2581 SAMARITAN DR STE 100","geo_precision":"range","state":"CA"},"type":"Feature","geometry":{"type":"Point","coordinates":[-121.950973,37.253082]}},{"properties":{"city":"SAN JOSE","zip":"95124","geo_score":0.815,"id":"a634reh5s7y1","address":"2581 SAMARITAN DR STE 100","geo_precision":"range","state":"CA"},"type":"Feature","geometry":{"type":"Point","coordinates":[-121.950973,37.253082]}},{"properties":{"city":"SAN JOSE","zip":"95124","geo_score":0.815,"id":"a634reixg7x7","address":"2581 SAMARITAN DR STE 100","geo_precision":"range","state":"CA"},"type":"Feature","geometry":{"type":"Point","coordinates":[-121.950973,37.253082]}},{"properties":{"city":"SAN JOSE","zip":"95124","geo_score":0.815,"id":"a634re745jwa","address":"2581 SAMARITAN DR STE 100","geo_precision":"range","state":"CA"},"type":"Feature","geometry":{"type":"Point","coordinates":[-121.950973,37.253082]}},{"properties":{"city":"SAN JOSE","zip":"95124","geo_score":0.815,"id":"a634reddyxxw","address":"2581 SAMARITAN DR STE 100","geo_precision":"range","state":"CA"},"type":"Feature","geometry":{"type":"Point","coordinates":[-121.950973,37.253082]}},{"properties":{"city":"SAN JOSE","zip":"95124","geo_score":0.815,"id":"a634reilohw2","address":"2581 SAMARITAN DR STE 206","geo_precision":"range","state":"CA"},"type":"Feature","geometry":{"type":"Point","coordinates":[-121.950973,37.253082]}},{"properties":{"city":"SAN JOSE","zip":"95125","geo_score":0.702,"id":"a634re7fxbo9","address":"2581 SAMARITAN DR STE 206","geo_precision":"range","state":"CA"},"type":"Feature","geometry":{"type":"Point","coordinates":[-121.950973,37.253082]}},{"properties":{"city":"SAN JOSE","zip":"95126","geo_score":0.909,"id":"a634re5fmoyu","address":"259 MERIDIAN AVE STE 11","geo_precision":"range","state":"CA"},"type":"Feature","geometry":{"type":"Point","coordinates":[-121.913764,37.324288]}},{"properties":{"city":"SAN JOSE","zip":"95126","geo_score":0.909,"id":"a634reeallfk","address":"259 MERIDIAN AVE STE 11","geo_precision":"range","state":"CA"},"type":"Feature","geometry":{"type":"Point","coordinates":[-121.913764,37.324288]}},{"properties":{"city":"SAN JOSE","zip":"95126","geo_score":0.909,"id":"a634reerfj4u","address":"259 MERIDIAN AVE STE 14","geo_precision":"range","state":"CA"},"type":"Feature","geometry":{"type":"Point","coordinates":[-121.913764,37.324288]}},{"properties":{"city":"SAN JOSE","zip":"95126","geo_score":0.922,"id":"a634rei20cgp","address":"259 MERIDIAN AVE STE 8","geo_precision":"range","state":"CA"},"type":"Feature","geometry":{"type":"Point","coordinates":[-121.913764,37.324288]}},{"properties":{"city":"SAN JOSE","zip":"95122","geo_score":0.878,"id":"a634re5t43ml","address":"2593 S KING RD STE 11","geo_precision":"range","state":"CA"},"type":"Feature","geometry":{"type":"Point","coordinates":[-121.822578,37.31884]}},{"properties":{"city":"SAN JOSE","zip":"95122","geo_score":0.878,"id":"a634rebw0k3u","address":"2593 S KING RD STE 11","geo_precision":"range","state":"CA"},"type":"Feature","geometry":{"type":"Point","coordinates":[-121.822578,37.31884]}},{"properties":{"city":"SAN JOSE","zip":"95122","geo_score":0.878,"id":"a634regsxd9e","address":"2593 S KING RD STE 15","geo_precision":"range","state":"CA"},"type":"Feature","geometry":{"type":"Point","coordinates":[-121.822578,37.31884]}},{"properties":{"city":"SAN JOSE","zip":"95122","geo_score":0.894,"id":"a634reji4dbp","address":"2593 S KING RD STE 4","geo_precision":"range","state":"CA"},"type":"Feature","geometry":{"type":"Point","coordinates":[-121.822578,37.31884]}},{"properties":{"city":"SAN JOSE","zip":"95122","geo_score":0.894,"id":"a634reczqdbv","address":"2593 S KING RD STE 7","geo_precision":"range","state":"CA"},"type":"Feature","geometry":{"type":"Point","coordinates":[-121.822578,37.31884]}},{"properties":{"city":"PALO ALTO","zip":"94306","geo_score":1.0,"id":"a634rek14tr1","address":"2635 MIDDLEFIELD RD","geo_precision":"range","state":"CA"},"type":"Feature","geometry":{"type":"Point","coordinates":[-122.130219,37.433952]}},{"properties":{"city":"SAN JOSE","zip":"95132","geo_score":0.826,"id":"a634reajouc4","address":"2664 BERRYESSA RD STE 106","geo_precision":"range","state":"CA"},"type":"Feature","geometry":{"type":"Point","coordinates":[-121.856644,37.389512]}},{"properties":{"city":"FREMONT","zip":"94538","geo_score":1.0,"id":"a634reiv3rit","address":"2675 STEVENSON BLVD","geo_precision":"range","state":"CA"},"type":"Feature","geometry":{"type":"Point","coordinates":[-121.972447,37.550358]}},{"properties":{"city":"SAN JOSE","zip":"95148","geo_score":0.875,"id":"a634reald3ex","address":"2680 S WHITE RD STE 200","geo_precision":"range","state":"CA"},"type":"Feature","geometry":{"type":"Point","coordinates":[-121.798632,37.32962]}},{"properties":{"city":"SAN JOSE","zip":"95148","geo_score":0.875,"id":"a634red8b3fv","address":"2680 S WHITE RD STE 200","geo_precision":"range","state":"CA"},"type":"Feature","geometry":{"type":"Point","coordinates":[-121.798632,37.32962]}},{"properties":{"city":"SAN JOSE","zip":"95148","geo_score":0.875,"id":"a634rel08xgp","address":"2680 S WHITE RD STE 207","geo_precision":"range","state":"CA"},"type":"Feature","geometry":{"type":"Point","coordinates":[-121.798632,37.32962]}},{"properties":{"city":"SAN JOSE","zip":"95148","geo_score":0.875,"id":"a634reju5vui","address":"2690 S WHITE RD STE 200","geo_precision":"range","state":"CA"},"type":"Feature","geometry":{"type":"Point","coordinates":[-121.798528,37.329344]}},{"properties":{"city":"SAN JOSE","zip":"95148","geo_score":0.875,"id":"a634re674cei","address":"2690 S WHITE RD STE 200","geo_precision":"range","state":"CA"},"type":"Feature","geometry":{"type":"Point","coordinates":[-121.798528,37.329344]}},{"properties":{"city":"SAN JOSE","zip":"95148","geo_score":0.875,"id":"a634re6irqn7","address":"2690 S WHITE RD STE 200","geo_precision":"range","state":"CA"},"type":"Feature","geometry":{"type":"Point","coordinates":[-121.798528,37.329344]}},{"properties":{"city":"SAN JOSE","zip":"95112","geo_score":0.916,"id":"a634rei1g73u","address":"27 S 13TH ST","geo_precision":"range","state":"CA"},"type":"Feature","geometry":{"type":"Point","coordinates":[-121.877744,37.341611]}},{"properties":{"city":"PALO ALTO","zip":"94306","geo_score":1.0,"id":"a634reg41fyi","address":"270 GRANT AVE","geo_precision":"range","state":"CA"},"type":"Feature","geometry":{"type":"Point","coordinates":[-122.14174,37.426665]}},{"properties":{"city":"PALO ALTO","zip":"94306","geo_score":1.0,"id":"a634rei4gkr1","address":"270 GRANT AVE","geo_precision":"range","state":"CA"},"type":"Feature","geometry":{"type":"Point","coordinates":[-122.14174,37.426665]}},{"properties":{"city":"SUNNYVALE","zip":"94086","geo_score":1.0,"id":"a634reli6bra","address":"275 N MATHILDA AVE","geo_precision":"range","state":"CA"},"type":"Feature","geometry":{"type":"Point","coordinates":[-122.032325,37.383693]}},{"properties":{"city":"SAN JOSE","zip":"95128","geo_score":0.837,"id":"a634reiddxqq","address":"275 OCONNOR DR STE B","geo_precision":"range","state":"CA"},"type":"Feature","geometry":{"type":"Point","coordinates":[-121.93985,37.324836]}},{"properties":{"city":"SAN JOSE","zip":"95128","geo_score":0.81,"id":"a634recm78jy","address":"275 OCONNOR DRIVE  SUITE C","geo_precision":"range","state":"CA"},"type":"Feature","geometry":{"type":"Point","coordinates":[-121.93985,37.324836]}},{"properties":{"city":"VALENCIA","zip":"91355","geo_score":0.927,"id":"a634rec1qsd2","address":"27911 FRANKLIN PKWY STE A","geo_precision":"range","state":"CA"},"type":"Feature","geometry":{"type":"Point","coordinates":[-118.622751,34.439407]}},{"properties":{"city":"SAN JOSE","zip":"95112","geo_score":1.0,"id":"a634re5otcpt","address":"280 JACKSON ST","geo_precision":"range","state":"CA"},"type":"Feature","geometry":{"type":"Point","coordinates":[-121.892727,37.34978]}},{"properties":{"city":"SAN JOSE","zip":"95112","geo_score":1.0,"id":"a634ref6byli","address":"280 JACKSON ST","geo_precision":"range","state":"CA"},"type":"Feature","geometry":{"type":"Point","coordinates":[-121.892727,37.34978]}},{"properties":{"city":"SAN JOSE","zip":"95116","geo_score":0.922,"id":"a634re9r54bu","address":"280 N JACKSON AVE STE D","geo_precision":"range","state":"CA"},"type":"Feature","geometry":{"type":"Point","coordinates":[-121.849708,37.364859]}},{"properties":{"city":"SAN JOSE","zip":"95127","geo_score":0.826,"id":"a634re9jxfj7","address":"2820 ALUM ROCK AVE STE 10","geo_precision":"range","state":"CA"},"type":"Feature","geometry":{"type":"Point","coordinates":[-121.833358,37.36333]}},{"properties":{"city":"SAN JOSE","zip":"95127","geo_score":0.826,"id":"a634re5ogcdz","address":"2820 ALUM ROCK AVE STE 20","geo_precision":"range","state":"CA"},"type":"Feature","geometry":{"type":"Point","coordinates":[-121.833358,37.36333]}},{"properties":{"city":"LOS BANOS","zip":"93635","geo_score":0.927,"id":"a634redfth82","address":"285 MERCEY SPRINGS RD","geo_precision":"range","state":"CA"},"type":"Feature","geometry":{"type":"Point","coordinates":[-120.835211,37.064917]}},{"properties":{"city":"LOS BANOS","zip":"93635","geo_score":0.849,"id":"a634reglml5a","address":"285 MERCY SPRINGS AVE","geo_precision":"range","state":"CA"},"type":"Feature","geometry":{"type":"Point","coordinates":[-120.835211,37.064917]}},{"properties":{"city":"SAN JOSE","zip":"95111","geo_score":0.875,"id":"a634reirfw2z","address":"2899 SENTER RD STE 140","geo_precision":"range","state":"CA"},"type":"Feature","geometry":{"type":"Point","coordinates":[-121.837626,37.297714]}},{"properties":{"city":"LOS GATOS","zip":"95030","geo_score":0.808,"id":"a634recmcrxm","address":"291 E MAIN ST STE E","geo_precision":"range","state":"CA"},"type":"Feature","geometry":{"type":"Point","coordinates":[-121.976045,37.221085]}},{"properties":{"city":"SUNNYVALE","zip":"94086","geo_score":1.0,"id":"a634rejt0g6h","address":"295 E WASHINGTON AVE","geo_precision":"range","state":"CA"},"type":"Feature","geometry":{"type":"Point","coordinates":[-122.028343,37.37555]}},{"properties":{"city":"SAN JOSE","zip":"95128","geo_score":0.927,"id":"a634recpvyhh","address":"295 OCONNOR DR","geo_precision":"range","state":"CA"},"type":"Feature","geometry":{"type":"Point","coordinates":[-121.939855,37.325181]}},{"properties":{"city":"SAN JOSE","zip":"95128","geo_score":0.927,"id":"a634re5rvo42","address":"295 OCONNOR DR","geo_precision":"range","state":"CA"},"type":"Feature","geometry":{"type":"Point","coordinates":[-121.939855,37.325181]}},{"properties":{"city":"SAN JOSE","zip":"95128","geo_score":0.927,"id":"a634rebly3up","address":"295 OCONNOR DR","geo_precision":"range","state":"CA"},"type":"Feature","geometry":{"type":"Point","coordinates":[-121.939855,37.325181]}},{"properties":{"city":"SAN JOSE","zip":"95128","geo_score":0.927,"id":"a634rekrapzm","address":"295 OCONNOR DR","geo_precision":"range","state":"CA"},"type":"Feature","geometry":{"type":"Point","coordinates":[-121.939855,37.325181]}},{"properties":{"city":"SAN JOSE","zip":"95128","geo_score":0.927,"id":"a634rekpu6rf","address":"295 OCONNOR DR","geo_precision":"range","state":"CA"},"type":"Feature","geometry":{"type":"Point","coordinates":[-121.939855,37.325181]}},{"properties":{"city":"STANFORD","zip":"94305","geo_score":0.805,"id":"a634re5lkidp","address":"300 PASTEUR DR","geo_precision":"range","state":"CA"},"type":"Feature","geometry":{"type":"Point","coordinates":[-122.17934,37.43434]}},{"properties":{"city":"STANFORD","zip":"94305","geo_score":0.805,"id":"a634rek9058h","address":"300 PASTEUR DR","geo_precision":"range","state":"CA"},"type":"Feature","geometry":{"type":"Point","coordinates":[-122.17934,37.43434]}},{"properties":{"city":"STANFORD","zip":"94305","geo_score":0.805,"id":"a634rekjfr0d","address":"300 PASTEUR DR","geo_precision":"range","state":"CA"},"type":"Feature","geometry":{"type":"Point","coordinates":[-122.17934,37.43434]}},{"properties":{"city":"LOS GATOS","zip":"95030","geo_score":0.899,"id":"a634re9w6uqi","address":"301 B LOS GATOS SARATOGA RD","geo_precision":"range","state":"CA"},"type":"Feature","geometry":{"type":"Point","coordinates":[-121.98323,37.23043]}},{"properties":{"city":"LOS GATOS","zip":"95030","geo_score":0.899,"id":"a634reh1c97j","address":"301 B LOS GATOS SARATOGA RD","geo_precision":"range","state":"CA"},"type":"Feature","geometry":{"type":"Point","coordinates":[-121.98323,37.23043]}},{"properties":{"city":"SAN JOSE","zip":"95127","geo_score":0.917,"id":"a634rehqwwjv","address":"3030 ALUM ROCK AVE","geo_precision":"range","state":"CA"},"type":"Feature","geometry":{"type":"Point","coordinates":[-121.829658,37.365225]}},{"properties":{"city":"SAN JOSE","zip":"95127","geo_score":0.917,"id":"a634rebjgcvn","address":"3030 ALUM ROCK AVE","geo_precision":"range","state":"CA"},"type":"Feature","geometry":{"type":"Point","coordinates":[-121.829658,37.365225]}},{"properties":{"city":"SAN JOSE","zip":"95127","geo_score":0.917,"id":"a634re5nemuh","address":"3030 ALUM ROCK AVE","geo_precision":"range","state":"CA"},"type":"Feature","geometry":{"type":"Point","coordinates":[-121.829658,37.365225]}},{"properties":{"city":"SAN JOSE","zip":"95127","geo_score":0.917,"id":"a634rej1zpd4","address":"3030 ALUM ROCK AVE","geo_precision":"range","state":"CA"},"type":"Feature","geometry":{"type":"Point","coordinates":[-121.829658,37.365225]}},{"properties":{"city":"SAN JOSE","zip":"95127","geo_score":0.917,"id":"a634rehb1wk6","address":"3030 ALUM ROCK AVE","geo_precision":"range","state":"CA"},"type":"Feature","geometry":{"type":"Point","coordinates":[-121.829658,37.365225]}},{"properties":{"city":"SAN JOSE","zip":"95127","geo_score":0.917,"id":"a634rekawxch","address":"3030 ALUM ROCK AVE","geo_precision":"range","state":"CA"},"type":"Feature","geometry":{"type":"Point","coordinates":[-121.829658,37.365225]}},{"properties":{"city":"SAN JOSE","zip":"95127","geo_score":0.917,"id":"a634rekd0ewz","address":"3030 ALUM ROCK AVE","geo_precision":"range","state":"CA"},"type":"Feature","geometry":{"type":"Point","coordinates":[-121.829658,37.365225]}},{"properties":{"city":"SAN JOSE","zip":"95020","geo_score":0.503,"id":"a634reajjyz2","address":"3030 ALUM ROCK AVE","geo_precision":"street","state":"CA"},"type":"Feature","geometry":{"type":"Point","coordinates":[-122.056988,36.967555]}},{"properties":{"city":"SAN JOSE","zip":"95127","geo_score":0.917,"id":"a634reijpubo","address":"3030 ALUM ROCK AVE","geo_precision":"range","state":"CA"},"type":"Feature","geometry":{"type":"Point","coordinates":[-121.829658,37.365225]}},{"properties":{"city":"SAN JOSE","zip":"95020","geo_score":0.503,"id":"a634rehg55iz","address":"3030 ALUM ROCK AVE","geo_precision":"street","state":"CA"},"type":"Feature","geometry":{"type":"Point","coordinates":[-122.056988,36.967555]}},{"properties":{"city":"SAN JOSE","zip":"95127","geo_score":0.917,"id":"a634ree7mmqf","address":"3030 ALUM ROCK AVE","geo_precision":"range","state":"CA"},"type":"Feature","geometry":{"type":"Point","coordinates":[-121.829658,37.365225]}},{"properties":{"city":"SAN JOSE","zip":"95127","geo_score":0.917,"id":"a634reae4ds5","address":"3030 ALUM ROCK AVE","geo_precision":"range","state":"CA"},"type":"Feature","geometry":{"type":"Point","coordinates":[-121.829658,37.365225]}},{"properties":{"city":"SAN JOSE","zip":"95127","geo_score":0.917,"id":"a634reebzjq0","address":"3030 ALUM ROCK AVE","geo_precision":"range","state":"CA"},"type":"Feature","geometry":{"type":"Point","coordinates":[-121.829658,37.365225]}},{"properties":{"city":"SAN JOSE","zip":"95127","geo_score":0.917,"id":"a634reiq9c40","address":"3030 ALUM ROCK AVE","geo_precision":"range","state":"CA"},"type":"Feature","geometry":{"type":"Point","coordinates":[-121.829658,37.365225]}},{"properties":{"city":"SAN JOSE","zip":"95127","geo_score":0.917,"id":"a634reiytsy1","address":"3030 ALUM ROCK AVE","geo_precision":"range","state":"CA"},"type":"Feature","geometry":{"type":"Point","coordinates":[-121.829658,37.365225]}},{"properties":{"city":"SAN JOSE","zip":"95128","geo_score":0.849,"id":"a634rej22ig9","address":"3033 MOORPARK AVE STE 7","geo_precision":"range","state":"CA"},"type":"Feature","geometry":{"type":"Point","coordinates":[-121.948104,37.316046]}},{"properties":{"city":"SAN JOSE","zip":"95128","geo_score":0.849,"id":"a634rehmrobd","address":"3033 MOORPARK AVE STE 8","geo_precision":"range","state":"CA"},"type":"Feature","geometry":{"type":"Point","coordinates":[-121.948104,37.316046]}},{"properties":{"city":"SAN JOSE","zip":"95117","geo_score":1.0,"id":"a634refwm257","address":"316 ROSEWOOD AVE","geo_precision":"range","state":"CA"},"type":"Feature","geometry":{"type":"Point","coordinates":[-121.954383,37.322797]}},{"properties":{"city":"LOS GATOS","zip":"95032","geo_score":0.892,"id":"a634refpde2c","address":"320 DARDANELLI LANE  SUITE 16","geo_precision":"range","state":"CA"},"type":"Feature","geometry":{"type":"Point","coordinates":[-121.967423,37.261795]}},{"properties":{"city":"LOS GATOS","zip":"95030","geo_score":0.477,"id":"a634reknc52k","address":"320 DARDANELLI LN STE 10-B","geo_precision":"street","state":"CA"},"type":"Feature","geometry":{"type":"Point","coordinates":[-121.96856,37.215219]}},{"properties":{"city":"LOS GATOS","zip":"95032","geo_score":0.914,"id":"a634reg1vnal","address":"320 DARDANELLI LN STE 16","geo_precision":"range","state":"CA"},"type":"Feature","geometry":{"type":"Point","coordinates":[-121.967423,37.261795]}},{"properties":{"city":"LOS GATOS","zip":"95032","geo_score":0.914,"id":"a634reg9fpgb","address":"320 DARDANELLI LN STE 16","geo_precision":"range","state":"CA"},"type":"Feature","geometry":{"type":"Point","coordinates":[-121.967423,37.261795]}},{"properties":{"city":"UNION CITY","zip":"94587","geo_score":0.913,"id":"a634re9vljb7","address":"3209 WHIPPLE RD","geo_precision":"range","state":"CA"},"type":"Feature","geometry":{"type":"Point","coordinates":[-122.080792,37.605616]}},{"properties":{"city":"LOS GATOS","zip":"95032","geo_score":0.914,"id":"a634rekn7zh0","address":"340 DARDANELLI LANE STE 24","geo_precision":"range","state":"CA"},"type":"Feature","geometry":{"type":"Point","coordinates":[-121.967381,37.262051]}},{"properties":{"city":"LOS GATOS","zip":"95032","geo_score":0.902,"id":"a634red8bwxl","address":"340 DARDANELLI LN STE 11A","geo_precision":"range","state":"CA"},"type":"Feature","geometry":{"type":"Point","coordinates":[-121.967381,37.262051]}},{"properties":{"city":"LOS GATOS","zip":"95030","geo_score":0.48,"id":"a634rel16uj8","address":"340 DARDANELLI LN STE 13","geo_precision":"street","state":"CA"},"type":"Feature","geometry":{"type":"Point","coordinates":[-121.96856,37.215219]}},{"properties":{"city":"LOS GATOS","zip":"95032","geo_score":0.914,"id":"a634rehbvyd4","address":"340 DARDANELLI LN STE 13","geo_precision":"range","state":"CA"},"type":"Feature","geometry":{"type":"Point","coordinates":[-121.967381,37.262051]}},{"properties":{"city":"LOS GATOS","zip":"95032","geo_score":0.902,"id":"a634re8nikny","address":"340 DARDANELLI LN STE 25-A","geo_precision":"range","state":"CA"},"type":"Feature","geometry":{"type":"Point","coordinates":[-121.967381,37.262051]}},{"properties":{"city":"SAN JOSE","zip":"95117","geo_score":1.0,"id":"a634rek3cnwo","address":"340 NORTHLAKE DR","geo_precision":"range","state":"CA"},"type":"Feature","geometry":{"type":"Point","coordinates":[-121.968393,37.321926]}},{"properties":{"city":"SAN JOSE","zip":"95117","geo_score":0.732,"id":"a634re79dxmr","address":"3484 STEVENS CREEK BL SUITE D","geo_precision":"range","state":"CA"},"type":"Feature","geometry":{"type":"Point","coordinates":[-121.959566,37.32319]}},{"properties":{"city":"MODESTO","zip":"95355","geo_score":0.902,"id":"a634recdugmo","address":"3500 COFFEE RD STE 3","geo_precision":"range","state":"CA"},"type":"Feature","geometry":{"type":"Point","coordinates":[-120.97607,37.688884]}},{"properties":{"city":"LOS GATOS","zip":"95032","geo_score":0.914,"id":"a634reia6coi","address":"360 DARDANELLI LN STE 1G","geo_precision":"range","state":"CA"},"type":"Feature","geometry":{"type":"Point","coordinates":[-121.96741,37.262308]}},{"properties":{"city":"LOS GATOS","zip":"95032","geo_score":0.897,"id":"a634ref81cmq","address":"360 DARDENELLI LN STE 1G","geo_precision":"range","state":"CA"},"type":"Feature","geometry":{"type":"Point","coordinates":[-121.96741,37.262308]}},{"properties":{"city":"SAN JOSE","zip":"95128","geo_score":0.927,"id":"a634rehjctp8","address":"373 S REDWOOD AVE","geo_precision":"range","state":"CA"},"type":"Feature","geometry":{"type":"Point","coordinates":[-121.946798,37.321914]}},{"properties":{"city":"PALO ALTO","zip":"94301","geo_score":1.0,"id":"a634re6l2gbg","address":"385 FOREST AVE","geo_precision":"range","state":"CA"},"type":"Feature","geometry":{"type":"Point","coordinates":[-122.158134,37.445338]}},{"properties":{"city":"SAN JOSE","zip":"95117","geo_score":0.865,"id":"a634reb8fw71","address":"390 SPAR AVE STE 204","geo_precision":"range","state":"CA"},"type":"Feature","geometry":{"type":"Point","coordinates":[-121.951448,37.322038]}},{"properties":{"city":"FREMONT","zip":"94538","geo_score":1.0,"id":"a634reg7qz63","address":"39001 SUNDALE DR","geo_precision":"range","state":"CA"},"type":"Feature","geometry":{"type":"Point","coordinates":[-121.978643,37.546506]}},{"properties":{"city":"SAN JOSE","zip":"95123","geo_score":0.878,"id":"a634rejrhcdx","address":"393 BLOSSOM HILL RD","geo_precision":"range","state":"CA"},"type":"Feature","geometry":{"type":"Point","coordinates":[-121.827676,37.251375]}},{"properties":{"city":"NEWARK","zip":"94560","geo_score":0.897,"id":"a634recw4kr9","address":"39899 BALENTINE DR STE 161","geo_precision":"range","state":"CA"},"type":"Feature","geometry":{"type":"Point","coordinates":[-121.993425,37.522119]}},{"properties":{"city":"SAN JOSE","zip":"95117","geo_score":1.0,"id":"a634reagdk9t","address":"4050 MOORPARK AVE","geo_precision":"range","state":"CA"},"type":"Feature","geometry":{"type":"Point","coordinates":[-121.972803,37.315873]}},{"properties":{"city":"SAN JOSE","zip":"95117","geo_score":1.0,"id":"a634re86yz19","address":"4050 MOORPARK AVE","geo_precision":"range","state":"CA"},"type":"Feature","geometry":{"type":"Point","coordinates":[-121.972803,37.315873]}},{"properties":{"city":"SAN JOSE","zip":"95117","geo_score":1.0,"id":"a634reid19nc","address":"4050 MOORPARK AVE","geo_precision":"range","state":"CA"},"type":"Feature","geometry":{"type":"Point","coordinates":[-121.972803,37.315873]}},{"properties":{"city":"SAN JOSE","zip":"95117","geo_score":1.0,"id":"a634reg3ez7j","address":"4050 MOORPARK AVE","geo_precision":"range","state":"CA"},"type":"Feature","geometry":{"type":"Point","coordinates":[-121.972803,37.315873]}},{"properties":{"city":"SAN JOSE","zip":"95117","geo_score":1.0,"id":"a634rellkbo2","address":"4050 MOORPARK AVE","geo_precision":"range","state":"CA"},"type":"Feature","geometry":{"type":"Point","coordinates":[-121.972803,37.315873]}},{"properties":{"city":"SAN JOSE","zip":"95117","geo_score":1.0,"id":"a634redun1nv","address":"4050 MOORPARK AVE","geo_precision":"range","state":"CA"},"type":"Feature","geometry":{"type":"Point","coordinates":[-121.972803,37.315873]}},{"properties":{"city":"SAN JOSE","zip":"95117","geo_score":1.0,"id":"a634regrfwnj","address":"4050 MOORPARK AVE","geo_precision":"range","state":"CA"},"type":"Feature","geometry":{"type":"Point","coordinates":[-121.972803,37.315873]}},{"properties":{"city":"SAN JOSE","zip":"95117","geo_score":1.0,"id":"a634recmn3ll","address":"4050 MOORPARK AVE","geo_precision":"range","state":"CA"},"type":"Feature","geometry":{"type":"Point","coordinates":[-121.972803,37.315873]}},{"properties":{"city":"SANTA CLARA","zip":"95050","geo_score":1.0,"id":"a634redsbgdp","address":"410 N WINCHESTER BLVD","geo_precision":"range","state":"CA"},"type":"Feature","geometry":{"type":"Point","coordinates":[-121.950191,37.334115]}},{"properties":{"city":"SAN JOSE","zip":"95117","geo_score":0.897,"id":"a634reik8hxn","address":"4100 MOORPARK AVE STE 120","geo_precision":"range","state":"CA"},"type":"Feature","geometry":{"type":"Point","coordinates":[-121.973802,37.315866]}},{"properties":{"city":"SAN JOSE","zip":"95117","geo_score":0.811,"id":"a634redo5t3q","address":"4155 MOORPARK AVE STE 19","geo_precision":"range","state":"CA"},"type":"Feature","geometry":{"type":"Point","coordinates":[-121.975047,37.315861]}},{"properties":{"city":"SAN JOSE","zip":"95126","geo_score":1.0,"id":"a634reiz2eqa","address":"42 RACE ST","geo_precision":"range","state":"CA"},"type":"Feature","geometry":{"type":"Point","coordinates":[-121.911923,37.330777]}},{"properties":{"city":"CAMPBELL","zip":"95008","geo_score":1.0,"id":"a634redmuy2q","address":"42 W CAMPBELL AVE","geo_precision":"range","state":"CA"},"type":"Feature","geometry":{"type":"Point","coordinates":[-121.950422,37.287015]}},{"properties":{"city":"LOS GATOS","zip":"95030","geo_score":0.837,"id":"a634regxt1vq","address":"430 MONTEREY AVE STE 2","geo_precision":"range","state":"CA"},"type":"Feature","geometry":{"type":"Point","coordinates":[-121.981468,37.230487]}},{"properties":{"city":"MILPITAS","zip":"95035","geo_score":0.894,"id":"a634reb1kglu","address":"430 S ABEL ST STE 1","geo_precision":"range","state":"CA"},"type":"Feature","geometry":{"type":"Point","coordinates":[-121.907116,37.424398]}},{"properties":{"city":"PALO ALTO","zip":"94306","geo_score":0.916,"id":"a634redm0mdv","address":"445 SHERMAN AVE STE R","geo_precision":"range","state":"CA"},"type":"Feature","geometry":{"type":"Point","coordinates":[-122.144117,37.425369]}},{"properties":{"city":"SAN JOSE","zip":"95128","geo_score":0.395,"id":"a634rednaw4r","address":"455 O'CONNOR DR STE 210","geo_precision":"street","state":"CA"},"type":"Feature","geometry":{"type":"Point","coordinates":[-121.853258,37.323674]}},{"properties":{"city":"SAN JOSE","zip":"95128","geo_score":0.395,"id":"a634reba9umf","address":"455 O'CONNOR DR STE 290","geo_precision":"street","state":"CA"},"type":"Feature","geometry":{"type":"Point","coordinates":[-121.853258,37.323674]}},{"properties":{"city":"SAN JOSE","zip":"95128","geo_score":0.81,"id":"a634reltq0fw","address":"455 OCONNOR DR STE 150","geo_precision":"range","state":"CA"},"type":"Feature","geometry":{"type":"Point","coordinates":[-121.940067,37.327038]}},{"properties":{"city":"SAN JOSE","zip":"95128","geo_score":0.81,"id":"a634rei8sy94","address":"455 OCONNOR DR STE 150","geo_precision":"range","state":"CA"},"type":"Feature","geometry":{"type":"Point","coordinates":[-121.940067,37.327038]}},{"properties":{"city":"SAN JOSE","zip":"95128","geo_score":0.81,"id":"a634rel2lp3m","address":"455 OCONNOR DR STE 150","geo_precision":"range","state":"CA"},"type":"Feature","geometry":{"type":"Point","coordinates":[-121.940067,37.327038]}},{"properties":{"city":"SAN JOSE","zip":"95128","geo_score":0.81,"id":"a634re971we4","address":"455 OCONNOR DR STE 210","geo_precision":"range","state":"CA"},"type":"Feature","geometry":{"type":"Point","coordinates":[-121.940067,37.327038]}},{"properties":{"city":"SAN JOSE","zip":"95128","geo_score":0.81,"id":"a634re9s0bo4","address":"455 OCONNOR DR STE 210","geo_precision":"range","state":"CA"},"type":"Feature","geometry":{"type":"Point","coordinates":[-121.940067,37.327038]}},{"properties":{"city":"SAN JOSE","zip":"95112","geo_score":0.688,"id":"a634rek8yxl6","address":"455 OCONNOR DR STE 210","geo_precision":"range","state":"CA"},"type":"Feature","geometry":{"type":"Point","coordinates":[-121.940067,37.327038]}},{"properties":{"city":"SAN JOSE","zip":"95128","geo_score":0.81,"id":"a634reipnu55","address":"455 OCONNOR DR STE 210","geo_precision":"range","state":"CA"},"type":"Feature","geometry":{"type":"Point","coordinates":[-121.940067,37.327038]}},{"properties":{"city":"SAN JOSE","zip":"95128","geo_score":0.81,"id":"a634rek6mxko","address":"455 OCONNOR DR STE 210","geo_precision":"range","state":"CA"},"type":"Feature","geometry":{"type":"Point","coordinates":[-121.940067,37.327038]}},{"properties":{"city":"SAN JOSE","zip":"95128","geo_score":0.81,"id":"a634re7e9xsh","address":"455 OCONNOR DR STE 210","geo_precision":"range","state":"CA"},"type":"Feature","geometry":{"type":"Point","coordinates":[-121.940067,37.327038]}},{"properties":{"city":"SAN JOSE","zip":"95128","geo_score":0.81,"id":"a634re88toc4","address":"455 OCONNOR DR STE 210","geo_precision":"range","state":"CA"},"type":"Feature","geometry":{"type":"Point","coordinates":[-121.940067,37.327038]}},{"properties":{"city":"SAN JOSE","zip":"95128","geo_score":0.81,"id":"a634rebsriq0","address":"455 OCONNOR DR STE 210","geo_precision":"range","state":"CA"},"type":"Feature","geometry":{"type":"Point","coordinates":[-121.940067,37.327038]}},{"properties":{"city":"SAN JOSE","zip":"95128","geo_score":0.81,"id":"a634rehsrlr8","address":"455 OCONNOR DR STE 340","geo_precision":"range","state":"CA"},"type":"Feature","geometry":{"type":"Point","coordinates":[-121.940067,37.327038]}},{"properties":{"city":"SAN JOSE","zip":"95128","geo_score":0.81,"id":"a634rehvje1h","address":"455 OCONNOR DR STE 350","geo_precision":"range","state":"CA"},"type":"Feature","geometry":{"type":"Point","coordinates":[-121.940067,37.327038]}},{"properties":{"city":"SAN JOSE","zip":"95128","geo_score":0.81,"id":"a634rebvu6gl","address":"455 OCONNOR DR STE 350","geo_precision":"range","state":"CA"},"type":"Feature","geometry":{"type":"Point","coordinates":[-121.940067,37.327038]}},{"properties":{"city":"MARINA","zip":"93933","geo_score":1.0,"id":"a634reaz04jv","address":"455 RESERVATION RD","geo_precision":"range","state":"CA"},"type":"Feature","geometry":{"type":"Point","coordinates":[-121.782291,36.67905]}},{"properties":{"city":"FREMONT","zip":"94539","geo_score":0.938,"id":"a634regcry7l","address":"47000 WARM SPRINGS BLVD STE 4","geo_precision":"range","state":"CA"},"type":"Feature","geometry":{"type":"Point","coordinates":[-121.92856,37.488067]}},{"properties":{"city":"SAN JOSE","zip":"95112","geo_score":0.902,"id":"a634refn5i9f","address":"475 N FIRST ST","geo_precision":"range","state":"CA"},"type":"Feature","geometry":{"type":"Point","coordinates":[-121.896146,37.343664]}},{"properties":{"city":"DALY CITY","zip":"94015","geo_score":0.746,"id":"a634reh2t9mx","address":"48 PARK PLAZA DR STE 330","geo_precision":"range","state":"CA"},"type":"Feature","geometry":{"type":"Point","coordinates":[-122.481703,37.701062]}},{"properties":{"city":"LOS GATOS","zip":"95030","geo_score":0.915,"id":"a634reh4izv1","address":"485 MONTEREY AVE","geo_precision":"range","state":"CA"},"type":"Feature","geometry":{"type":"Point","coordinates":[-121.980764,37.231928]}},{"properties":{"city":"SAN JOSE","zip":"95124","geo_score":0.919,"id":"a634rejw8iwy","address":"4850 UNION AVE","geo_precision":"range","state":"CA"},"type":"Feature","geometry":{"type":"Point","coordinates":[-121.931294,37.249661]}},{"properties":{"city":"ONTARIO","zip":"91761","geo_score":1.0,"id":"a634re6en6cn","address":"4861 E AIRPORT DR","geo_precision":"range","state":"CA"},"type":"Feature","geometry":{"type":"Point","coordinates":[-117.546628,34.062716]}},{"properties":{"city":"SAN JOSE","zip":"95118","geo_score":0.919,"id":"a634ree5pdrz","address":"4986 CHERRY AVE","geo_precision":"range","state":"CA"},"type":"Feature","geometry":{"type":"Point","coordinates":[-121.876874,37.25895]}},{"properties":{"city":"SAN JOSE","zip":"95118","geo_score":0.919,"id":"a634reer7qll","address":"4986 CHERRY AVE","geo_precision":"range","state":"CA"},"type":"Feature","geometry":{"type":"Point","coordinates":[-121.876874,37.25895]}},{"properties":{"city":"SAN JOSE","zip":"95118","geo_score":0.919,"id":"a634reb0yg8g","address":"4986 CHERRY AVE","geo_precision":"range","state":"CA"},"type":"Feature","geometry":{"type":"Point","coordinates":[-121.876874,37.25895]}},{"properties":{"city":"SUNNYVALE","zip":"94086","geo_score":1.0,"id":"a634re63g4sm","address":"499 S SUNNYVALE AVE","geo_precision":"range","state":"CA"},"type":"Feature","geometry":{"type":"Point","coordinates":[-122.03099,37.37096]}},{"properties":{"city":"MORGAN HILL","zip":"95037","geo_score":0.815,"id":"a634refxsr3d","address":"50 EAST MAIN AVE STE A","geo_precision":"range","state":"CA"},"type":"Feature","geometry":{"type":"Point","coordinates":[-121.653974,37.130749]}},{"properties":{"city":"MILPITAS","zip":"95035","geo_score":0.912,"id":"a634re5pdrti","address":"500 E CALAVERAS BLVD STE 100","geo_precision":"range","state":"CA"},"type":"Feature","geometry":{"type":"Point","coordinates":[-121.898976,37.432376]}},{"properties":{"city":"MILPITAS","zip":"95035","geo_score":0.912,"id":"a634re69i97c","address":"500 E CALAVERAS BLVD STE 100","geo_precision":"range","state":"CA"},"type":"Feature","geometry":{"type":"Point","coordinates":[-121.898976,37.432376]}},{"properties":{"city":"SUNNYVALE","zip":"94087","geo_score":0.902,"id":"a634reg7mgb1","address":"500 E REMINGTON  STE 30","geo_precision":"range","state":"CA"},"type":"Feature","geometry":{"type":"Point","coordinates":[-122.028456,37.35894]}},{"properties":{"city":"SUNNYVALE","zip":"94087","geo_score":0.792,"id":"a634reagl9v2","address":"500 E REMINGTON DR STE 11","geo_precision":"street","state":"CA"},"type":"Feature","geometry":{"type":"Point","coordinates":[-122.02767,37.358959]}},{"properties":{"city":"SUNNYVALE","zip":"94087","geo_score":0.649,"id":"a634re7h722k","address":"500 E REMINGTON DR.  SUITE 11","geo_precision":"street","state":"CA"},"type":"Feature","geometry":{"type":"Point","coordinates":[-122.06151,37.358709]}},{"properties":{"city":"MILPITAS","zip":"95035","geo_score":0.708,"id":"a634re6qg5p6","address":"511 MONTAGUE EXPY","geo_precision":"street","state":"CA"},"type":"Feature","geometry":{"type":"Point","coordinates":[-121.889067,37.411839]}},{"properties":{"city":"SAN JOSE","zip":"95129","geo_score":0.715,"id":"a634relti797","address":"5150 GRAVES AVE BLDG #1","geo_precision":"street","state":"CA"},"type":"Feature","geometry":{"type":"Point","coordinates":[-121.989332,37.294067]}},{"properties":{"city":"SAN JOSE","zip":"95129","geo_score":0.862,"id":"a634re91uqoj","address":"5150 GRAVES AVE BLDG STE 4","geo_precision":"range","state":"CA"},"type":"Feature","geometry":{"type":"Point","coordinates":[-121.992411,37.294467]}},{"properties":{"city":"SAN JOSE","zip":"95129","geo_score":0.862,"id":"a634ref1vnrv","address":"5150 GRAVES AVE BLDG STE 6","geo_precision":"range","state":"CA"},"type":"Feature","geometry":{"type":"Point","coordinates":[-121.992411,37.294467]}},{"properties":{"city":"SAN JOSE","zip":"95129","geo_score":0.862,"id":"a634rees60fp","address":"5150 GRAVES AVE BLDG STE 6","geo_precision":"range","state":"CA"},"type":"Feature","geometry":{"type":"Point","coordinates":[-121.992411,37.294467]}},{"properties":{"city":"SAN JOSE","zip":"95129","geo_score":0.862,"id":"a634rei8dbsv","address":"5150 GRAVES AVE BLDG STE 6","geo_precision":"range","state":"CA"},"type":"Feature","geometry":{"type":"Point","coordinates":[-121.992411,37.294467]}},{"properties":{"city":"SAN JOSE","zip":"95129","geo_score":0.883,"id":"a634re7wyyle","address":"5150 GRAVES AVE STE 11D","geo_precision":"range","state":"CA"},"type":"Feature","geometry":{"type":"Point","coordinates":[-121.992411,37.294467]}},{"properties":{"city":"SAN JOSE","zip":"95129","geo_score":0.895,"id":"a634redsy5vl","address":"5150 GRAVES AVE STE 5B","geo_precision":"range","state":"CA"},"type":"Feature","geometry":{"type":"Point","coordinates":[-121.992411,37.294467]}},{"properties":{"city":"CAPITOLA","zip":"95010","geo_score":0.922,"id":"a634re95hvsx","address":"519 CAPITOLA AVE STE C","geo_precision":"range","state":"CA"},"type":"Feature","geometry":{"type":"Point","coordinates":[-121.953683,36.975554]}},{"properties":{"city":"MOUNTAIN VIEW","zip":"94040","geo_score":0.385,"id":"a634rek923mr","address":"525 SOUTH DR STE 107","geo_precision":"street","state":"CA"},"type":"Feature","geometry":{"type":"Point","coordinates":[-122.02517,37.34574]}},{"properties":{"city":"MOUNTAIN VIEW","zip":"94040","geo_score":0.385,"id":"a634releorlr","address":"525 SOUTH DR STE 211","geo_precision":"street","state":"CA"},"type":"Feature","geometry":{"type":"Point","coordinates":[-122.02517,37.34574]}},{"properties":{"city":"HUNTINGTON BEACH","zip":"92649","geo_score":0.659,"id":"a634re8wm23f","address":"5302 RANCHO RD","geo_precision":"street","state":"CA"},"type":"Feature","geometry":{"type":"Point","coordinates":[-118.03089,33.750859]}},{"properties":{"city":"SAN JOSE","zip":"95123","geo_score":1.0,"id":"a634reionfn1","address":"5440 THORNWOOD DR","geo_precision":"range","state":"CA"},"type":"Feature","geometry":{"type":"Point","coordinates":[-121.859454,37.252912]}},{"properties":{"city":"SAN JOSE","zip":"95112","geo_score":1.0,"id":"a634relh0l2k","address":"55 E JULIAN ST","geo_precision":"range","state":"CA"},"type":"Feature","geometry":{"type":"Point","coordinates":[-121.892688,37.341089]}},{"properties":{"city":"SAN JOSE","zip":"95112","geo_score":1.0,"id":"a634re6kvy8f","address":"55 E JULIAN ST","geo_precision":"range","state":"CA"},"type":"Feature","geometry":{"type":"Point","coordinates":[-121.892688,37.341089]}},{"properties":{"city":"SAN JOSE","zip":"95112","geo_score":1.0,"id":"a634ree1dofp","address":"55 E JULIAN ST","geo_precision":"range","state":"CA"},"type":"Feature","geometry":{"type":"Point","coordinates":[-121.892688,37.341089]}},{"properties":{"city":"SAN JOSE","zip":"95112","geo_score":1.0,"id":"a634reeyfpml","address":"55 E JULIAN ST","geo_precision":"range","state":"CA"},"type":"Feature","geometry":{"type":"Point","coordinates":[-121.892688,37.341089]}},{"properties":{"city":"SAN JOSE","zip":"95112","geo_score":1.0,"id":"a634relkj4fj","address":"55 E JULIAN ST","geo_precision":"range","state":"CA"},"type":"Feature","geometry":{"type":"Point","coordinates":[-121.892688,37.341089]}},{"properties":{"city":"SAN JOSE","zip":"95112","geo_score":1.0,"id":"a634re645ryc","address":"55 E JULIAN ST","geo_precision":"range","state":"CA"},"type":"Feature","geometry":{"type":"Point","coordinates":[-121.892688,37.341089]}},{"properties":{"city":"SAN JOSE","zip":"95112","geo_score":1.0,"id":"a634re7qmxka","address":"55 E JULIAN ST","geo_precision":"range","state":"CA"},"type":"Feature","geometry":{"type":"Point","coordinates":[-121.892688,37.341089]}},{"properties":{"city":"SAN JOSE","zip":"95112","geo_score":1.0,"id":"a634reg3kavk","address":"55 E JULIAN ST","geo_precision":"range","state":"CA"},"type":"Feature","geometry":{"type":"Point","coordinates":[-121.892688,37.341089]}},{"properties":{"city":"SAN JOSE","zip":"95112","geo_score":1.0,"id":"a634rejg2rma","address":"55 E JULIAN ST","geo_precision":"range","state":"CA"},"type":"Feature","geometry":{"type":"Point","coordinates":[-121.892688,37.341089]}},{"properties":{"city":"SAN JOSE","zip":"95112","geo_score":1.0,"id":"a634reg4rq1c","address":"55 E JULIAN ST","geo_precision":"range","state":"CA"},"type":"Feature","geometry":{"type":"Point","coordinates":[-121.892688,37.341089]}},{"properties":{"city":"SAN JOSE","zip":"95112","geo_score":1.0,"id":"a634re6bwd8b","address":"55 E JULIAN ST","geo_precision":"range","state":"CA"},"type":"Feature","geometry":{"type":"Point","coordinates":[-121.892688,37.341089]}},{"properties":{"city":"SAN JOSE","zip":"95112","geo_score":1.0,"id":"a634reh98eay","address":"55 E JULIAN ST","geo_precision":"range","state":"CA"},"type":"Feature","geometry":{"type":"Point","coordinates":[-121.892688,37.341089]}},{"properties":{"city":"SAN JOSE","zip":"95112","geo_score":1.0,"id":"a634reb1m190","address":"55 E JULIAN ST","geo_precision":"range","state":"CA"},"type":"Feature","geometry":{"type":"Point","coordinates":[-121.892688,37.341089]}},{"properties":{"city":"SAN JOSE","zip":"95112","geo_score":1.0,"id":"a634reh8ma3q","address":"55 E JULIAN ST","geo_precision":"range","state":"CA"},"type":"Feature","geometry":{"type":"Point","coordinates":[-121.892688,37.341089]}},{"properties":{"city":"SAN JOSE","zip":"95112","geo_score":1.0,"id":"a634rejbr947","address":"55 E JULIAN ST","geo_precision":"range","state":"CA"},"type":"Feature","geometry":{"type":"Point","coordinates":[-121.892688,37.341089]}},{"properties":{"city":"SAN JOSE","zip":"95112","geo_score":1.0,"id":"a634reizuo6u","address":"55 E JULIAN ST","geo_precision":"range","state":"CA"},"type":"Feature","geometry":{"type":"Point","coordinates":[-121.892688,37.341089]}},{"properties":{"city":"SAN JOSE","zip":"95112","geo_score":0.883,"id":"a634re807enr","address":"55 E JULIAN ST STE 102","geo_precision":"range","state":"CA"},"type":"Feature","geometry":{"type":"Point","coordinates":[-121.892688,37.341089]}},{"properties":{"city":"HOLLISTER","zip":"95023","geo_score":0.913,"id":"a634rejyh5sa","address":"551 MCCRAY ST","geo_precision":"range","state":"CA"},"type":"Feature","geometry":{"type":"Point","coordinates":[-121.397557,36.85022]}},{"properties":{"city":"HOLLISTER","zip":"95023","geo_score":0.913,"id":"a634redsiy9a","address":"551 MCCRAY ST","geo_precision":"range","state":"CA"},"type":"Feature","geometry":{"type":"Point","coordinates":[-121.397557,36.85022]}},{"properties":{"city":"HOLLISTER","zip":"95023","geo_score":0.913,"id":"a634reju32ss","address":"551 MCCRAY ST","geo_precision":"range","state":"CA"},"type":"Feature","geometry":{"type":"Point","coordinates":[-121.397557,36.85022]}},{"properties":{"city":"HOLLISTER","zip":"95023","geo_score":0.913,"id":"a634re63eobq","address":"551 MCCRAY ST","geo_precision":"range","state":"CA"},"type":"Feature","geometry":{"type":"Point","coordinates":[-121.397557,36.85022]}},{"properties":{"city":"HOLLISTER","zip":"95023","geo_score":0.913,"id":"a634rel3q6ll","address":"551 MCCRAY ST","geo_precision":"range","state":"CA"},"type":"Feature","geometry":{"type":"Point","coordinates":[-121.397557,36.85022]}},{"properties":{"city":"SAN JOSE","zip":"95123","geo_score":0.808,"id":"a634re7hak47","address":"554 BLOSSOM HILL RD","geo_precision":"street","state":"CA"},"type":"Feature","geometry":{"type":"Point","coordinates":[-121.842562,37.25061]}},{"properties":{"city":"SAN JOSE","zip":"95123","geo_score":0.808,"id":"a634reflg4kb","address":"554 BLOSSOM HILL RD","geo_precision":"street","state":"CA"},"type":"Feature","geometry":{"type":"Point","coordinates":[-121.842562,37.25061]}},{"properties":{"city":"SAN JOSE","zip":"95123","geo_score":0.808,"id":"a634rei3l2u1","address":"554 BLOSSOM HILL RD","geo_precision":"street","state":"CA"},"type":"Feature","geometry":{"type":"Point","coordinates":[-121.842562,37.25061]}},{"properties":{"city":"SAN JOSE","zip":"95112","geo_score":1.0,"id":"a634rehbbh9w","address":"560 E ST JOHN ST","geo_precision":"range","state":"CA"},"type":"Feature","geometry":{"type":"Point","coordinates":[-121.880032,37.343203]}},{"properties":{"city":"OAKLAND","zip":"94618","geo_score":0.879,"id":"a634rec937gf","address":"5655 COLLEGE AVE STE 315E","geo_precision":"range","state":"CA"},"type":"Feature","geometry":{"type":"Point","coordinates":[-122.251739,37.843782]}},{"properties":{"city":"SAN JOSE","zip":"95112","geo_score":0.916,"id":"a634reh8yzac","address":"57 N 13TH ST","geo_precision":"range","state":"CA"},"type":"Feature","geometry":{"type":"Point","coordinates":[-121.878664,37.34293]}},{"properties":{"city":"SOQUEL","zip":"95073","geo_score":0.902,"id":"a634reimr6p7","address":"5819 SOQUEL DR STE A","geo_precision":"range","state":"CA"},"type":"Feature","geometry":{"type":"Point","coordinates":[-121.938429,36.987989]}},{"properties":{"city":"SUNNYVALE","zip":"94085","geo_score":1.0,"id":"a634re66l4w8","address":"585 N MARY AVE","geo_precision":"range","state":"CA"},"type":"Feature","geometry":{"type":"Point","coordinates":[-122.037058,37.392955]}},{"properties":{"city":"SAN JOSE","zip":"95112","geo_score":0.87,"id":"a634rei9s2rp","address":"60 N 13TH ST STE B","geo_precision":"range","state":"CA"},"type":"Feature","geometry":{"type":"Point","coordinates":[-121.878693,37.342979]}},{"properties":{"city":"MORGAN HILL","zip":"95037","geo_score":0.787,"id":"a634rejqy12y","address":"60 W MAIN AVE STE 11A","geo_precision":"range","state":"CA"},"type":"Feature","geometry":{"type":"Point","coordinates":[-121.655559,37.129681]}},{"properties":{"city":"SAN JOSE","zip":"95138","geo_score":0.697,"id":"a634re6lqcpj","address":"6010 HELLYER AVE STE 100","geo_precision":"street","state":"CA"},"type":"Feature","geometry":{"type":"Point","coordinates":[-121.784375,37.259544]}},{"properties":{"city":"SUNNYVALE","zip":"94086","geo_score":1.0,"id":"a634re6ccomk","address":"604 E EVELYN AVE","geo_precision":"range","state":"CA"},"type":"Feature","geometry":{"type":"Point","coordinates":[-122.020945,37.373377]}},{"properties":{"city":"CLOVIS","zip":"93612","geo_score":0.818,"id":"a634re781e16","address":"615 4TH ST","geo_precision":"range","state":"CA"},"type":"Feature","geometry":{"type":"Point","coordinates":[-119.701832,36.825254]}},{"properties":{"city":"SAN JOSE","zip":"95111","geo_score":0.894,"id":"a634refxa8nn","address":"621 TULLY RD STE A105","geo_precision":"range","state":"CA"},"type":"Feature","geometry":{"type":"Point","coordinates":[-121.846036,37.309014]}},{"properties":{"city":"SAN JOSE","zip":"95112","geo_score":0.807,"id":"a634re6fw4ij","address":"628 E SANTA CLARA ST","geo_precision":"street","state":"CA"},"type":"Feature","geometry":{"type":"Point","coordinates":[-121.875961,37.343109]}},{"properties":{"city":"SAN JOSE","zip":"95112","geo_score":0.785,"id":"a634rejaugtn","address":"636A SANTA CLARA ST","geo_precision":"street","state":"CA"},"type":"Feature","geometry":{"type":"Point","coordinates":[-121.875961,37.343109]}},{"properties":{"city":"SAN JOSE","zip":"95120","geo_score":0.883,"id":"a634reljqt89","address":"6475 CAMDEN AVE STE 100","geo_precision":"range","state":"CA"},"type":"Feature","geometry":{"type":"Point","coordinates":[-121.865251,37.220758]}},{"properties":{"city":"SAN JOSE","zip":"95120","geo_score":0.883,"id":"a634redtsmeb","address":"6475 CAMDEN AVE STE 105","geo_precision":"range","state":"CA"},"type":"Feature","geometry":{"type":"Point","coordinates":[-121.865251,37.220758]}},{"properties":{"city":"SAN JOSE","zip":"95120","geo_score":0.883,"id":"a634relc1eo1","address":"6475 CAMDEN AVE STE 105","geo_precision":"range","state":"CA"},"type":"Feature","geometry":{"type":"Point","coordinates":[-121.865251,37.220758]}},{"properties":{"city":"SAN JOSE","zip":"95120","geo_score":0.883,"id":"a634rele5e4q","address":"6475 CAMDEN AVE STE 105","geo_precision":"range","state":"CA"},"type":"Feature","geometry":{"type":"Point","coordinates":[-121.865251,37.220758]}},{"properties":{"city":"SAN JOSE","zip":"95120","geo_score":0.883,"id":"a634rebbckyn","address":"6475 CAMDEN AVE STE 105","geo_precision":"range","state":"CA"},"type":"Feature","geometry":{"type":"Point","coordinates":[-121.865251,37.220758]}},{"properties":{"city":"SAN JOSE","zip":"95120","geo_score":0.883,"id":"a634rebxoy68","address":"6475 CAMDEN AVE STE 105","geo_precision":"range","state":"CA"},"type":"Feature","geometry":{"type":"Point","coordinates":[-121.865251,37.220758]}},{"properties":{"city":"SAN JOSE","zip":"95120","geo_score":0.883,"id":"a634re7dn07a","address":"6475 CAMDEN AVE STE 105","geo_precision":"range","state":"CA"},"type":"Feature","geometry":{"type":"Point","coordinates":[-121.865251,37.220758]}},{"properties":{"city":"SAN JOSE","zip":"95120","geo_score":0.883,"id":"a634re7w0ygh","address":"6475 CAMDEN AVE STE 105","geo_precision":"range","state":"CA"},"type":"Feature","geometry":{"type":"Point","coordinates":[-121.865251,37.220758]}},{"properties":{"city":"SAN JOSE","zip":"95120","geo_score":0.883,"id":"a634rehqlv7f","address":"6475 CAMDEN AVE STE 107","geo_precision":"range","state":"CA"},"type":"Feature","geometry":{"type":"Point","coordinates":[-121.865251,37.220758]}},{"properties":{"city":"SAN JOSE","zip":"95120","geo_score":0.883,"id":"a634ree1islw","address":"6475 CAMDEN AVE STE 107","geo_precision":"range","state":"CA"},"type":"Feature","geometry":{"type":"Point","coordinates":[-121.865251,37.220758]}},{"properties":{"city":"SAN JOSE","zip":"95120","geo_score":0.883,"id":"a634re7jlms1","address":"6475 CAMDEN AVE STE 107","geo_precision":"range","state":"CA"},"type":"Feature","geometry":{"type":"Point","coordinates":[-121.865251,37.220758]}},{"properties":{"city":"SAN JOSE","zip":"95120","geo_score":0.883,"id":"a634rebnwv4p","address":"6489 CAMDEN AVE STE 102","geo_precision":"range","state":"CA"},"type":"Feature","geometry":{"type":"Point","coordinates":[-121.863399,37.220999]}},{"properties":{"city":"SAN JOSE","zip":"95120","geo_score":0.883,"id":"a634refgz0q8","address":"6489 CAMDEN AVE STE 102","geo_precision":"range","state":"CA"},"type":"Feature","geometry":{"type":"Point","coordinates":[-121.863399,37.220999]}},{"properties":{"city":"SAN JOSE","zip":"95112","geo_score":0.916,"id":"a634rebulkpy","address":"65 N 14TH ST","geo_precision":"range","state":"CA"},"type":"Feature","geometry":{"type":"Point","coordinates":[-121.877803,37.343496]}},{"properties":{"city":"SAN JOSE","zip":"95112","geo_score":0.916,"id":"a634redbz6dv","address":"65 N 14TH ST","geo_precision":"range","state":"CA"},"type":"Feature","geometry":{"type":"Point","coordinates":[-121.877803,37.343496]}},{"properties":{"city":"SAN JOSE","zip":"95112","geo_score":0.916,"id":"a634rejusbkt","address":"65 N 14TH ST","geo_precision":"range","state":"CA"},"type":"Feature","geometry":{"type":"Point","coordinates":[-121.877803,37.343496]}},{"properties":{"city":"SAN JOSE","zip":"95128","geo_score":0.834,"id":"a634rek7wih0","address":"650 WINCHESTER BLVD STE 1B","geo_precision":"range","state":"CA"},"type":"Feature","geometry":{"type":"Point","coordinates":[-121.950212,37.328381]}},{"properties":{"city":"SAN JOSE","zip":"95128","geo_score":0.834,"id":"a634re7c7bsk","address":"650 WINCHESTER BLVD STE 1B","geo_precision":"range","state":"CA"},"type":"Feature","geometry":{"type":"Point","coordinates":[-121.950212,37.328381]}},{"properties":{"city":"SAN JOSE","zip":"95112","geo_score":0.604,"id":"a634rehp9ar1","address":"652 E. SANTA CLARA ST","geo_precision":"street","state":"CA"},"type":"Feature","geometry":{"type":"Point","coordinates":[-121.876218,37.342977]}},{"properties":{"city":"SAN JOSE","zip":"95112","geo_score":0.808,"id":"a634red9p96d","address":"660 E SANTA CLARA ST","geo_precision":"street","state":"CA"},"type":"Feature","geometry":{"type":"Point","coordinates":[-121.875961,37.343109]}},{"properties":{"city":"SAN JOSE","zip":"95120","geo_score":1.0,"id":"a634rej8twwr","address":"6605 BRET HARTE DR","geo_precision":"range","state":"CA"},"type":"Feature","geometry":{"type":"Point","coordinates":[-121.846494,37.220203]}},{"properties":{"city":"SAN JOSE","zip":"95112","geo_score":0.722,"id":"a634re7km59x","address":"696 E SANTA CLARA ST STE 108","geo_precision":"street","state":"CA"},"type":"Feature","geometry":{"type":"Point","coordinates":[-121.875961,37.343109]}},{"properties":{"city":"SAN JOSE","zip":"95112","geo_score":0.722,"id":"a634rec0m8jw","address":"696 E SANTA CLARA ST STE 110","geo_precision":"street","state":"CA"},"type":"Feature","geometry":{"type":"Point","coordinates":[-121.875961,37.343109]}},{"properties":{"city":"SAN JOSE","zip":"95112","geo_score":0.722,"id":"a634rekrr89t","address":"696 E SANTA CLARA ST STE 210","geo_precision":"street","state":"CA"},"type":"Feature","geometry":{"type":"Point","coordinates":[-121.875961,37.343109]}},{"properties":{"city":"SAN MATEO","zip":"94402","geo_score":0.902,"id":"a634re7tld4d","address":"700 S CLAREMONT ST STE 105","geo_precision":"range","state":"CA"},"type":"Feature","geometry":{"type":"Point","coordinates":[-122.318486,37.564348]}},{"properties":{"city":"LOS GATOS","zip":"95032","geo_score":0.863,"id":"a634re8w2moh","address":"700 W PARR AVENUE SUITE A-1","geo_precision":"range","state":"CA"},"type":"Feature","geometry":{"type":"Point","coordinates":[-121.96329,37.264097]}},{"properties":{"city":"GILROY","zip":"95020","geo_score":0.727,"id":"a634reajyxk9","address":"700 W SIXTH ST SUITE  I","geo_precision":"range","state":"CA"},"type":"Feature","geometry":{"type":"Point","coordinates":[-121.57708,37.00436]}},{"properties":{"city":"LOS GATOS","zip":"95032","geo_score":0.863,"id":"a634rehwyv2p","address":"700 WEST PARR AVENUE SUITE A-1","geo_precision":"range","state":"CA"},"type":"Feature","geometry":{"type":"Point","coordinates":[-121.96329,37.264097]}},{"properties":{"city":"AUBURN","zip":"95603","geo_score":0.772,"id":"a634rejnbvri","address":"701 HIGH ST STE 211","geo_precision":"range","state":"CA"},"type":"Feature","geometry":{"type":"Point","coordinates":[-121.068537,38.901698]}},{"properties":{"city":"FREMONT","zip":"94538","geo_score":0.805,"id":"a634rebebo0d","address":"704 MOWRY AVE","geo_precision":"street","state":"CA"},"type":"Feature","geometry":{"type":"Point","coordinates":[-121.979565,37.564121]}},{"properties":{"city":"SAN JOSE","zip":"95128","geo_score":0.865,"id":"a634regj35re","address":"706 N WINCHESTER BLVD STE A","geo_precision":"range","state":"CA"},"type":"Feature","geometry":{"type":"Point","coordinates":[-121.95025,37.328645]}},{"properties":{"city":"PALO ALTO","zip":"94304","geo_score":0.902,"id":"a634regt2xkv","address":"725 WELCH RD","geo_precision":"range","state":"CA"},"type":"Feature","geometry":{"type":"Point","coordinates":[-122.175002,37.437383]}},{"properties":{"city":"SANTA CRUZ","zip":"95060","geo_score":0.775,"id":"a634rec3o1p3","address":"740 FRONT ST STE 360","geo_precision":"range","state":"CA"},"type":"Feature","geometry":{"type":"Point","coordinates":[-122.025493,36.975303]}},{"properties":{"city":"MOUNTAIN VIEW","zip":"94041","geo_score":1.0,"id":"a634reamyn9e","address":"748 MERCY ST","geo_precision":"range","state":"CA"},"type":"Feature","geometry":{"type":"Point","coordinates":[-122.081218,37.390013]}},{"properties":{"city":"SAN JOSE","zip":"95122","geo_score":0.878,"id":"a634rebhw7el","address":"749 STORY RD STE 20","geo_precision":"range","state":"CA"},"type":"Feature","geometry":{"type":"Point","coordinates":[-121.860908,37.32785]}},{"properties":{"city":"LAKE KATRINE","zip":"12449","geo_score":0.878,"id":"a634rejrhr71","address":"751 GRANT AVE","geo_precision":"range","state":"NY"},"type":"Feature","geometry":{"type":"Point","coordinates":[-73.995378,41.982004]}},{"properties":{"city":"SAN JOSE","zip":"95128","geo_score":0.927,"id":"a634regivaup","address":"751 S BASCOM AVE","geo_precision":"range","state":"CA"},"type":"Feature","geometry":{"type":"Point","coordinates":[-121.931837,37.316185]}},{"properties":{"city":"GILROY","zip":"95020","geo_score":0.902,"id":"a634re9qgmmr","address":"7526 MONTEREY ST","geo_precision":"range","state":"CA"},"type":"Feature","geometry":{"type":"Point","coordinates":[-121.569601,37.008641]}},{"properties":{"city":"GILROY","zip":"95020","geo_score":0.902,"id":"a634re6r6fmm","address":"7526 MONTEREY ST","geo_precision":"range","state":"CA"},"type":"Feature","geometry":{"type":"Point","coordinates":[-121.569601,37.008641]}},{"properties":{"city":"GILROY","zip":"95020","geo_score":0.902,"id":"a634rebr8n4v","address":"7526 MONTEREY ST","geo_precision":"range","state":"CA"},"type":"Feature","geometry":{"type":"Point","coordinates":[-121.569601,37.008641]}},{"properties":{"city":"GILROY","zip":"95020","geo_score":0.902,"id":"a634reccgk5o","address":"7526 MONTEREY ST","geo_precision":"range","state":"CA"},"type":"Feature","geometry":{"type":"Point","coordinates":[-121.569601,37.008641]}},{"properties":{"city":"GILROY","zip":"95020","geo_score":0.902,"id":"a634reghrd7i","address":"7526 MONTEREY ST","geo_precision":"range","state":"CA"},"type":"Feature","geometry":{"type":"Point","coordinates":[-121.569601,37.008641]}},{"properties":{"city":"GILROY","zip":"95020","geo_score":0.902,"id":"a634ref23r03","address":"7526 MONTEREY ST","geo_precision":"range","state":"CA"},"type":"Feature","geometry":{"type":"Point","coordinates":[-121.569601,37.008641]}},{"properties":{"city":"GILROY","zip":"95020","geo_score":0.902,"id":"a634re6ousjx","address":"7526 MONTEREY ST","geo_precision":"range","state":"CA"},"type":"Feature","geometry":{"type":"Point","coordinates":[-121.569601,37.008641]}},{"properties":{"city":"GILROY","zip":"95020","geo_score":0.902,"id":"a634reelu65i","address":"7526 MONTEREY ST","geo_precision":"range","state":"CA"},"type":"Feature","geometry":{"type":"Point","coordinates":[-121.569601,37.008641]}},{"properties":{"city":"GILROY","zip":"95020","geo_score":0.902,"id":"a634re5klwku","address":"7526 MONTEREY ST","geo_precision":"range","state":"CA"},"type":"Feature","geometry":{"type":"Point","coordinates":[-121.569601,37.008641]}},{"properties":{"city":"GILROY","zip":"95020","geo_score":0.902,"id":"a634reht5jrd","address":"7526 MONTEREY ST","geo_precision":"range","state":"CA"},"type":"Feature","geometry":{"type":"Point","coordinates":[-121.569601,37.008641]}},{"properties":{"city":"PALO ALTO","zip":"94304","geo_score":0.865,"id":"a634ref471gf","address":"770 WELCH RD STE 100","geo_precision":"range","state":"CA"},"type":"Feature","geometry":{"type":"Point","coordinates":[-122.17371,37.437085]}},{"properties":{"city":"PALO ALTO","zip":"94304","geo_score":0.865,"id":"a634ref83x9b","address":"770 WELCH RD STE 380","geo_precision":"range","state":"CA"},"type":"Feature","geometry":{"type":"Point","coordinates":[-122.17371,37.437085]}},{"properties":{"city":"GILROY","zip":"95020","geo_score":0.902,"id":"a634regy788j","address":"7793 WREN AVE","geo_precision":"range","state":"CA"},"type":"Feature","geometry":{"type":"Point","coordinates":[-121.5871,37.009546]}},{"properties":{"city":"GILROY","zip":"95020","geo_score":0.902,"id":"a634redqfhg1","address":"7793 WREN AVE","geo_precision":"range","state":"CA"},"type":"Feature","geometry":{"type":"Point","coordinates":[-121.5871,37.009546]}},{"properties":{"city":"GILROY","zip":"95020","geo_score":0.902,"id":"a634rej7acge","address":"7793 WREN AVE","geo_precision":"range","state":"CA"},"type":"Feature","geometry":{"type":"Point","coordinates":[-121.5871,37.009546]}},{"properties":{"city":"GILROY","zip":"95020","geo_score":0.902,"id":"a634re8h3zbf","address":"7793 WREN AVE","geo_precision":"range","state":"CA"},"type":"Feature","geometry":{"type":"Point","coordinates":[-121.5871,37.009546]}},{"properties":{"city":"GILROY","zip":"95020","geo_score":0.902,"id":"a634re7xfuvz","address":"7793 WREN AVE","geo_precision":"range","state":"CA"},"type":"Feature","geometry":{"type":"Point","coordinates":[-121.5871,37.009546]}},{"properties":{"city":"GILROY","zip":"95020","geo_score":0.902,"id":"a634rekqs8wo","address":"7793 WREN AVE","geo_precision":"range","state":"CA"},"type":"Feature","geometry":{"type":"Point","coordinates":[-121.5871,37.009546]}},{"properties":{"city":"GILROY","zip":"95020","geo_score":0.902,"id":"a634re89os85","address":"7793 WREN AVE","geo_precision":"range","state":"CA"},"type":"Feature","geometry":{"type":"Point","coordinates":[-121.5871,37.009546]}},{"properties":{"city":"GILROY","zip":"95020","geo_score":0.902,"id":"a634rea8e7f5","address":"7793 WREN AVE","geo_precision":"range","state":"CA"},"type":"Feature","geometry":{"type":"Point","coordinates":[-121.5871,37.009546]}},{"properties":{"city":"GILROY","zip":"95020","geo_score":0.902,"id":"a634re7qodgg","address":"7793 WREN AVE","geo_precision":"range","state":"CA"},"type":"Feature","geometry":{"type":"Point","coordinates":[-121.5871,37.009546]}},{"properties":{"city":"SUNNYVALE","zip":"94086","geo_score":0.902,"id":"a634reiy531v","address":"785 MORSE AVE","geo_precision":"range","state":"CA"},"type":"Feature","geometry":{"type":"Point","coordinates":[-122.018885,37.392884]}},{"properties":{"city":"GILROY","zip":"95020","geo_score":0.756,"id":"a634re9jvf6n","address":"7880 WREN AVE STE C-133","geo_precision":"range","state":"CA"},"type":"Feature","geometry":{"type":"Point","coordinates":[-121.586879,37.011706]}},{"properties":{"city":"GILROY","zip":"95020","geo_score":0.73,"id":"a634rekkc1xy","address":"7880 WREN AVE STE STE D-143","geo_precision":"range","state":"CA"},"type":"Feature","geometry":{"type":"Point","coordinates":[-121.586879,37.011706]}},{"properties":{"city":"GILROY","zip":"95020","geo_score":0.796,"id":"a634re9cyw6u","address":"7888 WREN AVE STE C137","geo_precision":"range","state":"CA"},"type":"Feature","geometry":{"type":"Point","coordinates":[-121.586842,37.01182]}},{"properties":{"city":"SUNNYVALE","zip":"94087","geo_score":1.0,"id":"a634rekvg6ge","address":"794 ALLISON WAY","geo_precision":"range","state":"CA"},"type":"Feature","geometry":{"type":"Point","coordinates":[-122.046074,37.351582]}},{"properties":{"city":"SAN JOSE","zip":"95128","geo_score":0.927,"id":"a634reakt3n9","address":"798 S WINCHESTER BLVD","geo_precision":"range","state":"CA"},"type":"Feature","geometry":{"type":"Point","coordinates":[-121.950081,37.313128]}},{"properties":{"city":"GILROY","zip":"95020","geo_score":0.902,"id":"a634rej89fjn","address":"7993 WREN AVE","geo_precision":"range","state":"CA"},"type":"Feature","geometry":{"type":"Point","coordinates":[-121.586661,37.013323]}},{"properties":{"city":"GILROY","zip":"95020","geo_score":0.902,"id":"a634refal3ij","address":"7993 WREN AVE","geo_precision":"range","state":"CA"},"type":"Feature","geometry":{"type":"Point","coordinates":[-121.586661,37.013323]}},{"properties":{"city":"SAN JOSE","zip":"95112","geo_score":0.91,"id":"a634reg9u3y1","address":"804 E JULIAN ST STE D","geo_precision":"range","state":"CA"},"type":"Feature","geometry":{"type":"Point","coordinates":[-121.877582,37.348266]}},{"properties":{"city":"SAN JOSE","zip":"95112","geo_score":0.91,"id":"a634reg3mx5n","address":"806 E JULIAN STREET STE A","geo_precision":"range","state":"CA"},"type":"Feature","geometry":{"type":"Point","coordinates":[-121.877551,37.348284]}},{"properties":{"city":"LOS GATOS","zip":"95030","geo_score":0.805,"id":"a634re7r8w02","address":"815 POLLARD RD","geo_precision":"range","state":"CA"},"type":"Feature","geometry":{"type":"Point","coordinates":[-121.970669,37.262577]}},{"properties":{"city":"SAN JOSE","zip":"95125","geo_score":1.0,"id":"a634rehzyoox","address":"820 MALONE RD","geo_precision":"range","state":"CA"},"type":"Feature","geometry":{"type":"Point","coordinates":[-121.882491,37.296719]}},{"properties":{"city":"OAKLAND","zip":"94607","geo_score":1.0,"id":"a634reaavz8c","address":"821 HARRISON ST","geo_precision":"range","state":"CA"},"type":"Feature","geometry":{"type":"Point","coordinates":[-122.27013,37.798936]}},{"properties":{"city":"LOS GATOS","zip":"95032","geo_score":0.883,"id":"a634re984zt7","address":"825 POLLARD RD STE 108","geo_precision":"range","state":"CA"},"type":"Feature","geometry":{"type":"Point","coordinates":[-121.970851,37.262732]}},{"properties":{"city":"SAN JOSE","zip":"95123","geo_score":0.931,"id":"a634reao8tyi","address":"827 BLOSSOM HILL RD STE E2","geo_precision":"range","state":"CA"},"type":"Feature","geometry":{"type":"Point","coordinates":[-121.854426,37.250315]}},{"properties":{"city":"GILROY","zip":"95020","geo_score":0.902,"id":"a634redyqa5z","address":"8359 CHURCH ST","geo_precision":"range","state":"CA"},"type":"Feature","geometry":{"type":"Point","coordinates":[-121.576496,37.018067]}},{"properties":{"city":"GILROY","zip":"95020","geo_score":0.902,"id":"a634refomyts","address":"8359 CHURCH ST","geo_precision":"range","state":"CA"},"type":"Feature","geometry":{"type":"Point","coordinates":[-121.576496,37.018067]}},{"properties":{"city":"GILROY","zip":"95020","geo_score":0.902,"id":"a634re8saoq1","address":"8359 CHURCH ST","geo_precision":"range","state":"CA"},"type":"Feature","geometry":{"type":"Point","coordinates":[-121.576496,37.018067]}},{"properties":{"city":"GILROY","zip":"95020","geo_score":0.902,"id":"a634re61udx6","address":"8371 CHURCH ST","geo_precision":"range","state":"CA"},"type":"Feature","geometry":{"type":"Point","coordinates":[-121.576532,37.018165]}},{"properties":{"city":"GILROY","zip":"95020","geo_score":0.902,"id":"a634re7ogpvn","address":"8371 CHURCH ST","geo_precision":"range","state":"CA"},"type":"Feature","geometry":{"type":"Point","coordinates":[-121.576532,37.018165]}},{"properties":{"city":"GILROY","zip":"95020","geo_score":0.777,"id":"a634reas1vbg","address":"8371 CHURCH ST STE 111","geo_precision":"range","state":"CA"},"type":"Feature","geometry":{"type":"Point","coordinates":[-121.576532,37.018165]}},{"properties":{"city":"GILROY","zip":"95020","geo_score":0.777,"id":"a634rejqj9x1","address":"8371 CHURCH ST STE 112","geo_precision":"range","state":"CA"},"type":"Feature","geometry":{"type":"Point","coordinates":[-121.576532,37.018165]}},{"properties":{"city":"SAN JOSE","zip":"95123","geo_score":0.908,"id":"a634relfkbm0","address":"841 BLOSSOM HILL RD STE 103","geo_precision":"range","state":"CA"},"type":"Feature","geometry":{"type":"Point","coordinates":[-121.855883,37.250319]}},{"properties":{"city":"SAN JOSE","zip":"95123","geo_score":0.908,"id":"a634re5s0whs","address":"841 BLOSSOM HILL RD STE 201","geo_precision":"range","state":"CA"},"type":"Feature","geometry":{"type":"Point","coordinates":[-121.855883,37.250319]}},{"properties":{"city":"SAN JOSE","zip":"95123","geo_score":0.908,"id":"a634re5sgfcn","address":"841 BLOSSOM HILL RD STE 201","geo_precision":"range","state":"CA"},"type":"Feature","geometry":{"type":"Point","coordinates":[-121.855883,37.250319]}},{"properties":{"city":"SAN JOSE","zip":"95123","geo_score":0.908,"id":"a634rekygrqc","address":"841 BLOSSOM HILL RD STE 207","geo_precision":"range","state":"CA"},"type":"Feature","geometry":{"type":"Point","coordinates":[-121.855883,37.250319]}},{"properties":{"city":"SAN JOSE","zip":"95123","geo_score":0.908,"id":"a634reh00c74","address":"841 BLOSSOM HILL RD STE 215","geo_precision":"range","state":"CA"},"type":"Feature","geometry":{"type":"Point","coordinates":[-121.855883,37.250319]}},{"properties":{"city":"SANTA CLARA","zip":"95050","geo_score":0.927,"id":"a634rej99mz3","address":"841 WASHINGTON ST STE B","geo_precision":"range","state":"CA"},"type":"Feature","geometry":{"type":"Point","coordinates":[-121.943686,37.348247]}},{"properties":{"city":"SAN LUIS OBISPO","zip":"93405","geo_score":0.897,"id":"a634recoslre","address":"862 MEINECKE AVE STE 101","geo_precision":"range","state":"CA"},"type":"Feature","geometry":{"type":"Point","coordinates":[-120.668507,35.292387]}},{"properties":{"city":"SAN JOSE","zip":"95112","geo_score":0.902,"id":"a634rec4vkuw","address":"87 N SIXTH ST","geo_precision":"range","state":"CA"},"type":"Feature","geometry":{"type":"Point","coordinates":[-121.886201,37.340004]}},{"properties":{"city":"SAN JOSE","zip":"95112","geo_score":0.902,"id":"a634reh5hrxi","address":"87 N SIXTH ST","geo_precision":"range","state":"CA"},"type":"Feature","geometry":{"type":"Point","coordinates":[-121.886201,37.340004]}},{"properties":{"city":"SAN JOSE","zip":"95129","geo_score":1.0,"id":"a634re84xav7","address":"875 SARATOGA AVE","geo_precision":"range","state":"CA"},"type":"Feature","geometry":{"type":"Point","coordinates":[-121.977322,37.311447]}},{"properties":{"city":"SANTA CLARA","zip":"95050","geo_score":0.91,"id":"a634reb2k7lo","address":"885 SCOTT BLVD STE 4","geo_precision":"range","state":"CA"},"type":"Feature","geometry":{"type":"Point","coordinates":[-121.95929,37.3445]}},{"properties":{"city":"SAN JOSE","zip":"95128","geo_score":0.829,"id":"a634re74wcxi","address":"888 N WINCHESTER BLVD","geo_precision":"street","state":"CA"},"type":"Feature","geometry":{"type":"Point","coordinates":[-121.95025,37.332699]}},{"properties":{"city":"LOS ANGELES","zip":"90047","geo_score":0.932,"id":"a634re80hl2t","address":"8946 S WESTERN AVE","geo_precision":"range","state":"CA"},"type":"Feature","geometry":{"type":"Point","coordinates":[-118.309003,33.95591]}},{"properties":{"city":"SUNNYVALE","zip":"94087","geo_score":0.897,"id":"a634reevjiek","address":"895 E FREMONT AVE STE 103","geo_precision":"range","state":"CA"},"type":"Feature","geometry":{"type":"Point","coordinates":[-122.014415,37.352088]}},{"properties":{"city":"GLEN MILLS","zip":"19342","geo_score":0.656,"id":"a634reehboue","address":"9 LACRUE ST STE 2","geo_precision":"range","state":"PA"},"type":"Feature","geometry":{"type":"Point","coordinates":[-75.467502,39.888683]}},{"properties":{"city":"PALO ALTO","zip":"94304","geo_score":0.865,"id":"a634reh2gv81","address":"900 WELCH RD STE 103","geo_precision":"range","state":"CA"},"type":"Feature","geometry":{"type":"Point","coordinates":[-122.175957,37.437401]}},{"properties":{"city":"SANTA CRUZ","zip":"95062","geo_score":0.796,"id":"a634re85mvkq","address":"9000 SOQUEL AVE  STE 103","geo_precision":"range","state":"CA"},"type":"Feature","geometry":{"type":"Point","coordinates":[-121.966462,36.982121]}},{"properties":{"city":"SAN JOSE","zip":"95128","geo_score":0.679,"id":"a634regqvwvm","address":"913 WILLOW ST STE 103","geo_precision":"range","state":"CA"},"type":"Feature","geometry":{"type":"Point","coordinates":[-121.898863,37.309465]}},{"properties":{"city":"SALINAS","zip":"93901","geo_score":0.92,"id":"a634re689hlx","address":"917 BLANCO CIR","geo_precision":"range","state":"CA"},"type":"Feature","geometry":{"type":"Point","coordinates":[-121.637712,36.654313]}},{"properties":{"city":"SALINAS","zip":"93901","geo_score":0.92,"id":"a634re5utvag","address":"917 BLANCO CIR","geo_precision":"range","state":"CA"},"type":"Feature","geometry":{"type":"Point","coordinates":[-121.637712,36.654313]}},{"properties":{"city":"SALINAS","zip":"93901","geo_score":0.92,"id":"a634rei39pfw","address":"917 BLANCO CIR","geo_precision":"range","state":"CA"},"type":"Feature","geometry":{"type":"Point","coordinates":[-121.637712,36.654313]}},{"properties":{"city":"SALINAS","zip":"93901","geo_score":0.92,"id":"a634redsuomi","address":"917 BLANCO CIR","geo_precision":"range","state":"CA"},"type":"Feature","geometry":{"type":"Point","coordinates":[-121.637712,36.654313]}},{"properties":{"city":"SALINAS","zip":"93901","geo_score":0.92,"id":"a634rekcvrgm","address":"917 BLANCO CIR","geo_precision":"range","state":"CA"},"type":"Feature","geometry":{"type":"Point","coordinates":[-121.637712,36.654313]}},{"properties":{"city":"LOS ALTOS","zip":"94024","geo_score":0.89,"id":"a634ree16rgh","address":"919 FREMONT AVE STE 202","geo_precision":"range","state":"CA"},"type":"Feature","geometry":{"type":"Point","coordinates":[-122.089329,37.354334]}},{"properties":{"city":"SAN JOSE","zip":"95129","geo_score":0.897,"id":"a634reinjm5k","address":"920 SARATOGA AVE STE 212","geo_precision":"range","state":"CA"},"type":"Feature","geometry":{"type":"Point","coordinates":[-121.977416,37.309674]}},{"properties":{"city":"SAN JOSE","zip":"95129","geo_score":0.897,"id":"a634reg6o69r","address":"920 SARATOGA AVE STE 215","geo_precision":"range","state":"CA"},"type":"Feature","geometry":{"type":"Point","coordinates":[-121.977416,37.309674]}},{"properties":{"city":"HOLLISTER","zip":"95023","geo_score":0.827,"id":"a634re9zo4u6","address":"930 SUNNYSLOPE RD STE B-1","geo_precision":"range","state":"CA"},"type":"Feature","geometry":{"type":"Point","coordinates":[-121.384095,36.839069]}},{"properties":{"city":"GILROY","zip":"95020","geo_score":0.415,"id":"a634rebtafym","address":"9360 NO NAME UNO STE 240","geo_precision":"street","state":"CA"},"type":"Feature","geometry":{"type":"Point","coordinates":[-122.006959,37.121871]}},{"properties":{"city":"GILROY","zip":"95020","geo_score":0.403,"id":"a634reded2ag","address":"9360 NO NAME UNO SUITE 110","geo_precision":"street","state":"CA"},"type":"Feature","geometry":{"type":"Point","coordinates":[-122.006959,37.121871]}},{"properties":{"city":"GILROY","zip":"95020","geo_score":0.48,"id":"a634reekqobe","address":"9400 NO NAME UNO","geo_precision":"street","state":"CA"},"type":"Feature","geometry":{"type":"Point","coordinates":[-122.006959,37.121871]}},{"properties":{"city":"GILROY","zip":"95020","geo_score":0.415,"id":"a634re9ch9v5","address":"9460 NO NAME UNO STE 115","geo_precision":"street","state":"CA"},"type":"Feature","geometry":{"type":"Point","coordinates":[-122.006959,37.121871]}},{"properties":{"city":"GILROY","zip":"95020","geo_score":0.415,"id":"a634rec4ib3i","address":"9460 NO NAME UNO STE 115","geo_precision":"street","state":"CA"},"type":"Feature","geometry":{"type":"Point","coordinates":[-122.006959,37.121871]}},{"properties":{"city":"GILROY","zip":"95020","geo_score":0.415,"id":"a634re7gf61f","address":"9460 NO NAME UNO STE 115","geo_precision":"street","state":"CA"},"type":"Feature","geometry":{"type":"Point","coordinates":[-122.006959,37.121871]}},{"properties":{"city":"GILROY","zip":"95020","geo_score":0.415,"id":"a634reh82o01","address":"9460 NO NAME UNO STE 115","geo_precision":"street","state":"CA"},"type":"Feature","geometry":{"type":"Point","coordinates":[-122.006959,37.121871]}},{"properties":{"city":"GILROY","zip":"95020","geo_score":0.415,"id":"a634rehj1hxd","address":"9460 NO NAME UNO STE 130","geo_precision":"street","state":"CA"},"type":"Feature","geometry":{"type":"Point","coordinates":[-122.006959,37.121871]}},{"properties":{"city":"GILROY","zip":"95020","geo_score":0.415,"id":"a634rebwsum5","address":"9460 NO NAME UNO STE 130","geo_precision":"street","state":"CA"},"type":"Feature","geometry":{"type":"Point","coordinates":[-122.006959,37.121871]}},{"properties":{"city":"GILROY","zip":"95020","geo_score":0.415,"id":"a634rehclqst","address":"9460 NO NAME UNO STE 140","geo_precision":"street","state":"CA"},"type":"Feature","geometry":{"type":"Point","coordinates":[-122.006959,37.121871]}},{"properties":{"city":"GILROY","zip":"95020","geo_score":0.415,"id":"a634reiad4j1","address":"9460 NO NAME UNO STE 215","geo_precision":"street","state":"CA"},"type":"Feature","geometry":{"type":"Point","coordinates":[-122.006959,37.121871]}},{"properties":{"city":"GILROY","zip":"95020","geo_score":0.415,"id":"a634re6437dg","address":"9460 NO NAME UNO STE 230","geo_precision":"street","state":"CA"},"type":"Feature","geometry":{"type":"Point","coordinates":[-122.006959,37.121871]}},{"properties":{"city":"GILROY","zip":"95020","geo_score":0.415,"id":"a634refadcdj","address":"9460 NO NAME UNO STE 230","geo_precision":"street","state":"CA"},"type":"Feature","geometry":{"type":"Point","coordinates":[-122.006959,37.121871]}},{"properties":{"city":"SAN JOSE","zip":"95126","geo_score":1.0,"id":"a634redx7ufr","address":"950 W JULIAN ST","geo_precision":"range","state":"CA"},"type":"Feature","geometry":{"type":"Point","coordinates":[-121.908539,37.33358]}},{"properties":{"city":"SAN JOSE","zip":"95126","geo_score":1.0,"id":"a634rejp6t4z","address":"950 W JULIAN ST","geo_precision":"range","state":"CA"},"type":"Feature","geometry":{"type":"Point","coordinates":[-121.908539,37.33358]}},{"properties":{"city":"SAN JOSE","zip":"95126","geo_score":1.0,"id":"a634rel8cssb","address":"950 W JULIAN ST","geo_precision":"range","state":"CA"},"type":"Feature","geometry":{"type":"Point","coordinates":[-121.908539,37.33358]}},{"properties":{"city":"SAN JOSE","zip":"95126","geo_score":1.0,"id":"a634rebi2sg2","address":"950 W JULIAN ST","geo_precision":"range","state":"CA"},"type":"Feature","geometry":{"type":"Point","coordinates":[-121.908539,37.33358]}},{"properties":{"city":"SAN JOSE","zip":"95126","geo_score":1.0,"id":"a634reblf4cv","address":"950 W JULIAN ST","geo_precision":"range","state":"CA"},"type":"Feature","geometry":{"type":"Point","coordinates":[-121.908539,37.33358]}},{"properties":{"city":"SAN JOSE","zip":"95126","geo_score":1.0,"id":"a634rehdofy8","address":"950 W JULIAN ST","geo_precision":"range","state":"CA"},"type":"Feature","geometry":{"type":"Point","coordinates":[-121.908539,37.33358]}},{"properties":{"city":"SAN JOSE","zip":"95126","geo_score":1.0,"id":"a634reb3uwbh","address":"950 W JULIAN ST","geo_precision":"range","state":"CA"},"type":"Feature","geometry":{"type":"Point","coordinates":[-121.908539,37.33358]}},{"properties":{"city":"SAN JOSE","zip":"95126","geo_score":1.0,"id":"a634re6a3sa1","address":"950 W JULIAN ST","geo_precision":"range","state":"CA"},"type":"Feature","geometry":{"type":"Point","coordinates":[-121.908539,37.33358]}},{"properties":{"city":"SAN JOSE","zip":"95126","geo_score":1.0,"id":"a634relro41e","address":"950 W JULIAN ST","geo_precision":"range","state":"CA"},"type":"Feature","geometry":{"type":"Point","coordinates":[-121.908539,37.33358]}},{"properties":{"city":"SAN JOSE","zip":"95126","geo_score":1.0,"id":"a634reilbz8t","address":"950 W JULIAN ST","geo_precision":"range","state":"CA"},"type":"Feature","geometry":{"type":"Point","coordinates":[-121.908539,37.33358]}},{"properties":{"city":"MILPITAS","zip":"95035","geo_score":0.612,"id":"a634re7xv5p2","address":"991 MONTAGUE EXPY STE 206","geo_precision":"street","state":"CA"},"type":"Feature","geometry":{"type":"Point","coordinates":[-121.886566,37.412532]}},{"properties":{"city":"MILPITAS","zip":"95035","geo_score":0.612,"id":"a634rebw9nvg","address":"995 MONTAGUE EXPY STE 213","geo_precision":"street","state":"CA"},"type":"Feature","geometry":{"type":"Point","coordinates":[-121.886566,37.412532]}},{"properties":{"city":"SAN FRANCISCO","zip":"94160","geo_score":0.353,"id":"a634rej8epg0","address":"FILE 73329 PO BOX 60000","geo_precision":"street","state":"CA"},"type":"Feature","geometry":{"type":"Point","coordinates":[-122.408335,37.790887]}}],"is_temporal":false,"author":{"url":"","metadata":"","contact_name":"","contact_address":"","source":"","contact_phone":""},"source":"","pagination":{"sort":null,"start":0,"total":771,"limit":1000000},"state":"complete","tags":"","published":"2014-08-10T11:16:07-04:00","id":80401}