{"type":"FeatureCollection","data_type":"Dataset","url_type":null,"permissions":[{"permissions":{"download":true,"view":true},"group_id":"everyone"}],"classification":null,"title":"EMS (Eastern Mountain Sports) Retail Locations, USA, 12.2008","count":69,"stream_id":8071,"contributor":{"url":"http://geocommons.com/users/139","name":"Burkey"},"data_attributes":null,"calculation_params":null,"icon_link":null,"link":"http://geocommons.com/overlays/8071.json","extent":[-78.823,38.8883,-67.5772,45.2262],"geometry_types":["point"],"unique_name":null,"name":"EMS (Eastern Mountain Sports) Retail Locations, USA, 12.2008","feature_count":69,"description":"This dataset locates all of the EMS (Eastern Mountain Sports locations across the USA as of 12.2008. The data includes: store name, shopping center, address, city, state, zip, phone, and lat/lon location. Lat/lon locations were obtained from a geocoder found at gpsvisualizer.com","next_feature":null,"is_raster":false,"short_classification":"Y","stats":{"lon":{"max":-67.577217,"mean":-73.3853205507246,"variance":5.50513396492658,"stdev":2.34630218960103,"min":-78.822969,"median":-73.192635},"zip":{"max":22201,"mean":8513.3768115942,"variance":38689015.0912191,"stdev":6220.04944443524,"min":1035,"median":6810},"lat":{"max":45.226238,"mean":41.9777324637681,"variance":1.92845813991264,"stdev":1.38868936048082,"min":38.888253,"median":42.256668}},"features":[{"properties":{"city":"Acton","lon":-71.411862,"zip":1720,"store":"EMS ACTON MA","shopping center":"Brookside Shops","phone":"978.263.4151","id":"a63shjy4yxkr","address":"145 Great Road","lat":42.477457,"state":"MA"},"type":"Feature","geometry":{"type":"Point","coordinates":[-71.411862,42.477457]}},{"properties":{"city":"Albany","lon":-73.838421,"zip":12203,"store":"EMS ALBANY NY","shopping center":"Stuyvesant Plaza","phone":"518.482.0088","id":"a63shjxa0hdv","address":"1475 Western Avenue","lat":42.681519,"state":"NY"},"type":"Feature","geometry":{"type":"Point","coordinates":[-73.838421,42.681519]}},{"properties":{"city":"Amherst","lon":-78.822201,"zip":14228,"store":"EMS AMHERST NY","shopping center":"Boulevard Consumer Square","phone":"716.838.4200","id":"a63shk1czleb","address":"1701 Niagara Falls Boulevard","lat":43.001279,"state":"NY"},"type":"Feature","geometry":{"type":"Point","coordinates":[-78.822201,43.001279]}},{"properties":{"city":"Annapolis","lon":-76.541597,"zip":21401,"store":"EMS ANNAPOLIS MD","shopping center":"Annapolis Harbour Center","phone":"410.573.1240","id":"a63shjuks2p5","address":"2554 Solomon's Island Road","lat":38.97466,"state":"MD"},"type":"Feature","geometry":{"type":"Point","coordinates":[-76.541597,38.97466]}},{"properties":{"city":"Arlington","lon":-77.091797,"zip":22201,"store":"EMS ARLINGTON VA","shopping center":"The Market Common","phone":"703.248.8310","id":"a63shjyio7ci","address":"2800 Clarendon Boulevard","lat":38.888253,"state":"VA"},"type":"Feature","geometry":{"type":"Point","coordinates":[-77.091797,38.888253]}},{"properties":{"city":"Augusta","lon":-69.787354,"zip":4330,"store":"EMS AUGUSTA ME","shopping center":"Marketplace at Augusta","phone":"207.623.2712","id":"a63shk313ppm","address":"2 Stephen King Drive","lat":44.347702,"state":"ME"},"type":"Feature","geometry":{"type":"Point","coordinates":[-69.787354,44.347702]}},{"properties":{"city":"Blasdell","lon":-78.811296,"zip":14219,"store":"EMS BLASDELL NY","shopping center":"McKinley Milestrip Center","phone":"716.838.4200","id":"a63shjtnyetv","address":"3540 McKinley Pkwy","lat":42.788401,"state":"NY"},"type":"Feature","geometry":{"type":"Point","coordinates":[-78.811296,42.788401]}},{"properties":{"city":"Boston","lon":-71.082405,"zip":2116,"store":"EMS BOSTON MA","shopping center":"","phone":"617.236.1518","id":"a63shjx4ignf","address":"855 Boylston Street","lat":42.348846,"state":"MA"},"type":"Feature","geometry":{"type":"Point","coordinates":[-71.082405,42.348846]}},{"properties":{"city":"Boston","lon":-71.122271,"zip":2215,"store":"EMS BOSTON MA","shopping center":"","phone":"617.254.4250","id":"a63shjwl7az1","address":"1041 Commonwealth Avenue","lat":42.351977,"state":"MA"},"type":"Feature","geometry":{"type":"Point","coordinates":[-71.122271,42.351977]}},{"properties":{"city":"Bridgewater","lon":-74.619615,"zip":8807,"store":"EMS BRIDGEWATER NJ","shopping center":"Somerset Shopping Center","phone":"908.725.7255","id":"a63shjuz3xmh","address":"347 US Highway 202/206 South","lat":40.586217,"state":"NJ"},"type":"Feature","geometry":{"type":"Point","coordinates":[-74.619615,40.586217]}},{"properties":{"city":"Cambridge","lon":-71.121002,"zip":2138,"store":"EMS CAMBRIDGE MA","shopping center":"Harvard Square","phone":"617.864.2061","id":"a63shju4y1fs","address":"1 Brattle Square","lat":42.373302,"state":"MA"},"type":"Feature","geometry":{"type":"Point","coordinates":[-71.121002,42.373302]}},{"properties":{"city":"Canton","lon":-71.148445,"zip":2021,"store":"EMS CANTON MA","shopping center":"Village Shoppes of Canton","phone":"781.401.9316","id":"a63shjugu97k","address":"95 Washington Street","lat":42.140808,"state":"MA"},"type":"Feature","geometry":{"type":"Point","coordinates":[-71.148445,42.140808]}},{"properties":{"city":"Carle Place","lon":-73.617501,"zip":11514,"store":"EMS CARLE PLACE NY","shopping center":"Parkway Plaza Shopping Center","phone":"516.747.7360","id":"a63shk40cmg0","address":"221 Glen Cove Road","lat":40.748054,"state":"NY"},"type":"Feature","geometry":{"type":"Point","coordinates":[-73.617501,40.748054]}},{"properties":{"city":"Concord","lon":-71.531693,"zip":3301,"store":"EMS CONCORD NH","shopping center":"Fort Eddy Plaza","phone":"603.224.8781","id":"a63shk0lox76","address":"68 Fort Eddy Road","lat":43.211689,"state":"NH"},"type":"Feature","geometry":{"type":"Point","coordinates":[-71.531693,43.211689]}},{"properties":{"city":"Cranston","lon":-71.458534,"zip":2920,"store":"EMS CRANSTON RI","shopping center":"Garden City Shopping Center","phone":"401.944.5500","id":"a63shjx5jxi2","address":"176 Hillside Road","lat":41.759907,"state":"RI"},"type":"Feature","geometry":{"type":"Point","coordinates":[-71.458534,41.759907]}},{"properties":{"city":"Danbury","lon":-73.475138,"zip":6810,"store":"EMS DANBURY CT","shopping center":"Danbury Fair Mall","phone":"203.794.1043","id":"a63shk0ma3oy","address":"7 Backus Avenue","lat":41.38068,"state":"CT"},"type":"Feature","geometry":{"type":"Point","coordinates":[-73.475138,41.38068]}},{"properties":{"city":"Dulles","lon":-77.439066,"zip":20166,"store":"EMS DULLES VA","shopping center":"Dulles 28 Center [Wegman's]","phone":"703.421.4330","id":"a63shjonnbkr","address":"22000 Dulles Retail Plaza","lat":39.005985,"state":"VA"},"type":"Feature","geometry":{"type":"Point","coordinates":[-77.439066,39.005985]}},{"properties":{"city":"Eatontown","lon":-74.059975,"zip":7724,"store":"EMS EATONTOWN NJ","shopping center":"Monmouth Plaza","phone":"732.460.0188","id":"a63shjwimfef","address":"133 State Highway Route 35","lat":40.304905,"state":"NJ"},"type":"Feature","geometry":{"type":"Point","coordinates":[-74.059975,40.304905]}},{"properties":{"city":"Exton","lon":-75.628117,"zip":19341,"store":"EMS EXTON PA","shopping center":"","phone":"610.363.7881","id":"a63shju5e3b4","address":"289 Main Street","lat":40.02329,"state":"PA"},"type":"Feature","geometry":{"type":"Point","coordinates":[-75.628117,40.02329]}},{"properties":{"city":"Fairfield","lon":-73.248189,"zip":6825,"store":"EMS FAIRFIELD CT","shopping center":"Turnpike Shopping Center","phone":"203.334.7006","id":"a63shk2v9g6i","address":"1939 Blackrock Turnpike","lat":41.180411,"state":"CT"},"type":"Feature","geometry":{"type":"Point","coordinates":[-73.248189,41.180411]}},{"properties":{"city":"Fayetteville","lon":-76.018136,"zip":13066,"store":"EMS FAYETTEVILLE NY","shopping center":"Towne Center at Fayetteville","phone":"315.637.9250","id":"a63shjplbvt9","address":"531 Towne Drive","lat":43.031816,"state":"NY"},"type":"Feature","geometry":{"type":"Point","coordinates":[-76.018136,43.031816]}},{"properties":{"city":"Foxborough","lon":-71.280579,"zip":2035,"store":"EMS FOXBOROUGH MA","shopping center":"Patriot Place","phone":"508.543.1350","id":"a63shk4bu1b1","address":"Route 1","lat":42.080971,"state":"MA"},"type":"Feature","geometry":{"type":"Point","coordinates":[-71.280579,42.080971]}},{"properties":{"city":"Gardiner","lon":-74.192708,"zip":12525,"store":"EMS GARDINER NY","shopping center":"The Climbing School","phone":"845.255.3280","id":"a63shjqci6zw","address":"3124 Routes 44 &amp; 55","lat":41.728188,"state":"NY"},"type":"Feature","geometry":{"type":"Point","coordinates":[-74.192708,41.728188]}},{"properties":{"city":"Hadley","lon":-72.553522,"zip":1035,"store":"EMS HADLEY MA","shopping center":"Mountain Farms Mall","phone":"413.584.3554","id":"a63shjx7dxbr","address":"351 Russell Street","lat":42.355223,"state":"MA"},"type":"Feature","geometry":{"type":"Point","coordinates":[-72.553522,42.355223]}},{"properties":{"city":"Haverford","lon":-75.307506,"zip":19041,"store":"EMS HAVERFORD PA","shopping center":"","phone":"610.520.8000","id":"a63shjz9f4t0","address":"525 West Lancaster Avenue","lat":40.016318,"state":"PA"},"type":"Feature","geometry":{"type":"Point","coordinates":[-75.307506,40.016318]}},{"properties":{"city":"Hingham","lon":-70.906522,"zip":2043,"store":"EMS HINGHAM MA","shopping center":"Anchor Plaza","phone":"781.741.8808","id":"a63shk0o0ltd","address":"211 Lincoln Street","lat":42.249402,"state":"MA"},"type":"Feature","geometry":{"type":"Point","coordinates":[-70.906522,42.249402]}},{"properties":{"city":"Hyannis","lon":-70.31945,"zip":2601,"store":"EMS HYANNIS MA","shopping center":"Cape Cod Center","phone":"508.362.8690","id":"a63shjuilx7c","address":"1489-1513 Iyanough Road (Route 132)","lat":41.679173,"state":"MA"},"type":"Feature","geometry":{"type":"Point","coordinates":[-70.31945,41.679173]}},{"properties":{"city":"Ithaca","lon":-76.50817,"zip":14850,"store":"EMS ITHACA NY","shopping center":"Threshold Plaza","phone":"607.272.1935","id":"a63shk2ytbrb","address":"722 South Meadow Street","lat":42.431397,"state":"NY"},"type":"Feature","geometry":{"type":"Point","coordinates":[-76.50817,42.431397]}},{"properties":{"city":"Lake Placid","lon":-73.985042,"zip":12946,"store":"EMS LAKE PLACID NY","shopping center":"","phone":"518.523.2505","id":"a63shk3m7vx2","address":"2453 Main Street","lat":44.289505,"state":"NY"},"type":"Feature","geometry":{"type":"Point","coordinates":[-73.985042,44.289505]}},{"properties":{"city":"Lancaster","lon":-76.340014,"zip":17601,"store":"EMS LANCASTER PA","shopping center":"","phone":"717.397.8120","id":"a63shjqsgz7c","address":"765 Park City Center","lat":40.065957,"state":"PA"},"type":"Feature","geometry":{"type":"Point","coordinates":[-76.340014,40.065957]}},{"properties":{"city":"Lanesboro","lon":-73.192635,"zip":1237,"store":"EMS LANESBORO MA","shopping center":"The Berkshire Mall","phone":"413.445.4967","id":"a63shjw4suks","address":"Old State Road &amp; Route 8","lat":42.512653,"state":"MA"},"type":"Feature","geometry":{"type":"Point","coordinates":[-73.192635,42.512653]}},{"properties":{"city":"Manchester Center","lon":-73.044418,"zip":5255,"store":"EMS MANCHESTER CENTER VT","shopping center":"Manchester Shopping Center","phone":"802.366.8082","id":"a63shk0myii7","address":"263 Depot Street","lat":43.18605,"state":"VT"},"type":"Feature","geometry":{"type":"Point","coordinates":[-73.044418,43.18605]}},{"properties":{"city":"Manchester","lon":-72.531387,"zip":6040,"store":"EMS MANCHESTER CT","shopping center":"Plaza at Buckland Hills","phone":"860.644.3517","id":"a63shjzurh3x","address":"1470C Pleasant Valley Road","lat":41.768188,"state":"CT"},"type":"Feature","geometry":{"type":"Point","coordinates":[-72.531387,41.768188]}},{"properties":{"city":"Manchester","lon":-71.435638,"zip":3103,"store":"EMS MANCHESTER NH","shopping center":"Mall of New Hampshire","phone":"603.647.0915","id":"a63shjvwk931","address":"1500 South Willow Street","lat":42.954906,"state":"NH"},"type":"Feature","geometry":{"type":"Point","coordinates":[-71.435638,42.954906]}},{"properties":{"city":"Marlborough","lon":-71.617577,"zip":1752,"store":"EMS MARLBOROUGH MA","shopping center":"The Shops at the Pond","phone":"508.481.2107","id":"a63shk1uug6j","address":"753 Donald J. Lynch Boulevard","lat":42.351791,"state":"MA"},"type":"Feature","geometry":{"type":"Point","coordinates":[-71.617577,42.351791]}},{"properties":{"city":"Middletown","lon":-72.66597,"zip":2842,"store":"EMS MIDDLETOWN RI","shopping center":"Middletown Square","phone":"401.846.6766","id":"a63shk28dt1t","address":"1313 West Main Road","lat":41.52383,"state":"RI"},"type":"Feature","geometry":{"type":"Point","coordinates":[-72.66597,41.52383]}},{"properties":{"city":"Millbury","lon":-71.793159,"zip":1527,"store":"EMS MILLBURY MA","shopping center":"The Shoppes at Blackstone Valley","phone":"508.865.6776","id":"a63shjr7mrsl","address":"70 Worcester Providence Turnpike","lat":42.256668,"state":"MA"},"type":"Feature","geometry":{"type":"Point","coordinates":[-71.793159,42.256668]}},{"properties":{"city":"Moorestown","lon":-74.962456,"zip":8057,"store":"EMS MOORESTOWN NJ","shopping center":"Moorestown Mall","phone":"856.234.3030","id":"a63shk0rmq4f","address":"400 Route 38","lat":39.946476,"state":"NJ"},"type":"Feature","geometry":{"type":"Point","coordinates":[-74.962456,39.946476]}},{"properties":{"city":"Nanuet","lon":-74.006383,"zip":10954,"store":"EMS NANUET NY","shopping center":"66 Rockland Plaza","phone":"845.623.5282","id":"a63shk1h4kre","address":"Route 59","lat":41.095219,"state":"NY"},"type":"Feature","geometry":{"type":"Point","coordinates":[-74.006383,41.095219]}},{"properties":{"city":"Nashua","lon":-71.441177,"zip":3060,"store":"EMS NASHUA NH","shopping center":"Webster Square","phone":"603.891.1180","id":"a63shjrja5fl","address":"266 Daniel Webster Highway","lat":42.707504,"state":"NH"},"type":"Feature","geometry":{"type":"Point","coordinates":[-71.441177,42.707504]}},{"properties":{"city":"New York","lon":-73.997391,"zip":10012,"store":"EMS NEW YORK NY","shopping center":"","phone":"212.966.8730","id":"a63shk3l0nhf","address":"591 Broadway","lat":40.724998,"state":"NY"},"type":"Feature","geometry":{"type":"Point","coordinates":[-73.997391,40.724998]}},{"properties":{"city":"Newark","lon":-75.667099,"zip":19713,"store":"EMS NEWARK DE","shopping center":"Center Pointe Shopping Plaza","phone":"302.266.0144","id":"a63shk44eghe","address":"1297 New Churchmans Road","lat":39.691847,"state":"DE"},"type":"Feature","geometry":{"type":"Point","coordinates":[-75.667099,39.691847]}},{"properties":{"city":"Newton","lon":-71.215858,"zip":2464,"store":"EMS NEWTON MA","shopping center":"","phone":"617.559.1575","id":"a63shk3nnwg7","address":"300 Needham Street","lat":42.307575,"state":"MA"},"type":"Feature","geometry":{"type":"Point","coordinates":[-71.215858,42.307575]}},{"properties":{"city":"North Conway","lon":-71.124718,"zip":3860,"store":"EMS NORTH CONWAY NH","shopping center":"","phone":"603.356.5433","id":"a63shjxfkj31","address":"1498 White Mountain Highway","lat":44.048569,"state":"NH"},"type":"Feature","geometry":{"type":"Point","coordinates":[-71.124718,44.048569]}},{"properties":{"city":"Paramus","lon":-74.080911,"zip":7652,"store":"EMS PARAMUS NJ","shopping center":"","phone":"201.670.6464","id":"a63shju359vd","address":"820 Route 17 North","lat":40.974582,"state":"NJ"},"type":"Feature","geometry":{"type":"Point","coordinates":[-74.080911,40.974582]}},{"properties":{"city":"Peabody","lon":-70.985512,"zip":1960,"store":"EMS PEABODY MA","shopping center":"Northshore Mall","phone":"978.977.0601","id":"a63shjsf7349","address":"Routes 128 &amp; 114","lat":42.542419,"state":"MA"},"type":"Feature","geometry":{"type":"Point","coordinates":[-70.985512,42.542419]}},{"properties":{"city":"Peterborough","lon":-71.938774,"zip":3458,"store":"EMS PETERBOROUGH NH","shopping center":"","phone":"603.924.7231","id":"a63shjq2nsko","address":"1 Vose Farm Road","lat":42.913494,"state":"NH"},"type":"Feature","geometry":{"type":"Point","coordinates":[-71.938774,42.913494]}},{"properties":{"city":"Philadelphia","lon":-75.19183,"zip":19104,"store":"EMS PHILADELPHIA PA","shopping center":"","phone":"215.382.0930","id":"a63shjtatpk1","address":"3401 Chestnut Street","lat":39.954401,"state":"PA"},"type":"Feature","geometry":{"type":"Point","coordinates":[-75.19183,39.954401]}},{"properties":{"city":"Plymouth","lon":-70.656364,"zip":2360,"store":"EMS PLYMOUTH MA","shopping center":"The Shops At 5","phone":"508.746.8855","id":"a63shjqa57i1","address":"62 Long Pond Road","lat":41.936558,"state":"MA"},"type":"Feature","geometry":{"type":"Point","coordinates":[-70.656364,41.936558]}},{"properties":{"city":"Portland","lon":-70.264824,"zip":4101,"store":"EMS PORTLAND ME","shopping center":"","phone":"207.541.1919","id":"a63shjxf20ip","address":"87 Marginal Way","lat":43.661999,"state":"ME"},"type":"Feature","geometry":{"type":"Point","coordinates":[-70.264824,43.661999]}},{"properties":{"city":"Portsmouth","lon":-70.790291,"zip":3801,"store":"EMS PORTSMOUTH NH","shopping center":"","phone":"603.334.6141","id":"a63shjrt1auh","address":"100 Arthur F Brady Drive","lat":43.087246,"state":"NH"},"type":"Feature","geometry":{"type":"Point","coordinates":[-70.790291,43.087246]}},{"properties":{"city":"Poughkeepsie","lon":-73.930399,"zip":12601,"store":"EMS POUGHKEEPSIE NY","shopping center":"Spackenkill Plaza","phone":"845.463.3207","id":"a63shk1p6i49","address":"2521 South Road","lat":41.662232,"state":"NY"},"type":"Feature","geometry":{"type":"Point","coordinates":[-73.930399,41.662232]}},{"properties":{"city":"Princeton","lon":-67.577217,"zip":8540,"store":"EMS PRINCETON NJ","shopping center":"Market Fair","phone":"609.520.8310","id":"a63shk47ppz5","address":"3535 US Route 1","lat":45.226238,"state":"NJ"},"type":"Feature","geometry":{"type":"Point","coordinates":[-67.577217,45.226238]}},{"properties":{"city":"Rochester","lon":-77.538735,"zip":14618,"store":"EMS ROCHESTER NY","shopping center":"Pittsford Plaza","phone":"585.383.1140","id":"a63shjtqqrju","address":"3349 Monroe Avenue","lat":43.102997,"state":"NY"},"type":"Feature","geometry":{"type":"Point","coordinates":[-77.538735,43.102997]}},{"properties":{"city":"Rutland","lon":-72.966242,"zip":5701,"store":"EMS RUTLAND VT","shopping center":"Diamond Run Mall","phone":"802.773.9782","id":"a63shjxasw6i","address":"825 Route 7 South","lat":43.576152,"state":"VT"},"type":"Feature","geometry":{"type":"Point","coordinates":[-72.966242,43.576152]}},{"properties":{"city":"Salem","lon":-71.210487,"zip":3079,"store":"EMS SALEM NH","shopping center":"The Mall at Rockingham Park","phone":"603.894.5331","id":"a63shjphgrzs","address":"99 Rockingham Park Boulevard","lat":42.784801,"state":"NH"},"type":"Feature","geometry":{"type":"Point","coordinates":[-71.210487,42.784801]}},{"properties":{"city":"Saratoga Springs","lon":-73.741348,"zip":12866,"store":"EMS SARATOGA SPRINGS NY","shopping center":"The Shoppes at Wilton","phone":"518.580.1505","id":"a63shk09cq13","address":"3066 Route 50","lat":43.1051,"state":"NY"},"type":"Feature","geometry":{"type":"Point","coordinates":[-73.741348,43.1051]}},{"properties":{"city":"Scarsdale","lon":-73.807059,"zip":10583,"store":"EMS SCARSDALE NY","shopping center":"Eastchester Shopping Center","phone":"914.725.0024","id":"a63shjwrn33g","address":"693 White Plains Post Road","lat":40.96982,"state":"NY"},"type":"Feature","geometry":{"type":"Point","coordinates":[-73.807059,40.96982]}},{"properties":{"city":"Schenectady","lon":-73.892869,"zip":12304,"store":"EMS SCHENECTADY NY","shopping center":"Mohawk Commons","phone":"518.388.2700","id":"a63shjyk2wyb","address":"412C Balltown Road","lat":42.783173,"state":"NY"},"type":"Feature","geometry":{"type":"Point","coordinates":[-73.892869,42.783173]}},{"properties":{"city":"Simsbury","lon":-72.865456,"zip":6070,"store":"EMS SIMSBURY CT","shopping center":"","phone":"860.651.8031","id":"a63shjzkal8n","address":"530 Bushy Hill Road","lat":41.819843,"state":"CT"},"type":"Feature","geometry":{"type":"Point","coordinates":[-72.865456,41.819843]}},{"properties":{"city":"South Burlington","lon":-73.181076,"zip":5403,"store":"EMS SOUTH BURLINGTON VT","shopping center":"","phone":"802.864.0473","id":"a63shjx1if0b","address":"100 Dorset Street","lat":44.466698,"state":"VT"},"type":"Feature","geometry":{"type":"Point","coordinates":[-73.181076,44.466698]}},{"properties":{"city":"Stamford","lon":-73.5485,"zip":6905,"store":"EMS STAMFORD CT","shopping center":"","phone":"203.461.9865","id":"a63shjzg8byg","address":"952 High Ridge Road","lat":41.103996,"state":"CT"},"type":"Feature","geometry":{"type":"Point","coordinates":[-73.5485,41.103996]}},{"properties":{"city":"Syracuse","lon":-76.172222,"zip":13290,"store":"EMS SYRACUSE NY","shopping center":"Carousel Center Mall","phone":"315.466.1026","id":"a63shjtk3amn","address":"9748 Carousel Center","lat":43.069278,"state":"NY"},"type":"Feature","geometry":{"type":"Point","coordinates":[-76.172222,43.069278]}},{"properties":{"city":"Tonawanda","lon":-78.822969,"zip":14150,"store":"EMS TONAWANDA NY","shopping center":"","phone":"716.838.4200","id":"a63shjo62lcy","address":"1270 Niagara Falls Blvd","lat":42.987692,"state":"NY"},"type":"Feature","geometry":{"type":"Point","coordinates":[-78.822969,42.987692]}},{"properties":{"city":"Warrington","lon":-75.13422,"zip":18976,"store":"EMS WARRINGTON PA","shopping center":"Valley Square","phone":"215.343.0169","id":"a63shjrz2wck","address":"1700 Valley Square Blvd","lat":40.230005,"state":"PA"},"type":"Feature","geometry":{"type":"Point","coordinates":[-75.13422,40.230005]}},{"properties":{"city":"Waterford","lon":-72.708572,"zip":6385,"store":"EMS WATERFORD CT","shopping center":"Crystal Mall","phone":"860.447.8448","id":"a63shk3tlqxq","address":"850 Hartford Turnpike","lat":41.730862,"state":"CT"},"type":"Feature","geometry":{"type":"Point","coordinates":[-72.708572,41.730862]}},{"properties":{"city":"West Hartford","lon":-72.759712,"zip":6110,"store":"EMS WEST HARTFORD CT","shopping center":"Corbins Corner Shopping Parcade","phone":"860.561.4302","id":"a63shk3nzoae","address":"1459 New Britain Avenue","lat":41.725246,"state":"CT"},"type":"Feature","geometry":{"type":"Point","coordinates":[-72.759712,41.725246]}},{"properties":{"city":"West Lebanon","lon":-72.310341,"zip":3784,"store":"EMS WEST LEBANON NH","shopping center":"Powerhouse Mall","phone":"603.298.7716","id":"a63shjsyo1ch","address":"8 Glen Road","lat":43.648701,"state":"NH"},"type":"Feature","geometry":{"type":"Point","coordinates":[-72.310341,43.648701]}},{"properties":{"city":"Wilmington","lon":-75.547194,"zip":19803,"store":"EMS WILMINGTON DE","shopping center":"Concord Mall","phone":"302.477.0859","id":"a63shjz4l0r2","address":"4737 Concord Pike","lat":39.820441,"state":"DE"},"type":"Feature","geometry":{"type":"Point","coordinates":[-75.547194,39.820441]}}],"is_temporal":false,"author":{"url":"http://www.ems.com/locator/locator_main.jsp","metadata":"","contact_name":"","contact_address":"","source":"EMS (Eastern Mountain Sports)","contact_phone":""},"source":"http://www.ems.com/locator/locator_main.jsp","pagination":{"sort":null,"start":0,"total":69,"limit":1000000},"state":"complete","tags":"camping,ems,hiking,recreation,retail","published":"2008-12-09T12:00:00Z","id":8071}