{"type":"FeatureCollection","data_type":"Dataset","url_type":null,"permissions":[{"permissions":{"download":true,"view":true},"group_id":"everyone"}],"classification":null,"title":"HGG Stores","count":173,"stream_id":81863,"contributor":{"url":"http://geocommons.com/users/18978","name":"garquette"},"data_attributes":null,"calculation_params":null,"icon_link":null,"link":"http://geocommons.com/overlays/81863.json","extent":[-89.9962,26.1938,-74.7346,42.0684],"geometry_types":["point"],"unique_name":null,"name":"HGG Stores","feature_count":173,"description":"HGG Store locations","next_feature":null,"is_raster":false,"short_classification":"Y","stats":{"geo_score":{"max":0.857,"mean":0.856999999999999,"variance":3.09940353840923e-31,"stdev":5.56722869874162e-16,"min":0.857,"median":0.857}},"features":[{"properties":{"zip":"35806","store name":"HH Gregg AL1","geo_score":0.857,"street name":"930 A Old Monrovia Road","id":"a672t7r89rf0","geo_precision":"zip","state":"AL"},"type":"Feature","geometry":{"type":"Point","coordinates":[-86.706386,34.769813]}},{"properties":{"zip":"35235","store name":"HH Gregg AL2","geo_score":0.857,"street name":"3679 Roosevelt Blvd","id":"a672t7xap2l8","geo_precision":"zip","state":"AL"},"type":"Feature","geometry":{"type":"Point","coordinates":[-86.659988,33.587604]}},{"properties":{"zip":"35244","store name":"HH Gregg AL3","geo_score":0.857,"street name":"1773 Montgomery Hwy S.","id":"a672t7wyp5mw","geo_precision":"zip","state":"AL"},"type":"Feature","geometry":{"type":"Point","coordinates":[-86.949784,33.351944]}},{"properties":{"zip":"35242","store name":"HH Gregg AL4","geo_score":0.857,"street name":"4639 Hwy 280","id":"a672t7wax3q8","geo_precision":"zip","state":"AL"},"type":"Feature","geometry":{"type":"Point","coordinates":[-86.704571,33.381339]}},{"properties":{"zip":"36117","store name":"HH Gregg AL5","geo_score":0.857,"street name":"2654 Eastern Blvd","id":"a672t7mdepmi","geo_precision":"zip","state":"AL"},"type":"Feature","geometry":{"type":"Point","coordinates":[-86.116486,32.370048]}},{"properties":{"zip":"19702","store name":"HH Gregg DE1","geo_score":0.857,"street name":"700 Center Blvd.","id":"a672t7szmhsj","geo_precision":"zip","state":"DE"},"type":"Feature","geometry":{"type":"Point","coordinates":[-75.682986,39.654279]}},{"properties":{"zip":"19803","store name":"HH Gregg DE2","geo_score":0.857,"street name":"3040 Brandywine Parkway","id":"a672t7v29k7n","geo_precision":"zip","state":"DE"},"type":"Feature","geometry":{"type":"Point","coordinates":[-75.55798,39.794001]}},{"properties":{"zip":"19901","store name":"HH Gregg DE3","geo_score":0.857,"street name":"1380 N Dupont Hwy","id":"a672t7wmfv0l","geo_precision":"zip","state":"DE"},"type":"Feature","geometry":{"type":"Point","coordinates":[-75.541313,39.173723]}},{"properties":{"zip":"32501","store name":"HH Gregg FL1","geo_score":0.857,"street name":"1210 Airport Blvd., Unit 600","id":"a672t7mt552p","geo_precision":"zip","state":"FL"},"type":"Feature","geometry":{"type":"Point","coordinates":[-87.196637,30.542695]}},{"properties":{"zip":"32771","store name":"HH Gregg FL10","geo_score":0.857,"street name":"1810 Rinehart Rd","id":"a672t7txgjff","geo_precision":"zip","state":"FL"},"type":"Feature","geometry":{"type":"Point","coordinates":[-81.252287,28.789715]}},{"properties":{"zip":"32818","store name":"HH Gregg FL11","geo_score":0.857,"street name":"8010 W Colonial Dr","id":"a672t7vxtn2w","geo_precision":"zip","state":"FL"},"type":"Feature","geometry":{"type":"Point","coordinates":[-81.496741,28.594747]}},{"properties":{"zip":"32803","store name":"HH Gregg FL12","geo_score":0.857,"street name":"3222 E. Colonial Dr Suite #14","id":"a672t7wp890p","geo_precision":"zip","state":"FL"},"type":"Feature","geometry":{"type":"Point","coordinates":[-81.33664,28.556479]}},{"properties":{"zip":"32809","store name":"HH Gregg FL13","geo_score":0.857,"street name":"8410 S Orange Blossom Trail","id":"a672t7w0o5cf","geo_precision":"zip","state":"FL"},"type":"Feature","geometry":{"type":"Point","coordinates":[-81.445905,28.455839]}},{"properties":{"zip":"33647","store name":"HH Gregg FL14","geo_score":0.857,"street name":"6250 Commerce Palms Drive","id":"a672t7n2r1go","geo_precision":"zip","state":"FL"},"type":"Feature","geometry":{"type":"Point","coordinates":[-82.350338,28.127834]}},{"properties":{"zip":"34741","store name":"HH Gregg FL15","geo_score":0.857,"street name":"3052 Dyer Blvd","id":"a672t7rndb8y","geo_precision":"zip","state":"FL"},"type":"Feature","geometry":{"type":"Point","coordinates":[-81.461385,28.307138]}},{"properties":{"zip":"33759","store name":"HH Gregg FL16","geo_score":0.857,"street name":"2669 Gulf to Bay Blvd","id":"a672t7yk1aan","geo_precision":"zip","state":"FL"},"type":"Feature","geometry":{"type":"Point","coordinates":[-82.704321,27.984851]}},{"properties":{"zip":"33809","store name":"HH Gregg FL17","geo_score":0.857,"street name":"4000 US Hwy 98 North","id":"a672t7uath7h","geo_precision":"zip","state":"FL"},"type":"Feature","geometry":{"type":"Point","coordinates":[-81.959132,28.176194]}},{"properties":{"zip":"33619","store name":"HH Gregg FL18","geo_score":0.857,"street name":"10277 East Adamo Dr.","id":"a672t7nylhxr","geo_precision":"zip","state":"FL"},"type":"Feature","geometry":{"type":"Point","coordinates":[-82.364537,27.900302]}},{"properties":{"zip":"32904","store name":"HH Gregg FL19","geo_score":0.857,"street name":"205 Palm Bay Road, Suite 145","id":"a672t7vokwya","geo_precision":"zip","state":"FL"},"type":"Feature","geometry":{"type":"Point","coordinates":[-80.739647,28.051946]}},{"properties":{"zip":"32301","store name":"HH Gregg FL2","geo_score":0.857,"street name":"1719 Apalachee Pkwy","id":"a672t7ouc4kg","geo_precision":"zip","state":"FL"},"type":"Feature","geometry":{"type":"Point","coordinates":[-84.065726,30.505201]}},{"properties":{"zip":"34207","store name":"HH Gregg FL20","geo_score":0.857,"street name":"4495 14th Street West","id":"a672t7kdy4en","geo_precision":"zip","state":"FL"},"type":"Feature","geometry":{"type":"Point","coordinates":[-82.590376,27.42532]}},{"properties":{"zip":"34232","store name":"HH Gregg FL21","geo_score":0.857,"street name":"5511 Fruitville Rd","id":"a672t7y1hjj8","geo_precision":"zip","state":"FL"},"type":"Feature","geometry":{"type":"Point","coordinates":[-82.443249,27.203872]}},{"properties":{"zip":"33907","store name":"HH Gregg FL22","geo_score":0.857,"street name":"5100 South Cleveland Avenue, Suite 101","id":"a672t7q87707","geo_precision":"zip","state":"FL"},"type":"Feature","geometry":{"type":"Point","coordinates":[-81.959923,26.634845]}},{"properties":{"zip":"34105","store name":"HH Gregg FL23","geo_score":0.857,"street name":"5052 Airport Pulling Road","id":"a672t7t43s0j","geo_precision":"zip","state":"FL"},"type":"Feature","geometry":{"type":"Point","coordinates":[-81.763609,26.193769]}},{"properties":{"zip":"32225","store name":"HH Gregg FL3","geo_score":0.857,"street name":"651-100 Commerce Center Dr","id":"a672t7y84ll4","geo_precision":"zip","state":"FL"},"type":"Feature","geometry":{"type":"Point","coordinates":[-81.63565,30.305518]}},{"properties":{"zip":"32244","store name":"HH Gregg FL4","geo_score":0.857,"street name":"8380 Merchants Way","id":"a672t7vvkgxp","geo_precision":"zip","state":"FL"},"type":"Feature","geometry":{"type":"Point","coordinates":[-81.725931,30.281073]}},{"properties":{"zip":"32256","store name":"HH Gregg FL5","geo_score":0.857,"street name":"10320 Shops Lane, Suite 200","id":"a672t7rv0u3d","geo_precision":"zip","state":"FL"},"type":"Feature","geometry":{"type":"Point","coordinates":[-81.539129,30.213733]}},{"properties":{"zip":"32608","store name":"HH Gregg FL6","geo_score":0.857,"street name":"3606 SW 34th Street","id":"a672t7occss9","geo_precision":"zip","state":"FL"},"type":"Feature","geometry":{"type":"Point","coordinates":[-82.407395,29.575246]}},{"properties":{"zip":"34474","store name":"HH Gregg FL7","geo_score":0.857,"street name":"4205 SW 38th St","id":"a672t7zkiejd","geo_precision":"zip","state":"FL"},"type":"Feature","geometry":{"type":"Point","coordinates":[-82.137774,29.150148]}},{"properties":{"zip":"32114","store name":"HH Gregg FL8","geo_score":0.857,"street name":"2455 W. International Speedway, Ste 910","id":"a672t7veego5","geo_precision":"zip","state":"FL"},"type":"Feature","geometry":{"type":"Point","coordinates":[-81.053368,29.146163]}},{"properties":{"zip":"34613","store name":"HH Gregg FL9","geo_score":0.857,"street name":"13199 Cortez Blvd","id":"a672t7kizfhp","geo_precision":"zip","state":"FL"},"type":"Feature","geometry":{"type":"Point","coordinates":[-82.572877,28.515551]}},{"properties":{"zip":"30004","store name":"HH Gregg GA1","geo_score":0.857,"street name":"5530 Windward Parkway Suite 200","id":"a672t7uhl68s","geo_precision":"zip","state":"GA"},"type":"Feature","geometry":{"type":"Point","coordinates":[-84.30205,34.112373]}},{"properties":{"zip":"30214","store name":"HH Gregg GA10","geo_score":0.857,"street name":"395 Pavilion Parkway","id":"a672t7z0mm1i","geo_precision":"zip","state":"GA"},"type":"Feature","geometry":{"type":"Point","coordinates":[-84.512427,33.327341]}},{"properties":{"zip":"30265","store name":"HH Gregg GA11","geo_score":0.857,"street name":"231 Newnan Crossing Bypass","id":"a672t7v7hlpp","geo_precision":"zip","state":"GA"},"type":"Feature","geometry":{"type":"Point","coordinates":[-84.705681,33.415987]}},{"properties":{"zip":"30909","store name":"HH Gregg GA12","geo_score":0.857,"street name":"207 Robert C. Daniel Jr. Parkway","id":"a672t7qk5ziu","geo_precision":"zip","state":"GA"},"type":"Feature","geometry":{"type":"Point","coordinates":[-82.039562,33.481248]}},{"properties":{"zip":"31206","store name":"HH Gregg GA13","geo_score":0.857,"street name":"4551 Billy Williamson Dr","id":"a672t7rvu4sz","geo_precision":"zip","state":"GA"},"type":"Feature","geometry":{"type":"Point","coordinates":[-83.665461,32.708198]}},{"properties":{"zip":"31909","store name":"HH Gregg GA14","geo_score":0.857,"street name":"6499 Whittlesey Blvd","id":"a672t7x3sg58","geo_precision":"zip","state":"GA"},"type":"Feature","geometry":{"type":"Point","coordinates":[-84.920187,32.542198]}},{"properties":{"zip":"31406","store name":"HH Gregg GA15","geo_score":0.857,"street name":"7805 Abercorn Street, Suite 14A","id":"a672t7xqwbvi","geo_precision":"zip","state":"GA"},"type":"Feature","geometry":{"type":"Point","coordinates":[-81.062611,31.976603]}},{"properties":{"zip":"30144","store name":"HH Gregg GA2","geo_score":0.857,"street name":"2555 Cobb Place Lane","id":"a672t7rc0m3l","geo_precision":"zip","state":"GA"},"type":"Feature","geometry":{"type":"Point","coordinates":[-84.597433,34.03384]}},{"properties":{"zip":"30519","store name":"HH Gregg GA3","geo_score":0.857,"street name":"3230 Woodward Crossing Boulevard","id":"a672t80dleu1","geo_precision":"zip","state":"GA"},"type":"Feature","geometry":{"type":"Point","coordinates":[-83.930765,34.079715]}},{"properties":{"zip":"30096","store name":"HH Gregg GA4","geo_score":0.857,"street name":"2131 Pleasant Hill 121","id":"a672t7s6dng0","geo_precision":"zip","state":"GA"},"type":"Feature","geometry":{"type":"Point","coordinates":[-84.152915,33.984534]}},{"properties":{"zip":"30080","store name":"HH Gregg GA5","geo_score":0.857,"street name":"2784 Cumberland Blvd","id":"a672t7yqgjbb","geo_precision":"zip","state":"GA"},"type":"Feature","geometry":{"type":"Point","coordinates":[-84.464374,33.864826]}},{"properties":{"zip":"30078","store name":"HH Gregg GA6","geo_score":0.857,"street name":"2059 Scenic Hwy. N.","id":"a672t7s4a4fn","geo_precision":"zip","state":"GA"},"type":"Feature","geometry":{"type":"Point","coordinates":[-84.008066,33.863454]}},{"properties":{"zip":"30134","store name":"HH Gregg GA7","geo_score":0.857,"street name":"6967 Concourse Parkway","id":"a672t7zjwd7l","geo_precision":"zip","state":"GA"},"type":"Feature","geometry":{"type":"Point","coordinates":[-84.836605,33.613166]}},{"properties":{"zip":"30038","store name":"HH Gregg GA8","geo_score":0.857,"street name":"7342 Stonecrest Concourse","id":"a672t7pfupkk","geo_precision":"zip","state":"GA"},"type":"Feature","geometry":{"type":"Point","coordinates":[-84.144816,33.667509]}},{"properties":{"zip":"30260","store name":"HH Gregg GA9","geo_score":0.857,"street name":"1905-C Mt. Zion Road","id":"a672t7pt4tzn","geo_precision":"zip","state":"GA"},"type":"Feature","geometry":{"type":"Point","coordinates":[-84.335202,33.606499]}},{"properties":{"zip":"46240","store name":"HH Gregg IN1","geo_score":0.857,"street name":"4161 E. 96th Street","id":"a672t7qyutq0","geo_precision":"zip","state":"IN"},"type":"Feature","geometry":{"type":"Point","coordinates":[-86.150266,39.899762]}},{"properties":{"zip":"47905","store name":"HH Gregg IN10","geo_score":0.857,"street name":"2415 Sagamore Pkwy","id":"a672t7x0z9pz","geo_precision":"zip","state":"IN"},"type":"Feature","geometry":{"type":"Point","coordinates":[-86.913341,40.301426]}},{"properties":{"zip":"47404","store name":"HH Gregg IN11","geo_score":0.857,"street name":"606 Gourley Pike","id":"a672t7tnv04l","geo_precision":"zip","state":"IN"},"type":"Feature","geometry":{"type":"Point","coordinates":[-86.580849,39.25007]}},{"properties":{"zip":"47374","store name":"HH Gregg IN12","geo_score":0.857,"street name":"3783 National Road East","id":"a672t7khpjja","geo_precision":"zip","state":"IN"},"type":"Feature","geometry":{"type":"Point","coordinates":[-84.831071,39.94477]}},{"properties":{"zip":"47802","store name":"HH Gregg IN13","geo_score":0.857,"street name":"290 Honey Creek Pkwy","id":"a672t7s58xc7","geo_precision":"zip","state":"IN"},"type":"Feature","geometry":{"type":"Point","coordinates":[-87.382242,39.362261]}},{"properties":{"zip":"46805","store name":"HH Gregg IN14","geo_score":0.857,"street name":"4201 Parnell Ave","id":"a672t7zo7i65","geo_precision":"zip","state":"IN"},"type":"Feature","geometry":{"type":"Point","coordinates":[-85.134971,41.123104]}},{"properties":{"zip":"47129","store name":"HH Gregg IN15","geo_score":0.857,"street name":"1050 E. Lewis and Clark Parkway","id":"a672t7wlr2z2","geo_precision":"zip","state":"IN"},"type":"Feature","geometry":{"type":"Point","coordinates":[-85.764463,38.310958]}},{"properties":{"zip":"46545","store name":"HH Gregg IN16","geo_score":0.857,"street name":"5802 Grape Rd, Suite A","id":"a672t7oxxt4j","geo_precision":"zip","state":"IN"},"type":"Feature","geometry":{"type":"Point","coordinates":[-86.304735,41.696407]}},{"properties":{"zip":"47715","store name":"HH Gregg IN17","geo_score":0.857,"street name":"225 North Burkhardt Road","id":"a672t7pt2yw7","geo_precision":"zip","state":"IN"},"type":"Feature","geometry":{"type":"Point","coordinates":[-87.489212,37.984202]}},{"properties":{"zip":"46222","store name":"HH Gregg IN2","geo_score":0.857,"street name":"3651 Commercial Drive","id":"a672t7uzqty8","geo_precision":"zip","state":"IN"},"type":"Feature","geometry":{"type":"Point","coordinates":[-86.206655,39.765321]}},{"properties":{"zip":"46229","store name":"HH Gregg IN3","geo_score":0.857,"street name":"10101 E. Washington Street","id":"a672t7v6lhyq","geo_precision":"zip","state":"IN"},"type":"Feature","geometry":{"type":"Point","coordinates":[-85.997482,39.781986]}},{"properties":{"zip":"46060","store name":"HH Gregg IN4","geo_score":0.857,"street name":"16680 Mercantile Blvd","id":"a672t7yt1zmk","geo_precision":"zip","state":"IN"},"type":"Feature","geometry":{"type":"Point","coordinates":[-86.020818,40.048092]}},{"properties":{"zip":"46123","store name":"HH Gregg IN5","geo_score":0.857,"street name":"10101 E US Highway 36","id":"a672t7vtec27","geo_precision":"zip","state":"IN"},"type":"Feature","geometry":{"type":"Point","coordinates":[-86.488881,39.721434]}},{"properties":{"zip":"46227","store name":"HH Gregg IN6","geo_score":0.857,"street name":"8921 S. US 31","id":"a672t7oaj3kn","geo_precision":"zip","state":"IN"},"type":"Feature","geometry":{"type":"Point","coordinates":[-86.13443,39.704767]}},{"properties":{"zip":"46013","store name":"HH Gregg IN7","geo_score":0.857,"street name":"1921 E. 53rd Street","id":"a672t7lgpbf8","geo_precision":"zip","state":"IN"},"type":"Feature","geometry":{"type":"Point","coordinates":[-85.674976,40.05668]}},{"properties":{"zip":"46902","store name":"HH Gregg IN8","geo_score":0.857,"street name":"2021 E. Markland","id":"a672t7tw7lt5","geo_precision":"zip","state":"IN"},"type":"Feature","geometry":{"type":"Point","coordinates":[-86.17559,40.444291]}},{"properties":{"zip":"47305","store name":"HH Gregg IN9","geo_score":0.857,"street name":"4301 W. Clara Lane","id":"a672t80inngf","geo_precision":"zip","state":"IN"},"type":"Feature","geometry":{"type":"Point","coordinates":[-85.433223,40.247979]}},{"properties":{"zip":"41042","store name":"HH Gregg KY1","geo_score":0.857,"street name":"7601 Mall Road","id":"a672t7u3y8ad","geo_precision":"zip","state":"KY"},"type":"Feature","geometry":{"type":"Point","coordinates":[-84.662723,38.972839]}},{"properties":{"zip":"40299","store name":"HH Gregg KY2","geo_score":0.857,"street name":"9132 Taylorsville Road","id":"a672t7nlnimq","geo_precision":"zip","state":"KY"},"type":"Feature","geometry":{"type":"Point","coordinates":[-85.466622,38.134233]}},{"properties":{"zip":"40219","store name":"HH Gregg KY3","geo_score":0.857,"street name":"4140 Outer Loop Road","id":"a672t7tn6olo","geo_precision":"zip","state":"KY"},"type":"Feature","geometry":{"type":"Point","coordinates":[-85.721627,38.118402]}},{"properties":{"zip":"42701","store name":"HH Gregg KY4","geo_score":0.857,"street name":"157 Towne Dr","id":"a672t7szop46","geo_precision":"zip","state":"KY"},"type":"Feature","geometry":{"type":"Point","coordinates":[-85.966352,37.698397]}},{"properties":{"zip":"40509","store name":"HH Gregg KY5","geo_score":0.857,"street name":"1937 Star Shoot Parkway","id":"a672t7l3hkfq","geo_precision":"zip","state":"KY"},"type":"Feature","geometry":{"type":"Point","coordinates":[-84.372883,37.986629]}},{"properties":{"zip":"42104","store name":"HH Gregg KY6","geo_score":0.857,"street name":"2475 Scottsville Rd","id":"a672t7o1wj66","geo_precision":"zip","state":"KY"},"type":"Feature","geometry":{"type":"Point","coordinates":[-86.436936,36.916708]}},{"properties":{"zip":"21740","store name":"HH Gregg MD1","geo_score":0.857,"street name":"17766 Garland Groh Blvd.","id":"a672t7stz4rt","geo_precision":"zip","state":"MD"},"type":"Feature","geometry":{"type":"Point","coordinates":[-77.738605,39.660651]}},{"properties":{"zip":"21401","store name":"HH Gregg MD10","geo_score":0.857,"street name":"150 Jennifer Rd, Suite A","id":"a672t7sjvtpv","geo_precision":"zip","state":"MD"},"type":"Feature","geometry":{"type":"Point","coordinates":[-76.462738,39.020945]}},{"properties":{"zip":"21014","store name":"HH Gregg MD11","geo_score":0.857,"street name":"680 Marketplace Dr.","id":"a672t7zd9a4g","geo_precision":"zip","state":"MD"},"type":"Feature","geometry":{"type":"Point","coordinates":[-76.339404,39.520941]}},{"properties":{"zip":"21704","store name":"HH Gregg MD2","geo_score":0.857,"street name":"7320 Guilford Drive","id":"a672t7lupvhm","geo_precision":"zip","state":"MD"},"type":"Feature","geometry":{"type":"Point","coordinates":[-77.383229,39.345477]}},{"properties":{"zip":"20852","store name":"HH Gregg MD3","geo_score":0.857,"street name":"1501 Rockville Pike","id":"a672t7ois40w","geo_precision":"zip","state":"MD"},"type":"Feature","geometry":{"type":"Point","coordinates":[-77.108034,39.037331]}},{"properties":{"zip":"20774","store name":"HH Gregg MD4","geo_score":0.857,"street name":"1020 Shoppers Way","id":"a672t7l6m9cg","geo_precision":"zip","state":"MD"},"type":"Feature","geometry":{"type":"Point","coordinates":[-76.83886,38.937611]}},{"properties":{"zip":"20601","store name":"HH Gregg MD5","geo_score":0.857,"street name":"3000 Festival Way","id":"a672t7rsouk2","geo_precision":"zip","state":"MD"},"type":"Feature","geometry":{"type":"Point","coordinates":[-76.974419,38.672617]}},{"properties":{"zip":"21228","store name":"HH Gregg MD6","geo_score":0.857,"street name":"6026 Baltimore National Pike","id":"a672t7y0tfrg","geo_precision":"zip","state":"MD"},"type":"Feature","geometry":{"type":"Point","coordinates":[-76.738861,39.296773]}},{"properties":{"zip":"21076","store name":"HH Gregg MD7","geo_score":0.857,"street name":"7667 Arundel Mills Blvd.","id":"a672t7qfd2ah","geo_precision":"zip","state":"MD"},"type":"Feature","geometry":{"type":"Point","coordinates":[-76.697192,39.181775]}},{"properties":{"zip":"21286","store name":"HH Gregg MD8","geo_score":0.857,"street name":"803 Goucher Blvd. #102","id":"a672t7t3sudo","geo_precision":"zip","state":"MD"},"type":"Feature","geometry":{"type":"Point","coordinates":[-76.601079,39.386496]}},{"properties":{"zip":"21061","store name":"HH Gregg MD9","geo_score":0.857,"street name":"6711 Ritchie Hwy","id":"a672t7vnlq6g","geo_precision":"zip","state":"MD"},"type":"Feature","geometry":{"type":"Point","coordinates":[-76.649134,39.192608]}},{"properties":{"zip":"38671","store name":"HH Gregg MS1","geo_score":0.857,"street name":"6680 Southcrest Pkwy","id":"a672t7ufqew2","geo_precision":"zip","state":"MS"},"type":"Feature","geometry":{"type":"Point","coordinates":[-89.99624,34.956633]}},{"properties":{"zip":"28805","store name":"HH Gregg NC1","geo_score":0.857,"street name":"80 South Tunnel Road, Unit 10","id":"a672t7tqat7o","geo_precision":"zip","state":"NC"},"type":"Feature","geometry":{"type":"Point","coordinates":[-82.471512,35.592892]}},{"properties":{"zip":"28105","store name":"HH Gregg NC10","geo_score":0.857,"street name":"2314 Matthews Township Parkway","id":"a672t7uzu9xk","geo_precision":"zip","state":"NC"},"type":"Feature","geometry":{"type":"Point","coordinates":[-80.760904,35.022371]}},{"properties":{"zip":"27713","store name":"HH Gregg NC11","geo_score":0.857,"street name":"8160 Renaissance Parkway","id":"a672t7n9d161","geo_precision":"zip","state":"NC"},"type":"Feature","geometry":{"type":"Point","coordinates":[-78.917768,35.911215]}},{"properties":{"zip":"27617","store name":"HH Gregg NC12","geo_score":0.857,"street name":"7801 Alexander Promenade Place","id":"a672t7yqx82v","geo_precision":"zip","state":"NC"},"type":"Feature","geometry":{"type":"Point","coordinates":[-78.751408,35.894056]}},{"properties":{"zip":"27502","store name":"HH Gregg NC13","geo_score":0.857,"street name":"1275 Haddon Hall Road","id":"a672t7q4fxrj","geo_precision":"zip","state":"NC"},"type":"Feature","geometry":{"type":"Point","coordinates":[-78.857507,35.789317]}},{"properties":{"zip":"27518","store name":"HH Gregg NC14","geo_score":0.857,"street name":"1401 Piney Plains Road","id":"a672t7xiggbi","geo_precision":"zip","state":"NC"},"type":"Feature","geometry":{"type":"Point","coordinates":[-78.625265,35.797692]}},{"properties":{"zip":"27616","store name":"HH Gregg NC15","geo_score":0.857,"street name":"6180 Capital Blvd","id":"a672t7rw81tz","geo_precision":"zip","state":"NC"},"type":"Feature","geometry":{"type":"Point","coordinates":[-78.688301,35.805765]}},{"properties":{"zip":"28314","store name":"HH Gregg NC16","geo_score":0.857,"street name":"1912 Skibo Road","id":"a672t7nfrju9","geo_precision":"zip","state":"NC"},"type":"Feature","geometry":{"type":"Point","coordinates":[-79.011328,35.05425]}},{"properties":{"zip":"28405","store name":"HH Gregg NC17","geo_score":0.857,"street name":"830 Inspiration Drive","id":"a672t7y1nv9w","geo_precision":"zip","state":"NC"},"type":"Feature","geometry":{"type":"Point","coordinates":[-77.818594,34.272392]}},{"properties":{"zip":"28602","store name":"HH Gregg NC2","geo_score":0.857,"street name":"1843 Catawba Valley Blvd SE","id":"a672t7st4w7t","geo_precision":"zip","state":"NC"},"type":"Feature","geometry":{"type":"Point","coordinates":[-81.368976,35.683188]}},{"properties":{"zip":"28117","store name":"HH Gregg NC3","geo_score":0.857,"street name":"657 River Highway","id":"a672t7ny28t8","geo_precision":"zip","state":"NC"},"type":"Feature","geometry":{"type":"Point","coordinates":[-80.868463,35.583962]}},{"properties":{"zip":"27103","store name":"HH Gregg NC4","geo_score":0.857,"street name":"2051 Griffith Rd","id":"a672t7t93esx","geo_precision":"zip","state":"NC"},"type":"Feature","geometry":{"type":"Point","coordinates":[-80.343664,36.027081]}},{"properties":{"zip":"28056","store name":"HH Gregg NC5","geo_score":0.857,"street name":"3940 E. Franklin Blvd","id":"a672t7q8f5df","geo_precision":"zip","state":"NC"},"type":"Feature","geometry":{"type":"Point","coordinates":[-81.169072,35.242038]}},{"properties":{"zip":"28269","store name":"HH Gregg NC6","geo_score":0.857,"street name":"7024 Smith Corners Blvd","id":"a672t7snyzet","geo_precision":"zip","state":"NC"},"type":"Feature","geometry":{"type":"Point","coordinates":[-80.798583,35.331981]}},{"properties":{"zip":"27407","store name":"HH Gregg NC7","geo_score":0.857,"street name":"5400 Hornaday Rd","id":"a672t7srklay","geo_precision":"zip","state":"NC"},"type":"Feature","geometry":{"type":"Point","coordinates":[-79.896979,36.014858]}},{"properties":{"zip":"28027","store name":"HH Gregg NC8","geo_score":0.857,"street name":"8054 Concord Mills Blvd","id":"a672t7lv1ebn","geo_precision":"zip","state":"NC"},"type":"Feature","geometry":{"type":"Point","coordinates":[-80.658405,35.410688]}},{"properties":{"zip":"28273","store name":"HH Gregg NC9","geo_score":0.857,"street name":"9509 South Blvd","id":"a672t7ta73aj","geo_precision":"zip","state":"NC"},"type":"Feature","geometry":{"type":"Point","coordinates":[-80.933793,35.128678]}},{"properties":{"zip":"08096","store name":"HH Gregg NJ1","geo_score":0.857,"street name":"2000 Clements Bridge Rd. Suite 101","id":"a672t7pewjsp","geo_precision":"zip","state":"NJ"},"type":"Feature","geometry":{"type":"Point","coordinates":[-75.137121,39.84178]}},{"properties":{"zip":"08648","store name":"HH Gregg NJ2","geo_score":0.857,"street name":"3371 US Hwy 1 Space 34","id":"a672t7omaxyl","geo_precision":"zip","state":"NJ"},"type":"Feature","geometry":{"type":"Point","coordinates":[-74.734605,40.253164]}},{"properties":{"zip":"08330","store name":"HH Gregg NJ3","geo_score":0.857,"street name":"4215 Black Horse Pike Unit 31","id":"a672t7x2509x","geo_precision":"zip","state":"NJ"},"type":"Feature","geometry":{"type":"Point","coordinates":[-74.778776,39.515117]}},{"properties":{"zip":"45251","store name":"HH Gregg OH1","geo_score":0.857,"street name":"9930 Colerain Ave","id":"a672t7wr8o3o","geo_precision":"zip","state":"OH"},"type":"Feature","geometry":{"type":"Point","coordinates":[-84.599285,39.267157]}},{"properties":{"zip":"45245","store name":"HH Gregg OH10","geo_score":0.857,"street name":"4468 Eastgate Blvd","id":"a672t7y5skk8","geo_precision":"zip","state":"OH"},"type":"Feature","geometry":{"type":"Point","coordinates":[-84.288271,39.062284]}},{"properties":{"zip":"43026","store name":"HH Gregg OH11","geo_score":0.857,"street name":"1881 Hilliard Rome Rd","id":"a672t7navbws","geo_precision":"zip","state":"OH"},"type":"Feature","geometry":{"type":"Point","coordinates":[-83.182135,40.002285]}},{"properties":{"zip":"43235","store name":"HH Gregg OH12","geo_score":0.857,"street name":"6440 Sawmill Road","id":"a672t7uo7jw1","geo_precision":"zip","state":"OH"},"type":"Feature","geometry":{"type":"Point","coordinates":[-82.974204,40.108836]}},{"properties":{"zip":"43123","store name":"HH Gregg OH13","geo_score":0.857,"street name":"1700 Buckeye Place","id":"a672t7zfpe82","geo_precision":"zip","state":"OH"},"type":"Feature","geometry":{"type":"Point","coordinates":[-83.086853,39.897563]}},{"properties":{"zip":"43219","store name":"HH Gregg OH14","geo_score":0.857,"street name":"4099 Easton Loop West","id":"a672t7lteyg7","geo_precision":"zip","state":"OH"},"type":"Feature","geometry":{"type":"Point","coordinates":[-82.910251,40.032615]}},{"properties":{"zip":"45601","store name":"HH Gregg OH15","geo_score":0.857,"street name":"1059 N. Bridge Street","id":"a672t7uk3756","geo_precision":"zip","state":"OH"},"type":"Feature","geometry":{"type":"Point","coordinates":[-83.009627,39.504228]}},{"properties":{"zip":"43068","store name":"HH Gregg OH16","geo_score":0.857,"street name":"2339 Taylor Park Drive","id":"a672t7lzh3mh","geo_precision":"zip","state":"OH"},"type":"Feature","geometry":{"type":"Point","coordinates":[-82.883511,39.933953]}},{"properties":{"zip":"43055","store name":"HH Gregg OH17","geo_score":0.857,"street name":"901 Hebron Road","id":"a672t7uhcup5","geo_precision":"zip","state":"OH"},"type":"Feature","geometry":{"type":"Point","coordinates":[-82.429322,40.125898]}},{"properties":{"zip":"44906","store name":"HH Gregg OH18","geo_score":0.857,"street name":"919 N. Lexington-Springmill Rd","id":"a672t7plpwff","geo_precision":"zip","state":"OH"},"type":"Feature","geometry":{"type":"Point","coordinates":[-82.542671,40.788668]}},{"properties":{"zip":"43701","store name":"HH Gregg OH19","geo_score":0.857,"street name":"3528 Maple Ave","id":"a672t7z2r18r","geo_precision":"zip","state":"OH"},"type":"Feature","geometry":{"type":"Point","coordinates":[-81.986804,39.841457]}},{"properties":{"zip":"45011","store name":"HH Gregg OH2","geo_score":0.857,"street name":"3175 Princeton Rd","id":"a672t7lypzm5","geo_precision":"zip","state":"OH"},"type":"Feature","geometry":{"type":"Point","coordinates":[-84.529946,39.441168]}},{"properties":{"zip":"44070","store name":"HH Gregg OH20","geo_score":0.857,"street name":"4706 Great Northern Blvd","id":"a672t7qqsk4l","geo_precision":"zip","state":"OH"},"type":"Feature","geometry":{"type":"Point","coordinates":[-81.922461,41.417347]}},{"properties":{"zip":"44321","store name":"HH Gregg OH21","geo_score":0.857,"street name":"160 Rothrock Road","id":"a672t7ovmp43","geo_precision":"zip","state":"OH"},"type":"Feature","geometry":{"type":"Point","coordinates":[-81.644569,41.098944]}},{"properties":{"zip":"44129","store name":"HH Gregg OH22","geo_score":0.857,"street name":"7200 Brookpark Road","id":"a672t7x2n1lm","geo_precision":"zip","state":"OH"},"type":"Feature","geometry":{"type":"Point","coordinates":[-81.722909,41.404774]}},{"properties":{"zip":"44720","store name":"HH Gregg OH23","geo_score":0.857,"street name":"5509 Dressler Road","id":"a672t7qdgxs6","geo_precision":"zip","state":"OH"},"type":"Feature","geometry":{"type":"Point","coordinates":[-81.405391,40.907835]}},{"properties":{"zip":"44310","store name":"HH Gregg OH24","geo_score":0.857,"street name":"1850 Buchholzer Blvd","id":"a672t7yerc1z","geo_precision":"zip","state":"OH"},"type":"Feature","geometry":{"type":"Point","coordinates":[-81.498182,41.105505]}},{"properties":{"zip":"44128","store name":"HH Gregg OH25","geo_score":0.857,"street name":"4910 Northfield Road","id":"a672t7mg56rg","geo_precision":"zip","state":"OH"},"type":"Feature","geometry":{"type":"Point","coordinates":[-81.525677,41.434776]}},{"properties":{"zip":"44124","store name":"HH Gregg OH26","geo_score":0.857,"street name":"1536 Golden Gate Plaza","id":"a672t7lu7ldw","geo_precision":"zip","state":"OH"},"type":"Feature","geometry":{"type":"Point","coordinates":[-81.46373,41.478387]}},{"properties":{"zip":"44060","store name":"HH Gregg OH27","geo_score":0.857,"street name":"7900 Plaza Boulevard","id":"a672t7wusjtp","geo_precision":"zip","state":"OH"},"type":"Feature","geometry":{"type":"Point","coordinates":[-81.311772,41.739766]}},{"properties":{"zip":"45238","store name":"HH Gregg OH3","geo_score":0.857,"street name":"5111 Glencrossing Way","id":"a672t7pqwoak","geo_precision":"zip","state":"OH"},"type":"Feature","geometry":{"type":"Point","coordinates":[-84.612723,39.092837]}},{"properties":{"zip":"45246","store name":"HH Gregg OH4","geo_score":0.857,"street name":"650 Kemper Commons Circle","id":"a672t7lngm0r","geo_precision":"zip","state":"OH"},"type":"Feature","geometry":{"type":"Point","coordinates":[-84.485221,39.287002]}},{"properties":{"zip":"45449","store name":"HH Gregg OH5","geo_score":0.857,"street name":"240 Springboro Pike State Rd 741","id":"a672t7vzgy8o","geo_precision":"zip","state":"OH"},"type":"Feature","geometry":{"type":"Point","coordinates":[-84.24009,39.665109]}},{"properties":{"zip":"45356","store name":"HH Gregg OH6","geo_score":0.857,"street name":"1258 E. Ash St","id":"a672t7y8ptsr","geo_precision":"zip","state":"OH"},"type":"Feature","geometry":{"type":"Point","coordinates":[-84.233834,40.208106]}},{"properties":{"zip":"45249","store name":"HH Gregg OH7","geo_score":0.857,"street name":"4786 Fields Ertel Road","id":"a672t7nbgkt5","geo_precision":"zip","state":"OH"},"type":"Feature","geometry":{"type":"Point","coordinates":[-84.330686,39.269226]}},{"properties":{"zip":"45424","store name":"HH Gregg OH8","geo_score":0.857,"street name":"5545 Executive Blvd","id":"a672t7vwwoj7","geo_precision":"zip","state":"OH"},"type":"Feature","geometry":{"type":"Point","coordinates":[-84.10466,39.860891]}},{"properties":{"zip":"45431","store name":"HH Gregg OH9","geo_score":0.857,"street name":"2500 N. Fairfield D-2","id":"a672t7yvptcv","geo_precision":"zip","state":"OH"},"type":"Feature","geometry":{"type":"Point","coordinates":[-84.057435,39.727837]}},{"properties":{"zip":"16509","store name":"HH Gregg PA1","geo_score":0.857,"street name":"7451 Peach Street Suite C","id":"a672t7vail92","geo_precision":"zip","state":"PA"},"type":"Feature","geometry":{"type":"Point","coordinates":[-80.201452,42.068391]}},{"properties":{"zip":"18052","store name":"HH Gregg PA10","geo_score":0.857,"street name":"740 Lehigh Valley Mall","id":"a672t7syvb2x","geo_precision":"zip","state":"PA"},"type":"Feature","geometry":{"type":"Point","coordinates":[-75.47435,40.645653]}},{"properties":{"zip":"19312","store name":"HH Gregg PA11","geo_score":0.857,"street name":"400 West Swedesford Rd.","id":"a672t7z6tq96","geo_precision":"zip","state":"PA"},"type":"Feature","geometry":{"type":"Point","coordinates":[-75.452142,40.020665]}},{"properties":{"zip":"19454","store name":"HH Gregg PA12","geo_score":0.857,"street name":"1251 Knapp Road","id":"a672t7pmj9h9","geo_precision":"zip","state":"PA"},"type":"Feature","geometry":{"type":"Point","coordinates":[-75.192118,40.244552]}},{"properties":{"zip":"19047","store name":"HH Gregg PA13","geo_score":0.857,"street name":"2424 E Lincoln Hwy Ste 100","id":"a672t7lfkasx","geo_precision":"zip","state":"PA"},"type":"Feature","geometry":{"type":"Point","coordinates":[-74.888777,40.192331]}},{"properties":{"zip":"17050","store name":"HH Gregg PA2","geo_score":0.857,"street name":"5800 Carlisle Pike","id":"a672t7kxrh7w","geo_precision":"zip","state":"PA"},"type":"Feature","geometry":{"type":"Point","coordinates":[-77.005116,40.210952]}},{"properties":{"zip":"17112","store name":"HH Gregg PA3","geo_score":0.857,"street name":"5125 Jonestown Rd. Suite 355","id":"a672t7radykj","geo_precision":"zip","state":"PA"},"type":"Feature","geometry":{"type":"Point","coordinates":[-76.725525,40.339256]}},{"properties":{"zip":"17404","store name":"HH Gregg PA4","geo_score":0.857,"street name":"351 Loucks Rd. Bldg. B","id":"a672t7ot2ktt","geo_precision":"zip","state":"PA"},"type":"Feature","geometry":{"type":"Point","coordinates":[-76.768301,40.052874]}},{"properties":{"zip":"17601","store name":"HH Gregg PA5","geo_score":0.857,"street name":"1700 Fruitville Pike, Suite G","id":"a672t80qv0l5","geo_precision":"zip","state":"PA"},"type":"Feature","geometry":{"type":"Point","coordinates":[-76.296903,40.056208]}},{"properties":{"zip":"19610","store name":"HH Gregg PA6","geo_score":0.857,"street name":"1101 Woodland Ave. Suite 4000","id":"a672t7pvriiy","geo_precision":"zip","state":"PA"},"type":"Feature","geometry":{"type":"Point","coordinates":[-75.965212,40.329537]}},{"properties":{"zip":"18702","store name":"HH Gregg PA7","geo_score":0.857,"street name":"101 Wyoming Valley Mall, Suite 900","id":"a672t7uopygl","geo_precision":"zip","state":"PA"},"type":"Feature","geometry":{"type":"Point","coordinates":[-75.859458,41.233542]}},{"properties":{"zip":"19335","store name":"HH Gregg PA8","geo_score":0.857,"street name":"10 Quarry Road","id":"a672t7wwqww3","geo_precision":"zip","state":"PA"},"type":"Feature","geometry":{"type":"Point","coordinates":[-75.672161,39.981775]}},{"properties":{"zip":"18519","store name":"HH Gregg PA9","geo_score":0.857,"street name":"620 Commerce Blvd.","id":"a672t7mf0who","geo_precision":"zip","state":"PA"},"type":"Feature","geometry":{"type":"Point","coordinates":[-75.629099,41.463118]}},{"properties":{"zip":"29607","store name":"HH Gregg SC1","geo_score":0.857,"street name":"36 Park Woodruff Drive","id":"a672t7y2cdve","geo_precision":"zip","state":"SC"},"type":"Feature","geometry":{"type":"Point","coordinates":[-82.333173,34.903728]}},{"properties":{"zip":"29301","store name":"HH Gregg SC2","geo_score":0.857,"street name":"108 Franklin Ave Unit B","id":"a672t7kqhlfe","geo_precision":"zip","state":"SC"},"type":"Feature","geometry":{"type":"Point","coordinates":[-81.99316,34.925122]}},{"properties":{"zip":"29621","store name":"HH Gregg SC3","geo_score":0.857,"street name":"162 Station Dr","id":"a672t7wdppb1","geo_precision":"zip","state":"SC"},"type":"Feature","geometry":{"type":"Point","coordinates":[-82.638297,34.492718]}},{"properties":{"zip":"29212","store name":"HH Gregg SC4","geo_score":0.857,"street name":"1130 Bower Parkway","id":"a672t7wfctpx","geo_precision":"zip","state":"SC"},"type":"Feature","geometry":{"type":"Point","coordinates":[-81.197778,34.020988]}},{"properties":{"zip":"29223","store name":"HH Gregg SC5","geo_score":0.857,"street name":"230 Forum Dr","id":"a672t7wtpklp","geo_precision":"zip","state":"SC"},"type":"Feature","geometry":{"type":"Point","coordinates":[-80.924638,34.099488]}},{"properties":{"zip":"29406","store name":"HH Gregg SC6","geo_score":0.857,"street name":"2150 Morris Baker Blvd","id":"a672t80e3jsb","geo_precision":"zip","state":"SC"},"type":"Feature","geometry":{"type":"Point","coordinates":[-79.977587,32.892952]}},{"properties":{"zip":"37040","store name":"HH Gregg TN1","geo_score":0.857,"street name":"2886 Wilma Rudolph Blvd","id":"a672t7ycmy43","geo_precision":"zip","state":"TN"},"type":"Feature","geometry":{"type":"Point","coordinates":[-87.184727,36.463938]}},{"properties":{"zip":"37421","store name":"HH Gregg TN10","geo_score":0.857,"street name":"2565 Lifestyle Way","id":"a672t7m5e2r7","geo_precision":"zip","state":"TN"},"type":"Feature","geometry":{"type":"Point","coordinates":[-85.149953,35.057574]}},{"properties":{"zip":"38133","store name":"HH Gregg TN11","geo_score":0.857,"street name":"8045 Giacosa Dr","id":"a672t7lc84ev","geo_precision":"zip","state":"TN"},"type":"Feature","geometry":{"type":"Point","coordinates":[-89.791656,35.208941]}},{"properties":{"zip":"37115","store name":"HH Gregg TN2","geo_score":0.857,"street name":"2190 Gallatin Pike N.","id":"a672t7yj14br","geo_precision":"zip","state":"TN"},"type":"Feature","geometry":{"type":"Point","coordinates":[-86.71972,36.248109]}},{"properties":{"zip":"37122","store name":"HH Gregg TN3","geo_score":0.857,"street name":"56 Belinda Parkway","id":"a672t7rfu8l5","geo_precision":"zip","state":"TN"},"type":"Feature","geometry":{"type":"Point","coordinates":[-86.495271,36.11867]}},{"properties":{"zip":"37204","store name":"HH Gregg TN4","geo_score":0.857,"street name":"719 Thompson Lane #1","id":"a672t7sk0r3d","geo_precision":"zip","state":"TN"},"type":"Feature","geometry":{"type":"Point","coordinates":[-86.766388,36.117003]}},{"properties":{"zip":"37064","store name":"HH Gregg TN5","geo_score":0.857,"street name":"1735 Galleria Blvd","id":"a672t7nlwtfo","geo_precision":"zip","state":"TN"},"type":"Feature","geometry":{"type":"Point","coordinates":[-86.926391,35.892565]}},{"properties":{"zip":"37129","store name":"HH Gregg TN6","geo_score":0.857,"street name":"468 N. Thompson Lane","id":"a672t7wwyzb9","geo_precision":"zip","state":"TN"},"type":"Feature","geometry":{"type":"Point","coordinates":[-86.423535,35.901746]}},{"properties":{"zip":"37912","store name":"HH Gregg TN7","geo_score":0.857,"street name":"6741 Clinton Highway","id":"a672t7novga5","geo_precision":"zip","state":"TN"},"type":"Feature","geometry":{"type":"Point","coordinates":[-84.011578,36.012859]}},{"properties":{"zip":"37922","store name":"HH Gregg TN8","geo_score":0.857,"street name":"11370 Parkside Dr","id":"a672t7v5xmm1","geo_precision":"zip","state":"TN"},"type":"Feature","geometry":{"type":"Point","coordinates":[-84.167416,35.884246]}},{"properties":{"zip":"37604","store name":"HH Gregg TN9","geo_score":0.857,"street name":"3211 Peoples Street, Unit 1","id":"a672t7u1fhmd","geo_precision":"zip","state":"TN"},"type":"Feature","geometry":{"type":"Point","coordinates":[-82.387422,36.308229]}},{"properties":{"zip":"24012","store name":"HH Gregg VA1","geo_score":0.857,"street name":"1900 Valley View Blvd. NW","id":"a672t7vgi4ps","geo_precision":"zip","state":"VA"},"type":"Feature","geometry":{"type":"Point","coordinates":[-79.865871,37.32597]}},{"properties":{"zip":"22041","store name":"HH Gregg VA10","geo_score":0.857,"street name":"5718 Columbia Pike","id":"a672t7s7wqh8","geo_precision":"zip","state":"VA"},"type":"Feature","geometry":{"type":"Point","coordinates":[-77.150258,38.841501]}},{"properties":{"zip":"23113","store name":"HH Gregg VA11","geo_score":0.857,"street name":"1321 Hugenot Rd.","id":"a672t7qbl22x","geo_precision":"zip","state":"VA"},"type":"Feature","geometry":{"type":"Point","coordinates":[-77.71166,37.568203]}},{"properties":{"zip":"23834","store name":"HH Gregg VA12","geo_score":0.857,"street name":"820 Southpark Blvd.","id":"a672t7xoq11t","geo_precision":"zip","state":"VA"},"type":"Feature","geometry":{"type":"Point","coordinates":[-77.411372,37.285428]}},{"properties":{"zip":"23602","store name":"HH Gregg VA13","geo_score":0.857,"street name":"12140 Jefferson Ave.","id":"a672t7nkym1q","geo_precision":"zip","state":"VA"},"type":"Feature","geometry":{"type":"Point","coordinates":[-76.539396,37.127924]}},{"properties":{"zip":"23320","store name":"HH Gregg VA14","geo_score":0.857,"street name":"1543 Sams Circle","id":"a672t7sopmjn","geo_precision":"zip","state":"VA"},"type":"Feature","geometry":{"type":"Point","coordinates":[-76.368554,36.653761]}},{"properties":{"zip":"23452","store name":"HH Gregg VA15","geo_score":0.857,"street name":"3421 Virginia Beach Blvd.","id":"a672t7u9p6gb","geo_precision":"zip","state":"VA"},"type":"Feature","geometry":{"type":"Point","coordinates":[-76.100489,36.829593]}},{"properties":{"zip":"22601","store name":"HH Gregg VA2","geo_score":0.857,"street name":"2580 South Pleasant Valley Rd.","id":"a672t7z0roo4","geo_precision":"zip","state":"VA"},"type":"Feature","geometry":{"type":"Point","coordinates":[-78.399729,39.147049]}},{"properties":{"zip":"20109","store name":"HH Gregg VA3","geo_score":0.857,"street name":"7412 Stream Walk Lane","id":"a672t7qwsp1i","geo_precision":"zip","state":"VA"},"type":"Feature","geometry":{"type":"Point","coordinates":[-77.493092,38.763215]}},{"properties":{"zip":"20164","store name":"HH Gregg VA4","geo_score":0.857,"street name":"46301 Potomac Run Plaza #120","id":"a672t7puemx9","geo_precision":"zip","state":"VA"},"type":"Feature","geometry":{"type":"Point","coordinates":[-77.399367,39.023047]}},{"properties":{"zip":"22033","store name":"HH Gregg VA5","geo_score":0.857,"street name":"12189 Fair Lakes Promenade Dr","id":"a672t7vk7x09","geo_precision":"zip","state":"VA"},"type":"Feature","geometry":{"type":"Point","coordinates":[-77.378858,38.879466]}},{"properties":{"zip":"22401","store name":"HH Gregg VA6","geo_score":0.857,"street name":"1731 Carl D. Silver Pkwy","id":"a672t7zok2tr","geo_precision":"zip","state":"VA"},"type":"Feature","geometry":{"type":"Point","coordinates":[-77.37526,38.300683]}},{"properties":{"zip":"22192","store name":"HH Gregg VA7","geo_score":0.857,"street name":"14500 Potomac Mills Road","id":"a672t7kb2cni","geo_precision":"zip","state":"VA"},"type":"Feature","geometry":{"type":"Point","coordinates":[-77.297762,38.687894]}},{"properties":{"zip":"23233","store name":"HH Gregg VA8","geo_score":0.857,"street name":"11732 West Broad Street","id":"a672t803dvhz","geo_precision":"zip","state":"VA"},"type":"Feature","geometry":{"type":"Point","coordinates":[-77.662213,37.577369]}},{"properties":{"zip":"22150","store name":"HH Gregg VA9","geo_score":0.857,"street name":"6640 Loisdale Road","id":"a672t80q73iv","geo_precision":"zip","state":"VA"},"type":"Feature","geometry":{"type":"Point","coordinates":[-77.214983,38.776502]}}],"is_temporal":false,"author":{"url":"","metadata":"","contact_name":"","contact_address":"","source":"","contact_phone":""},"source":"","pagination":{"sort":null,"start":0,"total":173,"limit":1000000},"state":"complete","tags":"retail","published":"2010-12-23T17:00:00Z","id":81863}