{"type":"FeatureCollection","data_type":"Dataset","url_type":null,"permissions":[{"permissions":{"download":true,"view":true},"group_id":"everyone"}],"classification":null,"title":"Major Shopping Centers, Delaware, 12.2008","count":6,"stream_id":8206,"contributor":{"url":"http://geocommons.com/users/139","name":"Burkey"},"data_attributes":null,"calculation_params":null,"icon_link":null,"link":"http://geocommons.com/overlays/8206.json","extent":[-75.6508,38.5701,-75.1128,39.823],"geometry_types":["point"],"unique_name":null,"name":"Major Shopping Centers, Delaware, 12.2008","feature_count":6,"description":"This dataset displays the locations of major shopping centers that are found throughout the state of Delaware as of 12.2008. The data comes from Visit Delaware and includes: shopping center name, address, city, state, zip, phone, website, and lat/lon location. The lat/lon location was determined by using google earth to manually record the the lat/lons using the google earth satelittle imagery. This is not a complete and many centers may still be missing.\n","next_feature":null,"is_raster":false,"short_classification":"Y","stats":{"lon":{"max":-75.112784,"mean":-75.4950663333333,"variance":0.036728185583066,"stdev":0.191645990260861,"min":-75.650817,"median":-75.543419},"zip":{"max":19971,"mean":19855.6666666667,"variance":10959.8666666667,"stdev":104.689381823883,"min":19702,"median":19901},"lat":{"max":39.823041,"mean":39.285501,"variance":0.296122958156001,"stdev":0.544171809409493,"min":38.570144,"median":39.677746}},"features":[{"properties":{"city":"Laurel","lon":-75.561112,"zip":19956,"center":"Bargain Bill's Flea Market","website":"www.bargainbill.com","phone":"302-875-9958","id":"a62adjrkresd","address":"10912 County Seat Hwy","lat":38.570144,"state":"DE"},"type":"Feature","geometry":{"type":"Point","coordinates":[-75.561112,38.570144]}},{"properties":{"city":"Newark","lon":-75.650817,"zip":19702,"center":"Christiana Mall","website":"www.shopchristianamall.com","phone":"302 731-9815","id":"a62adjn7hy9a","address":"715 Christiana Mall","lat":39.677746,"state":"DE"},"type":"Feature","geometry":{"type":"Point","coordinates":[-75.650817,39.677746]}},{"properties":{"city":"Wilmington","lon":-75.543419,"zip":19803,"center":"Concord Mall","website":"www.alliedretailprop.com","phone":"302-478-9271","id":"a62adje00n9m","address":"4737 Concord Pike","lat":39.823041,"state":"DE"},"type":"Feature","geometry":{"type":"Point","coordinates":[-75.543419,39.823041]}},{"properties":{"city":"Dover","lon":-75.539821,"zip":19901,"center":"Dover Mall","website":"www.dovermall.com","phone":"302-734-0415","id":"a62adjgacrun","address":"1365 N. DuPont Hwy","lat":39.194053,"state":"DE"},"type":"Feature","geometry":{"type":"Point","coordinates":[-75.539821,39.194053]}},{"properties":{"city":"Wilmington","lon":-75.562445,"zip":19801,"center":"Shipyard Shops","website":"www.riverfrontwilm.com","phone":"302-425-5000","id":"a62adjjv06dk","address":"900 S. Madison St","lat":39.72906,"state":"DE"},"type":"Feature","geometry":{"type":"Point","coordinates":[-75.562445,39.72906]}},{"properties":{"city":"Rehoboth Beach","lon":-75.112784,"zip":19971,"center":"Tanger Outlet Center","website":"www.tangeroutlet.com","phone":"866-665-8682","id":"a62adjim4b6f","address":"36470 Seaside Outlet Dr","lat":38.718962,"state":"DE"},"type":"Feature","geometry":{"type":"Point","coordinates":[-75.112784,38.718962]}}],"is_temporal":false,"author":{"url":"http://www.visitdelaware.com/attractionlocator.htm?s=generic&page=&evloc_activity=any&evloc_county=any&evloc_city=any&evloc_begindate=&evloc_enddate=","metadata":"","contact_name":"","contact_address":"","source":"Visit Delaware","contact_phone":""},"source":"http://www.visitdelaware.com/attractionlocator.htm?s=generic&page=&evloc_activity=any&evloc_county=any&evloc_city=any&evloc_begindate=&evloc_enddate=","pagination":{"sort":null,"start":0,"total":6,"limit":1000000},"state":"complete","tags":"delaware,outlets,retail,shopping,shops","published":"2008-12-12T12:00:00Z","id":8206}