{"type":"FeatureCollection","data_type":"Dataset","url_type":null,"permissions":[{"permissions":{"download":true,"view":true},"group_id":"everyone"}],"classification":null,"title":"Graffiti","count":6,"stream_id":82321,"contributor":{"url":"http://geocommons.com/users/20083","name":"LPDGraffiti@GMail.com"},"data_attributes":null,"calculation_params":null,"icon_link":null,"link":"http://geocommons.com/overlays/82321.json","extent":[-170.799,-14.3367,-89.9647,35.9234],"geometry_types":["point"],"unique_name":null,"name":"Graffiti","feature_count":6,"description":"","next_feature":null,"is_raster":false,"short_classification":"Y","stats":{"geo_score":{"max":0.561,"mean":0.462666666666667,"variance":0.00381586666666667,"stdev":0.0617727016299811,"min":0.398,"median":0.484}},"features":[{"properties":{"city":"Lynnwood","cleaned":"Yes","geo_score":0.398,"id":"a6saso0nulbw","geo_precision":"city","location":"17714 44th Ave W","state":"Washington"},"type":"Feature","geometry":{"type":"Point","coordinates":[-170.799167,-14.336667]}},{"properties":{"city":"Lynnwood","cleaned":"Partial","geo_score":0.398,"id":"a6saso2un7w7","geo_precision":"city","location":"17816 44th Ave W","state":"Washington"},"type":"Feature","geometry":{"type":"Point","coordinates":[-170.799167,-14.336667]}},{"properties":{"city":"Lynnwood","cleaned":"No","geo_score":0.484,"id":"a6sasnzwc9v9","geo_precision":"street","location":"19500 36th Ave W","state":"Washington"},"type":"Feature","geometry":{"type":"Point","coordinates":[-155.01492,19.57572]}},{"properties":{"city":"Lynnwood","cleaned":"No","geo_score":0.484,"id":"a6saso0msrtr","geo_precision":"street","location":"19500 36th Ave W","state":"Washington"},"type":"Feature","geometry":{"type":"Point","coordinates":[-155.01492,19.57572]}},{"properties":{"city":"Lynnwood","cleaned":"No","geo_score":0.561,"id":"a6saso0o0rss","geo_precision":"street","location":"21301 HWY 99","state":"Washington"},"type":"Feature","geometry":{"type":"Point","coordinates":[-157.977499,21.396338]}},{"properties":{"city":"Lynnwood","cleaned":"Yes","geo_score":0.451,"id":"a6saso8xuxax","geo_precision":"street","location":"3815 196th St Sw","state":"Washington"},"type":"Feature","geometry":{"type":"Point","coordinates":[-89.9647,35.923414]}}],"is_temporal":false,"author":{"url":"","metadata":"","contact_name":"","contact_address":"","source":"","contact_phone":""},"source":"","pagination":{"sort":null,"start":0,"total":6,"limit":1000000},"state":"complete","tags":"","published":"2010-12-28T17:00:00Z","id":82321}