{"type":"FeatureCollection","data_type":"Dataset","url_type":null,"permissions":[{"permissions":{"download":true,"view":true},"group_id":"everyone"}],"classification":null,"title":"domestic us","count":201,"stream_id":82342,"contributor":{"url":"http://geocommons.com/users/20085","name":"sylvialy"},"data_attributes":null,"calculation_params":null,"icon_link":null,"link":"http://geocommons.com/overlays/82342.json","extent":[-157.858,21.3069,-70.2553,58.3736],"geometry_types":["point"],"unique_name":null,"name":"domestic us","feature_count":201,"description":"","next_feature":null,"is_raster":false,"short_classification":"Y","stats":{"geo_score":{"max":0.857,"mean":0.838477611940298,"variance":0.00135180074626865,"stdev":0.0367668430283136,"min":0.729,"median":0.857}},"features":[{"properties":{"city":"Aberdeen","geo_score":0.857,"id":"a6gdnkcnrc3n","geo_precision":"city","state":"MD"},"type":"Feature","geometry":{"type":"Point","coordinates":[-76.231177,39.499909]}},{"properties":{"city":"Addison","geo_score":0.857,"id":"a6gdnkbxc1cv","geo_precision":"city","state":"TX"},"type":"Feature","geometry":{"type":"Point","coordinates":[-96.777626,32.767268]}},{"properties":{"city":"Aiken","geo_score":0.857,"id":"a6gdnkcmru1l","geo_precision":"city","state":"SC"},"type":"Feature","geometry":{"type":"Point","coordinates":[-81.69588,33.554433]}},{"properties":{"city":"Alameda","geo_score":0.857,"id":"a6gdnkgj8sq0","geo_precision":"city","state":"CA"},"type":"Feature","geometry":{"type":"Point","coordinates":[-122.264779,37.770563]}},{"properties":{"city":"Albany","geo_score":0.857,"id":"a6gdnkj2dx6x","geo_precision":"city","state":"NY"},"type":"Feature","geometry":{"type":"Point","coordinates":[-73.756232,42.652579]}},{"properties":{"city":"Albuquerque","geo_score":0.857,"id":"a6gdnkac1iez","geo_precision":"city","state":"NM"},"type":"Feature","geometry":{"type":"Point","coordinates":[-106.651137,35.084491]}},{"properties":{"city":"Alexandria","geo_score":0.857,"id":"a6gdnk98k472","geo_precision":"city","state":"LA"},"type":"Feature","geometry":{"type":"Point","coordinates":[-92.445137,31.311294]}},{"properties":{"city":"Alpharetta","geo_score":0.757,"id":"a6gdnk6p8bgm","geo_precision":"city","state":"GA"},"type":"Feature","geometry":{"type":"Point","coordinates":[-83.92379,31.462401]}},{"properties":{"city":"Ann Arbor","geo_score":0.75,"id":"a6gdnkiax29a","geo_precision":"city","state":"MI"},"type":"Feature","geometry":{"type":"Point","coordinates":[-86.176715,42.96502]}},{"properties":{"city":"Annapolis","geo_score":0.857,"id":"a6gdnk8a9b4d","geo_precision":"city","state":"MD"},"type":"Feature","geometry":{"type":"Point","coordinates":[-76.492183,38.978445]}},{"properties":{"city":"Arlington","geo_score":0.857,"id":"a6gdnkdqub8o","geo_precision":"city","state":"VA"},"type":"Feature","geometry":{"type":"Point","coordinates":[-77.084145,38.89039]}},{"properties":{"city":"Atlanta","geo_score":0.857,"id":"a6gdnk6crdfv","geo_precision":"city","state":"GA"},"type":"Feature","geometry":{"type":"Point","coordinates":[-84.387982,33.748995]}},{"properties":{"city":"Augusta","geo_score":0.857,"id":"a6gdnk4wbwzp","geo_precision":"city","state":"GA"},"type":"Feature","geometry":{"type":"Point","coordinates":[-81.974838,33.47097]}},{"properties":{"city":"Aurora","geo_score":0.857,"id":"a6gdnkggwt4q","geo_precision":"city","state":"CO"},"type":"Feature","geometry":{"type":"Point","coordinates":[-104.83192,39.729432]}},{"properties":{"city":"Austin","geo_score":0.857,"id":"a6gdnki1psxx","geo_precision":"city","state":"TX"},"type":"Feature","geometry":{"type":"Point","coordinates":[-97.743061,30.267153]}},{"properties":{"city":"Bartow","geo_score":0.762,"id":"a6gdnkjxf201","geo_precision":"city","state":"FL"},"type":"Feature","geometry":{"type":"Point","coordinates":[-87.427479,30.965739]}},{"properties":{"city":"Batavia","geo_score":0.857,"id":"a6gdnkcl88fh","geo_precision":"city","state":"OH"},"type":"Feature","geometry":{"type":"Point","coordinates":[-84.157048,39.025905]}},{"properties":{"city":"Baton Rouge","geo_score":0.857,"id":"a6gdnkeuzu7v","geo_precision":"city","state":"LA"},"type":"Feature","geometry":{"type":"Point","coordinates":[-91.154551,30.450746]}},{"properties":{"city":"Beavercreek","geo_score":0.857,"id":"a6gdnk8wnbd4","geo_precision":"city","state":"OH"},"type":"Feature","geometry":{"type":"Point","coordinates":[-84.063269,39.709226]}},{"properties":{"city":"Bellevue","geo_score":0.857,"id":"a6gdnkch4enj","geo_precision":"city","state":"WA"},"type":"Feature","geometry":{"type":"Point","coordinates":[-122.207221,47.615471]}},{"properties":{"city":"Billings","geo_score":0.857,"id":"a6gdnkdw4ett","geo_precision":"city","state":"MT"},"type":"Feature","geometry":{"type":"Point","coordinates":[-108.50069,45.783286]}},{"properties":{"city":"Bloomington","geo_score":0.857,"id":"a6gdnk71s8vt","geo_precision":"city","state":"MN"},"type":"Feature","geometry":{"type":"Point","coordinates":[-93.29828,44.840798]}},{"properties":{"city":"Boise","geo_score":0.857,"id":"a6gdnk5s6aiy","geo_precision":"city","state":"ID"},"type":"Feature","geometry":{"type":"Point","coordinates":[-116.203451,43.6135]}},{"properties":{"city":"Boothwyn","geo_score":0.768,"id":"a6gdnkdla426","geo_precision":"city","state":"PA"},"type":"Feature","geometry":{"type":"Point","coordinates":[-75.284343,41.613143]}},{"properties":{"city":"Boston","geo_score":0.857,"id":"a6gdnk8wcst3","geo_precision":"city","state":"MA"},"type":"Feature","geometry":{"type":"Point","coordinates":[-71.059773,42.358431]}},{"properties":{"city":"Bothell","geo_score":0.857,"id":"a6gdnk5mswkc","geo_precision":"city","state":"WA"},"type":"Feature","geometry":{"type":"Point","coordinates":[-122.205404,47.76232]}},{"properties":{"city":"Boulder","geo_score":0.857,"id":"a6gdnkkxm64f","geo_precision":"city","state":"CO"},"type":"Feature","geometry":{"type":"Point","coordinates":[-105.250597,39.975263]}},{"properties":{"city":"Boynton Beach","geo_score":0.857,"id":"a6gdnkakaisd","geo_precision":"city","state":"FL"},"type":"Feature","geometry":{"type":"Point","coordinates":[-80.430269,26.645895]}},{"properties":{"city":"Bozeman","geo_score":0.857,"id":"a6gdnket9e1f","geo_precision":"city","state":"MT"},"type":"Feature","geometry":{"type":"Point","coordinates":[-111.168212,45.809998]}},{"properties":{"city":"Braintree","geo_score":0.786,"id":"a6gdnka84ddh","geo_precision":"city","state":"MA"},"type":"Feature","geometry":{"type":"Point","coordinates":[-71.011992,42.179266]}},{"properties":{"city":"Breckenridge","geo_score":0.857,"id":"a6gdnk89v9k4","geo_precision":"city","state":"CO"},"type":"Feature","geometry":{"type":"Point","coordinates":[-106.022472,39.475323]}},{"properties":{"city":"Brighton","geo_score":0.786,"id":"a6gdnkgxjgyj","geo_precision":"city","state":"MI"},"type":"Feature","geometry":{"type":"Point","coordinates":[-84.284696,43.007804]}},{"properties":{"city":"Brookfield","geo_score":0.857,"id":"a6gdnk5ygur8","geo_precision":"city","state":"WI"},"type":"Feature","geometry":{"type":"Point","coordinates":[-88.105906,43.062707]}},{"properties":{"city":"Buffalo","geo_score":0.857,"id":"a6gdnkbf3vzw","geo_precision":"city","state":"NY"},"type":"Feature","geometry":{"type":"Point","coordinates":[-78.878369,42.886447]}},{"properties":{"city":"Burlington","geo_score":0.78,"id":"a6gdnk9oz8fo","geo_precision":"city","state":"VT"},"type":"Feature","geometry":{"type":"Point","coordinates":[-72.575941,44.21006]}},{"properties":{"city":"Camarillo","geo_score":0.857,"id":"a6gdnkhnd7t7","geo_precision":"city","state":"CA"},"type":"Feature","geometry":{"type":"Point","coordinates":[-119.084253,34.307783]}},{"properties":{"city":"Cambridge","geo_score":0.813,"id":"a6gdnkchbb0r","geo_precision":"city","state":"MA"},"type":"Feature","geometry":{"type":"Point","coordinates":[-71.103663,42.358431]}},{"properties":{"city":"Casper","geo_score":0.857,"id":"a6gdnkhfg802","geo_precision":"city","state":"WY"},"type":"Feature","geometry":{"type":"Point","coordinates":[-106.313081,42.866632]}},{"properties":{"city":"Cedar Rapids","geo_score":0.857,"id":"a6gdnkkqz1yt","geo_precision":"city","state":"IA"},"type":"Feature","geometry":{"type":"Point","coordinates":[-91.644068,42.008333]}},{"properties":{"city":"Charleston","geo_score":0.857,"id":"a6gdnkkhjl8m","geo_precision":"city","state":"WV"},"type":"Feature","geometry":{"type":"Point","coordinates":[-81.632624,38.34982]}},{"properties":{"city":"Chicago","geo_score":0.857,"id":"a6gdnk5lmy18","geo_precision":"city","state":"IL"},"type":"Feature","geometry":{"type":"Point","coordinates":[-87.650052,41.850033]}},{"properties":{"city":"Chippewa Falls","geo_score":0.747,"id":"a6gdnkl1hk94","geo_precision":"city","state":"WI"},"type":"Feature","geometry":{"type":"Point","coordinates":[-89.234838,43.089719]}},{"properties":{"city":"Cincinnati","geo_score":0.857,"id":"a6gdnk8mev4s","geo_precision":"city","state":"OH"},"type":"Feature","geometry":{"type":"Point","coordinates":[-84.456886,39.162004]}},{"properties":{"city":"Clarksburg","geo_score":0.857,"id":"a6gdnk8xaex3","geo_precision":"city","state":"WV"},"type":"Feature","geometry":{"type":"Point","coordinates":[-80.341883,39.287434]}},{"properties":{"city":"Clemson","geo_score":0.857,"id":"a6gdnkgp5mgh","geo_precision":"city","state":"SC"},"type":"Feature","geometry":{"type":"Point","coordinates":[-82.802154,34.75974]}},{"properties":{"city":"Cleveland","geo_score":0.857,"id":"a6gdnkc04y80","geo_precision":"city","state":"OH"},"type":"Feature","geometry":{"type":"Point","coordinates":[-81.695409,41.499495]}},{"properties":{"city":"Cocoa","geo_score":0.743,"id":"a6gdnk6vovli","geo_precision":"city","state":"FL"},"type":"Feature","geometry":{"type":"Point","coordinates":[-81.912591,29.604691]}},{"properties":{"city":"Collinsville","geo_score":0.857,"id":"a6gdnk9tduyv","geo_precision":"city","state":"IL"},"type":"Feature","geometry":{"type":"Point","coordinates":[-89.908644,38.733747]}},{"properties":{"city":"Colorado Springs","geo_score":0.857,"id":"a6gdnkgdqeoa","geo_precision":"city","state":"CO"},"type":"Feature","geometry":{"type":"Point","coordinates":[-104.821363,38.833882]}},{"properties":{"city":"Columbus","geo_score":0.776,"id":"a6gdnk847qf8","geo_precision":"city","state":"OH"},"type":"Feature","geometry":{"type":"Point","coordinates":[-82.695724,39.998397]}},{"properties":{"city":"Commerce City","geo_score":0.857,"id":"a6gdnkaglnp4","geo_precision":"city","state":"CO"},"type":"Feature","geometry":{"type":"Point","coordinates":[-104.844568,39.863881]}},{"properties":{"city":"Del City","geo_score":0.776,"id":"a6gdnkh3kp7x","geo_precision":"city","state":"OK"},"type":"Feature","geometry":{"type":"Point","coordinates":[-95.522188,34.20038]}},{"properties":{"city":"Denver","geo_score":0.857,"id":"a6gdnkaylqef","geo_precision":"city","state":"CO"},"type":"Feature","geometry":{"type":"Point","coordinates":[-104.984703,39.739154]}},{"properties":{"city":"Destin","geo_score":0.857,"id":"a6gdnkdj91v3","geo_precision":"city","state":"FL"},"type":"Feature","geometry":{"type":"Point","coordinates":[-86.594479,30.661155]}},{"properties":{"city":"Detroit","geo_score":0.857,"id":"a6gdnkfohmvp","geo_precision":"city","state":"MI"},"type":"Feature","geometry":{"type":"Point","coordinates":[-83.045754,42.331427]}},{"properties":{"city":"Diamond Bar","geo_score":0.729,"id":"a6gdnkc39mhp","geo_precision":"city","state":"CA"},"type":"Feature","geometry":{"type":"Point","coordinates":[-121.970838,41.644041]}},{"properties":{"city":"Duluth","geo_score":0.857,"id":"a6gdnkc1wbli","geo_precision":"city","state":"GA"},"type":"Feature","geometry":{"type":"Point","coordinates":[-84.144638,34.002879]}},{"properties":{"city":"Eagle Pass","geo_score":0.857,"id":"a6gdnk8dtbwo","geo_precision":"city","state":"TX"},"type":"Feature","geometry":{"type":"Point","coordinates":[-100.312766,28.781057]}},{"properties":{"city":"Elko","geo_score":0.857,"id":"a6gdnkcr0vwe","geo_precision":"city","state":"NV"},"type":"Feature","geometry":{"type":"Point","coordinates":[-115.534429,40.905583]}},{"properties":{"city":"Everett","geo_score":0.857,"id":"a6gdnkco4efz","geo_precision":"city","state":"WA"},"type":"Feature","geometry":{"type":"Point","coordinates":[-122.202079,47.978985]}},{"properties":{"city":"Fairfax","geo_score":0.857,"id":"a6gdnkfoxa7h","geo_precision":"city","state":"VA"},"type":"Feature","geometry":{"type":"Point","coordinates":[-77.305097,38.853231]}},{"properties":{"city":"Farmingdale","geo_score":0.857,"id":"a6gdnkhodt8c","geo_precision":"city","state":"NY"},"type":"Feature","geometry":{"type":"Point","coordinates":[-73.601772,40.754757]}},{"properties":{"city":"Fenton","geo_score":0.857,"id":"a6gdnkczpe6q","geo_precision":"city","state":"MO"},"type":"Feature","geometry":{"type":"Point","coordinates":[-90.46737,38.529903]}},{"properties":{"city":"Fort Benning","geo_score":0.792,"id":"a6gdnk7hbt49","geo_precision":"city","state":"GA"},"type":"Feature","geometry":{"type":"Point","coordinates":[-84.931051,33.512057]}},{"properties":{"city":"Fort Collins","geo_score":0.753,"id":"a6gdnkh4xyzz","geo_precision":"city","state":"CO"},"type":"Feature","geometry":{"type":"Point","coordinates":[-108.685164,39.149614]}},{"properties":{"city":"Fort Lauderdale","geo_score":0.857,"id":"a6gdnkboaodv","geo_precision":"city","state":"FL"},"type":"Feature","geometry":{"type":"Point","coordinates":[-80.143379,26.122308]}},{"properties":{"city":"Fort Myers","geo_score":0.746,"id":"a6gdnk53qa53","geo_precision":"city","state":"FL"},"type":"Feature","geometry":{"type":"Point","coordinates":[-81.92122,30.435237]}},{"properties":{"city":"Framingham","geo_score":0.804,"id":"a6gdnkk8pda4","geo_precision":"city","state":"MA"},"type":"Feature","geometry":{"type":"Point","coordinates":[-71.437006,42.297318]}},{"properties":{"city":"Freehold","geo_score":0.857,"id":"a6gdnk7bjbko","geo_precision":"city","state":"NJ"},"type":"Feature","geometry":{"type":"Point","coordinates":[-74.306284,40.236423]}},{"properties":{"city":"Germantown","geo_score":0.857,"id":"a6gdnkjiral7","geo_precision":"city","state":"MD"},"type":"Feature","geometry":{"type":"Point","coordinates":[-75.209633,38.308449]}},{"properties":{"city":"Glen Dale","geo_score":0.79,"id":"a6gdnkhqn4td","geo_precision":"city","state":"MD"},"type":"Feature","geometry":{"type":"Point","coordinates":[-76.816638,38.974833]}},{"properties":{"city":"Globe","geo_score":0.857,"id":"a6gdnkegtc5g","geo_precision":"city","state":"AZ"},"type":"Feature","geometry":{"type":"Point","coordinates":[-110.868076,33.476884]}},{"properties":{"city":"Golden","geo_score":0.857,"id":"a6gdnk8k7j4q","geo_precision":"city","state":"CO"},"type":"Feature","geometry":{"type":"Point","coordinates":[-105.245659,39.718539]}},{"properties":{"city":"Grand Junction","geo_score":0.857,"id":"a6gdnkasrhh2","geo_precision":"city","state":"CO"},"type":"Feature","geometry":{"type":"Point","coordinates":[-108.550649,39.063871]}},{"properties":{"city":"Green Bay","geo_score":0.857,"id":"a6gdnkl7qmxf","geo_precision":"city","state":"WI"},"type":"Feature","geometry":{"type":"Point","coordinates":[-88.019826,44.519159]}},{"properties":{"city":"Hartford","geo_score":0.857,"id":"a6gdnke4413d","geo_precision":"city","state":"CT"},"type":"Feature","geometry":{"type":"Point","coordinates":[-72.685093,41.763711]}},{"properties":{"city":"Hawthorne","geo_score":0.857,"id":"a6gdnkb4um9s","geo_precision":"city","state":"CA"},"type":"Feature","geometry":{"type":"Point","coordinates":[-118.298662,33.786594]}},{"properties":{"city":"Helena","geo_score":0.857,"id":"a6gdnkiqz4x3","geo_precision":"city","state":"MT"},"type":"Feature","geometry":{"type":"Point","coordinates":[-112.197616,46.70934]}},{"properties":{"city":"Hialeah","geo_score":0.857,"id":"a6gdnk63qztf","geo_precision":"city","state":"FL"},"type":"Feature","geometry":{"type":"Point","coordinates":[-80.278106,25.857596]}},{"properties":{"city":"Honolulu","geo_score":0.857,"id":"a6gdnk77y8mg","geo_precision":"city","state":"HI"},"type":"Feature","geometry":{"type":"Point","coordinates":[-157.858333,21.306944]}},{"properties":{"city":"Houston","geo_score":0.816,"id":"a6gdnkasqjyg","geo_precision":"city","state":"TX"},"type":"Feature","geometry":{"type":"Point","coordinates":[-96.919704,29.845783]}},{"properties":{"city":"Huntsville","geo_score":0.857,"id":"a6gdnka8qtmb","geo_precision":"city","state":"AL"},"type":"Feature","geometry":{"type":"Point","coordinates":[-86.556439,34.718428]}},{"properties":{"city":"Indianapolis","geo_score":0.857,"id":"a6gdnkarhgmb","geo_precision":"city","state":"IN"},"type":"Feature","geometry":{"type":"Point","coordinates":[-86.158042,39.768377]}},{"properties":{"city":"Irvine","geo_score":0.857,"id":"a6gdnkia6wet","geo_precision":"city","state":"CA"},"type":"Feature","geometry":{"type":"Point","coordinates":[-117.823111,33.669465]}},{"properties":{"city":"Ithaca","geo_score":0.857,"id":"a6gdnk5cdiaf","geo_precision":"city","state":"NY"},"type":"Feature","geometry":{"type":"Point","coordinates":[-76.483999,42.402794]}},{"properties":{"city":"Jacksonville","geo_score":0.857,"id":"a6gdnkirtbz7","geo_precision":"city","state":"FL"},"type":"Feature","geometry":{"type":"Point","coordinates":[-81.655651,30.332184]}},{"properties":{"city":"Juneau","geo_score":0.857,"id":"a6gdnkkc52vm","geo_precision":"city","state":"AK"},"type":"Feature","geometry":{"type":"Point","coordinates":[-134.523946,58.373561]}},{"properties":{"city":"Kansas City","geo_score":0.857,"id":"a6gdnk7p7xrq","geo_precision":"city","state":"MO"},"type":"Feature","geometry":{"type":"Point","coordinates":[-94.598583,39.102404]}},{"properties":{"city":"Kansas City","geo_score":0.857,"id":"a6gdnkas0x57","geo_precision":"city","state":"KS"},"type":"Feature","geometry":{"type":"Point","coordinates":[-94.627457,39.114171]}},{"properties":{"city":"King of Prussia","geo_score":0.758,"id":"a6gdnkgu8ak6","geo_precision":"city","state":"PA"},"type":"Feature","geometry":{"type":"Point","coordinates":[-78.464182,40.243966]}},{"properties":{"city":"LaVista","geo_score":0.857,"id":"a6gdnk967drf","geo_precision":"city","state":"NE"},"type":"Feature","geometry":{"type":"Point","coordinates":[-96.061055,41.164994]}},{"properties":{"city":"Lafayette","geo_score":0.857,"id":"a6gdnk7b3pa6","geo_precision":"city","state":"CA"},"type":"Feature","geometry":{"type":"Point","coordinates":[-122.120089,37.901223]}},{"properties":{"city":"Lakewood","geo_score":0.857,"id":"a6gdnkfgyme6","geo_precision":"city","state":"CO"},"type":"Feature","geometry":{"type":"Point","coordinates":[-105.081373,39.70471]}},{"properties":{"city":"Langhorne","geo_score":0.795,"id":"a6gdnkclpj0j","geo_precision":"city","state":"PA"},"type":"Feature","geometry":{"type":"Point","coordinates":[-74.88711,40.180387]}},{"properties":{"city":"Lansing","geo_score":0.857,"id":"a6gdnkerpuhq","geo_precision":"city","state":"MI"},"type":"Feature","geometry":{"type":"Point","coordinates":[-84.555535,42.732535]}},{"properties":{"city":"Las Vegas","geo_score":0.857,"id":"a6gdnkiho5gz","geo_precision":"city","state":"NV"},"type":"Feature","geometry":{"type":"Point","coordinates":[-115.137223,36.174971]}},{"properties":{"city":"Lexington","geo_score":0.857,"id":"a6gdnkh8c76q","geo_precision":"city","state":"KY"},"type":"Feature","geometry":{"type":"Point","coordinates":[-84.477715,37.988689]}},{"properties":{"city":"Littleton","geo_score":0.857,"id":"a6gdnk9gb8ux","geo_precision":"city","state":"MA"},"type":"Feature","geometry":{"type":"Point","coordinates":[-71.459405,42.446396]}},{"properties":{"city":"Long Beach","geo_score":0.857,"id":"a6gdnketnbse","geo_precision":"city","state":"CA"},"type":"Feature","geometry":{"type":"Point","coordinates":[-118.189235,33.766962]}},{"properties":{"city":"Longmont","geo_score":0.857,"id":"a6gdnkdhelij","geo_precision":"city","state":"CO"},"type":"Feature","geometry":{"type":"Point","coordinates":[-105.1633,40.165634]}},{"properties":{"city":"Los Angeles","geo_score":0.857,"id":"a6gdnk5axrub","geo_precision":"city","state":"CA"},"type":"Feature","geometry":{"type":"Point","coordinates":[-118.243685,34.052234]}},{"properties":{"city":"Louisville","geo_score":0.857,"id":"a6gdnkdrr0y6","geo_precision":"city","state":"KY"},"type":"Feature","geometry":{"type":"Point","coordinates":[-85.759407,38.254238]}},{"properties":{"city":"Louisville","geo_score":0.857,"id":"a6gdnkgqevtl","geo_precision":"city","state":"CO"},"type":"Feature","geometry":{"type":"Point","coordinates":[-105.269915,39.980835]}},{"properties":{"city":"Madison","geo_score":0.857,"id":"a6gdnk9ozy2y","geo_precision":"city","state":"WI"},"type":"Feature","geometry":{"type":"Point","coordinates":[-89.40123,43.073052]}},{"properties":{"city":"Manchester","geo_score":0.857,"id":"a6gdnkaib1bg","geo_precision":"city","state":"NH"},"type":"Feature","geometry":{"type":"Point","coordinates":[-71.454789,42.99564]}},{"properties":{"city":"McClellan","geo_score":0.776,"id":"a6gdnkc1ps6i","geo_precision":"city","state":"CA"},"type":"Feature","geometry":{"type":"Point","coordinates":[-121.389613,38.666653]}},{"properties":{"city":"Memphis","geo_score":0.857,"id":"a6gdnkao39fc","geo_precision":"city","state":"TN"},"type":"Feature","geometry":{"type":"Point","coordinates":[-90.04898,35.149534]}},{"properties":{"city":"Metairie","geo_score":0.857,"id":"a6gdnkbgomon","geo_precision":"city","state":"LA"},"type":"Feature","geometry":{"type":"Point","coordinates":[-90.152852,29.984092]}},{"properties":{"city":"Miami","geo_score":0.857,"id":"a6gdnkdc084z","geo_precision":"city","state":"FL"},"type":"Feature","geometry":{"type":"Point","coordinates":[-80.193659,25.774266]}},{"properties":{"city":"Midland","geo_score":0.857,"id":"a6gdnk75thj9","geo_precision":"city","state":"TX"},"type":"Feature","geometry":{"type":"Point","coordinates":[-102.091276,31.861876]}},{"properties":{"city":"Midvale","geo_score":0.779,"id":"a6gdnk7ktw4h","geo_precision":"city","state":"UT"},"type":"Feature","geometry":{"type":"Point","coordinates":[-111.399095,41.844103]}},{"properties":{"city":"Missoula","geo_score":0.857,"id":"a6gdnka6hynn","geo_precision":"city","state":"MT"},"type":"Feature","geometry":{"type":"Point","coordinates":[-113.993998,46.872146]}},{"properties":{"city":"Mobile","geo_score":0.857,"id":"a6gdnkj7ukj3","geo_precision":"city","state":"AL"},"type":"Feature","geometry":{"type":"Point","coordinates":[-88.043054,30.694357]}},{"properties":{"city":"Moffet Field","geo_score":0.74,"id":"a6gdnkcl3977","geo_precision":"city","state":"CA"},"type":"Feature","geometry":{"type":"Point","coordinates":[-120.92603,37.097444]}},{"properties":{"city":"Montpelier","geo_score":0.794,"id":"a6gdnk72dioj","geo_precision":"city","state":"VT"},"type":"Feature","geometry":{"type":"Point","coordinates":[-72.607888,44.257004]}},{"properties":{"city":"Morehead City","geo_score":0.738,"id":"a6gdnk5kabru","geo_precision":"city","state":"NC"},"type":"Feature","geometry":{"type":"Point","coordinates":[-80.106157,35.711804]}},{"properties":{"city":"Morris Plains","geo_score":0.786,"id":"a6gdnk7en34y","geo_precision":"city","state":"NJ"},"type":"Feature","geometry":{"type":"Point","coordinates":[-75.044339,39.987335]}},{"properties":{"city":"Mount Vernon","geo_score":0.753,"id":"a6gdnkiq1ajn","geo_precision":"city","state":"WA"},"type":"Feature","geometry":{"type":"Point","coordinates":[-117.132417,47.507676]}},{"properties":{"city":"Nashville","geo_score":0.857,"id":"a6gdnkdvam53","geo_precision":"city","state":"TN"},"type":"Feature","geometry":{"type":"Point","coordinates":[-86.784443,36.16589]}},{"properties":{"city":"New Orleans","geo_score":0.857,"id":"a6gdnkcgvhoh","geo_precision":"city","state":"LA"},"type":"Feature","geometry":{"type":"Point","coordinates":[-89.930956,30.068812]}},{"properties":{"city":"New York","geo_score":0.857,"id":"a6gdnkd29coo","geo_precision":"city","state":"NY"},"type":"Feature","geometry":{"type":"Point","coordinates":[-74.005973,40.714269]}},{"properties":{"city":"Newark","geo_score":0.857,"id":"a6gdnkhfqyrj","geo_precision":"city","state":"DE"},"type":"Feature","geometry":{"type":"Point","coordinates":[-75.749657,39.683723]}},{"properties":{"city":"Norcross","geo_score":0.857,"id":"a6gdnkiehabp","geo_precision":"city","state":"GA"},"type":"Feature","geometry":{"type":"Point","coordinates":[-84.213531,33.941213]}},{"properties":{"city":"Norfolk","geo_score":0.857,"id":"a6gdnk6xd9ll","geo_precision":"city","state":"VA"},"type":"Feature","geometry":{"type":"Point","coordinates":[-76.285218,36.846815]}},{"properties":{"city":"Northport","geo_score":0.857,"id":"a6gdnk4y9typ","geo_precision":"city","state":"AL"},"type":"Feature","geometry":{"type":"Point","coordinates":[-87.537152,33.347539]}},{"properties":{"city":"Oak Ridge","geo_score":0.75,"id":"a6gdnkhhizf6","geo_precision":"city","state":"TN"},"type":"Feature","geometry":{"type":"Point","coordinates":[-84.689716,35.101062]}},{"properties":{"city":"Oakland","geo_score":0.857,"id":"a6gdnkcvrhp5","geo_precision":"city","state":"CA"},"type":"Feature","geometry":{"type":"Point","coordinates":[-122.270803,37.804372]}},{"properties":{"city":"Oklahoma City","geo_score":0.857,"id":"a6gdnkezuqlm","geo_precision":"city","state":"OK"},"type":"Feature","geometry":{"type":"Point","coordinates":[-97.516428,35.46756]}},{"properties":{"city":"Omaha","geo_score":0.857,"id":"a6gdnkc5fd8m","geo_precision":"city","state":"NE"},"type":"Feature","geometry":{"type":"Point","coordinates":[-95.937792,41.25861]}},{"properties":{"city":"Ontario","geo_score":0.857,"id":"a6gdnk6q6vbs","geo_precision":"city","state":"CA"},"type":"Feature","geometry":{"type":"Point","coordinates":[-117.650888,34.063344]}},{"properties":{"city":"Orlando","geo_score":0.857,"id":"a6gdnkdvkawa","geo_precision":"city","state":"FL"},"type":"Feature","geometry":{"type":"Point","coordinates":[-81.379237,28.538336]}},{"properties":{"city":"Owings Mills","geo_score":0.792,"id":"a6gdnk8wva0v","geo_precision":"city","state":"MD"},"type":"Feature","geometry":{"type":"Point","coordinates":[-76.554402,38.772617]}},{"properties":{"city":"Paducah","geo_score":0.857,"id":"a6gdnkjo94r1","geo_precision":"city","state":"KY"},"type":"Feature","geometry":{"type":"Point","coordinates":[-88.713292,37.031586]}},{"properties":{"city":"Palm Springs","geo_score":0.857,"id":"a6gdnk55fp5x","geo_precision":"city","state":"CA"},"type":"Feature","geometry":{"type":"Point","coordinates":[-116.545292,33.830296]}},{"properties":{"city":"Pasadena","geo_score":0.857,"id":"a6gdnk86lxmq","geo_precision":"city","state":"CA"},"type":"Feature","geometry":{"type":"Point","coordinates":[-118.144516,34.147785]}},{"properties":{"city":"Paso Robles","geo_score":0.757,"id":"a6gdnk50ddfr","geo_precision":"city","state":"CA"},"type":"Feature","geometry":{"type":"Point","coordinates":[-120.376547,35.303584]}},{"properties":{"city":"Payson","geo_score":0.857,"id":"a6gdnk787mpl","geo_precision":"city","state":"AZ"},"type":"Feature","geometry":{"type":"Point","coordinates":[-111.075088,33.864471]}},{"properties":{"city":"Phoenix","geo_score":0.857,"id":"a6gdnkketelp","geo_precision":"city","state":"AZ"},"type":"Feature","geometry":{"type":"Point","coordinates":[-112.074037,33.448377]}},{"properties":{"city":"Pittsburgh","geo_score":0.857,"id":"a6gdnk9bwbv6","geo_precision":"city","state":"PA"},"type":"Feature","geometry":{"type":"Point","coordinates":[-79.995886,40.440625]}},{"properties":{"city":"Pittsford","geo_score":0.857,"id":"a6gdnkk95d7p","geo_precision":"city","state":"NY"},"type":"Feature","geometry":{"type":"Point","coordinates":[-77.520692,43.060229]}},{"properties":{"city":"Port Charlotte","geo_score":0.857,"id":"a6gdnk79318n","geo_precision":"city","state":"FL"},"type":"Feature","geometry":{"type":"Point","coordinates":[-82.20688,26.94099]}},{"properties":{"city":"Port Huron","geo_score":0.778,"id":"a6gdnkaoxfex","geo_precision":"city","state":"MI"},"type":"Feature","geometry":{"type":"Point","coordinates":[-83.667641,44.996329]}},{"properties":{"city":"Port St. Lucie","geo_score":0.753,"id":"a6gdnk67qks9","geo_precision":"city","state":"FL"},"type":"Feature","geometry":{"type":"Point","coordinates":[-81.777051,30.725235]}},{"properties":{"city":"Portland","geo_score":0.857,"id":"a6gdnkilwhkx","geo_precision":"city","state":"ME"},"type":"Feature","geometry":{"type":"Point","coordinates":[-70.255326,43.661471]}},{"properties":{"city":"Portland","geo_score":0.857,"id":"a6gdnk9nwzzh","geo_precision":"city","state":"OR"},"type":"Feature","geometry":{"type":"Point","coordinates":[-122.676207,45.523452]}},{"properties":{"city":"Portsmouth","geo_score":0.857,"id":"a6gdnk6zqtso","geo_precision":"city","state":"OH"},"type":"Feature","geometry":{"type":"Point","coordinates":[-82.930576,38.793214]}},{"properties":{"city":"Poulsbo","geo_score":0.857,"id":"a6gdnk7tk9ns","geo_precision":"city","state":"WA"},"type":"Feature","geometry":{"type":"Point","coordinates":[-122.614094,47.751046]}},{"properties":{"city":"Powell","geo_score":0.857,"id":"a6gdnkjowuft","geo_precision":"city","state":"TN"},"type":"Feature","geometry":{"type":"Point","coordinates":[-84.021456,36.071877]}},{"properties":{"city":"Princeton","geo_score":0.806,"id":"a6gdnkdko8jg","geo_precision":"city","state":"NJ"},"type":"Feature","geometry":{"type":"Point","coordinates":[-74.64795,40.363882]}},{"properties":{"city":"Rancho Cordova","geo_score":0.857,"id":"a6gdnkbmklds","geo_precision":"city","state":"CA"},"type":"Feature","geometry":{"type":"Point","coordinates":[-121.270426,38.597705]}},{"properties":{"city":"Rapid City","geo_score":0.857,"id":"a6gdnkcvkhhk","geo_precision":"city","state":"SD"},"type":"Feature","geometry":{"type":"Point","coordinates":[-103.231015,44.080543]}},{"properties":{"city":"Reno","geo_score":0.857,"id":"a6gdnk5299op","geo_precision":"city","state":"NV"},"type":"Feature","geometry":{"type":"Point","coordinates":[-119.813803,39.529633]}},{"properties":{"city":"Research Triangle","geo_score":0.786,"id":"a6gdnk5ohsbw","geo_precision":"city","state":"NC"},"type":"Feature","geometry":{"type":"Point","coordinates":[-81.009799,35.482635]}},{"properties":{"city":"Reston","geo_score":0.857,"id":"a6gdnk4t7igc","geo_precision":"city","state":"VA"},"type":"Feature","geometry":{"type":"Point","coordinates":[-77.3418,38.96146]}},{"properties":{"city":"Richland","geo_score":0.857,"id":"a6gdnki7084o","geo_precision":"city","state":"WA"},"type":"Feature","geometry":{"type":"Point","coordinates":[-119.491659,46.282031]}},{"properties":{"city":"Rocklin","geo_score":0.857,"id":"a6gdnkjsyevm","geo_precision":"city","state":"CA"},"type":"Feature","geometry":{"type":"Point","coordinates":[-121.230374,38.801233]}},{"properties":{"city":"Salisbury","geo_score":0.857,"id":"a6gdnkdtxj5s","geo_precision":"city","state":"NC"},"type":"Feature","geometry":{"type":"Point","coordinates":[-80.45316,35.680441]}},{"properties":{"city":"Salt Lake City","geo_score":0.857,"id":"a6gdnkavtowb","geo_precision":"city","state":"UT"},"type":"Feature","geometry":{"type":"Point","coordinates":[-111.891047,40.760779]}},{"properties":{"city":"San Antonio","geo_score":0.857,"id":"a6gdnkfdrdv7","geo_precision":"city","state":"TX"},"type":"Feature","geometry":{"type":"Point","coordinates":[-98.493628,29.424122]}},{"properties":{"city":"San Bernardino","geo_score":0.857,"id":"a6gdnkdpr49i","geo_precision":"city","state":"CA"},"type":"Feature","geometry":{"type":"Point","coordinates":[-117.289765,34.108345]}},{"properties":{"city":"San Diego","geo_score":0.857,"id":"a6gdnkd7uelh","geo_precision":"city","state":"CA"},"type":"Feature","geometry":{"type":"Point","coordinates":[-117.157255,32.715329]}},{"properties":{"city":"San Francisco","geo_score":0.857,"id":"a6gdnkex3dsy","geo_precision":"city","state":"CA"},"type":"Feature","geometry":{"type":"Point","coordinates":[-122.419416,37.77493]}},{"properties":{"city":"San Luis Obispo","geo_score":0.736,"id":"a6gdnkf4z61r","geo_precision":"city","state":"CA"},"type":"Feature","geometry":{"type":"Point","coordinates":[-118.345664,37.400762]}},{"properties":{"city":"Santa Barbara","geo_score":0.857,"id":"a6gdnkk8t0xw","geo_precision":"city","state":"CA"},"type":"Feature","geometry":{"type":"Point","coordinates":[-119.69819,34.420831]}},{"properties":{"city":"Santa Fe","geo_score":0.857,"id":"a6gdnketfkad","geo_precision":"city","state":"NM"},"type":"Feature","geometry":{"type":"Point","coordinates":[-106.073414,35.625075]}},{"properties":{"city":"Santa Maria","geo_score":0.743,"id":"a6gdnkhy339i","geo_precision":"city","state":"CA"},"type":"Feature","geometry":{"type":"Point","coordinates":[-123.34501,39.398219]}},{"properties":{"city":"Sarasota","geo_score":0.857,"id":"a6gdnk953d1p","geo_precision":"city","state":"FL"},"type":"Feature","geometry":{"type":"Point","coordinates":[-82.530653,27.336435]}},{"properties":{"city":"Savannah","geo_score":0.857,"id":"a6gdnkdq69od","geo_precision":"city","state":"GA"},"type":"Feature","geometry":{"type":"Point","coordinates":[-81.099834,32.083541]}},{"properties":{"city":"Schofield","geo_score":0.857,"id":"a6gdnkiig3kr","geo_precision":"city","state":"WI"},"type":"Feature","geometry":{"type":"Point","coordinates":[-89.576968,44.866501]}},{"properties":{"city":"Schuylerville","geo_score":0.857,"id":"a6gdnkbl3438","geo_precision":"city","state":"NY"},"type":"Feature","geometry":{"type":"Point","coordinates":[-73.643205,43.130211]}},{"properties":{"city":"Scituate","geo_score":0.857,"id":"a6gdnkhaeu4w","geo_precision":"city","state":"MA"},"type":"Feature","geometry":{"type":"Point","coordinates":[-70.770188,42.207254]}},{"properties":{"city":"Scranton","geo_score":0.857,"id":"a6gdnkhs4gdu","geo_precision":"city","state":"PA"},"type":"Feature","geometry":{"type":"Point","coordinates":[-75.662412,41.408969]}},{"properties":{"city":"Seattle","geo_score":0.857,"id":"a6gdnk9ea8np","geo_precision":"city","state":"WA"},"type":"Feature","geometry":{"type":"Point","coordinates":[-122.332071,47.60621]}},{"properties":{"city":"Sharonville","geo_score":0.857,"id":"a6gdnk7uttlk","geo_precision":"city","state":"OH"},"type":"Feature","geometry":{"type":"Point","coordinates":[-84.413275,39.268114]}},{"properties":{"city":"Sheboygan","geo_score":0.857,"id":"a6gdnk54555s","geo_precision":"city","state":"WI"},"type":"Feature","geometry":{"type":"Point","coordinates":[-87.856793,43.722489]}},{"properties":{"city":"Show Low","geo_score":0.857,"id":"a6gdnk65a29v","geo_precision":"city","state":"AZ"},"type":"Feature","geometry":{"type":"Point","coordinates":[-110.032025,34.570811]}},{"properties":{"city":"Shreveport","geo_score":0.857,"id":"a6gdnkky8e0y","geo_precision":"city","state":"LA"},"type":"Feature","geometry":{"type":"Point","coordinates":[-93.750179,32.525152]}},{"properties":{"city":"Sioux Falls","geo_score":0.857,"id":"a6gdnkkt3qqe","geo_precision":"city","state":"SD"},"type":"Feature","geometry":{"type":"Point","coordinates":[-96.730328,43.546642]}},{"properties":{"city":"South Seattle","geo_score":0.798,"id":"a6gdnk6ckqx3","geo_precision":"city","state":"WA"},"type":"Feature","geometry":{"type":"Point","coordinates":[-122.332071,47.60621]}},{"properties":{"city":"Spokane","geo_score":0.857,"id":"a6gdnk5947d1","geo_precision":"city","state":"WA"},"type":"Feature","geometry":{"type":"Point","coordinates":[-117.426047,47.65878]}},{"properties":{"city":"St. Albans","geo_score":0.75,"id":"a6gdnki6xxv5","geo_precision":"city","state":"VT"},"type":"Feature","geometry":{"type":"Point","coordinates":[-72.349551,44.736716]}},{"properties":{"city":"Sterling","geo_score":0.81,"id":"a6gdnk7134kr","geo_precision":"city","state":"VA"},"type":"Feature","geometry":{"type":"Point","coordinates":[-77.400543,39.003721]}},{"properties":{"city":"Stone Mountain","geo_score":0.857,"id":"a6gdnkg5f5k6","geo_precision":"city","state":"GA"},"type":"Feature","geometry":{"type":"Point","coordinates":[-84.203419,33.786405]}},{"properties":{"city":"Stuart","geo_score":0.857,"id":"a6gdnk57zly6","geo_precision":"city","state":"FL"},"type":"Feature","geometry":{"type":"Point","coordinates":[-80.254768,27.189748]}},{"properties":{"city":"Sunriver","geo_score":0.857,"id":"a6gdnkjq6o7a","geo_precision":"city","state":"OR"},"type":"Feature","geometry":{"type":"Point","coordinates":[-121.43864,43.884007]}},{"properties":{"city":"Syracuse","geo_score":0.857,"id":"a6gdnkekevjq","geo_precision":"city","state":"NY"},"type":"Feature","geometry":{"type":"Point","coordinates":[-76.147424,43.048122]}},{"properties":{"city":"Tallahassee","geo_score":0.857,"id":"a6gdnk6xzb4h","geo_precision":"city","state":"FL"},"type":"Feature","geometry":{"type":"Point","coordinates":[-84.280733,30.438256]}},{"properties":{"city":"Tampa","geo_score":0.857,"id":"a6gdnkdy9poy","geo_precision":"city","state":"FL"},"type":"Feature","geometry":{"type":"Point","coordinates":[-82.458428,27.947522]}},{"properties":{"city":"Toledo","geo_score":0.857,"id":"a6gdnk5y8fdl","geo_precision":"city","state":"OH"},"type":"Feature","geometry":{"type":"Point","coordinates":[-83.555212,41.663938]}},{"properties":{"city":"Troy","geo_score":0.771,"id":"a6gdnk7mazn5","geo_precision":"city","state":"MT"},"type":"Feature","geometry":{"type":"Point","coordinates":[-113.830102,46.836037]}},{"properties":{"city":"Tucson","geo_score":0.857,"id":"a6gdnk5ixiwv","geo_precision":"city","state":"AZ"},"type":"Feature","geometry":{"type":"Point","coordinates":[-110.926479,32.221743]}},{"properties":{"city":"Tulsa","geo_score":0.857,"id":"a6gdnka5mkpg","geo_precision":"city","state":"OK"},"type":"Feature","geometry":{"type":"Point","coordinates":[-95.992775,36.153982]}},{"properties":{"city":"University Park","geo_score":0.857,"id":"a6gdnkhsjqzc","geo_precision":"city","state":"IL"},"type":"Feature","geometry":{"type":"Point","coordinates":[-87.685325,41.592257]}},{"properties":{"city":"Virginia Beach","geo_score":0.857,"id":"a6gdnkkttese","geo_precision":"city","state":"VA"},"type":"Feature","geometry":{"type":"Point","coordinates":[-76.076408,36.786299]}},{"properties":{"city":"Wausau","geo_score":0.857,"id":"a6gdnk50dyy6","geo_precision":"city","state":"WI"},"type":"Feature","geometry":{"type":"Point","coordinates":[-89.794002,44.961874]}},{"properties":{"city":"West Covina","geo_score":0.8,"id":"a6gdnk7krg89","geo_precision":"city","state":"CA"},"type":"Feature","geometry":{"type":"Point","coordinates":[-118.298662,33.786594]}},{"properties":{"city":"West Monroe","geo_score":0.8,"id":"a6gdnkd5cbfk","geo_precision":"city","state":"LA"},"type":"Feature","geometry":{"type":"Point","coordinates":[-92.119301,32.509311]}},{"properties":{"city":"West Palm Beach","geo_score":0.762,"id":"a6gdnk708zqc","geo_precision":"city","state":"FL"},"type":"Feature","geometry":{"type":"Point","coordinates":[-80.035596,26.778118]}},{"properties":{"city":"Weymouth","geo_score":0.857,"id":"a6gdnke7ztox","geo_precision":"city","state":"MA"},"type":"Feature","geometry":{"type":"Point","coordinates":[-70.95514,42.20794]}},{"properties":{"city":"Whitehouse Station","geo_score":0.857,"id":"a6gdnkd0c9ws","geo_precision":"city","state":"NJ"},"type":"Feature","geometry":{"type":"Point","coordinates":[-74.770441,40.61538]}},{"properties":{"city":"Wilmington","geo_score":0.857,"id":"a6gdnkj44uby","geo_precision":"city","state":"MA"},"type":"Feature","geometry":{"type":"Point","coordinates":[-71.173888,42.561782]}}],"is_temporal":false,"author":{"url":"","metadata":"","contact_name":"","contact_address":"","source":"","contact_phone":""},"source":"","pagination":{"sort":null,"start":0,"total":201,"limit":1000000},"state":"complete","tags":"","published":"2014-08-10T13:44:24-04:00","id":82342}