{"type":"FeatureCollection","data_type":"Dataset","url_type":null,"permissions":[{"permissions":{"download":true,"view":true},"group_id":"everyone"}],"classification":null,"title":"Graffiti","count":31,"stream_id":82614,"contributor":{"url":"http://geocommons.com/users/20083","name":"LPDGraffiti@GMail.com"},"data_attributes":null,"calculation_params":null,"icon_link":null,"link":"http://geocommons.com/overlays/82614.json","extent":[-122.324,47.8104,-122.324,47.8104],"geometry_types":["point"],"unique_name":null,"name":"Graffiti","feature_count":31,"description":"","next_feature":null,"is_raster":false,"short_classification":"Y","stats":{"zipcode":{"max":null,"min":null,"median":null},"geo_score":{"max":0.867,"mean":0.867000000000001,"variance":3.18420417472023e-31,"stdev":5.64287530849321e-16,"min":0.867,"median":0.867}},"features":[{"properties":{"city":"Lynnwood","cleaned":null,"date":null,"zipcode":"98036","geo_score":0.867,"location of tag":null,"id":"a6kx4cntxctq","geo_precision":"zip","state":"Washington"},"type":"Feature","geometry":{"type":"Point","coordinates":[-122.32402,47.810375]}},{"properties":{"city":"Lynnwood","cleaned":null,"date":null,"zipcode":"98036","geo_score":0.867,"location of tag":"Beverly Ele","id":"a6kx4cdi2by3","geo_precision":"zip","state":"Washington"},"type":"Feature","geometry":{"type":"Point","coordinates":[-122.32402,47.810375]}},{"properties":{"city":"Lynnwood","cleaned":"no","date":null,"zipcode":"98036","geo_score":0.867,"location of tag":null,"id":"a6kx4cedkbt6","geo_precision":"zip","state":"Washington"},"type":"Feature","geometry":{"type":"Point","coordinates":[-122.32402,47.810375]}},{"properties":{"city":"Lynnwood","cleaned":"Yes","date":{"end_time":"2009/01/06 00:00:00 -0500","original":"1/5/2009","granularity":"day","time":"2009/01/05 00:00:00 -0500"},"zipcode":"98036","geo_score":0.867,"location of tag":"5700 168th St SW","id":"a6kx4ce6ynil","geo_precision":"zip","state":"Washington"},"type":"Feature","geometry":{"type":"Point","coordinates":[-122.32402,47.810375]}},{"properties":{"city":"Lynnwood","cleaned":null,"date":{"end_time":"2009/01/16 00:00:00 -0500","original":"1/15/2009","granularity":"day","time":"2009/01/15 00:00:00 -0500"},"zipcode":"98036","geo_score":0.867,"location of tag":"7501 208th St SW","id":"a6kx4cp42e17","geo_precision":"zip","state":"Washington"},"type":"Feature","geometry":{"type":"Point","coordinates":[-122.32402,47.810375]}},{"properties":{"city":"Lynnwood","cleaned":"yes","date":{"end_time":"2009/01/23 00:00:00 -0500","original":"1/22/2009","granularity":"day","time":"2009/01/22 00:00:00 -0500"},"zipcode":"98036","geo_score":0.867,"location of tag":"20915 61 Ave W","id":"a6kx4chji6k7","geo_precision":"zip","state":"Washington"},"type":"Feature","geometry":{"type":"Point","coordinates":[-122.32402,47.810375]}},{"properties":{"city":"Lynnwood","cleaned":"no","date":{"end_time":"2009/01/23 00:00:00 -0500","original":"1/22/2009","granularity":"day","time":"2009/01/22 00:00:00 -0500"},"zipcode":"98036","geo_score":0.867,"location of tag":"6200 202nd ST SW","id":"a6kx4cmn94sq","geo_precision":"zip","state":"Washington"},"type":"Feature","geometry":{"type":"Point","coordinates":[-122.32402,47.810375]}},{"properties":{"city":"Lynnwood","cleaned":"no","date":{"end_time":"2009/02/08 00:00:00 -0500","original":"2/7/2009","granularity":"day","time":"2009/02/07 00:00:00 -0500"},"zipcode":"98036","geo_score":0.867,"location of tag":"18634 44th Ave w","id":"a6kx4coly863","geo_precision":"zip","state":"Washington"},"type":"Feature","geometry":{"type":"Point","coordinates":[-122.32402,47.810375]}},{"properties":{"city":"Lynnwood","cleaned":null,"date":{"end_time":"2009/02/17 00:00:00 -0500","original":"2/16/2009","granularity":"day","time":"2009/02/16 00:00:00 -0500"},"zipcode":"98036","geo_score":0.867,"location of tag":"4520 200th St Sw","id":"a6kx4ci3607q","geo_precision":"zip","state":"Washington"},"type":"Feature","geometry":{"type":"Point","coordinates":[-122.32402,47.810375]}},{"properties":{"city":"Lynnwood","cleaned":null,"date":{"end_time":"2009/02/26 00:00:00 -0500","original":"2/25/2009","granularity":"day","time":"2009/02/25 00:00:00 -0500"},"zipcode":"98036","geo_score":0.867,"location of tag":"Meadowdale HS","id":"a6kx4cm0dslu","geo_precision":"zip","state":"Washington"},"type":"Feature","geometry":{"type":"Point","coordinates":[-122.32402,47.810375]}},{"properties":{"city":"Lynnwood","cleaned":null,"date":{"end_time":"2009/02/26 00:00:00 -0500","original":"2/25/2009","granularity":"day","time":"2009/02/25 00:00:00 -0500"},"zipcode":"98036","geo_score":0.867,"location of tag":"6002 168th St Sw","id":"a6kx4cbegrte","geo_precision":"zip","state":"Washington"},"type":"Feature","geometry":{"type":"Point","coordinates":[-122.32402,47.810375]}},{"properties":{"city":"Lynnwood","cleaned":"yes","date":{"end_time":"2009/02/28 00:00:00 -0500","original":"2/27/2009","granularity":"day","time":"2009/02/27 00:00:00 -0500"},"zipcode":"98036","geo_score":0.867,"location of tag":"3000 184th St SW","id":"a6kx4cizsqce","geo_precision":"zip","state":"Washington"},"type":"Feature","geometry":{"type":"Point","coordinates":[-122.32402,47.810375]}},{"properties":{"city":"Lynnwood","cleaned":null,"date":{"end_time":"2009/03/02 00:00:00 -0500","original":"3/1/2009","granularity":"day","time":"2009/03/01 00:00:00 -0500"},"zipcode":"98036","geo_score":0.867,"location of tag":"Beverly Ele","id":"a6kx4ck8gu35","geo_precision":"zip","state":"Washington"},"type":"Feature","geometry":{"type":"Point","coordinates":[-122.32402,47.810375]}},{"properties":{"city":"Lynnwood","cleaned":"yes","date":{"end_time":"2009/03/02 00:00:00 -0500","original":"3/1/2009","granularity":"day","time":"2009/03/01 00:00:00 -0500"},"zipcode":"98036","geo_score":0.867,"location of tag":"18627 70th Ave w","id":"a6kx4cnas9nk","geo_precision":"zip","state":"Washington"},"type":"Feature","geometry":{"type":"Point","coordinates":[-122.32402,47.810375]}},{"properties":{"city":"Lynnwood","cleaned":null,"date":{"end_time":"2009/03/03 00:00:00 -0500","original":"3/2/2009","granularity":"day","time":"2009/03/02 00:00:00 -0500"},"zipcode":"98036","geo_score":0.867,"location of tag":"5515 186th pl SW","id":"a6kx4ca418v2","geo_precision":"zip","state":"Washington"},"type":"Feature","geometry":{"type":"Point","coordinates":[-122.32402,47.810375]}},{"properties":{"city":"Lynnwood","cleaned":null,"date":{"end_time":"2009/03/17 00:00:00 -0400","original":"3/16/2009","granularity":"day","time":"2009/03/16 00:00:00 -0400"},"zipcode":"98036","geo_score":0.867,"location of tag":"16700 32nd Ave west","id":"a6kx4cbmqdtn","geo_precision":"zip","state":"Washington"},"type":"Feature","geometry":{"type":"Point","coordinates":[-122.32402,47.810375]}},{"properties":{"city":"Lynnwood","cleaned":null,"date":{"end_time":"2009/03/19 00:00:00 -0400","original":"3/18/2009","granularity":"day","time":"2009/03/18 00:00:00 -0400"},"zipcode":"98036","geo_score":0.867,"location of tag":"7531 196th St SW","id":"a6kx4cn8ttn1","geo_precision":"zip","state":"Washington"},"type":"Feature","geometry":{"type":"Point","coordinates":[-122.32402,47.810375]}},{"properties":{"city":"Lynnwood","cleaned":"yes","date":{"end_time":"1969/12/31 19:00:01 -0500","original":"3/20/2009","granularity":"usec","time":"1969/12/31 19:00:00 -0500"},"zipcode":"98036","geo_score":0.867,"location of tag":"6326 196th st sw","id":"a6kx4cg0nywr","geo_precision":"zip","state":"Washington"},"type":"Feature","geometry":{"type":"Point","coordinates":[-122.32402,47.810375]}},{"properties":{"city":"Lynnwood","cleaned":null,"date":{"end_time":"1969/12/31 19:00:01 -0500","original":"3/20/2009","granularity":"usec","time":"1969/12/31 19:00:00 -0500"},"zipcode":"98036","geo_score":0.867,"location of tag":"19511 64th Ave W","id":"a6kx4cc4bl9d","geo_precision":"zip","state":"Washington"},"type":"Feature","geometry":{"type":"Point","coordinates":[-122.32402,47.810375]}},{"properties":{"city":"Lynnwood","cleaned":null,"date":{"end_time":"2009/03/24 00:00:00 -0400","original":"3/23/2009","granularity":"day","time":"2009/03/23 00:00:00 -0400"},"zipcode":"98036","geo_score":0.867,"location of tag":"5820 188th st SW","id":"a6kx4chbb871","geo_precision":"zip","state":"Washington"},"type":"Feature","geometry":{"type":"Point","coordinates":[-122.32402,47.810375]}},{"properties":{"city":"Lynnwood","cleaned":null,"date":{"end_time":"2009/03/29 00:00:00 -0400","original":"3/28/2009","granularity":"day","time":"2009/03/28 00:00:00 -0400"},"zipcode":"98036","geo_score":0.867,"location of tag":"5221 168th st SW","id":"a6kx4coofxan","geo_precision":"zip","state":"Washington"},"type":"Feature","geometry":{"type":"Point","coordinates":[-122.32402,47.810375]}},{"properties":{"city":"Lynnwood","cleaned":null,"date":{"end_time":"2009/03/30 00:00:00 -0400","original":"3/29/2009","granularity":"day","time":"2009/03/29 00:00:00 -0400"},"zipcode":"98036","geo_score":0.867,"location of tag":"20307 Hwy 99 #A","id":"a6kx4cljnhve","geo_precision":"zip","state":"Washington"},"type":"Feature","geometry":{"type":"Point","coordinates":[-122.32402,47.810375]}},{"properties":{"city":"Lynnwood","cleaned":null,"date":{"end_time":"2009/04/01 00:00:00 -0400","original":"3/31/2009","granularity":"day","time":"2009/03/31 00:00:00 -0400"},"zipcode":"98036","geo_score":0.867,"location of tag":"3225 Alderwood Mall Blvd","id":"a6kx4cj4rhl9","geo_precision":"zip","state":"Washington"},"type":"Feature","geometry":{"type":"Point","coordinates":[-122.32402,47.810375]}},{"properties":{"city":"Lynnwood","cleaned":null,"date":{"end_time":"2009/04/06 00:00:00 -0400","original":"4/5/2009","granularity":"day","time":"2009/04/05 00:00:00 -0400"},"zipcode":"98036","geo_score":0.867,"location of tag":"6002 168th St Sw","id":"a6kx4convmoh","geo_precision":"zip","state":"Washington"},"type":"Feature","geometry":{"type":"Point","coordinates":[-122.32402,47.810375]}},{"properties":{"city":"Lynnwood","cleaned":null,"date":{"end_time":"2009/04/15 00:00:00 -0400","original":"4/14/2009","granularity":"day","time":"2009/04/14 00:00:00 -0400"},"zipcode":"98036","geo_score":0.867,"location of tag":"19723 68th  D-Build","id":"a6kx4cehps58","geo_precision":"zip","state":"Washington"},"type":"Feature","geometry":{"type":"Point","coordinates":[-122.32402,47.810375]}},{"properties":{"city":"Lynnwood","cleaned":null,"date":{"end_time":"2009/04/28 00:00:00 -0400","original":"4/27/2009","granularity":"day","time":"2009/04/27 00:00:00 -0400"},"zipcode":"98036","geo_score":0.867,"location of tag":"5801 200th St SW","id":"a6kx4cp17l44","geo_precision":"zip","state":"Washington"},"type":"Feature","geometry":{"type":"Point","coordinates":[-122.32402,47.810375]}},{"properties":{"city":"Lynnwood","cleaned":null,"date":{"end_time":"2009/05/14 00:00:00 -0400","original":"5/13/2009","granularity":"day","time":"2009/05/13 00:00:00 -0400"},"zipcode":"98036","geo_score":0.867,"location of tag":"6325 212th St SW","id":"a6kx4cl2rwe4","geo_precision":"zip","state":"Washington"},"type":"Feature","geometry":{"type":"Point","coordinates":[-122.32402,47.810375]}},{"properties":{"city":"Lynnwood","cleaned":null,"date":{"end_time":"2009/05/16 00:00:00 -0400","original":"5/15/2009","granularity":"day","time":"2009/05/15 00:00:00 -0400"},"zipcode":"98036","geo_score":0.867,"location of tag":"6325 212th St SW","id":"a6kx4cee0n6o","geo_precision":"zip","state":"Washington"},"type":"Feature","geometry":{"type":"Point","coordinates":[-122.32402,47.810375]}},{"properties":{"city":"Lynnwood","cleaned":null,"date":{"end_time":"2009/05/19 00:00:00 -0400","original":"5/18/2009","granularity":"day","time":"2009/05/18 00:00:00 -0400"},"zipcode":"98036","geo_score":0.867,"location of tag":"5011 168TH St SW`","id":"a6kx4cet13yv","geo_precision":"zip","state":"Washington"},"type":"Feature","geometry":{"type":"Point","coordinates":[-122.32402,47.810375]}},{"properties":{"city":"Lynnwood","cleaned":null,"date":{"end_time":"2009/05/19 00:00:00 -0400","original":"5/18/2009","granularity":"day","time":"2009/05/18 00:00:00 -0400"},"zipcode":"98036","geo_score":0.867,"location of tag":"18205 Hwy 99","id":"a6kx4cltchxu","geo_precision":"zip","state":"Washington"},"type":"Feature","geometry":{"type":"Point","coordinates":[-122.32402,47.810375]}},{"properties":{"city":"Lynnwood","cleaned":null,"date":{"end_time":"2009/05/20 00:00:00 -0400","original":"5/19/2009","granularity":"day","time":"2009/05/19 00:00:00 -0400"},"zipcode":"98036","geo_score":0.867,"location of tag":"17600 44th Ave West","id":"a6kx4cjrtwin","geo_precision":"zip","state":"Washington"},"type":"Feature","geometry":{"type":"Point","coordinates":[-122.32402,47.810375]}}],"is_temporal":true,"author":{"url":"","metadata":"","contact_name":"","contact_address":"","source":"","contact_phone":""},"source":"","pagination":{"sort":null,"start":0,"total":31,"limit":1000000},"state":"complete","tags":"","published":"2014-08-10T14:17:13-04:00","id":82614}