{"type":"FeatureCollection","data_type":"Dataset","url_type":null,"permissions":[{"permissions":{"download":true,"view":true},"group_id":"everyone"}],"classification":null,"title":"Leslie's Swimming Pool Supplies Retail Locations, USA, 12.2008","count":602,"stream_id":8277,"contributor":{"url":"http://geocommons.com/users/139","name":"Burkey"},"data_attributes":null,"calculation_params":null,"icon_link":null,"link":"http://geocommons.com/overlays/8277.json","extent":[-122.717,25.6403,-70.9559,43.2048],"geometry_types":["point"],"unique_name":null,"name":"Leslie's Swimming Pool Supplies Retail Locations, USA, 12.2008","feature_count":602,"description":"This dataset displays the locations of all the Leslie's Swimming Pool Supply Retail locations across the USA as of 12.2008. The data comes from Leslie's website at lesliespool.com and includes: location, address, city, state, zip, phone, and lat/lon location. The lat/lon location was determined through the use of a geocoder found at gpsvisualizer.com.","next_feature":null,"is_raster":false,"short_classification":"Y","stats":{"lon":{"max":-70.955933,"mean":-97.1998169634551,"variance":276.071192239989,"stdev":16.6153902223207,"min":-122.716976,"median":-96.614646},"zip":{"max":96002,"mean":61421.9717607973,"variance":911906429.178903,"stdev":30197.7884815909,"min":1129,"median":75248},"lat":{"max":43.204784,"mean":34.7001192906977,"variance":18.7375693272129,"stdev":4.32869141048573,"min":25.640272,"median":33.927112}},"features":[{"properties":{"city":"Stockbridge","lon":-84.249583,"zip":30281,"phone":"770-389-1848","id":"a62k5cf4yul8","address":"5222 N Henry Blvd","lat":33.546467,"location":"1 1/2 MI S of 38","state":"GA"},"type":"Feature","geometry":{"type":"Point","coordinates":[-84.249583,33.546467]}},{"properties":{"city":"Dallas","lon":-96.768071,"zip":75231,"phone":"214-363-9229","id":"a62k5cgmli00","address":"8041 Walnut Hill Ln","lat":32.880523,"location":"1 Block E of Central Expy","state":"TX"},"type":"Feature","geometry":{"type":"Point","coordinates":[-96.768071,32.880523]}},{"properties":{"city":"Mckinney","lon":-96.678458,"zip":75070,"phone":"972-542-6699","id":"a62k5chm9xh8","address":"4610 W Eldorado Pkwy","lat":33.173293,"location":"1 Block E of Kroger Ctr","state":"TX"},"type":"Feature","geometry":{"type":"Point","coordinates":[-96.678458,33.173293]}},{"properties":{"city":"Sacramento","lon":-121.471632,"zip":95838,"phone":"916-564-4277","id":"a62k5csyszt3","address":"4641 Pell Dr","lat":38.65111,"location":"1 Block E of Northgate","state":"CA"},"type":"Feature","geometry":{"type":"Point","coordinates":[-121.471632,38.65111]}},{"properties":{"city":"New Orleans","lon":-90.184419,"zip":70123,"phone":"504-818-0245","id":"a62k5cf52lop","address":"5843 River Rd","lat":29.940301,"location":"1 Block Off Jefferson Hwy","state":"LA"},"type":"Feature","geometry":{"type":"Point","coordinates":[-90.184419,29.940301]}},{"properties":{"city":"Tulsa","lon":-95.940199,"zip":74135,"phone":"918-743-0683","id":"a62k5coxfbyq","address":"3233 S Harvard Ave","lat":36.115765,"location":"1 Block S of 31 St","state":"OK"},"type":"Feature","geometry":{"type":"Point","coordinates":[-95.940199,36.115765]}},{"properties":{"city":"Simi Valley","lon":-118.732634,"zip":93063,"phone":"805-522-3883","id":"a62k5cqvodz0","address":"3310 E Los Angeles Ave","lat":34.271548,"location":"1 Block West of Tapo Cyn Rd","state":"CA"},"type":"Feature","geometry":{"type":"Point","coordinates":[-118.732634,34.271548]}},{"properties":{"city":"San Diego","lon":-117.179602,"zip":92121,"phone":"858-202-0257","id":"a62k5cjxi9ra","address":"6345 Marindustry Dr","lat":32.880048,"location":"1 Block of Miramar Rd","state":"CA"},"type":"Feature","geometry":{"type":"Point","coordinates":[-117.179602,32.880048]}},{"properties":{"city":"Doraville","lon":-84.258879,"zip":30360,"phone":"770-409-2053","id":"a62k5cjziwa0","address":"2924b Amwiler Rd","lat":33.927112,"location":"1 Exit N of Home Depot","state":"GA"},"type":"Feature","geometry":{"type":"Point","coordinates":[-84.258879,33.927112]}},{"properties":{"city":"Louisville","lon":-85.69246,"zip":40219,"phone":"502-962-7117","id":"a62k5cu46nd6","address":"7130 Preston Hwy","lat":38.148431,"location":"1 MI S of Fern Vly Rd","state":"KY"},"type":"Feature","geometry":{"type":"Point","coordinates":[-85.69246,38.148431]}},{"properties":{"city":"Chatsworth","lon":-118.580647,"zip":91311,"phone":"818-718-6050","id":"a62k5crdkfd6","address":"20536 Plummer St","lat":34.242585,"location":"1/2 Block West of Mason Ave","state":"CA"},"type":"Feature","geometry":{"type":"Point","coordinates":[-118.580647,34.242585]}},{"properties":{"city":"Louisville","lon":-85.573404,"zip":40223,"phone":"502-425-0060","id":"a62k5clns787","address":"9800 Shelbyville Rd","lat":38.246049,"location":"1/2 MI E of Hurstbourne","state":"KY"},"type":"Feature","geometry":{"type":"Point","coordinates":[-85.573404,38.246049]}},{"properties":{"city":"Wantagh","lon":-73.503705,"zip":11793,"phone":"516-826-5722","id":"a62k5cqqhn2q","address":"3431 Merrick Rd","lat":40.665085,"location":"1/2 MI E of Wantagh Pkwy","state":"NY"},"type":"Feature","geometry":{"type":"Point","coordinates":[-73.503705,40.665085]}},{"properties":{"city":"Cherry Hill","lon":-75.035492,"zip":8003,"phone":"856-489-0805","id":"a62k5ch0zzhk","address":"2005 Marlton Pike E","lat":39.919788,"location":"1/2 MI W of Olgas Diner","state":"NJ"},"type":"Feature","geometry":{"type":"Point","coordinates":[-75.035492,39.919788]}},{"properties":{"city":"Austin","lon":-97.739343,"zip":78757,"phone":"512-451-0482","id":"a62k5cl5wkc6","address":"6326 Burnet Rd","lat":30.338636,"location":"1/2 Mile N of Koenig","state":"TX"},"type":"Feature","geometry":{"type":"Point","coordinates":[-97.739343,30.338636]}},{"properties":{"city":"Midland","lon":-102.118431,"zip":79703,"phone":"432-699-5588","id":"a62k5crg3iyx","address":"4005 W Wall St","lat":31.973809,"location":"1/2 Mile W of Midkiff","state":"TX"},"type":"Feature","geometry":{"type":"Point","coordinates":[-102.118431,31.973809]}},{"properties":{"city":"Lynbrook","lon":-73.687914,"zip":11563,"phone":"516-593-3570","id":"a62k5cu1sgza","address":"935 Sunrise Hwy","lat":40.657133,"location":"1/2 Mile W of Peninsula Rd","state":"NY"},"type":"Feature","geometry":{"type":"Point","coordinates":[-73.687914,40.657133]}},{"properties":{"city":"Wayne","lon":-75.412716,"zip":19087,"phone":"610-687-3211","id":"a62k5cl16y2v","address":"831 W Lancaster Ave","lat":40.048235,"location":"1/2mi W Old Eagle School","state":"PA"},"type":"Feature","geometry":{"type":"Point","coordinates":[-75.412716,40.048235]}},{"properties":{"city":"Des Peres","lon":-90.441921,"zip":63131,"phone":"314-966-2177","id":"a62k5cklnskn","address":"12310 Manchester Rd","lat":38.603158,"location":"1/4 MI E of 270/Manchester","state":"MO"},"type":"Feature","geometry":{"type":"Point","coordinates":[-90.441921,38.603158]}},{"properties":{"city":"Indianapolis","lon":-86.121816,"zip":46240,"phone":"317-257-7911","id":"a62k5cnmm5q3","address":"7211 N Keystone Ave","lat":39.88491,"location":"1/4 MI N of 72nd Street","state":"IN"},"type":"Feature","geometry":{"type":"Point","coordinates":[-86.121816,39.88491]}},{"properties":{"city":"Austell","lon":-84.595307,"zip":30106,"phone":"770-944-1802","id":"a62k5ckmuc49","address":"1355 E West Connector","lat":33.855482,"location":"1/4 Mile East of Austell Rd","state":"GA"},"type":"Feature","geometry":{"type":"Point","coordinates":[-84.595307,33.855482]}},{"properties":{"city":"Highland Village","lon":-97.074213,"zip":75077,"phone":"972-318-0421","id":"a62k5ckt3cf1","address":"2940 FM 407","lat":33.073931,"location":"1/4 Mile East of Target","state":"TX"},"type":"Feature","geometry":{"type":"Point","coordinates":[-97.074213,33.073931]}},{"properties":{"city":"San Antonio","lon":-98.621714,"zip":78238,"phone":"210-520-7014","id":"a62k5cpm8sf5","address":"6897 Bandera Rd","lat":29.497854,"location":"1/4 Mile S of Huebner","state":"TX"},"type":"Feature","geometry":{"type":"Point","coordinates":[-98.621714,29.497854]}},{"properties":{"city":"Anaheim","lon":-117.917635,"zip":92801,"phone":"714-578-0631","id":"a62k5cg3enlh","address":"1618 N Missile Way","lat":33.858453,"location":"1/4mi E Lemon On Orangethorpe","state":"CA"},"type":"Feature","geometry":{"type":"Point","coordinates":[-117.917635,33.858453]}},{"properties":{"city":"Greenvale","lon":-73.62757,"zip":11548,"phone":"516-625-3059","id":"a62k5ctm0ub6","address":"63 Glen Cove Rd","lat":40.812942,"location":"1/8 MI S of Train Station","state":"NY"},"type":"Feature","geometry":{"type":"Point","coordinates":[-73.62757,40.812942]}},{"properties":{"city":"San Antonio","lon":-98.562988,"zip":78257,"phone":"210-764-2300","id":"a62k5cgb79aa","address":"4079 N Loop 1604 W","lat":29.602309,"location":"1604 &amp; Military Hwy","state":"TX"},"type":"Feature","geometry":{"type":"Point","coordinates":[-98.562988,29.602309]}},{"properties":{"city":"Austin","lon":-97.7904,"zip":78750,"phone":"512-257-2125","id":"a62k5cujpy8s","address":"13450 Research Blvd","lat":30.446882,"location":"183 &amp; Anderson Hill Ross Plza","state":"TX"},"type":"Feature","geometry":{"type":"Point","coordinates":[-97.7904,30.446882]}},{"properties":{"city":"Pasadena","lon":-118.110874,"zip":91107,"phone":"626-449-2955","id":"a62k5coqv3wz","address":"1920 E Colorado Blvd","lat":34.145867,"location":"2 Blocks E of Allen Ave","state":"CA"},"type":"Feature","geometry":{"type":"Point","coordinates":[-118.110874,34.145867]}},{"properties":{"city":"Torrance","lon":-118.309023,"zip":90501,"phone":"310-325-4721","id":"a62k5cq2t8t3","address":"23401 S Western Ave","lat":33.81336,"location":"2 Blocks S of Sepulveda","state":"CA"},"type":"Feature","geometry":{"type":"Point","coordinates":[-118.309023,33.81336]}},{"properties":{"city":"Houston","lon":-95.551153,"zip":77042,"phone":"832-251-8503","id":"a62k5ckv2bcs","address":"3780 Westchase Dr","lat":29.723621,"location":"2 MI East of Sh Tollway","state":"TX"},"type":"Feature","geometry":{"type":"Point","coordinates":[-95.551153,29.723621]}},{"properties":{"city":"San Antonio","lon":-98.474571,"zip":78232,"phone":"210-404-9424","id":"a62k5co2fvsu","address":"1321 N Loop 1604 E","lat":29.610711,"location":"281 &amp; 1604-Near Costco","state":"TX"},"type":"Feature","geometry":{"type":"Point","coordinates":[-98.474571,29.610711]}},{"properties":{"city":"Mcdonough","lon":-84.164587,"zip":30253,"phone":"770-898-9600","id":"a62k5cqw9zpn","address":"191 Jonesboro Rd","lat":33.452023,"location":"3 MI E of 75, W of the Sq","state":"GA"},"type":"Feature","geometry":{"type":"Point","coordinates":[-84.164587,33.452023]}},{"properties":{"city":"Altamonte Springs","lon":-81.414993,"zip":32714,"phone":"407-532-0404","id":"a62k5ct4c3er","address":"851 S State Road 434","lat":28.645035,"location":"434 &amp; Maitland Publix Ctr","state":"FL"},"type":"Feature","geometry":{"type":"Point","coordinates":[-81.414993,28.645035]}},{"properties":{"city":"Humble","lon":-95.269907,"zip":77338,"phone":"281-446-1918","id":"a62k5chhvzdq","address":"19731 Highway 59 N","lat":30.002217,"location":"59n &amp; 1960 W/ Starbucks","state":"TX"},"type":"Feature","geometry":{"type":"Point","coordinates":[-95.269907,30.002217]}},{"properties":{"city":"Lancaster","lon":-76.341602,"zip":17601,"phone":"717-295-7074","id":"a62k5cgb5yn6","address":"1480 Harrisburg Pike","lat":40.064217,"location":"Across Fr Park City Mall","state":"PA"},"type":"Feature","geometry":{"type":"Point","coordinates":[-76.341602,40.064217]}},{"properties":{"city":"El Cajon","lon":-116.939638,"zip":92019,"phone":"619-670-1786","id":"a62k5cqkpo46","address":"2916 Jamacha Rd","lat":32.740576,"location":"Across Fr Target Superctr","state":"CA"},"type":"Feature","geometry":{"type":"Point","coordinates":[-116.939638,32.740576]}},{"properties":{"city":"Irving","lon":-96.992654,"zip":75062,"phone":"972-255-1613","id":"a62k5cfcc1sv","address":"2532 N Belt Line Rd","lat":32.841615,"location":"Across Frm Irving Mall Sears","state":"TX"},"type":"Feature","geometry":{"type":"Point","coordinates":[-96.992654,32.841615]}},{"properties":{"city":"Arcadia","lon":-118.023246,"zip":91006,"phone":"626-446-9850","id":"a62k5cffewbj","address":"324 E Huntington Dr","lat":34.140018,"location":"Across From Bjs Restaurant","state":"CA"},"type":"Feature","geometry":{"type":"Point","coordinates":[-118.023246,34.140018]}},{"properties":{"city":"Grandville","lon":-85.742001,"zip":49418,"phone":"616-257-7280","id":"a62k5comkoai","address":"3125 28th St SW","lat":42.913724,"location":"Across From Borgman Ford","state":"MI"},"type":"Feature","geometry":{"type":"Point","coordinates":[-85.742001,42.913724]}},{"properties":{"city":"Salt Lake City","lon":-111.889508,"zip":84107,"phone":"801-261-1297","id":"a62k5cj25hjz","address":"6322 S State St","lat":40.634216,"location":"Across From Fashion Place","state":"UT"},"type":"Feature","geometry":{"type":"Point","coordinates":[-111.889508,40.634216]}},{"properties":{"city":"Clifton","lon":-74.182983,"zip":7013,"phone":"973-773-5200","id":"a62k5cjbu3gn","address":"1132 Route 46","lat":40.870281,"location":"Across From Fette Ford","state":"NJ"},"type":"Feature","geometry":{"type":"Point","coordinates":[-74.182983,40.870281]}},{"properties":{"city":"Round Rock","lon":-97.694123,"zip":78681,"phone":"512-246-1192","id":"a62k5chtfjoi","address":"1205 Round Rock Ave","lat":30.511574,"location":"Across From High School","state":"TX"},"type":"Feature","geometry":{"type":"Point","coordinates":[-97.694123,30.511574]}},{"properties":{"city":"Rochester","lon":-77.493664,"zip":14625,"phone":"585-387-0670","id":"a62k5cfduofn","address":"749 Panorama Trl S","lat":43.131757,"location":"Across From Home Depot","state":"NY"},"type":"Feature","geometry":{"type":"Point","coordinates":[-77.493664,43.131757]}},{"properties":{"city":"Winston Salem","lon":-80.320574,"zip":27103,"phone":"336-774-1188","id":"a62k5ctx587r","address":"1037 Hanes Mall Blvd","lat":36.067454,"location":"Across From Home Depot","state":"NC"},"type":"Feature","geometry":{"type":"Point","coordinates":[-80.320574,36.067454]}},{"properties":{"city":"Bethlehem","lon":-75.345867,"zip":18020,"phone":"610-882-5757","id":"a62k5chunpbb","address":"3801 Linden St","lat":40.673272,"location":"Across From Home Depot","state":"PA"},"type":"Feature","geometry":{"type":"Point","coordinates":[-75.345867,40.673272]}},{"properties":{"city":"Fresno","lon":-119.850537,"zip":93711,"phone":"559-222-5388","id":"a62k5crmnwq4","address":"3249 W Shaw Ave","lat":36.808064,"location":"Across From Home Depot","state":"CA"},"type":"Feature","geometry":{"type":"Point","coordinates":[-119.850537,36.808064]}},{"properties":{"city":"Saugus","lon":-118.541447,"zip":91350,"phone":"661-254-0748","id":"a62k5cs0hx12","address":"26264 Bouquet Canyon Rd","lat":34.421721,"location":"Across From K-Mart","state":"CA"},"type":"Feature","geometry":{"type":"Point","coordinates":[-118.541447,34.421721]}},{"properties":{"city":"Norfolk","lon":-76.185225,"zip":23502,"phone":"757-461-2042","id":"a62k5chr2cq8","address":"6414 E Virginia Beach Blvd","lat":36.855065,"location":"Across From Kimnach Ford","state":"VA"},"type":"Feature","geometry":{"type":"Point","coordinates":[-76.185225,36.855065]}},{"properties":{"city":"Southlake","lon":-97.115384,"zip":76092,"phone":"817-488-7670","id":"a62k5cl27xg0","address":"2315 E Southlake Blvd","lat":32.940441,"location":"Across From Lowes","state":"TX"},"type":"Feature","geometry":{"type":"Point","coordinates":[-97.115384,32.940441]}},{"properties":{"city":"Newington","lon":-72.722969,"zip":6111,"phone":"860-665-7699","id":"a62k5cexs1fc","address":"3221 Berlin Tpke","lat":41.660843,"location":"Across From Lowes Ctr","state":"CT"},"type":"Feature","geometry":{"type":"Point","coordinates":[-72.722969,41.660843]}},{"properties":{"city":"Strongsville","lon":-81.835405,"zip":44136,"phone":"440-846-1660","id":"a62k5ch5qc6i","address":"14568 Pearl Rd","lat":41.309017,"location":"Across From Mcdonalds","state":"OH"},"type":"Feature","geometry":{"type":"Point","coordinates":[-81.835405,41.309017]}},{"properties":{"city":"Merced","lon":-120.487921,"zip":95348,"phone":"209-384-1977","id":"a62k5cl3a7om","address":"1124 W Olive Ave","lat":37.319009,"location":"Across From Merced Mall","state":"CA"},"type":"Feature","geometry":{"type":"Point","coordinates":[-120.487921,37.319009]}},{"properties":{"city":"Tinley Park","lon":-87.79385,"zip":60477,"phone":"708-633-8353","id":"a62k5ch5vaaw","address":"15923 Harlem Ave","lat":41.60181,"location":"Across From Portillos","state":"IL"},"type":"Feature","geometry":{"type":"Point","coordinates":[-87.79385,41.60181]}},{"properties":{"city":"Wappingers Falls","lon":-73.91408,"zip":12590,"phone":"845-298-0583","id":"a62k5cu6q0lz","address":"1817 South Rd","lat":41.613469,"location":"Across From Route 9 Plaza","state":"NY"},"type":"Feature","geometry":{"type":"Point","coordinates":[-73.91408,41.613469]}},{"properties":{"city":"Boardman","lon":-80.658163,"zip":44512,"phone":"330-965-3667","id":"a62k5cnebk4g","address":"84 Boardman Poland Rd","lat":41.024479,"location":"Across From Southern Park Mall","state":"OH"},"type":"Feature","geometry":{"type":"Point","coordinates":[-80.658163,41.024479]}},{"properties":{"city":"Winter Haven","lon":-81.659498,"zip":33884,"phone":"863-326-9380","id":"a62k5cv2l0fr","address":"7050 Cypress Gardens Blvd","lat":27.978213,"location":"Across From State Farm","state":"FL"},"type":"Feature","geometry":{"type":"Point","coordinates":[-81.659498,27.978213]}},{"properties":{"city":"Norwalk","lon":-73.401115,"zip":6851,"phone":"203-845-8797","id":"a62k5crkxmao","address":"151 Westport Ave","lat":41.123596,"location":"Across From Stew Leonards","state":"CT"},"type":"Feature","geometry":{"type":"Point","coordinates":[-73.401115,41.123596]}},{"properties":{"city":"San Jose","lon":-121.931861,"zip":95128,"phone":"408-971-8033","id":"a62k5cmzzu70","address":"1355 S Bascom Ave","lat":37.300176,"location":"Across From The Dick Yee Cntr","state":"CA"},"type":"Feature","geometry":{"type":"Point","coordinates":[-121.931861,37.300176]}},{"properties":{"city":"Las Vegas","lon":-115.307259,"zip":89134,"phone":"702-228-0392","id":"a62k5ceo56be","address":"9691 Trailwood Dr","lat":36.191056,"location":"Across From Trails Vlge Ctr","state":"NV"},"type":"Feature","geometry":{"type":"Point","coordinates":[-115.307259,36.191056]}},{"properties":{"city":"Baton Rouge","lon":-91.141306,"zip":70808,"phone":"225-218-9774","id":"a62k5cr4jsal","address":"3151 College Dr","lat":30.41923,"location":"Across From Wal-Mart","state":"LA"},"type":"Feature","geometry":{"type":"Point","coordinates":[-91.141306,30.41923]}},{"properties":{"city":"Pasadena","lon":-95.161999,"zip":77505,"phone":"281-487-7707","id":"a62k5cselhr1","address":"5233 Fairmont Pkwy","lat":29.650059,"location":"Across From Wal-Mart","state":"TX"},"type":"Feature","geometry":{"type":"Point","coordinates":[-95.161999,29.650059]}},{"properties":{"city":"Manteca","lon":-121.215677,"zip":95337,"phone":"209-824-9774","id":"a62k5cf8k6dm","address":"1166 S Main St","lat":37.786754,"location":"Across From Wal-Mart","state":"CA"},"type":"Feature","geometry":{"type":"Point","coordinates":[-121.215677,37.786754]}},{"properties":{"city":"Little Rock","lon":-92.406997,"zip":72211,"phone":"501-228-4009","id":"a62k5cuz6wc1","address":"801 S Bowman Rd","lat":34.747826,"location":"Across From Walmart","state":"AR"},"type":"Feature","geometry":{"type":"Point","coordinates":[-92.406997,34.747826]}},{"properties":{"city":"Lancaster","lon":-118.171848,"zip":93536,"phone":"661-945-4421","id":"a62k5ctabr1d","address":"44530 Valley Central Way","lat":34.692703,"location":"Across From Walmart","state":"CA"},"type":"Feature","geometry":{"type":"Point","coordinates":[-118.171848,34.692703]}},{"properties":{"city":"Pottstown","lon":-75.659818,"zip":19464,"phone":"610-718-1173","id":"a62k5cgfrvwr","address":"204 Shoemaker Rd","lat":40.254456,"location":"Across From Walmart","state":"PA"},"type":"Feature","geometry":{"type":"Point","coordinates":[-75.659818,40.254456]}},{"properties":{"city":"Columbus","lon":-83.048602,"zip":43220,"phone":"614-459-8701","id":"a62k5cfwx3id","address":"1101 Bethel Rd","lat":40.063271,"location":"Across Refectory Steak House","state":"OH"},"type":"Feature","geometry":{"type":"Point","coordinates":[-83.048602,40.063271]}},{"properties":{"city":"Florissant","lon":-90.29998,"zip":63033,"phone":"314-830-9401","id":"a62k5ct8ynxs","address":"3025 N US Highway 67","lat":38.808814,"location":"Acrs Fr Cross Keys Plaza","state":"MO"},"type":"Feature","geometry":{"type":"Point","coordinates":[-90.29998,38.808814]}},{"properties":{"city":"Toledo","lon":-83.640121,"zip":43623,"phone":"419-475-5899","id":"a62k5cuo6sgy","address":"4962 Monroe St","lat":41.697647,"location":"Acrs Fr Franklin Pk Mall","state":"OH"},"type":"Feature","geometry":{"type":"Point","coordinates":[-83.640121,41.697647]}},{"properties":{"city":"Lombard","lon":-88.023509,"zip":60148,"phone":"630-953-1283","id":"a62k5cj9vvf2","address":"324 W Roosevelt Rd","lat":41.86006,"location":"Acrs Fr Heritage Cadillac","state":"IL"},"type":"Feature","geometry":{"type":"Point","coordinates":[-88.023509,41.86006]}},{"properties":{"city":"Jenkintown","lon":-75.125639,"zip":19046,"phone":"215-885-6927","id":"a62k5cft60d3","address":"636 Old York Rd","lat":40.100719,"location":"Acrs Fr Outback Steakhse","state":"PA"},"type":"Feature","geometry":{"type":"Point","coordinates":[-75.125639,40.100719]}},{"properties":{"city":"Wichita Falls","lon":-98.53496,"zip":76308,"phone":"940-691-9696","id":"a62k5ctz1vas","address":"3921 Kemp Blvd","lat":33.871292,"location":"Acrs Frm The Sikes Senter","state":"TX"},"type":"Feature","geometry":{"type":"Point","coordinates":[-98.53496,33.871292]}},{"properties":{"city":"Fort Worth","lon":-97.416198,"zip":76116,"phone":"817-731-2993","id":"a62k5cjex7sg","address":"6148 Camp Bowie Blvd","lat":32.728625,"location":"Acrs From Ridglea Theater","state":"TX"},"type":"Feature","geometry":{"type":"Point","coordinates":[-97.416198,32.728625]}},{"properties":{"city":"Yuma","lon":-114.624366,"zip":85364,"phone":"928-344-0471","id":"a62k5coqrw36","address":"3107 S 4th Ave","lat":32.671044,"location":"Acrs From South Gate Mall","state":"AZ"},"type":"Feature","geometry":{"type":"Point","coordinates":[-114.624366,32.671044]}},{"properties":{"city":"Feasterville Trevose","lon":-75.007963,"zip":19053,"phone":"215-364-5657","id":"a62k5cldfa0f","address":"201 W Street Rd","lat":40.154067,"location":"Acrss From Kmart","state":"PA"},"type":"Feature","geometry":{"type":"Point","coordinates":[-75.007963,40.154067]}},{"properties":{"city":"Hazlet","lon":-74.190765,"zip":7730,"phone":"732-264-5565","id":"a62k5ci0zeqt","address":"1470 State Route 36","lat":40.428616,"location":"Airport Plza Shopping Ctr","state":"NJ"},"type":"Feature","geometry":{"type":"Point","coordinates":[-74.190765,40.428616]}},{"properties":{"city":"Mobile","lon":-88.225604,"zip":36608,"phone":"251-776-7014","id":"a62k5cn23ymk","address":"312 Schillinger Rd S","lat":30.685264,"location":"Ambassador Plaza Ctr","state":"AL"},"type":"Feature","geometry":{"type":"Point","coordinates":[-88.225604,30.685264]}},{"properties":{"city":"Ardmore","lon":-75.296753,"zip":19003,"phone":"610-642-2127","id":"a62k5cfugbce","address":"40 Greenfield Ave","lat":40.008994,"location":"Ardmore Plaza Center","state":"PA"},"type":"Feature","geometry":{"type":"Point","coordinates":[-75.296753,40.008994]}},{"properties":{"city":"Pearland","lon":-95.379216,"zip":77584,"phone":"713-436-6525","id":"a62k5cg7nsuv","address":"10228 Broadway St","lat":29.555879,"location":"At County Rd 94 &amp; 518","state":"TX"},"type":"Feature","geometry":{"type":"Point","coordinates":[-95.379216,29.555879]}},{"properties":{"city":"Anaheim","lon":-117.941542,"zip":92802,"phone":"714-772-5980","id":"a62k5cn1ncwg","address":"801 S Euclid St","lat":33.821561,"location":"At Crone,Just N of Ball","state":"CA"},"type":"Feature","geometry":{"type":"Point","coordinates":[-117.941542,33.821561]}},{"properties":{"city":"Las Vegas","lon":-115.10062,"zip":89121,"phone":"702-458-1902","id":"a62k5cjiai7s","address":"3410 E Desert Inn Rd","lat":36.129841,"location":"At Desert Inn &amp; Pecos","state":"NV"},"type":"Feature","geometry":{"type":"Point","coordinates":[-115.10062,36.129841]}},{"properties":{"city":"Marietta","lon":-84.513648,"zip":30062,"phone":"770-565-3837","id":"a62k5cm4xx5i","address":"1320 Roswell Rd","lat":33.950645,"location":"At Powers Ferry, E of 75","state":"GA"},"type":"Feature","geometry":{"type":"Point","coordinates":[-84.513648,33.950645]}},{"properties":{"city":"Placentia","lon":-117.841025,"zip":92870,"phone":"714-996-8637","id":"a62k5cfeo8nv","address":"1226 E Yorba Linda Blvd","lat":33.888152,"location":"At Rose, Next To Sav-ON","state":"CA"},"type":"Feature","geometry":{"type":"Point","coordinates":[-117.841025,33.888152]}},{"properties":{"city":"Tucson","lon":-110.977335,"zip":85704,"phone":"520-292-1306","id":"a62k5ci8dfyr","address":"5971 N Oracle Rd","lat":32.315012,"location":"At Rudasill &amp; Oracle","state":"AZ"},"type":"Feature","geometry":{"type":"Point","coordinates":[-110.977335,32.315012]}},{"properties":{"city":"Winter Park","lon":-81.322402,"zip":32792,"phone":"407-671-8127","id":"a62k5ciz35av","address":"2245 Aloma Ave","lat":28.601142,"location":"At The Aloma Center","state":"FL"},"type":"Feature","geometry":{"type":"Point","coordinates":[-81.322402,28.601142]}},{"properties":{"city":"Billerica","lon":-71.269089,"zip":1821,"phone":"978-667-6810","id":"a62k5cmu5myz","address":"876 Boston Rd","lat":42.559437,"location":"B/W Cook St &amp; Autumn St","state":"MA"},"type":"Feature","geometry":{"type":"Point","coordinates":[-71.269089,42.559437]}},{"properties":{"city":"Brandon","lon":-82.272342,"zip":33511,"phone":"813-661-8748","id":"a62k5cpol6fv","address":"847 E Bloomingdale Ave","lat":27.893529,"location":"B/W Publix &amp; Blockbuster","state":"FL"},"type":"Feature","geometry":{"type":"Point","coordinates":[-82.272342,27.893529]}},{"properties":{"city":"Cincinnati","lon":-84.597103,"zip":45251,"phone":"513-741-0711","id":"a62k5cni4c8f","address":"9796 Colerain Ave","lat":39.250017,"location":"B/W Springdale Rd &amp; I-275","state":"OH"},"type":"Feature","geometry":{"type":"Point","coordinates":[-84.597103,39.250017]}},{"properties":{"city":"Chula Vista","lon":-117.051722,"zip":91910,"phone":"619-425-2209","id":"a62k5cr7s3uf","address":"316 E H St","lat":32.641214,"location":"B/W Vons and Marshalls","state":"CA"},"type":"Feature","geometry":{"type":"Point","coordinates":[-117.051722,32.641214]}},{"properties":{"city":"Melbourne","lon":-80.672196,"zip":32935,"phone":"321-254-3413","id":"a62k5cu7e9ts","address":"3680 N Wickham Rd","lat":28.1659,"location":"Bay Meadows Plaza","state":"FL"},"type":"Feature","geometry":{"type":"Point","coordinates":[-80.672196,28.1659]}},{"properties":{"city":"Aurora","lon":-88.206234,"zip":60504,"phone":"630-978-2725","id":"a62k5cs74j24","address":"485 S Route 59","lat":41.749261,"location":"Behind Applebee's","state":"IL"},"type":"Feature","geometry":{"type":"Point","coordinates":[-88.206234,41.749261]}},{"properties":{"city":"Newport News","lon":-76.498503,"zip":23602,"phone":"757-269-0504","id":"a62k5cq942ap","address":"12233 Jefferson Ave","lat":37.110756,"location":"Behind Applebees","state":"VA"},"type":"Feature","geometry":{"type":"Point","coordinates":[-76.498503,37.110756]}},{"properties":{"city":"Roseville","lon":-121.265896,"zip":95678,"phone":"916-789-4153","id":"a62k5ci76ogp","address":"6726 Stanford Ranch Rd","lat":38.782647,"location":"Behind Applebees","state":"CA"},"type":"Feature","geometry":{"type":"Point","coordinates":[-121.265896,38.782647]}},{"properties":{"city":"Davenport","lon":-81.669203,"zip":33897,"phone":"863-420-9120","id":"a62k5csdosgt","address":"111 Ambersweet Way","lat":28.312187,"location":"Behind Applebees Restaurant","state":"FL"},"type":"Feature","geometry":{"type":"Point","coordinates":[-81.669203,28.312187]}},{"properties":{"city":"Katy","lon":-95.752027,"zip":77450,"phone":"281-395-0666","id":"a62k5cs3jwj1","address":"430 S Mason Rd","lat":29.778845,"location":"Behind Black Eyed Pea","state":"TX"},"type":"Feature","geometry":{"type":"Point","coordinates":[-95.752027,29.778845]}},{"properties":{"city":"Enfield","lon":-72.5858,"zip":6082,"phone":"860-741-0661","id":"a62k5ckv84dc","address":"121 Elm St","lat":41.997795,"location":"Behind Burger King","state":"CT"},"type":"Feature","geometry":{"type":"Point","coordinates":[-72.5858,41.997795]}},{"properties":{"city":"Chatsworth","lon":-118.581023,"zip":91311,"phone":"818-773-9482","id":"a62k5ck8cpbf","address":"20543 Devonshire St","lat":34.257389,"location":"Behind Carrows Restaurant","state":"CA"},"type":"Feature","geometry":{"type":"Point","coordinates":[-118.581023,34.257389]}},{"properties":{"city":"Exton","lon":-75.630975,"zip":19341,"phone":"610-594-9170","id":"a62k5cs0dk6q","address":"260 N Pottstown Pike","lat":40.031908,"location":"Behind Mcdonalds","state":"PA"},"type":"Feature","geometry":{"type":"Point","coordinates":[-75.630975,40.031908]}},{"properties":{"city":"Fairless Hills","lon":-74.868157,"zip":19030,"phone":"215-945-4142","id":"a62k5cth7r1t","address":"110 Lincoln Hwy","lat":40.180836,"location":"Behind Mcdonalds &amp; Bp Gas","state":"PA"},"type":"Feature","geometry":{"type":"Point","coordinates":[-74.868157,40.180836]}},{"properties":{"city":"Olathe","lon":-94.759796,"zip":66062,"phone":"913-780-9992","id":"a62k5ciyxiwi","address":"14970 W 119th St","lat":38.913023,"location":"Behind Olive Garden","state":"KS"},"type":"Feature","geometry":{"type":"Point","coordinates":[-94.759796,38.913023]}},{"properties":{"city":"Omaha","lon":-96.133827,"zip":68144,"phone":"402-333-3003","id":"a62k5cfbza1i","address":"2721 S 140th St","lat":41.233544,"location":"Behind Red Lobster","state":"NE"},"type":"Feature","geometry":{"type":"Point","coordinates":[-96.133827,41.233544]}},{"properties":{"city":"Roswell","lon":-84.343476,"zip":30076,"phone":"770-641-1090","id":"a62k5ck6kudm","address":"10502 Alpharetta Hwy","lat":34.037362,"location":"Behind Stoney Rvr Steakhse","state":"GA"},"type":"Feature","geometry":{"type":"Point","coordinates":[-84.343476,34.037362]}},{"properties":{"city":"Las Vegas","lon":-115.261217,"zip":89131,"phone":"702-839-5300","id":"a62k5cs0243n","address":"6525 N Buffalo Dr","lat":36.281961,"location":"Behind Target Greatlands","state":"NV"},"type":"Feature","geometry":{"type":"Point","coordinates":[-115.261217,36.281961]}},{"properties":{"city":"Shenandoah","lon":-95.451139,"zip":77385,"phone":"281-298-1842","id":"a62k5cuah3bj","address":"19189 Interstate 45 S","lat":30.17722,"location":"Behind Walgreens &amp; Chevron","state":"TX"},"type":"Feature","geometry":{"type":"Point","coordinates":[-95.451139,30.17722]}},{"properties":{"city":"Carmichael","lon":-121.328156,"zip":95608,"phone":"916-488-6929","id":"a62k5cpqpqgg","address":"4005 Manzanita Ave","lat":38.63705,"location":"Bel Air Shopping Ctr","state":"CA"},"type":"Feature","geometry":{"type":"Point","coordinates":[-121.328156,38.63705]}},{"properties":{"city":"Antelope","lon":-121.364567,"zip":95843,"phone":"916-726-1888","id":"a62k5ckg9qhg","address":"7893 Walerga Rd","lat":38.712134,"location":"Bel Air Shopping Ctr","state":"CA"},"type":"Feature","geometry":{"type":"Point","coordinates":[-121.364567,38.712134]}},{"properties":{"city":"Cincinnati","lon":-84.304518,"zip":45255,"phone":"513-688-0013","id":"a62k5cm9j4wx","address":"550 Ohio Pike","lat":39.070818,"location":"Beside Home Depot","state":"OH"},"type":"Feature","geometry":{"type":"Point","coordinates":[-84.304518,39.070818]}},{"properties":{"city":"Cincinnati","lon":-84.609854,"zip":45238,"phone":"513-922-3373","id":"a62k5cryp4sn","address":"5038 Glencrossing Way","lat":39.130738,"location":"Beside Kinkos","state":"OH"},"type":"Feature","geometry":{"type":"Point","coordinates":[-84.609854,39.130738]}},{"properties":{"city":"Mountain View","lon":-122.097929,"zip":94040,"phone":"650-428-0947","id":"a62k5cok8i0p","address":"1945 W El Camino Real","lat":37.393736,"location":"Bet Kinkos &amp; Mens Wearhse","state":"CA"},"type":"Feature","geometry":{"type":"Point","coordinates":[-122.097929,37.393736]}},{"properties":{"city":"Lafayette","lon":-122.10856,"zip":94549,"phone":"925-299-8939","id":"a62k5cq7iaqk","address":"3389 MT Diablo Blvd","lat":37.89398,"location":"Bet Moraga &amp; Pleasant Hill","state":"CA"},"type":"Feature","geometry":{"type":"Point","coordinates":[-122.10856,37.89398]}},{"properties":{"city":"Louisville","lon":-85.844627,"zip":40258,"phone":"502-933-3500","id":"a62k5ck2tm5w","address":"8000 Dixie Hwy","lat":38.135534,"location":"Bet Oak Park &amp; Gene Snyder","state":"KY"},"type":"Feature","geometry":{"type":"Point","coordinates":[-85.844627,38.135534]}},{"properties":{"city":"Mobile","lon":-88.147465,"zip":36608,"phone":"251-342-1992","id":"a62k5cg7067m","address":"3945 Airport Blvd","lat":30.675686,"location":"Between Azalea &amp; I-65","state":"AL"},"type":"Feature","geometry":{"type":"Point","coordinates":[-88.147465,30.675686]}},{"properties":{"city":"Stockton","lon":-121.319274,"zip":95207,"phone":"209-478-4925","id":"a62k5cnzzaey","address":"6277 Pacific Ave","lat":38.007026,"location":"Between Ben Holt &amp; March Ln","state":"CA"},"type":"Feature","geometry":{"type":"Point","coordinates":[-121.319274,38.007026]}},{"properties":{"city":"Indianapolis","lon":-86.14148,"zip":46227,"phone":"317-882-1451","id":"a62k5clf3em7","address":"7565 US 31 S","lat":39.65666,"location":"Between Borders &amp; Petco","state":"IN"},"type":"Feature","geometry":{"type":"Point","coordinates":[-86.14148,39.65666]}},{"properties":{"city":"Chino Hills","lon":-117.747952,"zip":91709,"phone":"909-597-1310","id":"a62k5ctbv3t8","address":"2549 Chino Hills Pkwy","lat":33.984898,"location":"Between Grand &amp; Eucalyptus","state":"CA"},"type":"Feature","geometry":{"type":"Point","coordinates":[-117.747952,33.984898]}},{"properties":{"city":"Glendora","lon":-117.866198,"zip":91740,"phone":"626-331-4827","id":"a62k5ck4wbce","address":"219 W Arrow Hwy","lat":34.106807,"location":"Between Grand &amp; Glendora","state":"CA"},"type":"Feature","geometry":{"type":"Point","coordinates":[-117.866198,34.106807]}},{"properties":{"city":"Danvers","lon":-70.979324,"zip":1923,"phone":"978-762-7415","id":"a62k5cha5nmi","address":"8 Newbury St","lat":42.557384,"location":"Between I-95 &amp; Newbury St","state":"MA"},"type":"Feature","geometry":{"type":"Point","coordinates":[-70.979324,42.557384]}},{"properties":{"city":"Citrus Heights","lon":-121.282518,"zip":95610,"phone":"916-726-9501","id":"a62k5cguzxsl","address":"7656 Greenback Ln","lat":38.678159,"location":"Between Mariposa &amp; Sunrise","state":"CA"},"type":"Feature","geometry":{"type":"Point","coordinates":[-121.282518,38.678159]}},{"properties":{"city":"Brownsville","lon":-97.506282,"zip":78526,"phone":"956-546-8470","id":"a62k5cseqhsp","address":"2451 Pablo Kisel Blvd","lat":25.957424,"location":"Between Morrison &amp; FM 802","state":"TX"},"type":"Feature","geometry":{"type":"Point","coordinates":[-97.506282,25.957424]}},{"properties":{"city":"Wyomissing","lon":-75.978298,"zip":19610,"phone":"610-373-8300","id":"a62k5cnd66jh","address":"1183 Berkshire Blvd","lat":40.341103,"location":"Between Petsmart &amp; La Fitness","state":"PA"},"type":"Feature","geometry":{"type":"Point","coordinates":[-75.978298,40.341103]}},{"properties":{"city":"Livermore","lon":-121.78333,"zip":94550,"phone":"925-606-9004","id":"a62k5cqcslu9","address":"1002 E Stanley Blvd","lat":37.678807,"location":"Between Stanley &amp; Murrieta","state":"CA"},"type":"Feature","geometry":{"type":"Point","coordinates":[-121.78333,37.678807]}},{"properties":{"city":"Danville","lon":-121.996402,"zip":94526,"phone":"925-838-3090","id":"a62k5ciex38s","address":"494 San Ramon Valley Blvd","lat":37.817974,"location":"Between Sycamore &amp; Diablo Rd","state":"CA"},"type":"Feature","geometry":{"type":"Point","coordinates":[-121.996402,37.817974]}},{"properties":{"city":"Rosenberg","lon":-95.773394,"zip":77471,"phone":"832-595-2662","id":"a62k5cq2yibt","address":"7633 Town Center Blvd","lat":29.55476,"location":"Between Target &amp; Ross","state":"TX"},"type":"Feature","geometry":{"type":"Point","coordinates":[-95.773394,29.55476]}},{"properties":{"city":"Clovis","lon":-119.703468,"zip":93612,"phone":"559-322-9945","id":"a62k5cthngc1","address":"490 Shaw Ave","lat":36.808292,"location":"Big 5 / Petsmart Ctr","state":"CA"},"type":"Feature","geometry":{"type":"Point","coordinates":[-119.703468,36.808292]}},{"properties":{"city":"Cerritos","lon":-118.07938,"zip":90703,"phone":"562-402-3887","id":"a62k5cl2e1j9","address":"11900 South St","lat":33.858328,"location":"Blckbustr &amp; Sportmart Ctr","state":"CA"},"type":"Feature","geometry":{"type":"Point","coordinates":[-118.07938,33.858328]}},{"properties":{"city":"Plantation","lon":-80.243453,"zip":33317,"phone":"954-689-7249","id":"a62k5cubp8hn","address":"7149 W Broward Blvd","lat":26.121062,"location":"Broward Just E of University","state":"FL"},"type":"Feature","geometry":{"type":"Point","coordinates":[-80.243453,26.121062]}},{"properties":{"city":"Edmond","lon":-97.460252,"zip":73034,"phone":"405-844-0833","id":"a62k5coapwkj","address":"216 S Bryant Ave","lat":35.651849,"location":"Bryant Sq Shopping Ctr","state":"OK"},"type":"Feature","geometry":{"type":"Point","coordinates":[-97.460252,35.651849]}},{"properties":{"city":"Houston","lon":-95.524588,"zip":77024,"phone":"713-932-0162","id":"a62k5cpcegne","address":"9401 Katy Fwy","lat":29.783622,"location":"Btw Bunker Hill &amp; Blalock","state":"TX"},"type":"Feature","geometry":{"type":"Point","coordinates":[-95.524588,29.783622]}},{"properties":{"city":"Las Vegas","lon":-115.211985,"zip":89146,"phone":"702-878-0956","id":"a62k5cryoh46","address":"5225 W Charleston Blvd","lat":36.158932,"location":"Btw Decatur &amp; Jones","state":"NV"},"type":"Feature","geometry":{"type":"Point","coordinates":[-115.211985,36.158932]}},{"properties":{"city":"Cypress","lon":-95.696308,"zip":77429,"phone":"281-758-0772","id":"a62k5cpos0bj","address":"26084 Highway 290","lat":29.973262,"location":"Btw Home Depot/Walmart","state":"TX"},"type":"Feature","geometry":{"type":"Point","coordinates":[-95.696308,29.973262]}},{"properties":{"city":"Houston","lon":-95.453397,"zip":77090,"phone":"281-586-7808","id":"a62k5ciwhsui","address":"1600 FM 1960 Rd W","lat":30.012852,"location":"Btw I-45 &amp; Kuykendahl","state":"TX"},"type":"Feature","geometry":{"type":"Point","coordinates":[-95.453397,30.012852]}},{"properties":{"city":"Jonesboro","lon":-84.363582,"zip":30236,"phone":"770-471-6243","id":"a62k5ctth9yw","address":"8415 Tara Blvd","lat":33.52476,"location":"Btw N Ave &amp; Smith St","state":"GA"},"type":"Feature","geometry":{"type":"Point","coordinates":[-84.363582,33.52476]}},{"properties":{"city":"Freehold","lon":-74.280098,"zip":7728,"phone":"732-303-9911","id":"a62k5cjf4wz6","address":"3681 Route 9 N","lat":40.243629,"location":"By Burlington Coat Factory","state":"NJ"},"type":"Feature","geometry":{"type":"Point","coordinates":[-74.280098,40.243629]}},{"properties":{"city":"Fresno","lon":-119.790532,"zip":93710,"phone":"559-431-9092","id":"a62k5ctr7ca8","address":"6689 N Blackstone Ave","lat":36.835497,"location":"By Cingular Wireless","state":"CA"},"type":"Feature","geometry":{"type":"Point","coordinates":[-119.790532,36.835497]}},{"properties":{"city":"Grand Prairie","lon":-97.007082,"zip":75052,"phone":"972-262-1255","id":"a62k5crme4x7","address":"3824 S Carrier Pkwy","lat":32.679757,"location":"By Home Depot &amp; Starbcks","state":"TX"},"type":"Feature","geometry":{"type":"Point","coordinates":[-97.007082,32.679757]}},{"properties":{"city":"Norman","lon":-97.483387,"zip":73072,"phone":"405-292-6755","id":"a62k5ci92nna","address":"676 Ed Noble Pkwy","lat":35.209866,"location":"By Home Depot Ctr","state":"OK"},"type":"Feature","geometry":{"type":"Point","coordinates":[-97.483387,35.209866]}},{"properties":{"city":"Fremont","lon":-122.024016,"zip":94536,"phone":"510-792-1421","id":"a62k5cqg1vrk","address":"35700 Fremont Blvd","lat":37.566893,"location":"By Longs Drugs","state":"CA"},"type":"Feature","geometry":{"type":"Point","coordinates":[-122.024016,37.566893]}},{"properties":{"city":"Duluth","lon":-84.189664,"zip":30097,"phone":"770-232-4738","id":"a62k5cjtfij8","address":"5805 State Bridge Rd","lat":34.017992,"location":"By Office Depot &amp; Whle Fds","state":"GA"},"type":"Feature","geometry":{"type":"Point","coordinates":[-84.189664,34.017992]}},{"properties":{"city":"Charlotte","lon":-80.862396,"zip":28226,"phone":"704-341-8082","id":"a62k5chr12be","address":"8500 Pineville Matthews Rd","lat":35.087647,"location":"By Peak Fitness","state":"NC"},"type":"Feature","geometry":{"type":"Point","coordinates":[-80.862396,35.087647]}},{"properties":{"city":"Kensington","lon":-77.105474,"zip":20895,"phone":"301-881-7971","id":"a62k5cen6f37","address":"5200 Nicholson Ln","lat":39.04496,"location":"By Shoppers Warehouse","state":"MD"},"type":"Feature","geometry":{"type":"Point","coordinates":[-77.105474,39.04496]}},{"properties":{"city":"Snellville","lon":-84.01343,"zip":30078,"phone":"770-736-4774","id":"a62k5clht3yd","address":"1630 Highway 124 N","lat":33.876015,"location":"By Steak-N-Shake","state":"GA"},"type":"Feature","geometry":{"type":"Point","coordinates":[-84.01343,33.876015]}},{"properties":{"city":"San Carlos","lon":-122.257619,"zip":94070,"phone":"650-592-6900","id":"a62k5cnf4x44","address":"770 El Camino Real","lat":37.504882,"location":"By The Lighthouse","state":"CA"},"type":"Feature","geometry":{"type":"Point","coordinates":[-122.257619,37.504882]}},{"properties":{"city":"Arlington","lon":-97.131853,"zip":76012,"phone":"817-265-4291","id":"a62k5csjzv1j","address":"1104 N Fielder Rd","lat":32.750599,"location":"By Tom Thumb &amp; Starbucks","state":"TX"},"type":"Feature","geometry":{"type":"Point","coordinates":[-97.131853,32.750599]}},{"properties":{"city":"Keller","lon":-97.231798,"zip":76248,"phone":"817-431-1143","id":"a62k5ck79mi8","address":"940 Keller Pkwy","lat":32.934071,"location":"By Town Center W/ Kroger","state":"TX"},"type":"Feature","geometry":{"type":"Point","coordinates":[-97.231798,32.934071]}},{"properties":{"city":"Milpitas","lon":-121.885084,"zip":95035,"phone":"408-942-1353","id":"a62k5cjoab6c","address":"1261 E Calaveras Blvd","lat":37.435587,"location":"By Washington Mutual Bank","state":"CA"},"type":"Feature","geometry":{"type":"Point","coordinates":[-121.885084,37.435587]}},{"properties":{"city":"Plano","lon":-96.707343,"zip":75075,"phone":"972-578-7571","id":"a62k5csbuzn5","address":"230 W Parker Rd","lat":33.038526,"location":"Cambridge Square Center","state":"TX"},"type":"Feature","geometry":{"type":"Point","coordinates":[-96.707343,33.038526]}},{"properties":{"city":"Sunnyvale","lon":-122.025724,"zip":94087,"phone":"408-730-8424","id":"a62k5cjj9op3","address":"569 E El Camino Real","lat":37.362672,"location":"Camino Oaks Plaza","state":"CA"},"type":"Feature","geometry":{"type":"Point","coordinates":[-122.025724,37.362672]}},{"properties":{"city":"Port St Lucie","lon":-80.382655,"zip":34986,"phone":"772-871-1537","id":"a62k5cemponu","address":"938 SW Saint Lucie West Blvd","lat":27.317208,"location":"Cashmere Corners Ii","state":"FL"},"type":"Feature","geometry":{"type":"Point","coordinates":[-80.382655,27.317208]}},{"properties":{"city":"Troy","lon":-83.127916,"zip":48083,"phone":"248-680-1330","id":"a62k5cil9449","address":"3662 Rochester Rd","lat":42.571954,"location":"Century Plaza","state":"MI"},"type":"Feature","geometry":{"type":"Point","coordinates":[-83.127916,42.571954]}},{"properties":{"city":"Houston","lon":-95.513854,"zip":77069,"phone":"281-537-6880","id":"a62k5cleoc80","address":"5610 FM 1960 Rd W","lat":29.979521,"location":"Champion Frst &amp; 1960","state":"TX"},"type":"Feature","geometry":{"type":"Point","coordinates":[-95.513854,29.979521]}},{"properties":{"city":"Houston","lon":-95.412741,"zip":77096,"phone":"713-728-4400","id":"a62k5cleq8y3","address":"70 Braeswood Sq","lat":29.698162,"location":"Chimney Rock &amp; Braeswood","state":"TX"},"type":"Feature","geometry":{"type":"Point","coordinates":[-95.412741,29.698162]}},{"properties":{"city":"Tucson","lon":-111.008384,"zip":85705,"phone":"520-887-5446","id":"a62k5ci6lu1d","address":"1959 W Mcmillan St","lat":32.278782,"location":"Cnr Mcmillian &amp; Suntran","state":"AZ"},"type":"Feature","geometry":{"type":"Point","coordinates":[-111.008384,32.278782]}},{"properties":{"city":"North Hollywood","lon":-118.413962,"zip":91606,"phone":"818-984-0409","id":"a62k5cfmw9i3","address":"6353 Coldwater Canyon Ave","lat":34.185817,"location":"Coldwater &amp; Victory","state":"CA"},"type":"Feature","geometry":{"type":"Point","coordinates":[-118.413962,34.185817]}},{"properties":{"city":"Wilmington","lon":-75.549231,"zip":19803,"phone":"302-478-1170","id":"a62k5cga1lg1","address":"4411 Concord Pike","lat":39.815083,"location":"Concord Square","state":"DE"},"type":"Feature","geometry":{"type":"Point","coordinates":[-75.549231,39.815083]}},{"properties":{"city":"Henderson","lon":-114.978958,"zip":89015,"phone":"702-566-2334","id":"a62k5cf6kshy","address":"256 E Lake Mead Pkwy","lat":36.041539,"location":"Cor Lake Mead &amp; Boulder Hwy","state":"NV"},"type":"Feature","geometry":{"type":"Point","coordinates":[-114.978958,36.041539]}},{"properties":{"city":"Pittsburg","lon":-121.837776,"zip":94565,"phone":"925-706-1897","id":"a62k5cojibwz","address":"4517 Century Blvd","lat":38.006319,"location":"Cor of Century &amp; Sommersville","state":"CA"},"type":"Feature","geometry":{"type":"Point","coordinates":[-121.837776,38.006319]}},{"properties":{"city":"Pleasant Hill","lon":-122.06138,"zip":94523,"phone":"925-686-4975","id":"a62k5crg9gr7","address":"25 Vivian Dr","lat":37.951564,"location":"Cor of Vivian &amp; Contra Costa","state":"CA"},"type":"Feature","geometry":{"type":"Point","coordinates":[-122.06138,37.951564]}},{"properties":{"city":"Tracy","lon":-121.449619,"zip":95376,"phone":"209-839-9880","id":"a62k5ci05s1x","address":"1851 W 11th St","lat":37.739582,"location":"Corner of 11th &amp; Corral Hollow","state":"CA"},"type":"Feature","geometry":{"type":"Point","coordinates":[-121.449619,37.739582]}},{"properties":{"city":"Fort Mohave","lon":-114.598124,"zip":86426,"phone":"928-330-3610","id":"a62k5cgq9hoj","address":"4723 S Highway 95","lat":35.019546,"location":"Corner of 95 S &amp; Aztec Rd","state":"AZ"},"type":"Feature","geometry":{"type":"Point","coordinates":[-114.598124,35.019546]}},{"properties":{"city":"Concord","lon":-121.968739,"zip":94521,"phone":"925-676-2855","id":"a62k5cnkhndi","address":"5100 Clayton Rd","lat":37.955946,"location":"Corner of Ayers &amp; Clayton","state":"CA"},"type":"Feature","geometry":{"type":"Point","coordinates":[-121.968739,37.955946]}},{"properties":{"city":"San Antonio","lon":-98.48723,"zip":78216,"phone":"210-496-7311","id":"a62k5crf2qdq","address":"300 W Bitters Rd","lat":29.568398,"location":"Corner of Bitters &amp; West","state":"TX"},"type":"Feature","geometry":{"type":"Point","coordinates":[-98.48723,29.568398]}},{"properties":{"city":"Las Vegas","lon":-115.251363,"zip":89129,"phone":"702-656-4722","id":"a62k5coetdt3","address":"3250 N Tenaya Way","lat":36.220065,"location":"Corner of Cheyenne &amp; Tenaya","state":"NV"},"type":"Feature","geometry":{"type":"Point","coordinates":[-115.251363,36.220065]}},{"properties":{"city":"Redding","lon":-122.362106,"zip":96002,"phone":"530-221-2694","id":"a62k5cf3wqle","address":"535 E Cypress Ave","lat":40.570912,"location":"Corner of Cypress &amp; Bechelli","state":"CA"},"type":"Feature","geometry":{"type":"Point","coordinates":[-122.362106,40.570912]}},{"properties":{"city":"Chico","lon":-121.801326,"zip":95928,"phone":"530-566-1178","id":"a62k5cjf6mzk","address":"2015 Forest Ave","lat":39.725739,"location":"Corner of East 20th &amp; Forest","state":"CA"},"type":"Feature","geometry":{"type":"Point","coordinates":[-121.801326,39.725739]}},{"properties":{"city":"North Las Vegas","lon":-115.177762,"zip":89084,"phone":"702-293-7692","id":"a62k5cswwg0q","address":"6945 Aliante Pkwy","lat":36.286931,"location":"Corner of I-215 &amp; Aliante Pkwy","state":"NV"},"type":"Feature","geometry":{"type":"Point","coordinates":[-115.177762,36.286931]}},{"properties":{"city":"Santa Rosa","lon":-122.716976,"zip":95401,"phone":"707-573-1522","id":"a62k5cpvphyd","address":"2180 Mendocino Ave","lat":38.46084,"location":"Corner of Lewis &amp; Mendocino","state":"CA"},"type":"Feature","geometry":{"type":"Point","coordinates":[-122.716976,38.46084]}},{"properties":{"city":"Antioch","lon":-121.735803,"zip":94531,"phone":"925-779-1350","id":"a62k5cjeeywa","address":"5859 Lone Tree Way","lat":37.961833,"location":"Corner of Lone Tree &amp; Slatton","state":"CA"},"type":"Feature","geometry":{"type":"Point","coordinates":[-121.735803,37.961833]}},{"properties":{"city":"Las Vegas","lon":-115.061985,"zip":89110,"phone":"702-437-6778","id":"a62k5cib5ga4","address":"354 N Nellis Blvd","lat":36.165602,"location":"Corner of Nellis &amp; Stewart","state":"NV"},"type":"Feature","geometry":{"type":"Point","coordinates":[-115.061985,36.165602]}},{"properties":{"city":"Walnut Creek","lon":-122.016499,"zip":94598,"phone":"925-256-1296","id":"a62k5cnusnek","address":"2971 Ygnacio Valley Rd","lat":37.926476,"location":"Corner of Oak Grove &amp; Ygnacio","state":"CA"},"type":"Feature","geometry":{"type":"Point","coordinates":[-122.016499,37.926476]}},{"properties":{"city":"Orlando","lon":-81.407679,"zip":32837,"phone":"407-438-2051","id":"a62k5ck9ai63","address":"2100 Consulate Dr","lat":28.429898,"location":"Corner of Obt &amp; Consulate Dr","state":"FL"},"type":"Feature","geometry":{"type":"Point","coordinates":[-81.407679,28.429898]}},{"properties":{"city":"Vacaville","lon":-121.961214,"zip":95687,"phone":"707-446-2896","id":"a62k5cosxo2v","address":"1061 Helen Power Dr","lat":38.365,"location":"Corner of Orange &amp; Helen Power","state":"CA"},"type":"Feature","geometry":{"type":"Point","coordinates":[-121.961214,38.365]}},{"properties":{"city":"Eatontown","lon":-74.051491,"zip":7724,"phone":"732-542-4884","id":"a62k5cputqb0","address":"178 State Route 35 S","lat":40.287621,"location":"Corner of Route 35 &amp; 36","state":"NJ"},"type":"Feature","geometry":{"type":"Point","coordinates":[-74.051491,40.287621]}},{"properties":{"city":"Las Vegas","lon":-115.298117,"zip":89117,"phone":"702-562-3007","id":"a62k5ch77l8j","address":"9310 W Sahara Ave","lat":36.144667,"location":"Corner of Sahara &amp; Ft Apache","state":"NV"},"type":"Feature","geometry":{"type":"Point","coordinates":[-115.298117,36.144667]}},{"properties":{"city":"Las Vegas","lon":-115.093499,"zip":89120,"phone":"702-433-5001","id":"a62k5cnb6hsn","address":"3740 E Sunset Rd","lat":36.071462,"location":"Corner of Sunset &amp; Sandhill","state":"NV"},"type":"Feature","geometry":{"type":"Point","coordinates":[-115.093499,36.071462]}},{"properties":{"city":"Albuquerque","lon":-106.653012,"zip":87114,"phone":"505-897-0826","id":"a62k5ctii11v","address":"3707 Ellison Rd NW","lat":35.207926,"location":"Cottonwood Crnrs Shop Ctr","state":"NM"},"type":"Feature","geometry":{"type":"Point","coordinates":[-106.653012,35.207926]}},{"properties":{"city":"Houston","lon":-95.607687,"zip":77079,"phone":"281-679-5039","id":"a62k5cfty5r7","address":"14654 Memorial Dr","lat":29.770186,"location":"Crnr Dairy Ash &amp; Memorial","state":"TX"},"type":"Feature","geometry":{"type":"Point","coordinates":[-95.607687,29.770186]}},{"properties":{"city":"Warminster","lon":-75.099937,"zip":18974,"phone":"215-957-6035","id":"a62k5cnlkat6","address":"606 York Rd","lat":40.207384,"location":"Crnr of Street &amp; Yorks Rd","state":"PA"},"type":"Feature","geometry":{"type":"Point","coordinates":[-75.099937,40.207384]}},{"properties":{"city":"Marietta","lon":-84.650089,"zip":30064,"phone":"678-331-3184","id":"a62k5cl7lkor","address":"3405 Dallas Hwy SW","lat":33.953135,"location":"Dallas Hwy &amp; Bob Cox Rd","state":"GA"},"type":"Feature","geometry":{"type":"Point","coordinates":[-84.650089,33.953135]}},{"properties":{"city":"Miami","lon":-80.33555,"zip":33176,"phone":"305-251-0439","id":"a62k5ctxq22g","address":"14011 S Dixie Hwy","lat":25.640272,"location":"E Side of Dixie At 136th St","state":"FL"},"type":"Feature","geometry":{"type":"Point","coordinates":[-80.33555,25.640272]}},{"properties":{"city":"Woodstock","lon":-84.523916,"zip":30188,"phone":"678-445-7024","id":"a62k5cmlynf7","address":"9745 Highway 92","lat":34.086304,"location":"E of 575 By Moes/Quicktrp","state":"GA"},"type":"Feature","geometry":{"type":"Point","coordinates":[-84.523916,34.086304]}},{"properties":{"city":"City of Industry","lon":-117.923384,"zip":91748,"phone":"626-965-6505","id":"a62k5coafn7n","address":"17547 Colima Rd","lat":33.990614,"location":"E of Azuza By Petco","state":"CA"},"type":"Feature","geometry":{"type":"Point","coordinates":[-117.923384,33.990614]}},{"properties":{"city":"North Olmsted","lon":-81.900148,"zip":44070,"phone":"440-716-1665","id":"a62k5cqazcf9","address":"25128 Lorain Rd","lat":41.424523,"location":"E of Grt Northern Mall","state":"OH"},"type":"Feature","geometry":{"type":"Point","coordinates":[-81.900148,41.424523]}},{"properties":{"city":"Orange","lon":-117.816638,"zip":92869,"phone":"714-771-1136","id":"a62k5cmpoy0y","address":"3444 E Chapman Ave","lat":33.787661,"location":"E of Prospect Nr Carls Jr","state":"CA"},"type":"Feature","geometry":{"type":"Point","coordinates":[-117.816638,33.787661]}},{"properties":{"city":"Burbank","lon":-118.336057,"zip":91506,"phone":"818-955-8478","id":"a62k5ck6v7yv","address":"2301 W Victory Blvd","lat":34.184638,"location":"East of Buena Vista","state":"CA"},"type":"Feature","geometry":{"type":"Point","coordinates":[-118.336057,34.184638]}},{"properties":{"city":"Green Brook","lon":-74.473869,"zip":8812,"phone":"732-424-1418","id":"a62k5ch2k8sg","address":"119 US Highway 22","lat":40.604309,"location":"East of Washington Ave","state":"NJ"},"type":"Feature","geometry":{"type":"Point","coordinates":[-74.473869,40.604309]}},{"properties":{"city":"Granada Hills","lon":-118.518138,"zip":91344,"phone":"818-368-5719","id":"a62k5cg7zjrm","address":"17618 Chatsworth St","lat":34.264707,"location":"East of White Oak","state":"CA"},"type":"Feature","geometry":{"type":"Point","coordinates":[-118.518138,34.264707]}},{"properties":{"city":"Shreveport","lon":-93.715553,"zip":71105,"phone":"318-797-2619","id":"a62k5cu6h6ss","address":"1720 E 70th St","lat":32.443553,"location":"Eastgate Shopping Center","state":"LA"},"type":"Feature","geometry":{"type":"Point","coordinates":[-93.715553,32.443553]}},{"properties":{"city":"Chesapeake","lon":-76.23864,"zip":23320,"phone":"757-523-6155","id":"a62k5cpnfj7p","address":"836 Eden Way N","lat":36.772933,"location":"Eastside of Crossways Ctr","state":"VA"},"type":"Feature","geometry":{"type":"Point","coordinates":[-76.23864,36.772933]}},{"properties":{"city":"Macon","lon":-83.712226,"zip":31206,"phone":"478-474-0299","id":"a62k5cn4875y","address":"4632f Presidential Pkwy","lat":32.820557,"location":"Eisenhower Xing By Kroger","state":"GA"},"type":"Feature","geometry":{"type":"Point","coordinates":[-83.712226,32.820557]}},{"properties":{"city":"Killeen","lon":-97.724728,"zip":76542,"phone":"254-634-5736","id":"a62k5ckbac5p","address":"1512 Lowes Blvd","lat":31.089414,"location":"Expressway Plaza Shop Ctr","state":"TX"},"type":"Feature","geometry":{"type":"Point","coordinates":[-97.724728,31.089414]}},{"properties":{"city":"Houston","lon":-95.585083,"zip":77065,"phone":"281-955-5085","id":"a62k5cj7yek1","address":"10723 Jones Rd","lat":29.928188,"location":"FM 1960 &amp; Jones Rd","state":"TX"},"type":"Feature","geometry":{"type":"Point","coordinates":[-95.585083,29.928188]}},{"properties":{"city":"Houston","lon":-95.645492,"zip":77095,"phone":"281-858-7088","id":"a62k5cu9aimb","address":"7075 Highway 6 N","lat":29.881453,"location":"FM 529 &amp; Hwy 6,W/Randalls","state":"TX"},"type":"Feature","geometry":{"type":"Point","coordinates":[-95.645492,29.881453]}},{"properties":{"city":"Augusta","lon":-82.032099,"zip":30909,"phone":"706-733-4111","id":"a62k5cerxlyu","address":"2825 Washington Rd","lat":33.510667,"location":"Fairway Square","state":"GA"},"type":"Feature","geometry":{"type":"Point","coordinates":[-82.032099,33.510667]}},{"properties":{"city":"Escondido","lon":-117.078592,"zip":92025,"phone":"760-738-4224","id":"a62k5cm2qhti","address":"1611 S Centre City Pkwy","lat":33.107218,"location":"Felicita By Jimbos/Subway","state":"CA"},"type":"Feature","geometry":{"type":"Point","coordinates":[-117.078592,33.107218]}},{"properties":{"city":"Whittier","lon":-117.984553,"zip":90603,"phone":"562-947-4016","id":"a62k5ckaqq85","address":"16221 Whittier Blvd","lat":33.941142,"location":"First Ave, Next To Ortho","state":"CA"},"type":"Feature","geometry":{"type":"Point","coordinates":[-117.984553,33.941142]}},{"properties":{"city":"Birmingham","lon":-86.80626,"zip":35216,"phone":"205-823-8722","id":"a62k5cqd04h5","address":"1588 Montgomery Hwy","lat":33.403139,"location":"Former Color Tile","state":"AL"},"type":"Feature","geometry":{"type":"Point","coordinates":[-86.80626,33.403139]}},{"properties":{"city":"Selma","lon":-98.324491,"zip":78154,"phone":"210-566-9709","id":"a62k5crtunk7","address":"8335 Agora Pkwy","lat":29.57363,"location":"Forum - Across From Bealls","state":"TX"},"type":"Feature","geometry":{"type":"Point","coordinates":[-98.324491,29.57363]}},{"properties":{"city":"Germantown","lon":-89.801076,"zip":38138,"phone":"901-754-3745","id":"a62k5cev3nrv","address":"7850 Poplar Ave","lat":35.089098,"location":"Germantown Collection Ctr","state":"TN"},"type":"Feature","geometry":{"type":"Point","coordinates":[-89.801076,35.089098]}},{"properties":{"city":"Hendersonville","lon":-86.622087,"zip":37075,"phone":"615-822-6041","id":"a62k5cucb0ih","address":"1050 Glenbrook Way","lat":36.332123,"location":"Glenbrook Shopping Center","state":"TN"},"type":"Feature","geometry":{"type":"Point","coordinates":[-86.622087,36.332123]}},{"properties":{"city":"Fort Worth","lon":-97.398363,"zip":76133,"phone":"817-370-9384","id":"a62k5ctmtgh2","address":"6120 S Hulen St","lat":32.658546,"location":"Granbury Rd &amp; Hulen","state":"TX"},"type":"Feature","geometry":{"type":"Point","coordinates":[-97.398363,32.658546]}},{"properties":{"city":"Victorville","lon":-117.294095,"zip":92395,"phone":"760-843-0580","id":"a62k5ch245bb","address":"16940 Bear Valley Rd","lat":34.471047,"location":"HI Desert Plaza","state":"CA"},"type":"Feature","geometry":{"type":"Point","coordinates":[-117.294095,34.471047]}},{"properties":{"city":"Encino","lon":-118.473998,"zip":91436,"phone":"818-906-0573","id":"a62k5cna3w7c","address":"15617 Ventura Blvd","lat":34.155183,"location":"Haskell &amp; Ventura","state":"CA"},"type":"Feature","geometry":{"type":"Point","coordinates":[-118.473998,34.155183]}},{"properties":{"city":"Springfield","lon":-72.484482,"zip":1129,"phone":"413-543-0765","id":"a62k5cm9geg7","address":"1770 Boston Rd","lat":42.145405,"location":"Haymarket Square Plaza","state":"MA"},"type":"Feature","geometry":{"type":"Point","coordinates":[-72.484482,42.145405]}},{"properties":{"city":"Dallas","lon":-96.784719,"zip":75248,"phone":"972-931-9045","id":"a62k5cplgw1m","address":"7114 Campbell Rd","lat":32.979022,"location":"Hillcrest &amp; Campbell","state":"TX"},"type":"Feature","geometry":{"type":"Point","coordinates":[-96.784719,32.979022]}},{"properties":{"city":"Norristown","lon":-75.319009,"zip":19401,"phone":"610-277-8688","id":"a62k5cldg4wy","address":"104b W Germantown Pike","lat":40.145234,"location":"Hillcrest Shopping Ctr","state":"PA"},"type":"Feature","geometry":{"type":"Point","coordinates":[-75.319009,40.145234]}},{"properties":{"city":"Houston","lon":-95.426584,"zip":77025,"phone":"713-661-5544","id":"a62k5cp27fpl","address":"3143 W Holcombe Blvd","lat":29.705891,"location":"Holcombe &amp; Buffalo Speedway","state":"TX"},"type":"Feature","geometry":{"type":"Point","coordinates":[-95.426584,29.705891]}},{"properties":{"city":"Roanoke","lon":-97.220534,"zip":76262,"phone":"817-490-9050","id":"a62k5ck1elta","address":"1224 N Highway 377","lat":33.012822,"location":"Home Depot &amp; Walmart Ctr","state":"TX"},"type":"Feature","geometry":{"type":"Point","coordinates":[-97.220534,33.012822]}},{"properties":{"city":"Palmdale","lon":-118.13516,"zip":93551,"phone":"661-267-6298","id":"a62k5cqc6gyv","address":"422 W Avenue P","lat":34.601617,"location":"Home Depot Center","state":"CA"},"type":"Feature","geometry":{"type":"Point","coordinates":[-118.13516,34.601617]}},{"properties":{"city":"Southington","lon":-72.873444,"zip":6489,"phone":"860-628-4448","id":"a62k5ck2bmn3","address":"709 Queen St","lat":41.635674,"location":"Home Depot Plaza","state":"CT"},"type":"Feature","geometry":{"type":"Point","coordinates":[-72.873444,41.635674]}},{"properties":{"city":"North Haven","lon":-72.871643,"zip":6473,"phone":"203-234-9066","id":"a62k5cp1ky7b","address":"355 Universal Dr N","lat":41.356178,"location":"Home Depot Shopping Plaza","state":"CT"},"type":"Feature","geometry":{"type":"Point","coordinates":[-72.871643,41.356178]}},{"properties":{"city":"Port Jefferson Station","lon":-73.051746,"zip":11776,"phone":"631-642-1836","id":"a62k5cff1lgr","address":"5020 Nesconset Hwy","lat":40.920889,"location":"Homegoods Shopping Ctr","state":"NY"},"type":"Feature","geometry":{"type":"Point","coordinates":[-73.051746,40.920889]}},{"properties":{"city":"Howell","lon":-74.229012,"zip":7731,"phone":"732-367-7776","id":"a62k5cr5u3vj","address":"4060 US Highway 9","lat":40.153812,"location":"Howell Plaza","state":"NJ"},"type":"Feature","geometry":{"type":"Point","coordinates":[-74.229012,40.153812]}},{"properties":{"city":"Bel Air","lon":-76.353911,"zip":21014,"phone":"410-638-1787","id":"a62k5cjiyi4w","address":"580 Baltimore Pike","lat":39.527095,"location":"Hwy 24 &amp; Business Rt 1","state":"MD"},"type":"Feature","geometry":{"type":"Point","coordinates":[-76.353911,39.527095]}},{"properties":{"city":"Sugar Land","lon":-95.586929,"zip":77478,"phone":"281-265-7732","id":"a62k5ck2l74g","address":"4403 Highway 6","lat":29.583575,"location":"Hwy 6 &amp; Frost W/ Kinkos","state":"TX"},"type":"Feature","geometry":{"type":"Point","coordinates":[-95.586929,29.583575]}},{"properties":{"city":"Houston","lon":-95.185161,"zip":77015,"phone":"713-455-2275","id":"a62k5cj2x7by","address":"13439 East Fwy","lat":29.771142,"location":"I-10 &amp; Uvalde W/ Office Depot","state":"TX"},"type":"Feature","geometry":{"type":"Point","coordinates":[-95.185161,29.771142]}},{"properties":{"city":"Buckeye","lon":-112.556584,"zip":85326,"phone":"623-474-6771","id":"a62k5cfcy1sx","address":"818 S Watson Rd","lat":33.439111,"location":"I-10 &amp; Watson Rd","state":"AZ"},"type":"Feature","geometry":{"type":"Point","coordinates":[-112.556584,33.439111]}},{"properties":{"city":"North Charleston","lon":-80.022493,"zip":29406,"phone":"843-797-7501","id":"a62k5cr9hfww","address":"6185 Rivers Ave","lat":32.907286,"location":"In Aviation Square","state":"SC"},"type":"Feature","geometry":{"type":"Point","coordinates":[-80.022493,32.907286]}},{"properties":{"city":"Taylor","lon":-83.250661,"zip":48180,"phone":"734-287-6997","id":"a62k5cqbrmyj","address":"22277 Eureka Rd","lat":42.197855,"location":"In Burlington Sq Ctr","state":"MI"},"type":"Feature","geometry":{"type":"Point","coordinates":[-83.250661,42.197855]}},{"properties":{"city":"Encinitas","lon":-117.261374,"zip":92024,"phone":"760-436-7093","id":"a62k5cgztah3","address":"270 N El Camino Real","lat":33.052539,"location":"In Camino Village Center","state":"CA"},"type":"Feature","geometry":{"type":"Point","coordinates":[-117.261374,33.052539]}},{"properties":{"city":"Baltimore","lon":-76.502316,"zip":21236,"phone":"410-661-8620","id":"a62k5cs1iua4","address":"4113 Wholesale Club Dr","lat":39.379495,"location":"In Frnt of Bj's Wholesale","state":"MD"},"type":"Feature","geometry":{"type":"Point","coordinates":[-76.502316,39.379495]}},{"properties":{"city":"Pasadena","lon":-76.587566,"zip":21122,"phone":"410-553-0089","id":"a62k5ceqvbdv","address":"8131 Ritchie Hwy","lat":39.124023,"location":"In Frnt of Bj's Wholesale","state":"MD"},"type":"Feature","geometry":{"type":"Point","coordinates":[-76.587566,39.124023]}},{"properties":{"city":"Shirley","lon":-72.867198,"zip":11967,"phone":"631-281-3059","id":"a62k5cp5s9p3","address":"349 William Floyd Pkwy","lat":40.773337,"location":"In Front of Home Depot","state":"NY"},"type":"Feature","geometry":{"type":"Point","coordinates":[-72.867198,40.773337]}},{"properties":{"city":"Memphis","lon":-89.927562,"zip":38118,"phone":"901-565-9745","id":"a62k5cu7m2ox","address":"4085 American Way","lat":35.076103,"location":"In Front of Kroger","state":"TN"},"type":"Feature","geometry":{"type":"Point","coordinates":[-89.927562,35.076103]}},{"properties":{"city":"Richmond","lon":-77.523677,"zip":23294,"phone":"804-672-2984","id":"a62k5cqme2gg","address":"7601 W Broad St","lat":37.618384,"location":"In Front of Petsmart","state":"VA"},"type":"Feature","geometry":{"type":"Point","coordinates":[-77.523677,37.618384]}},{"properties":{"city":"Wesley Chapel","lon":-82.353928,"zip":33544,"phone":"813-994-2557","id":"a62k5cl1t1g2","address":"1255 Bruce B Downs Blvd","lat":28.174287,"location":"In Front of Super Target","state":"FL"},"type":"Feature","geometry":{"type":"Point","coordinates":[-82.353928,28.174287]}},{"properties":{"city":"Bartlett","lon":-89.856052,"zip":38134,"phone":"901-384-0035","id":"a62k5cf9mnvq","address":"6216 Stage Rd","lat":35.204758,"location":"In Front of Superpetz","state":"TN"},"type":"Feature","geometry":{"type":"Point","coordinates":[-89.856052,35.204758]}},{"properties":{"city":"Plano","lon":-96.753091,"zip":75075,"phone":"972-596-3309","id":"a62k5cnrif7e","address":"3136 Independence Pkwy","lat":33.039594,"location":"In Front of Tom Thumb","state":"TX"},"type":"Feature","geometry":{"type":"Point","coordinates":[-96.753091,33.039594]}},{"properties":{"city":"Centereach","lon":-73.078929,"zip":11720,"phone":"631-585-6590","id":"a62k5cibg8ku","address":"11 Centereach Mall","lat":40.859237,"location":"In Front of Walmart","state":"NY"},"type":"Feature","geometry":{"type":"Point","coordinates":[-73.078929,40.859237]}},{"properties":{"city":"Las Vegas","lon":-115.297224,"zip":89148,"phone":"702-220-9067","id":"a62k5cuhla63","address":"5270 S Fort Apache Rd","lat":36.093279,"location":"In Front of Walmart","state":"NV"},"type":"Feature","geometry":{"type":"Point","coordinates":[-115.297224,36.093279]}},{"properties":{"city":"Ocala","lon":-82.169183,"zip":34474,"phone":"352-873-7311","id":"a62k5ctt8oap","address":"2701 SW College Rd","lat":29.165997,"location":"In Gateway Plaza","state":"FL"},"type":"Feature","geometry":{"type":"Point","coordinates":[-82.169183,29.165997]}},{"properties":{"city":"Gilroy","lon":-121.55107,"zip":95020,"phone":"408-846-6738","id":"a62k5cl2pf6a","address":"6915 Camino Arroyo","lat":37.003297,"location":"In Gilroy Crossing Ctr","state":"CA"},"type":"Feature","geometry":{"type":"Point","coordinates":[-121.55107,37.003297]}},{"properties":{"city":"Columbia","lon":-81.158964,"zip":29212,"phone":"803-749-0864","id":"a62k5cthrwmk","address":"260 Harbison Blvd","lat":34.072356,"location":"In Harbison Center","state":"SC"},"type":"Feature","geometry":{"type":"Point","coordinates":[-81.158964,34.072356]}},{"properties":{"city":"Orlando","lon":-81.428641,"zip":32837,"phone":"407-251-7810","id":"a62k5ciqp013","address":"4181 Town Center Blvd","lat":28.362607,"location":"In Hunters Creek Center","state":"FL"},"type":"Feature","geometry":{"type":"Point","coordinates":[-81.428641,28.362607]}},{"properties":{"city":"Venice","lon":-82.389096,"zip":34293,"phone":"941-492-2557","id":"a62k5cfihrzd","address":"4347 Tamiami Trl S","lat":27.049929,"location":"In Jacaranda Crossing","state":"FL"},"type":"Feature","geometry":{"type":"Point","coordinates":[-82.389096,27.049929]}},{"properties":{"city":"Baytown","lon":-94.977771,"zip":77521,"phone":"281-428-5887","id":"a62k5cq5wvb2","address":"4525 Garth Rd","lat":29.771117,"location":"In Kroger Shopping Ctr","state":"TX"},"type":"Feature","geometry":{"type":"Point","coordinates":[-94.977771,29.771117]}},{"properties":{"city":"Frisco","lon":-96.863895,"zip":75034,"phone":"972-712-2929","id":"a62k5ckzutd2","address":"8756 Teel Pkwy","lat":33.151126,"location":"In Kroger Shopping Ctr","state":"TX"},"type":"Feature","geometry":{"type":"Point","coordinates":[-96.863895,33.151126]}},{"properties":{"city":"Austin","lon":-97.792913,"zip":78704,"phone":"512-462-1194","id":"a62k5cut6sln","address":"4211 S Lamar Blvd","lat":30.235699,"location":"In Lakehills Plaza Ctr","state":"TX"},"type":"Feature","geometry":{"type":"Point","coordinates":[-97.792913,30.235699]}},{"properties":{"city":"Virginia Beach","lon":-76.05303,"zip":23454,"phone":"757-306-9111","id":"a62k5cp7es4w","address":"2404 Virginia Beach Blvd","lat":36.842072,"location":"In London Bridge Shoppes","state":"VA"},"type":"Feature","geometry":{"type":"Point","coordinates":[-76.05303,36.842072]}},{"properties":{"city":"Dundalk","lon":-76.505652,"zip":21222,"phone":"410-288-3801","id":"a62k5cmln87t","address":"1211 Merritt Blvd","lat":39.282355,"location":"In Merritt Manor","state":"MD"},"type":"Feature","geometry":{"type":"Point","coordinates":[-76.505652,39.282355]}},{"properties":{"city":"San Diego","lon":-117.131389,"zip":92126,"phone":"858-621-6041","id":"a62k5cexg7bp","address":"8967 Mira Mesa Blvd","lat":32.914731,"location":"In Mesa Shopping Center","state":"CA"},"type":"Feature","geometry":{"type":"Point","coordinates":[-117.131389,32.914731]}},{"properties":{"city":"Corpus Christi","lon":-97.373362,"zip":78411,"phone":"361-991-4486","id":"a62k5ckviywt","address":"5425 S Padre Island Dr","lat":27.708827,"location":"In Moore Plaza, Near Heb","state":"TX"},"type":"Feature","geometry":{"type":"Point","coordinates":[-97.373362,27.708827]}},{"properties":{"city":"Edison","lon":-74.340408,"zip":8820,"phone":"732-632-2080","id":"a62k5ctf7osj","address":"1655 Oak Tree Rd","lat":40.572762,"location":"In Oak Tree Center","state":"NJ"},"type":"Feature","geometry":{"type":"Point","coordinates":[-74.340408,40.572762]}},{"properties":{"city":"Orange","lon":-73.013138,"zip":6477,"phone":"203-799-0352","id":"a62k5cu5a7vl","address":"464 Boston Post Rd","lat":41.257206,"location":"In Orange Center Plaza","state":"CT"},"type":"Feature","geometry":{"type":"Point","coordinates":[-73.013138,41.257206]}},{"properties":{"city":"Lafayette","lon":-92.064562,"zip":70503,"phone":"337-993-8884","id":"a62k5ckrqed3","address":"3809 Ambassador Caffery Pkwy","lat":30.170038,"location":"In Park Shopping Center","state":"LA"},"type":"Feature","geometry":{"type":"Point","coordinates":[-92.064562,30.170038]}},{"properties":{"city":"Lake Worth","lon":-80.143905,"zip":33463,"phone":"561-304-1210","id":"a62k5cmj816n","address":"6250 Lantana Rd","lat":26.58932,"location":"In Pinewood Square","state":"FL"},"type":"Feature","geometry":{"type":"Point","coordinates":[-80.143905,26.58932]}},{"properties":{"city":"Vero Beach","lon":-80.389404,"zip":32960,"phone":"772-299-3274","id":"a62k5ctxnnc3","address":"1355 US Highway 1","lat":27.626053,"location":"In Publix Shopping Cntr","state":"FL"},"type":"Feature","geometry":{"type":"Point","coordinates":[-80.389404,27.626053]}},{"properties":{"city":"Hemet","lon":-116.957785,"zip":92544,"phone":"951-925-7075","id":"a62k5cleq0v1","address":"1348 E Florida Ave","lat":33.74773,"location":"In Ramona Rite Aid Plaza","state":"CA"},"type":"Feature","geometry":{"type":"Point","coordinates":[-116.957785,33.74773]}},{"properties":{"city":"Port Richey","lon":-82.698787,"zip":34668,"phone":"727-842-2496","id":"a62k5cv306jf","address":"7007 Ridge Rd","lat":28.280722,"location":"In Regency Crossing","state":"FL"},"type":"Feature","geometry":{"type":"Point","coordinates":[-82.698787,28.280722]}},{"properties":{"city":"El Dorado Hills","lon":-121.085766,"zip":95762,"phone":"916-358-5295","id":"a62k5cnu5ety","address":"2203 Francisco Dr","lat":38.712151,"location":"In Safeway Shopping Ctr","state":"CA"},"type":"Feature","geometry":{"type":"Point","coordinates":[-121.085766,38.712151]}},{"properties":{"city":"Longwood","lon":-81.458749,"zip":32779,"phone":"407-862-0726","id":"a62k5cfe9qki","address":"3855 Wekiva Springs Rd","lat":28.709266,"location":"In Shoppes of Sweetwater","state":"FL"},"type":"Feature","geometry":{"type":"Point","coordinates":[-81.458749,28.709266]}},{"properties":{"city":"Las Vegas","lon":-115.136652,"zip":89183,"phone":"702-897-4614","id":"a62k5ctgwv6k","address":"9850 S Maryland Pkwy","lat":36.010813,"location":"In Smith's Center","state":"NV"},"type":"Feature","geometry":{"type":"Point","coordinates":[-115.136652,36.010813]}},{"properties":{"city":"Springfield","lon":-74.325005,"zip":7081,"phone":"973-258-9696","id":"a62k5ctsx9ty","address":"271b US Highway 22","lat":40.685009,"location":"In Springfield Plaza","state":"NJ"},"type":"Feature","geometry":{"type":"Point","coordinates":[-74.325005,40.685009]}},{"properties":{"city":"Clermont","lon":-81.703454,"zip":34711,"phone":"352-243-5778","id":"a62k5cqq92nz","address":"2670 E Highway 50","lat":28.546867,"location":"In Super Target Plaza","state":"FL"},"type":"Feature","geometry":{"type":"Point","coordinates":[-81.703454,28.546867]}},{"properties":{"city":"Granger","lon":-86.173818,"zip":46530,"phone":"574-243-4513","id":"a62k5ciq1kep","address":"421 E University Dr","lat":41.720221,"location":"In Supertarget Center","state":"IN"},"type":"Feature","geometry":{"type":"Point","coordinates":[-86.173818,41.720221]}},{"properties":{"city":"Lake Worth","lon":-97.42953,"zip":76135,"phone":"817-238-1911","id":"a62k5csjekpm","address":"6548 Lake Worth Blvd","lat":32.811235,"location":"In Target &amp; Circuit City Ctr","state":"TX"},"type":"Feature","geometry":{"type":"Point","coordinates":[-97.42953,32.811235]}},{"properties":{"city":"Laredo","lon":-99.502303,"zip":78045,"phone":"956-326-1200","id":"a62k5cj66uuq","address":"7309 San Dario Ave","lat":27.567545,"location":"In Target Parking Lot","state":"TX"},"type":"Feature","geometry":{"type":"Point","coordinates":[-99.502303,27.567545]}},{"properties":{"city":"Elk Grove","lon":-121.413502,"zip":95758,"phone":"916-683-5778","id":"a62k5co1htqd","address":"7717 Laguna Blvd","lat":38.423545,"location":"In Target Shopping Center","state":"CA"},"type":"Feature","geometry":{"type":"Point","coordinates":[-121.413502,38.423545]}},{"properties":{"city":"Albany","lon":-84.212922,"zip":31707,"phone":"229-446-2480","id":"a62k5cptz5ms","address":"2522 Dawson Rd","lat":31.611187,"location":"In The Barclay Square","state":"GA"},"type":"Feature","geometry":{"type":"Point","coordinates":[-84.212922,31.611187]}},{"properties":{"city":"Tucson","lon":-110.803979,"zip":85749,"phone":"520-760-3563","id":"a62k5cf1p4eh","address":"8800 E Tanque Verde Rd","lat":32.257861,"location":"In The Bear Path Center","state":"AZ"},"type":"Feature","geometry":{"type":"Point","coordinates":[-110.803979,32.257861]}},{"properties":{"city":"Manchester","lon":-71.475945,"zip":6042,"phone":"860-644-7640","id":"a62k5chwf2ku","address":"91 Hale Rd","lat":42.976242,"location":"In The Bernies Plaza","state":"CT"},"type":"Feature","geometry":{"type":"Point","coordinates":[-71.475945,42.976242]}},{"properties":{"city":"Weymouth","lon":-70.955933,"zip":2188,"phone":"781-331-2177","id":"a62k5co7as72","address":"120 Main St","lat":42.204613,"location":"In The Caldor Plaza","state":"MA"},"type":"Feature","geometry":{"type":"Point","coordinates":[-70.955933,42.204613]}},{"properties":{"city":"Richardson","lon":-96.729457,"zip":75080,"phone":"972-238-5529","id":"a62k5cnx4o77","address":"3501 Custer Pkwy","lat":32.999268,"location":"In The Canyon Creek Plaza","state":"TX"},"type":"Feature","geometry":{"type":"Point","coordinates":[-96.729457,32.999268]}},{"properties":{"city":"Visalia","lon":-119.313394,"zip":93277,"phone":"559-635-9305","id":"a62k5ckho92e","address":"3906 S Mooney Blvd","lat":36.295026,"location":"In The Costco Center","state":"CA"},"type":"Feature","geometry":{"type":"Point","coordinates":[-119.313394,36.295026]}},{"properties":{"city":"Wellington","lon":-80.266568,"zip":33414,"phone":"561-793-1246","id":"a62k5chav2uj","address":"13860 Wellington Trce","lat":26.662199,"location":"In The Courtyard Shops","state":"FL"},"type":"Feature","geometry":{"type":"Point","coordinates":[-80.266568,26.662199]}},{"properties":{"city":"Harrisburg","lon":-76.824668,"zip":17109,"phone":"717-540-8580","id":"a62k5csqk59e","address":"3864 Union Deposit Rd","lat":40.27853,"location":"In The Dauphin Plaza","state":"PA"},"type":"Feature","geometry":{"type":"Point","coordinates":[-76.824668,40.27853]}},{"properties":{"city":"Manchester","lon":-90.569256,"zip":63011,"phone":"636-391-7153","id":"a62k5cr84x3f","address":"15545 Manchester Rd","lat":38.592896,"location":"In The Gordon Plaza","state":"MO"},"type":"Feature","geometry":{"type":"Point","coordinates":[-90.569256,38.592896]}},{"properties":{"city":"Odessa","lon":-102.346501,"zip":79762,"phone":"432-362-0051","id":"a62k5cqqsg99","address":"3851 E 42nd St","lat":31.890938,"location":"In The Heb Grocery Center","state":"TX"},"type":"Feature","geometry":{"type":"Point","coordinates":[-102.346501,31.890938]}},{"properties":{"city":"Oklahoma City","lon":-97.52696,"zip":73139,"phone":"405-691-8500","id":"a62k5cqm1n9v","address":"800 SW 89th St","lat":35.377004,"location":"In The Hobby Lobby Center","state":"OK"},"type":"Feature","geometry":{"type":"Point","coordinates":[-97.52696,35.377004]}},{"properties":{"city":"Saint Louis","lon":-90.323784,"zip":63125,"phone":"314-894-9337","id":"a62k5cso9b4o","address":"3829 Lemay Ferry Rd","lat":38.508019,"location":"In The K-Mart Mall","state":"MO"},"type":"Feature","geometry":{"type":"Point","coordinates":[-90.323784,38.508019]}},{"properties":{"city":"Bensalem","lon":-74.949911,"zip":19020,"phone":"215-244-4988","id":"a62k5cgbvz7k","address":"2335 Street Rd","lat":40.103581,"location":"In The Kohls Shopping Ctr","state":"PA"},"type":"Feature","geometry":{"type":"Point","coordinates":[-74.949911,40.103581]}},{"properties":{"city":"Mansfield","lon":-97.14437,"zip":76063,"phone":"817-477-8585","id":"a62k5cl6zras","address":"101 W Debbie Ln","lat":32.592603,"location":"In The Lowe's Center","state":"TX"},"type":"Feature","geometry":{"type":"Point","coordinates":[-97.14437,32.592603]}},{"properties":{"city":"Savannah","lon":-81.143836,"zip":31419,"phone":"912-925-3131","id":"a62k5clv4jj4","address":"11136 Abercorn St","lat":31.980375,"location":"In The Lowes Ctr","state":"GA"},"type":"Feature","geometry":{"type":"Point","coordinates":[-81.143836,31.980375]}},{"properties":{"city":"Dublin","lon":-121.914621,"zip":94568,"phone":"925-829-4882","id":"a62k5cn0oz2d","address":"6743 Dublin Blvd","lat":37.704265,"location":"In The Murco Center","state":"CA"},"type":"Feature","geometry":{"type":"Point","coordinates":[-121.914621,37.704265]}},{"properties":{"city":"North Las Vegas","lon":-115.164787,"zip":89032,"phone":"702-642-4298","id":"a62k5cmepa51","address":"1631 W Craig Rd","lat":36.239285,"location":"In The North Mesa Plaza","state":"NV"},"type":"Feature","geometry":{"type":"Point","coordinates":[-115.164787,36.239285]}},{"properties":{"city":"Sacramento","lon":-121.511763,"zip":95835,"phone":"916-515-3946","id":"a62k5crxk1h9","address":"4740 Natomas Blvd","lat":38.659905,"location":"In The Park Place Ctr","state":"CA"},"type":"Feature","geometry":{"type":"Point","coordinates":[-121.511763,38.659905]}},{"properties":{"city":"Lake Mary","lon":-81.346979,"zip":32746,"phone":"407-328-3244","id":"a62k5ch1qam1","address":"815 Rinehart Rd","lat":28.78255,"location":"In The Publix Center","state":"FL"},"type":"Feature","geometry":{"type":"Point","coordinates":[-81.346979,28.78255]}},{"properties":{"city":"Lakeland","lon":-81.957539,"zip":33813,"phone":"863-647-2343","id":"a62k5cpnoa7s","address":"4770 S Florida Ave","lat":27.978871,"location":"In The Publix Plaza","state":"FL"},"type":"Feature","geometry":{"type":"Point","coordinates":[-81.957539,27.978871]}},{"properties":{"city":"Clearwater","lon":-82.709214,"zip":33759,"phone":"727-723-0681","id":"a62k5cmel2f4","address":"1530 N Mcmullen Booth Rd","lat":27.9803,"location":"In The Publix Plaza","state":"FL"},"type":"Feature","geometry":{"type":"Point","coordinates":[-82.709214,27.9803]}},{"properties":{"city":"Palm Springs","lon":-80.08816,"zip":33461,"phone":"561-434-2704","id":"a62k5cns513s","address":"1666 S Congress Ave","lat":26.636951,"location":"In The Publix Plaza","state":"FL"},"type":"Feature","geometry":{"type":"Point","coordinates":[-80.08816,26.636951]}},{"properties":{"city":"Orlando","lon":-81.194326,"zip":32828,"phone":"407-243-9503","id":"a62k5chawazc","address":"1987 S Alafaya Trl","lat":28.524758,"location":"In The Publix Plaza","state":"FL"},"type":"Feature","geometry":{"type":"Point","coordinates":[-81.194326,28.524758]}},{"properties":{"city":"Parma","lon":-81.734553,"zip":44129,"phone":"440-842-1266","id":"a62k5cjimqsi","address":"6875 Ridge Rd","lat":41.378182,"location":"In The Ridge Day Plaza","state":"OH"},"type":"Feature","geometry":{"type":"Point","coordinates":[-81.734553,41.378182]}},{"properties":{"city":"Oro Valley","lon":-110.959114,"zip":85737,"phone":"520-219-1353","id":"a62k5cstghti","address":"10515 N Oracle Rd","lat":32.396764,"location":"In The Rooney Ranch Ctr","state":"AZ"},"type":"Feature","geometry":{"type":"Point","coordinates":[-110.959114,32.396764]}},{"properties":{"city":"Casa Grande","lon":-111.740153,"zip":85222,"phone":"520-836-9471","id":"a62k5ck9jw26","address":"1645 N Trekell Rd","lat":32.895815,"location":"In The Safeway Plaza","state":"AZ"},"type":"Feature","geometry":{"type":"Point","coordinates":[-111.740153,32.895815]}},{"properties":{"city":"Port Orange","lon":-81.024893,"zip":32127,"phone":"386-304-2870","id":"a62k5cfj8aze","address":"1665 Dunlawton Ave","lat":29.114768,"location":"In The Shoppes of Yorktowne","state":"FL"},"type":"Feature","geometry":{"type":"Point","coordinates":[-81.024893,29.114768]}},{"properties":{"city":"Collierville","lon":-89.691671,"zip":38017,"phone":"901-850-7808","id":"a62k5ci2qyt7","address":"875 W Poplar Ave","lat":35.046044,"location":"In The Shops of Collierville","state":"TN"},"type":"Feature","geometry":{"type":"Point","coordinates":[-89.691671,35.046044]}},{"properties":{"city":"Lindenhurst","lon":-73.379156,"zip":11757,"phone":"631-956-7334","id":"a62k5ci2d9xo","address":"70 E Sunrise Hwy","lat":40.701118,"location":"In The Sunrise Plaza","state":"NY"},"type":"Feature","geometry":{"type":"Point","coordinates":[-73.379156,40.701118]}},{"properties":{"city":"Sarasota","lon":-82.482716,"zip":34233,"phone":"941-371-9455","id":"a62k5cnniga8","address":"4284 Bee Ridge Rd","lat":27.298631,"location":"In The Sweetbay Plaza","state":"FL"},"type":"Feature","geometry":{"type":"Point","coordinates":[-82.482716,27.298631]}},{"properties":{"city":"Largo","lon":-82.787238,"zip":33778,"phone":"727-319-3069","id":"a62k5chsz8j9","address":"10350 Seminole Blvd","lat":27.866715,"location":"In The Sweetbay Plaza","state":"FL"},"type":"Feature","geometry":{"type":"Point","coordinates":[-82.787238,27.866715]}},{"properties":{"city":"Poway","lon":-117.062111,"zip":92064,"phone":"858-513-0114","id":"a62k5co38evy","address":"14721 Pomerado Rd","lat":32.979397,"location":"In The Target Shopping Ctr","state":"CA"},"type":"Feature","geometry":{"type":"Point","coordinates":[-117.062111,32.979397]}},{"properties":{"city":"Tucson","lon":-111.047159,"zip":85741,"phone":"520-572-0164","id":"a62k5cmtbwr2","address":"7085 N Thornydale Rd","lat":32.336165,"location":"In The Target Shopping Ctr","state":"AZ"},"type":"Feature","geometry":{"type":"Point","coordinates":[-111.047159,32.336165]}},{"properties":{"city":"Hanover","lon":-84.574165,"zip":2339,"phone":"781-829-6877","id":"a62k5coluak6","address":"272 Columbia Rd","lat":39.391865,"location":"In The Tedeschi Plaza","state":"MA"},"type":"Feature","geometry":{"type":"Point","coordinates":[-84.574165,39.391865]}},{"properties":{"city":"Moorpark","lon":-118.870004,"zip":93021,"phone":"805-529-0962","id":"a62k5cl9fdkn","address":"778 New Los Angeles Ave","lat":34.279115,"location":"In The Village At Moorpark","state":"CA"},"type":"Feature","geometry":{"type":"Point","coordinates":[-118.870004,34.279115]}},{"properties":{"city":"Carmel","lon":-86.126832,"zip":46032,"phone":"317-815-1612","id":"a62k5cjko6me","address":"14641 US Highway 31 N","lat":40.002575,"location":"In The Village Park Plaza","state":"IN"},"type":"Feature","geometry":{"type":"Point","coordinates":[-86.126832,40.002575]}},{"properties":{"city":"Novato","lon":-122.554098,"zip":94945,"phone":"415-892-0959","id":"a62k5cltjdi1","address":"220 Vintage Way","lat":38.088471,"location":"In The Vintage Oaks Center","state":"CA"},"type":"Feature","geometry":{"type":"Point","coordinates":[-122.554098,38.088471]}},{"properties":{"city":"Tampa","lon":-82.583284,"zip":33615,"phone":"813-888-9930","id":"a62k5cipeiey","address":"8418 Sheldon Rd","lat":28.026929,"location":"In The Winn Dixie Plaza","state":"FL"},"type":"Feature","geometry":{"type":"Point","coordinates":[-82.583284,28.026929]}},{"properties":{"city":"Raleigh","lon":-78.62275,"zip":27615,"phone":"919-845-6544","id":"a62k5cr04awo","address":"6641 Falls of Neuse Rd","lat":35.873778,"location":"In Tj Maxx Shopping Ctr","state":"NC"},"type":"Feature","geometry":{"type":"Point","coordinates":[-78.62275,35.873778]}},{"properties":{"city":"Birmingham","lon":-86.627224,"zip":35235,"phone":"205-655-5946","id":"a62k5csbmllt","address":"5880 Trussville Crossings Blvd","lat":33.645263,"location":"In Trussville Crossing Ctr","state":"AL"},"type":"Feature","geometry":{"type":"Point","coordinates":[-86.627224,33.645263]}},{"properties":{"city":"Owings Mills","lon":-76.759067,"zip":21117,"phone":"410-902-0167","id":"a62k5cg4ilb6","address":"9616 Reisterstown Rd","lat":39.404612,"location":"In Valley Centre","state":"MD"},"type":"Feature","geometry":{"type":"Point","coordinates":[-76.759067,39.404612]}},{"properties":{"city":"Lewisville","lon":-96.890668,"zip":75056,"phone":"469-362-2101","id":"a62k5coar3na","address":"4679 State Highway 121","lat":33.065802,"location":"In Walmart Shopping Ctr","state":"TX"},"type":"Feature","geometry":{"type":"Point","coordinates":[-96.890668,33.065802]}},{"properties":{"city":"Ocoee","lon":-81.524365,"zip":34761,"phone":"407-522-3633","id":"a62k5cexb5zw","address":"1485 E Silver Star Rd","lat":28.573511,"location":"In Winn Dixie Plaza","state":"FL"},"type":"Feature","geometry":{"type":"Point","coordinates":[-81.524365,28.573511]}},{"properties":{"city":"Plano","lon":-96.750829,"zip":75023,"phone":"972-491-7444","id":"a62k5cnvcewp","address":"3020 Legacy Dr","lat":33.071641,"location":"Independence &amp; Legacy","state":"TX"},"type":"Feature","geometry":{"type":"Point","coordinates":[-96.750829,33.071641]}},{"properties":{"city":"Springfield","lon":-93.259419,"zip":65804,"phone":"417-887-4532","id":"a62k5codule2","address":"1941 E Independence St","lat":37.141788,"location":"James River Towne Center","state":"MO"},"type":"Feature","geometry":{"type":"Point","coordinates":[-93.259419,37.141788]}},{"properties":{"city":"San Antonio","lon":-98.534002,"zip":78230,"phone":"210-340-3972","id":"a62k5cmbwbaj","address":"2609 Jackson Keller Rd","lat":29.519201,"location":"Jckson Keller &amp; Vance Jckson","state":"TX"},"type":"Feature","geometry":{"type":"Point","coordinates":[-98.534002,29.519201]}},{"properties":{"city":"San Bernardino","lon":-117.239756,"zip":92404,"phone":"909-864-1959","id":"a62k5cj5moub","address":"2230 E Highland Ave","lat":34.136003,"location":"Just East of Sterling Ave","state":"CA"},"type":"Feature","geometry":{"type":"Point","coordinates":[-117.239756,34.136003]}},{"properties":{"city":"Phoenix","lon":-112.030922,"zip":85024,"phone":"602-996-4630","id":"a62k5crgmcde","address":"21043 N Cave Creek Rd","lat":33.678833,"location":"Just N of Rose Garden Ln","state":"AZ"},"type":"Feature","geometry":{"type":"Point","coordinates":[-112.030922,33.678833]}},{"properties":{"city":"Pico Rivera","lon":-118.108791,"zip":90660,"phone":"562-692-0744","id":"a62k5cfw6845","address":"8434 Rosemead Blvd","lat":33.963032,"location":"Just North of Telegraph","state":"CA"},"type":"Feature","geometry":{"type":"Point","coordinates":[-118.108791,33.963032]}},{"properties":{"city":"San Jose","lon":-122.032007,"zip":95129,"phone":"408-446-1651","id":"a62k5cjoc5hm","address":"1424 S De Anza Blvd","lat":37.297956,"location":"Just S of 85","state":"CA"},"type":"Feature","geometry":{"type":"Point","coordinates":[-122.032007,37.297956]}},{"properties":{"city":"Palatine","lon":-88.028345,"zip":60074,"phone":"847-221-2542","id":"a62k5ckyiccy","address":"641 E Dundee Rd","lat":42.139067,"location":"Just West of Target","state":"IL"},"type":"Feature","geometry":{"type":"Point","coordinates":[-88.028345,42.139067]}},{"properties":{"city":"Riverside","lon":-117.463544,"zip":92505,"phone":"951-354-6387","id":"a62k5cfhof9j","address":"10430 Magnolia Ave","lat":33.910436,"location":"Just West of Tyler Ave","state":"CA"},"type":"Feature","geometry":{"type":"Point","coordinates":[-117.463544,33.910436]}},{"properties":{"city":"Brandon","lon":-82.307419,"zip":33511,"phone":"813-651-3305","id":"a62k5covbeef","address":"1534 W Brandon Blvd","lat":27.937972,"location":"K-Mart Shopping Ctr","state":"FL"},"type":"Feature","geometry":{"type":"Point","coordinates":[-82.307419,27.937972]}},{"properties":{"city":"Cincinnati","lon":-84.376807,"zip":45242,"phone":"513-791-2275","id":"a62k5cpvksxl","address":"9721 Kenwood Rd","lat":39.235025,"location":"Keystone Plaza","state":"OH"},"type":"Feature","geometry":{"type":"Point","coordinates":[-84.376807,39.235025]}},{"properties":{"city":"Commack","lon":-73.277313,"zip":11725,"phone":"631-462-4471","id":"a62k5chx73bm","address":"102 Veterans Memorial Hwy","lat":40.838077,"location":"Kng Kullen Plza/By Target","state":"NY"},"type":"Feature","geometry":{"type":"Point","coordinates":[-73.277313,40.838077]}},{"properties":{"city":"Peachtree City","lon":-84.560268,"zip":30269,"phone":"770-486-8376","id":"a62k5colc1cp","address":"428 Crosstown Rd","lat":33.377237,"location":"Kroger/Kmart Shopping Ctr","state":"GA"},"type":"Feature","geometry":{"type":"Point","coordinates":[-84.560268,33.377237]}},{"properties":{"city":"Baton Rouge","lon":-91.051859,"zip":70816,"phone":"225-293-4695","id":"a62k5cswqhmb","address":"4520 S Sherwood Forest Blvd","lat":30.412641,"location":"Lake Sherwood Mall","state":"LA"},"type":"Feature","geometry":{"type":"Point","coordinates":[-91.051859,30.412641]}},{"properties":{"city":"Latham","lon":-73.766286,"zip":12110,"phone":"518-786-0897","id":"a62k5cjtcnwl","address":"579 Troy Schenectady Rd","lat":42.751845,"location":"Latham Farms Shopping Ctr","state":"NY"},"type":"Feature","geometry":{"type":"Point","coordinates":[-73.766286,42.751845]}},{"properties":{"city":"Brick","lon":-74.150101,"zip":8724,"phone":"732-836-9585","id":"a62k5cip2ocw","address":"1930 Route 88","lat":40.081955,"location":"Laurel Sq Shopping Ctr","state":"NJ"},"type":"Feature","geometry":{"type":"Point","coordinates":[-74.150101,40.081955]}},{"properties":{"city":"Evansville","lon":-87.47198,"zip":47715,"phone":"812-476-1077","id":"a62k5cuqc56h","address":"159 N Burkhardt Rd","lat":37.978273,"location":"Lloyd Shopping Center","state":"IN"},"type":"Feature","geometry":{"type":"Point","coordinates":[-87.47198,37.978273]}},{"properties":{"city":"Columbus","lon":-84.957206,"zip":31909,"phone":"706-317-4353","id":"a62k5cnu2qvu","address":"6440 W Hamilton Park Dr","lat":32.538309,"location":"Located In Patton Plaza","state":"GA"},"type":"Feature","geometry":{"type":"Point","coordinates":[-84.957206,32.538309]}},{"properties":{"city":"Columbia","lon":-80.927017,"zip":29223,"phone":"803-865-7338","id":"a62k5cp37a9m","address":"7370 Two Notch Rd","lat":34.088246,"location":"Located In Tillmans Plaza","state":"SC"},"type":"Feature","geometry":{"type":"Point","coordinates":[-80.927017,34.088246]}},{"properties":{"city":"Port Charlotte","lon":-82.131036,"zip":33948,"phone":"941-627-0354","id":"a62k5cl1uqkr","address":"1900 Tamiami Trl","lat":27.005602,"location":"Lowes Center","state":"FL"},"type":"Feature","geometry":{"type":"Point","coordinates":[-82.131036,27.005602]}},{"properties":{"city":"Jacksonville","lon":-81.632914,"zip":32223,"phone":"904-268-5298","id":"a62k5cqofrb2","address":"11700 San Jose Blvd","lat":30.159658,"location":"Mandarin South Plaza","state":"FL"},"type":"Feature","geometry":{"type":"Point","coordinates":[-81.632914,30.159658]}},{"properties":{"city":"Englishtown","lon":-74.300301,"zip":7726,"phone":"732-617-9450","id":"a62k5cm9ugtz","address":"144 Route 9","lat":40.2962,"location":"Marlboro Plaza","state":"NJ"},"type":"Feature","geometry":{"type":"Point","coordinates":[-74.300301,40.2962]}},{"properties":{"city":"Saint Peters","lon":-90.57239,"zip":63376,"phone":"636-936-1320","id":"a62k5cof49pj","address":"4111 N Cloverleaf Dr","lat":38.794699,"location":"Memorial &amp; Cave Sprg Blvd","state":"MO"},"type":"Feature","geometry":{"type":"Point","coordinates":[-90.57239,38.794699]}},{"properties":{"city":"Lawrenceville","lon":-87.687187,"zip":8648,"phone":"609-720-1090","id":"a62k5cty0by8","address":"3375 Route 1","lat":38.729084,"location":"Mercer Mall Behnd NY Deli","state":"NJ"},"type":"Feature","geometry":{"type":"Point","coordinates":[-87.687187,38.729084]}},{"properties":{"city":"Marietta","lon":-84.42745,"zip":30062,"phone":"770-971-5380","id":"a62k5ck2ll1u","address":"1401 Johnson Ferry Rd","lat":33.983852,"location":"Merchants Fest/ Target Center","state":"GA"},"type":"Feature","geometry":{"type":"Point","coordinates":[-84.42745,33.983852]}},{"properties":{"city":"Wilmington","lon":-75.660774,"zip":19808,"phone":"302-995-7010","id":"a62k5cpr36qv","address":"4723 Kirkwood Hwy","lat":39.722732,"location":"Midway Ctr By Mcdonalds","state":"DE"},"type":"Feature","geometry":{"type":"Point","coordinates":[-75.660774,39.722732]}},{"properties":{"city":"Parsippany","lon":-74.422165,"zip":7054,"phone":"973-263-0555","id":"a62k5ciee7hg","address":"3067 Route 46","lat":40.87096,"location":"Morris Hills Shopping Ctr","state":"NJ"},"type":"Feature","geometry":{"type":"Point","coordinates":[-74.422165,40.87096]}},{"properties":{"city":"Acworth","lon":-84.683021,"zip":30101,"phone":"770-966-8366","id":"a62k5chua2bv","address":"3335 Cobb Pkwy NW","lat":34.035525,"location":"N Cobb Pkwy E of Mars Hill","state":"GA"},"type":"Feature","geometry":{"type":"Point","coordinates":[-84.683021,34.035525]}},{"properties":{"city":"Charlotte","lon":-80.842,"zip":28269,"phone":"704-598-1300","id":"a62k5ck3kjin","address":"7010 Smith Corners Blvd","lat":35.348803,"location":"N Lake Village Ctr","state":"NC"},"type":"Feature","geometry":{"type":"Point","coordinates":[-80.842,35.348803]}},{"properties":{"city":"La Mesa","lon":-117.019115,"zip":91942,"phone":"619-667-8703","id":"a62k5cq2nf2n","address":"8274 Parkway Dr","lat":32.777305,"location":"N of Fletcher W of Jacksn","state":"CA"},"type":"Feature","geometry":{"type":"Point","coordinates":[-117.019115,32.777305]}},{"properties":{"city":"Fountain Valley","lon":-117.971238,"zip":92708,"phone":"714-964-6373","id":"a62k5ct7jxua","address":"18926 Magnolia St","lat":33.688038,"location":"N of Garfield By Ralphs","state":"CA"},"type":"Feature","geometry":{"type":"Point","coordinates":[-117.971238,33.688038]}},{"properties":{"city":"Stanton","lon":-117.992563,"zip":90680,"phone":"714-799-9222","id":"a62k5chcibmd","address":"12710 Beach Blvd","lat":33.778149,"location":"N of Grdn Gr/S of Lampson","state":"CA"},"type":"Feature","geometry":{"type":"Point","coordinates":[-117.992563,33.778149]}},{"properties":{"city":"Montgomeryville","lon":-75.24331,"zip":18936,"phone":"215-368-5199","id":"a62k5cfn6o1s","address":"762 Bethlehem Pike","lat":40.242837,"location":"N of Montgomery Mall","state":"PA"},"type":"Feature","geometry":{"type":"Point","coordinates":[-75.24331,40.242837]}},{"properties":{"city":"Tallahassee","lon":-84.294634,"zip":32303,"phone":"850-523-0750","id":"a62k5csscdh1","address":"2515 N Monroe St","lat":30.474717,"location":"N of Tallahassee Mall","state":"FL"},"type":"Feature","geometry":{"type":"Point","coordinates":[-84.294634,30.474717]}},{"properties":{"city":"Fort Lauderdale","lon":-80.11713,"zip":33305,"phone":"954-630-0704","id":"a62k5comnq2i","address":"2402 N Federal Hwy","lat":26.157653,"location":"NE 21st On N Federal Highway","state":"FL"},"type":"Feature","geometry":{"type":"Point","coordinates":[-80.11713,26.157653]}},{"properties":{"city":"Albuquerque","lon":-106.550669,"zip":87111,"phone":"505-293-0575","id":"a62k5cju6qii","address":"2740 Wyoming Blvd NE","lat":35.117294,"location":"NE Cnr Candeleria &amp; Wyoming","state":"NM"},"type":"Feature","geometry":{"type":"Point","coordinates":[-106.550669,35.117294]}},{"properties":{"city":"Tulare","lon":-119.327925,"zip":93274,"phone":"559-684-1212","id":"a62k5ci7uhj6","address":"1308 E Prosperity Ave","lat":36.226167,"location":"NE Cnr Hillman &amp; Prosperity","state":"CA"},"type":"Feature","geometry":{"type":"Point","coordinates":[-119.327925,36.226167]}},{"properties":{"city":"West Palm Beach","lon":-80.150969,"zip":33411,"phone":"561-686-3671","id":"a62k5ckijyzm","address":"6901 Okeechobee Blvd","lat":26.708266,"location":"NE Cnr Jog &amp; Okeechobee","state":"FL"},"type":"Feature","geometry":{"type":"Point","coordinates":[-80.150969,26.708266]}},{"properties":{"city":"Phoenix","lon":-112.236945,"zip":85043,"phone":"623-936-8660","id":"a62k5ck63ef5","address":"8240 W Lower Buckeye Rd","lat":33.423131,"location":"NE Cnr Lower Buckeye &amp; 83rd","state":"AZ"},"type":"Feature","geometry":{"type":"Point","coordinates":[-112.236945,33.423131]}},{"properties":{"city":"Phoenix","lon":-112.134124,"zip":85051,"phone":"602-249-8000","id":"a62k5cqyvdsv","address":"8033 N 35th Ave","lat":33.553777,"location":"NE Cor 35th Ave &amp; Northern Ave","state":"AZ"},"type":"Feature","geometry":{"type":"Point","coordinates":[-112.134124,33.553777]}},{"properties":{"city":"Glendale","lon":-112.142367,"zip":85310,"phone":"623-580-9476","id":"a62k5csygp54","address":"3830 W Pinnacle Peak Rd","lat":33.698416,"location":"NE Cor 39th Ave &amp;Pinnacle Peak","state":"AZ"},"type":"Feature","geometry":{"type":"Point","coordinates":[-112.142367,33.698416]}},{"properties":{"city":"Glendale","lon":-112.255019,"zip":85305,"phone":"623-877-5500","id":"a62k5clw6sf7","address":"9184 W Northern Ave","lat":33.55173,"location":"NE Cor 91st Ave &amp; Northern","state":"AZ"},"type":"Feature","geometry":{"type":"Point","coordinates":[-112.255019,33.55173]}},{"properties":{"city":"Watauga","lon":-97.258628,"zip":76148,"phone":"817-514-6409","id":"a62k5chv0ew4","address":"8420 Denton Hwy","lat":32.894129,"location":"NE Cor Hwy 377 &amp; New Bursey","state":"TX"},"type":"Feature","geometry":{"type":"Point","coordinates":[-97.258628,32.894129]}},{"properties":{"city":"Litchfield Park","lon":-112.339098,"zip":85340,"phone":"623-547-3807","id":"a62k5cik83m9","address":"13000 W Indian School Rd","lat":33.493454,"location":"NE Cor Indian School &amp; Dysart","state":"AZ"},"type":"Feature","geometry":{"type":"Point","coordinates":[-112.339098,33.493454]}},{"properties":{"city":"Scottsdale","lon":-111.925623,"zip":85266,"phone":"480-595-7625","id":"a62k5cqpuhk3","address":"32409 N Scottsdale Rd","lat":33.77995,"location":"NE Cor Sctsdle &amp; Ashler Hls Rd","state":"AZ"},"type":"Feature","geometry":{"type":"Point","coordinates":[-111.925623,33.77995]}},{"properties":{"city":"Carrollton","lon":-96.890123,"zip":75007,"phone":"972-466-0897","id":"a62k5ckppk2q","address":"2626 N Josey Ln","lat":32.988315,"location":"NE Cor Trinity Mls Rd &amp; Josey","state":"TX"},"type":"Feature","geometry":{"type":"Point","coordinates":[-96.890123,32.988315]}},{"properties":{"city":"Gilbert","lon":-111.755945,"zip":85234,"phone":"480-507-8807","id":"a62k5cr4wcks","address":"899 N Val Vista Dr","lat":33.366502,"location":"NE Cor Val Vista &amp; Guadalupe","state":"AZ"},"type":"Feature","geometry":{"type":"Point","coordinates":[-111.755945,33.366502]}},{"properties":{"city":"Alta Loma","lon":-117.615563,"zip":91701,"phone":"909-484-9742","id":"a62k5ciefdwp","address":"8732 19th St","lat":34.13267,"location":"NE Corner 19th St &amp; Carnelian","state":"CA"},"type":"Feature","geometry":{"type":"Point","coordinates":[-117.615563,34.13267]}},{"properties":{"city":"Phoenix","lon":-112.081115,"zip":85023,"phone":"602-896-0228","id":"a62k5ctwyazx","address":"550 W Bell Rd","lat":33.640433,"location":"NE Corner 7th Ave &amp; Bell Rd","state":"AZ"},"type":"Feature","geometry":{"type":"Point","coordinates":[-112.081115,33.640433]}},{"properties":{"city":"Phoenix","lon":-112.064083,"zip":85020,"phone":"602-604-9395","id":"a62k5coypj7j","address":"742 E Glendale Ave","lat":33.538411,"location":"NE Corner 7th St &amp; Glendale","state":"AZ"},"type":"Feature","geometry":{"type":"Point","coordinates":[-112.064083,33.538411]}},{"properties":{"city":"Redlands","lon":-117.208149,"zip":92373,"phone":"909-792-3720","id":"a62k5ciozgmz","address":"1578 Barton Rd","lat":34.047315,"location":"NE Corner Barton &amp; Alabama","state":"CA"},"type":"Feature","geometry":{"type":"Point","coordinates":[-117.208149,34.047315]}},{"properties":{"city":"Chandler","lon":-111.875242,"zip":85224,"phone":"480-812-1841","id":"a62k5cim57ip","address":"1960 W Ray Rd","lat":33.320789,"location":"NE Corner Dobson &amp; Ray Rd","state":"AZ"},"type":"Feature","geometry":{"type":"Point","coordinates":[-111.875242,33.320789]}},{"properties":{"city":"League City","lon":-95.092134,"zip":77573,"phone":"281-534-2416","id":"a62k5cjg7192","address":"2920 Gulf Fwy S","lat":29.468614,"location":"NE Corner FM 646 &amp; I-455","state":"TX"},"type":"Feature","geometry":{"type":"Point","coordinates":[-95.092134,29.468614]}},{"properties":{"city":"La Verne","lon":-117.767622,"zip":91750,"phone":"909-392-9400","id":"a62k5chyn63z","address":"1945 Foothill Blvd","lat":34.114394,"location":"NE Corner Foothill &amp; Emerald","state":"CA"},"type":"Feature","geometry":{"type":"Point","coordinates":[-117.767622,34.114394]}},{"properties":{"city":"Lewisville","lon":-97.020183,"zip":75067,"phone":"972-219-0506","id":"a62k5ch9hi6b","address":"1093 W Main St","lat":33.042321,"location":"NE Corner Main &amp; Valley","state":"TX"},"type":"Feature","geometry":{"type":"Point","coordinates":[-97.020183,33.042321]}},{"properties":{"city":"Mesa","lon":-111.805132,"zip":85203,"phone":"480-615-4984","id":"a62k5cuv5hku","address":"515 N Stapley Dr","lat":33.42442,"location":"NE Corner Stapley &amp; University","state":"AZ"},"type":"Feature","geometry":{"type":"Point","coordinates":[-111.805132,33.42442]}},{"properties":{"city":"Sacramento","lon":-121.362233,"zip":95864,"phone":"916-483-8022","id":"a62k5cfwkaw2","address":"4391 Arden Way","lat":38.59568,"location":"NE Corner of Arden &amp; Eastern","state":"CA"},"type":"Feature","geometry":{"type":"Point","coordinates":[-121.362233,38.59568]}},{"properties":{"city":"Tucson","lon":-110.822349,"zip":85710,"phone":"520-733-1553","id":"a62k5cfs090c","address":"7955 E Broadway Blvd","lat":32.221219,"location":"NE Crn Broadway &amp; Pantano","state":"AZ"},"type":"Feature","geometry":{"type":"Point","coordinates":[-110.822349,32.221219]}},{"properties":{"city":"Phoenix","lon":-112.005695,"zip":85040,"phone":"602-438-2666","id":"a62k5cp5ff88","address":"3525 E Wood St","lat":33.408845,"location":"NE Crnr 39th St &amp; Lasalle","state":"AZ"},"type":"Feature","geometry":{"type":"Point","coordinates":[-112.005695,33.408845]}},{"properties":{"city":"Oklahoma City","lon":-97.60164,"zip":73132,"phone":"405-721-1804","id":"a62k5cp0oe1i","address":"4516 NW 63rd St","lat":35.53668,"location":"NW 63rd &amp; Meridian","state":"OK"},"type":"Feature","geometry":{"type":"Point","coordinates":[-97.60164,35.53668]}},{"properties":{"city":"Belle Isle","lon":-81.331024,"zip":32812,"phone":"407-826-9921","id":"a62k5cn0yp4c","address":"5150 S Conway Rd","lat":28.481108,"location":"NW Cnr Conway &amp; Hoffner","state":"FL"},"type":"Feature","geometry":{"type":"Point","coordinates":[-81.331024,28.481108]}},{"properties":{"city":"Peoria","lon":-112.271363,"zip":85383,"phone":"623-566-4662","id":"a62k5cs17led","address":"9980 W Happy Valley Rd","lat":33.71087,"location":"NW Cnr Happy Vly &amp; Lk Pleasent","state":"AZ"},"type":"Feature","geometry":{"type":"Point","coordinates":[-112.271363,33.71087]}},{"properties":{"city":"Sierra Vista","lon":-110.257169,"zip":85635,"phone":"520-459-2256","id":"a62k5ci4rlrs","address":"439 N Hwy 90 Byp","lat":31.558251,"location":"NW Cnr Hwy 90 &amp; Fry Blvd","state":"AZ"},"type":"Feature","geometry":{"type":"Point","coordinates":[-110.257169,31.558251]}},{"properties":{"city":"Phoenix","lon":-112.034746,"zip":85042,"phone":"602-323-5804","id":"a62k5cfaqkgq","address":"2150 E Baseline Rd","lat":33.377951,"location":"NW Cor 24th St &amp; Baseline","state":"AZ"},"type":"Feature","geometry":{"type":"Point","coordinates":[-112.034746,33.377951]}},{"properties":{"city":"Laveen","lon":-112.171942,"zip":85339,"phone":"602-605-8033","id":"a62k5coovzr9","address":"5270 W Baseline Rd","lat":33.377646,"location":"NW Cor 51st &amp; Baseline","state":"AZ"},"type":"Feature","geometry":{"type":"Point","coordinates":[-112.171942,33.377646]}},{"properties":{"city":"Chandler","lon":-111.859282,"zip":85224,"phone":"480-413-0977","id":"a62k5cmthkbi","address":"3150 N Alma School Rd","lat":33.350915,"location":"NW Cor Alma School &amp; Elliot","state":"AZ"},"type":"Feature","geometry":{"type":"Point","coordinates":[-111.859282,33.350915]}},{"properties":{"city":"Chandler","lon":-111.85885,"zip":85286,"phone":"480-782-1147","id":"a62k5cnrpsqh","address":"2860 S Alma School Rd","lat":33.264243,"location":"NW Cor Alma School &amp; Queen Crk","state":"AZ"},"type":"Feature","geometry":{"type":"Point","coordinates":[-111.85885,33.264243]}},{"properties":{"city":"Roseville","lon":-121.255858,"zip":95661,"phone":"916-789-2095","id":"a62k5clc6dqz","address":"1921 Douglas Blvd","lat":38.744369,"location":"NW Cor Douglas &amp; Rocky Ridge","state":"CA"},"type":"Feature","geometry":{"type":"Point","coordinates":[-121.255858,38.744369]}},{"properties":{"city":"Chandler","lon":-111.789566,"zip":85249,"phone":"480-883-2359","id":"a62k5cmt7sgc","address":"4920 S Gilbert Rd","lat":33.23501,"location":"NW Cor Gilbert &amp; Chandler Hts","state":"AZ"},"type":"Feature","geometry":{"type":"Point","coordinates":[-111.789566,33.23501]}},{"properties":{"city":"Grapevine","lon":-97.100717,"zip":76051,"phone":"817-251-3901","id":"a62k5ci785vs","address":"2140 Hall Johnson Rd","lat":32.893618,"location":"NW Cor Hwy 121 &amp; Hall Johnson","state":"TX"},"type":"Feature","geometry":{"type":"Point","coordinates":[-97.100717,32.893618]}},{"properties":{"city":"Colleyville","lon":-97.155737,"zip":76034,"phone":"817-498-9682","id":"a62k5cq4sfyy","address":"4908 Colleyville Blvd","lat":32.880995,"location":"NW Cor Hwy 26 &amp; Glade","state":"TX"},"type":"Feature","geometry":{"type":"Point","coordinates":[-97.155737,32.880995]}},{"properties":{"city":"Miami","lon":-80.401347,"zip":33186,"phone":"305-385-3941","id":"a62k5cfze9g4","address":"12779 N Kendall Dr","lat":25.686083,"location":"NW Cor Kendall &amp; 127th","state":"FL"},"type":"Feature","geometry":{"type":"Point","coordinates":[-80.401347,25.686083]}},{"properties":{"city":"Surprise","lon":-112.360556,"zip":85379,"phone":"623-214-3523","id":"a62k5cgc4qmn","address":"13954 W Waddell Rd","lat":33.609378,"location":"NW Cor Litchfield &amp; Waddell Rd","state":"AZ"},"type":"Feature","geometry":{"type":"Point","coordinates":[-112.360556,33.609378]}},{"properties":{"city":"Chino","lon":-117.690591,"zip":91710,"phone":"909-902-9307","id":"a62k5chgseef","address":"5250 Philadelphia St","lat":34.033675,"location":"NW Cor Philadelphia &amp; Central","state":"CA"},"type":"Feature","geometry":{"type":"Point","coordinates":[-117.690591,34.033675]}},{"properties":{"city":"Scottsdale","lon":-111.874343,"zip":85260,"phone":"480-661-4049","id":"a62k5cra6h4j","address":"14684 N Frank Lloyd Wrt Blvd","lat":33.620194,"location":"NW Cor Raintree &amp; Frk Lyd Wrt","state":"AZ"},"type":"Feature","geometry":{"type":"Point","coordinates":[-111.874343,33.620194]}},{"properties":{"city":"Watauga","lon":-97.239424,"zip":76148,"phone":"817-428-7113","id":"a62k5cngr5p5","address":"6651 Watauga Rd","lat":32.860571,"location":"NW Cor Rufe Snow &amp; Watauga","state":"TX"},"type":"Feature","geometry":{"type":"Point","coordinates":[-97.239424,32.860571]}},{"properties":{"city":"Coppell","lon":-96.994125,"zip":75019,"phone":"972-304-1663","id":"a62k5cqnnprt","address":"110 W Sandy Lake Rd","lat":32.969519,"location":"NW Cor Sandy Lake &amp; Denton Tap","state":"TX"},"type":"Feature","geometry":{"type":"Point","coordinates":[-96.994125,32.969519]}},{"properties":{"city":"Scottsdale","lon":-111.926067,"zip":85254,"phone":"480-922-1178","id":"a62k5csgjtu3","address":"13802 N Scottsdale Rd","lat":33.611563,"location":"NW Cor Sctsdle &amp; Thunderbird","state":"AZ"},"type":"Feature","geometry":{"type":"Point","coordinates":[-111.926067,33.611563]}},{"properties":{"city":"Hollywood","lon":-80.197634,"zip":33021,"phone":"954-518-9626","id":"a62k5ciswyu0","address":"5321 Sheridan St","lat":26.032772,"location":"NW Cor Sheridan &amp; N 52nd","state":"FL"},"type":"Feature","geometry":{"type":"Point","coordinates":[-80.197634,26.032772]}},{"properties":{"city":"Coral Springs","lon":-80.236284,"zip":33067,"phone":"954-345-7884","id":"a62k5ctaplba","address":"8260 Wiles Rd","lat":26.286571,"location":"NW Cor Wiles &amp; Riverside","state":"FL"},"type":"Feature","geometry":{"type":"Point","coordinates":[-80.236284,26.286571]}},{"properties":{"city":"Phoenix","lon":-112.013281,"zip":85028,"phone":"602-485-9558","id":"a62k5cnlg6v1","address":"10662 N 32nd St","lat":33.58346,"location":"NW Corner 32nd St &amp; Shea Blvd","state":"AZ"},"type":"Feature","geometry":{"type":"Point","coordinates":[-112.013281,33.58346]}},{"properties":{"city":"Glendale","lon":-112.169511,"zip":85302,"phone":"623-934-5461","id":"a62k5cg5uep0","address":"5110 W Olive Ave","lat":33.567681,"location":"NW Corner 51st Ave &amp; Olive","state":"AZ"},"type":"Feature","geometry":{"type":"Point","coordinates":[-112.169511,33.567681]}},{"properties":{"city":"Vienna","lon":-77.257319,"zip":22180,"phone":"703-938-4753","id":"a62k5cje6tsb","address":"412 Maple Ave E","lat":38.908044,"location":"NW Corner Beulah &amp; Maple","state":"VA"},"type":"Feature","geometry":{"type":"Point","coordinates":[-77.257319,38.908044]}},{"properties":{"city":"Scottsdale","lon":-111.911005,"zip":85250,"phone":"480-481-7555","id":"a62k5chf03rg","address":"7908 E Chaparral Rd","lat":33.509538,"location":"NW Corner Hayden &amp; Chaparral","state":"AZ"},"type":"Feature","geometry":{"type":"Point","coordinates":[-111.911005,33.509538]}},{"properties":{"city":"Norco","lon":-117.562992,"zip":92860,"phone":"951-735-9916","id":"a62k5cg4r58u","address":"1080 Hamner Ave","lat":33.898969,"location":"NW Corner Hidden Valley &amp; Main","state":"CA"},"type":"Feature","geometry":{"type":"Point","coordinates":[-117.562992,33.898969]}},{"properties":{"city":"Mesa","lon":-111.684199,"zip":85215,"phone":"480-654-8699","id":"a62k5cmshckh","address":"2920 N Power Rd","lat":33.468507,"location":"NW Corner Power &amp; Mcdowell","state":"AZ"},"type":"Feature","geometry":{"type":"Point","coordinates":[-111.684199,33.468507]}},{"properties":{"city":"Cave Creek","lon":-111.978394,"zip":85331,"phone":"480-538-8626","id":"a62k5clfa47m","address":"28248 N Tatum Blvd","lat":33.742855,"location":"NW Corner Tatum &amp; Dynamite","state":"AZ"},"type":"Feature","geometry":{"type":"Point","coordinates":[-111.978394,33.742855]}},{"properties":{"city":"Goodyear","lon":-112.392757,"zip":85338,"phone":"623-925-4752","id":"a62k5ckealu6","address":"500 N Estrella Pkwy","lat":33.452411,"location":"NW Corner Van Buren &amp; Estrella","state":"AZ"},"type":"Feature","geometry":{"type":"Point","coordinates":[-112.392757,33.452411]}},{"properties":{"city":"Tucson","lon":-110.892818,"zip":85718,"phone":"520-299-8233","id":"a62k5cf737tb","address":"5671 N Swan Rd","lat":32.309917,"location":"NW Corner of Swan&amp;Sunrise","state":"AZ"},"type":"Feature","geometry":{"type":"Point","coordinates":[-110.892818,32.309917]}},{"properties":{"city":"Modesto","lon":-120.975857,"zip":95355,"phone":"209-523-2324","id":"a62k5ck9055b","address":"1421 Coffee Rd","lat":37.664021,"location":"NW Crn Coffee/Orangeburg","state":"CA"},"type":"Feature","geometry":{"type":"Point","coordinates":[-120.975857,37.664021]}},{"properties":{"city":"Tucson","lon":-110.893912,"zip":85712,"phone":"520-318-0830","id":"a62k5ctuq3fb","address":"4639 E Speedway Blvd","lat":32.236423,"location":"NW Crnr Speedway &amp; Swan","state":"AZ"},"type":"Feature","geometry":{"type":"Point","coordinates":[-110.893912,32.236423]}},{"properties":{"city":"San Antonio","lon":-98.654179,"zip":78245,"phone":"210-521-2425","id":"a62k5ctnkl6c","address":"8403 State Highway 151","lat":29.43751,"location":"NW Target Shopping Area","state":"TX"},"type":"Feature","geometry":{"type":"Point","coordinates":[-98.654179,29.43751]}},{"properties":{"city":"Houston","lon":-95.485878,"zip":77092,"phone":"713-290-8220","id":"a62k5cty6sfm","address":"6417 W 43rd St","lat":29.832995,"location":"Near Burlington Coat Factory","state":"TX"},"type":"Feature","geometry":{"type":"Point","coordinates":[-95.485878,29.832995]}},{"properties":{"city":"Livermore","lon":-121.797956,"zip":94551,"phone":"925-454-0375","id":"a62k5cpba361","address":"387 Wright Brothers Ave","lat":37.689659,"location":"Near Livermore Airport","state":"CA"},"type":"Feature","geometry":{"type":"Point","coordinates":[-121.797956,37.689659]}},{"properties":{"city":"Denton","lon":-97.093176,"zip":76205,"phone":"940-566-0054","id":"a62k5ceqfjfm","address":"1435 S Loop 288","lat":33.19482,"location":"Near Officemax &amp; Wal-Mart","state":"TX"},"type":"Feature","geometry":{"type":"Point","coordinates":[-97.093176,33.19482]}},{"properties":{"city":"Woodbridge","lon":-77.298399,"zip":22192,"phone":"703-878-0074","id":"a62k5csv90hw","address":"13910 Shoppers Best Way","lat":38.649209,"location":"Near Shoppers Food Wrehse","state":"VA"},"type":"Feature","geometry":{"type":"Point","coordinates":[-77.298399,38.649209]}},{"properties":{"city":"Los Gatos","lon":-121.959575,"zip":95032,"phone":"408-358-1446","id":"a62k5chls5ph","address":"15505 Los Gatos Blvd","lat":37.243366,"location":"New Town Center","state":"CA"},"type":"Feature","geometry":{"type":"Point","coordinates":[-121.959575,37.243366]}},{"properties":{"city":"Bakersfield","lon":-119.111819,"zip":93312,"phone":"661-829-2302","id":"a62k5ck3fk0u","address":"9901 Hageman Rd","lat":35.397865,"location":"Next To 7-Eleven","state":"CA"},"type":"Feature","geometry":{"type":"Point","coordinates":[-119.111819,35.397865]}},{"properties":{"city":"Burleson","lon":-97.32245,"zip":76028,"phone":"817-447-7558","id":"a62k5cfpy02j","address":"811 NE Alsbury Blvd","lat":32.56318,"location":"Next To Albertsons","state":"TX"},"type":"Feature","geometry":{"type":"Point","coordinates":[-97.32245,32.56318]}},{"properties":{"city":"Surprise","lon":-112.374263,"zip":85374,"phone":"623-584-1033","id":"a62k5cn683we","address":"14557 W Grand Ave","lat":33.657048,"location":"Next To Albertsons","state":"AZ"},"type":"Feature","geometry":{"type":"Point","coordinates":[-112.374263,33.657048]}},{"properties":{"city":"Folsom","lon":-121.151025,"zip":95630,"phone":"916-983-4098","id":"a62k5cmbjvxb","address":"431 Blue Ravine Rd","lat":38.671184,"location":"Next To Auto Zone","state":"CA"},"type":"Feature","geometry":{"type":"Point","coordinates":[-121.151025,38.671184]}},{"properties":{"city":"Toms River","lon":-74.198418,"zip":8753,"phone":"732-797-1770","id":"a62k5cnw22f3","address":"16 Route 37 E","lat":39.963696,"location":"Next To Autozone","state":"NJ"},"type":"Feature","geometry":{"type":"Point","coordinates":[-74.198418,39.963696]}},{"properties":{"city":"Tampa","lon":-82.507074,"zip":33618,"phone":"813-968-1534","id":"a62k5cli9kh9","address":"14364 N Dale Mabry Hwy","lat":28.07651,"location":"Next To Bally's Fitness","state":"FL"},"type":"Feature","geometry":{"type":"Point","coordinates":[-82.507074,28.07651]}},{"properties":{"city":"San Leandro","lon":-122.129834,"zip":94578,"phone":"510-481-1616","id":"a62k5comh91k","address":"15100 Hesperian Blvd","lat":37.701515,"location":"Next To Bayfair Mall","state":"CA"},"type":"Feature","geometry":{"type":"Point","coordinates":[-122.129834,37.701515]}},{"properties":{"city":"Duncanville","lon":-96.923886,"zip":75116,"phone":"972-572-2100","id":"a62k5crklpfc","address":"702 W Wheatland Rd","lat":32.647238,"location":"Next To Bealls Dept Store","state":"TX"},"type":"Feature","geometry":{"type":"Point","coordinates":[-96.923886,32.647238]}},{"properties":{"city":"Lubbock","lon":-101.922221,"zip":79414,"phone":"806-785-4817","id":"a62k5cteqvod","address":"6231 Slide Rd","lat":33.537326,"location":"Next To Bed Bath &amp; Beyond","state":"TX"},"type":"Feature","geometry":{"type":"Point","coordinates":[-101.922221,33.537326]}},{"properties":{"city":"Santee","lon":-116.98574,"zip":92071,"phone":"619-596-8610","id":"a62k5ct9a2xq","address":"9720 Mission Gorge Rd","lat":32.83889,"location":"Next To Best Buy","state":"CA"},"type":"Feature","geometry":{"type":"Point","coordinates":[-116.98574,32.83889]}},{"properties":{"city":"Bloomingdale","lon":-88.128478,"zip":60108,"phone":"630-980-9044","id":"a62k5cfcuo2o","address":"348 W Army Trail Rd","lat":41.939664,"location":"Next To Best Buy","state":"IL"},"type":"Feature","geometry":{"type":"Point","coordinates":[-88.128478,41.939664]}},{"properties":{"city":"North Little Rock","lon":-92.220916,"zip":72117,"phone":"501-945-8091","id":"a62k5cosott5","address":"4227 E Mccain Blvd","lat":34.789496,"location":"Next To Bestbuy","state":"AR"},"type":"Feature","geometry":{"type":"Point","coordinates":[-92.220916,34.789496]}},{"properties":{"city":"Lawton","lon":-98.443256,"zip":73505,"phone":"580-355-5415","id":"a62k5cozl55f","address":"4011 NW Cache Rd","lat":34.623744,"location":"Next To Big 5","state":"OK"},"type":"Feature","geometry":{"type":"Point","coordinates":[-98.443256,34.623744]}},{"properties":{"city":"Temecula","lon":-117.077556,"zip":92592,"phone":"951-302-8040","id":"a62k5cite4ao","address":"33417 Temecula Pkwy","lat":33.486352,"location":"Next To Big 5","state":"CA"},"type":"Feature","geometry":{"type":"Point","coordinates":[-117.077556,33.486352]}},{"properties":{"city":"Wilkes Barre","lon":-75.846533,"zip":18702,"phone":"570-824-1971","id":"a62k5cqiftn1","address":"679 Kidder St","lat":41.25044,"location":"Next To Blockbuster","state":"PA"},"type":"Feature","geometry":{"type":"Point","coordinates":[-75.846533,41.25044]}},{"properties":{"city":"Lodi","lon":-121.283683,"zip":95240,"phone":"209-366-1340","id":"a62k5cpusqf5","address":"858 W Kettleman Ln","lat":38.115298,"location":"Next To Blockbuster","state":"CA"},"type":"Feature","geometry":{"type":"Point","coordinates":[-121.283683,38.115298]}},{"properties":{"city":"Plano","lon":-96.795407,"zip":75093,"phone":"972-713-9267","id":"a62k5cqo3m9v","address":"1601 Preston Rd","lat":33.021772,"location":"Next To Borders Books","state":"TX"},"type":"Feature","geometry":{"type":"Point","coordinates":[-96.795407,33.021772]}},{"properties":{"city":"Mcallen","lon":-98.217723,"zip":78503,"phone":"956-682-3626","id":"a62k5cq4wnxo","address":"510 E Expressway 83","lat":26.187126,"location":"Next To Burlington Coat","state":"TX"},"type":"Feature","geometry":{"type":"Point","coordinates":[-98.217723,26.187126]}},{"properties":{"city":"Fort Wayne","lon":-85.137193,"zip":46805,"phone":"260-484-6666","id":"a62k5cnmcc77","address":"257 E Coliseum Blvd","lat":41.118438,"location":"Next To Circuit City","state":"IN"},"type":"Feature","geometry":{"type":"Point","coordinates":[-85.137193,41.118438]}},{"properties":{"city":"Northridge","lon":-118.502367,"zip":91325,"phone":"818-891-2140","id":"a62k5cv3macb","address":"9040 Balboa Blvd","lat":34.234509,"location":"Next To Cvs Pharmacy","state":"CA"},"type":"Feature","geometry":{"type":"Point","coordinates":[-118.502367,34.234509]}},{"properties":{"city":"Jackson","lon":-90.140842,"zip":39211,"phone":"601-991-3228","id":"a62k5cn2h4jw","address":"1039 E County Line Rd","lat":32.399425,"location":"Next To Davids Bridal","state":"MS"},"type":"Feature","geometry":{"type":"Point","coordinates":[-90.140842,32.399425]}},{"properties":{"city":"Wallingford","lon":-72.818741,"zip":6492,"phone":"203-949-8018","id":"a62k5csm348v","address":"1258 S Broad St","lat":41.453609,"location":"Next To Firestone","state":"CT"},"type":"Feature","geometry":{"type":"Point","coordinates":[-72.818741,41.453609]}},{"properties":{"city":"Fresno","lon":-119.739015,"zip":93720,"phone":"559-298-3714","id":"a62k5cmp6c7l","address":"8947 N Chestnut Ave","lat":36.865874,"location":"Next To Food 4 Less","state":"CA"},"type":"Feature","geometry":{"type":"Point","coordinates":[-119.739015,36.865874]}},{"properties":{"city":"La Puente","lon":-117.94304,"zip":91744,"phone":"626-917-5549","id":"a62k5chd6aeq","address":"1869 N Hacienda Blvd","lat":34.05151,"location":"Next To Food-4-Less","state":"CA"},"type":"Feature","geometry":{"type":"Point","coordinates":[-117.94304,34.05151]}},{"properties":{"city":"Brentwood","lon":-86.787924,"zip":37027,"phone":"615-370-1113","id":"a62k5cntjdxc","address":"210 Franklin Rd","lat":36.032191,"location":"Next To Harris Teeter","state":"TN"},"type":"Feature","geometry":{"type":"Point","coordinates":[-86.787924,36.032191]}},{"properties":{"city":"Manchester","lon":-71.444672,"zip":3103,"phone":"603-622-7482","id":"a62k5cjilvtu","address":"100 Cahill Ave","lat":42.962036,"location":"Next To Home Depot","state":"NH"},"type":"Feature","geometry":{"type":"Point","coordinates":[-71.444672,42.962036]}},{"properties":{"city":"Rochester","lon":-77.663173,"zip":14615,"phone":"585-865-0900","id":"a62k5cqy5kdy","address":"1340 Ridge Rd W","lat":43.204784,"location":"Next To Home Depot","state":"NY"},"type":"Feature","geometry":{"type":"Point","coordinates":[-77.663173,43.204784]}},{"properties":{"city":"Phoenix","lon":-112.09327,"zip":85027,"phone":"623-582-2302","id":"a62k5ckz4yef","address":"21410 N 15th Ln","lat":33.67761,"location":"Next To Honeywell","state":"AZ"},"type":"Feature","geometry":{"type":"Point","coordinates":[-112.09327,33.67761]}},{"properties":{"city":"Yuba City","lon":-121.635854,"zip":95993,"phone":"530-751-3052","id":"a62k5cu9dmt1","address":"1352 Colusa Hwy","lat":39.141708,"location":"Next To Kelly-Moore Paint","state":"CA"},"type":"Feature","geometry":{"type":"Point","coordinates":[-121.635854,39.141708]}},{"properties":{"city":"Camarillo","lon":-119.038802,"zip":93010,"phone":"805-482-6296","id":"a62k5ch9l8gw","address":"828 Arneill Rd","lat":34.225705,"location":"Next To Kmart","state":"CA"},"type":"Feature","geometry":{"type":"Point","coordinates":[-119.038802,34.225705]}},{"properties":{"city":"Amherst","lon":-78.697108,"zip":14221,"phone":"716-689-7963","id":"a62k5ct81c8v","address":"8232 Transit Rd","lat":42.992679,"location":"Next To Lowes","state":"NY"},"type":"Feature","geometry":{"type":"Point","coordinates":[-78.697108,42.992679]}},{"properties":{"city":"Thousand Oaks","lon":-118.850861,"zip":91362,"phone":"805-379-2375","id":"a62k5cv2h3jb","address":"1760 E Thousand Oaks Blvd","lat":34.177241,"location":"Next To Lupes Restaurant","state":"CA"},"type":"Feature","geometry":{"type":"Point","coordinates":[-118.850861,34.177241]}},{"properties":{"city":"Gretna","lon":-90.026886,"zip":70056,"phone":"504-391-3097","id":"a62k5ceqxdqn","address":"320 Lapalco Blvd","lat":29.881232,"location":"Next To Major Video","state":"LA"},"type":"Feature","geometry":{"type":"Point","coordinates":[-90.026886,29.881232]}},{"properties":{"city":"Des Moines","lon":-93.67309,"zip":50311,"phone":"515-222-1469","id":"a62k5cqsbhe4","address":"4100 University Ave","lat":41.600189,"location":"Next To Mens Wearhouse","state":"IA"},"type":"Feature","geometry":{"type":"Point","coordinates":[-93.67309,41.600189]}},{"properties":{"city":"Westland","lon":-83.382349,"zip":48185,"phone":"734-422-3820","id":"a62k5cfxxq2v","address":"34658 Warren Rd","lat":42.339129,"location":"Next To Michaels","state":"MI"},"type":"Feature","geometry":{"type":"Point","coordinates":[-83.382349,42.339129]}},{"properties":{"city":"Lake Havasu City","lon":-114.336663,"zip":86403,"phone":"928-453-9200","id":"a62k5cezsqzx","address":"1850 Mcculloch Blvd N","lat":34.477407,"location":"Next To Mohave Library","state":"AZ"},"type":"Feature","geometry":{"type":"Point","coordinates":[-114.336663,34.477407]}},{"properties":{"city":"Wyckoff","lon":-74.166847,"zip":7481,"phone":"201-891-6636","id":"a62k5ctr3cqk","address":"430 Greenwood Ave","lat":41.014175,"location":"Next To Mvd","state":"NJ"},"type":"Feature","geometry":{"type":"Point","coordinates":[-74.166847,41.014175]}},{"properties":{"city":"Oxnard","lon":-119.151078,"zip":93036,"phone":"805-988-9611","id":"a62k5cfpvsz3","address":"1941 E Ventura Blvd","lat":34.223934,"location":"Next To Office Depot","state":"CA"},"type":"Feature","geometry":{"type":"Point","coordinates":[-119.151078,34.223934]}},{"properties":{"city":"Phoenix","lon":-111.985858,"zip":85044,"phone":"480-961-4465","id":"a62k5ctzs20a","address":"4615 E Ray Rd","lat":33.31959,"location":"Next To Old Navy","state":"AZ"},"type":"Feature","geometry":{"type":"Point","coordinates":[-111.985858,33.31959]}},{"properties":{"city":"York","lon":-76.739924,"zip":17404,"phone":"717-846-7115","id":"a62k5crscwym","address":"351 Loucks Rd","lat":39.983825,"location":"Next To Old Navy","state":"PA"},"type":"Feature","geometry":{"type":"Point","coordinates":[-76.739924,39.983825]}},{"properties":{"city":"Turlock","lon":-120.849114,"zip":95382,"phone":"209-664-9296","id":"a62k5cql8j8q","address":"3081 Geer Rd","lat":37.520833,"location":"Next To Orchard Hardware","state":"CA"},"type":"Feature","geometry":{"type":"Point","coordinates":[-120.849114,37.520833]}},{"properties":{"city":"Huntington Station","lon":-73.378117,"zip":11746,"phone":"631-427-8010","id":"a62k5csiz53n","address":"874 E Jericho Tpke","lat":40.834866,"location":"Next To Panama Hattie's","state":"NY"},"type":"Feature","geometry":{"type":"Point","coordinates":[-73.378117,40.834866]}},{"properties":{"city":"Dickson City","lon":-75.640575,"zip":18519,"phone":"570-487-1566","id":"a62k5cqsta4x","address":"1025 Commerce Blvd","lat":41.463816,"location":"Next To Party City","state":"PA"},"type":"Feature","geometry":{"type":"Point","coordinates":[-75.640575,41.463816]}},{"properties":{"city":"Salem","lon":-71.210487,"zip":3079,"phone":"603-894-4646","id":"a62k5cgebx3w","address":"526 S Broadway","lat":42.784801,"location":"Next To Pep Boys","state":"NH"},"type":"Feature","geometry":{"type":"Point","coordinates":[-71.210487,42.784801]}},{"properties":{"city":"Palm Harbor","lon":-82.739111,"zip":34684,"phone":"727-781-4625","id":"a62k5cflekf5","address":"32546 US Highway 19 N","lat":28.067716,"location":"Next To Pet Supermarket","state":"FL"},"type":"Feature","geometry":{"type":"Point","coordinates":[-82.739111,28.067716]}},{"properties":{"city":"Independence","lon":-94.415064,"zip":64055,"phone":"816-373-4265","id":"a62k5cj6u6dx","address":"4201 S Noland Rd","lat":39.043798,"location":"Next To Price Chopper","state":"MO"},"type":"Feature","geometry":{"type":"Point","coordinates":[-94.415064,39.043798]}},{"properties":{"city":"Jupiter","lon":-80.130879,"zip":33458,"phone":"561-746-6815","id":"a62k5cgucebc","address":"6340 W Indiantown Rd","lat":26.934358,"location":"Next To Publix","state":"FL"},"type":"Feature","geometry":{"type":"Point","coordinates":[-80.130879,26.934358]}},{"properties":{"city":"Jacksonville","lon":-81.741699,"zip":32244,"phone":"904-573-6515","id":"a62k5ck57edq","address":"6001 Argyle Forest Blvd","lat":30.191449,"location":"Next To Publix","state":"FL"},"type":"Feature","geometry":{"type":"Point","coordinates":[-81.741699,30.191449]}},{"properties":{"city":"St Petersburg","lon":-82.735421,"zip":33710,"phone":"727-345-7153","id":"a62k5co527hx","address":"6986 22nd Ave N","lat":27.791667,"location":"Next To Publix","state":"FL"},"type":"Feature","geometry":{"type":"Point","coordinates":[-82.735421,27.791667]}},{"properties":{"city":"Santa Barbara","lon":-119.732865,"zip":93105,"phone":"805-898-9312","id":"a62k5cgutdmk","address":"3218 State St","lat":34.440533,"location":"Next To Radio Shack","state":"CA"},"type":"Feature","geometry":{"type":"Point","coordinates":[-119.732865,34.440533]}},{"properties":{"city":"La Crescenta","lon":-118.236236,"zip":91214,"phone":"818-248-8741","id":"a62k5cr1dip8","address":"2651 Foothill Blvd","lat":34.222025,"location":"Next To Ralphs","state":"CA"},"type":"Feature","geometry":{"type":"Point","coordinates":[-118.236236,34.222025]}},{"properties":{"city":"Greenville","lon":-82.341452,"zip":29607,"phone":"864-254-0009","id":"a62k5cfds8fz","address":"523 Haywood Rd","lat":34.845334,"location":"Next To Rooms To Go","state":"SC"},"type":"Feature","geometry":{"type":"Point","coordinates":[-82.341452,34.845334]}},{"properties":{"city":"Garland","lon":-96.646498,"zip":75041,"phone":"972-681-7476","id":"a62k5corejmw","address":"1202 W Centerville Rd","lat":32.857547,"location":"Next To Ross","state":"TX"},"type":"Feature","geometry":{"type":"Point","coordinates":[-96.646498,32.857547]}},{"properties":{"city":"Richardson","lon":-96.700186,"zip":75081,"phone":"972-669-9580","id":"a62k5cp1piaa","address":"1332 S Plano Rd","lat":32.932632,"location":"Next To Sack-N-Save","state":"TX"},"type":"Feature","geometry":{"type":"Point","coordinates":[-96.700186,32.932632]}},{"properties":{"city":"Surprise","lon":-112.42571,"zip":85374,"phone":"623-584-4222","id":"a62k5csjuwvq","address":"17067 W Bell Rd","lat":33.638638,"location":"Next To Safeway","state":"AZ"},"type":"Feature","geometry":{"type":"Point","coordinates":[-112.42571,33.638638]}},{"properties":{"city":"Sayville","lon":-73.077566,"zip":11782,"phone":"631-567-2530","id":"a62k5cknc25h","address":"5670 Sunrise Hwy","lat":40.765393,"location":"Next To Sayville Ford","state":"NY"},"type":"Feature","geometry":{"type":"Point","coordinates":[-73.077566,40.765393]}},{"properties":{"city":"Grand Rapids","lon":-85.600612,"zip":49512,"phone":"616-954-2403","id":"a62k5ck6ps0n","address":"2700 28th St SE","lat":42.91248,"location":"Next To Schulers Books","state":"MI"},"type":"Feature","geometry":{"type":"Point","coordinates":[-85.600612,42.91248]}},{"properties":{"city":"Beaumont","lon":-94.168894,"zip":77706,"phone":"409-347-1819","id":"a62k5cpiillf","address":"3939 Dowlen Rd","lat":30.116321,"location":"Next To Signature Krogers","state":"TX"},"type":"Feature","geometry":{"type":"Point","coordinates":[-94.168894,30.116321]}},{"properties":{"city":"East Brunswick","lon":-74.403435,"zip":8816,"phone":"732-257-5704","id":"a62k5chlg531","address":"268 State Route 18","lat":40.461948,"location":"Next To Sleepys &amp; Sts Tire","state":"NJ"},"type":"Feature","geometry":{"type":"Point","coordinates":[-74.403435,40.461948]}},{"properties":{"city":"Hanford","lon":-119.655321,"zip":93230,"phone":"559-585-1527","id":"a62k5cnu2knr","address":"530 N 11th Ave","lat":36.330405,"location":"Next To Staples","state":"CA"},"type":"Feature","geometry":{"type":"Point","coordinates":[-119.655321,36.330405]}},{"properties":{"city":"Roseville","lon":-82.91487,"zip":48066,"phone":"586-294-7117","id":"a62k5cj0789j","address":"31873 Gratiot Ave","lat":42.531387,"location":"Next To Starbucks","state":"MI"},"type":"Feature","geometry":{"type":"Point","coordinates":[-82.91487,42.531387]}},{"properties":{"city":"Spring","lon":-95.434376,"zip":77388,"phone":"281-528-8067","id":"a62k5ct6t01v","address":"20551 Interstate 45","lat":30.062669,"location":"Next To Starbucks","state":"TX"},"type":"Feature","geometry":{"type":"Point","coordinates":[-95.434376,30.062669]}},{"properties":{"city":"Santa Clarita","lon":-118.466193,"zip":91321,"phone":"661-298-2626","id":"a62k5ct1r89h","address":"26870 Sierra Hwy","lat":34.404549,"location":"Next To Stater Brothers","state":"CA"},"type":"Feature","geometry":{"type":"Point","coordinates":[-118.466193,34.404549]}},{"properties":{"city":"Mckinney","lon":-96.731306,"zip":75070,"phone":"214-383-3516","id":"a62k5csrufej","address":"8930 State Highway 121","lat":33.126488,"location":"Next To Super Target","state":"TX"},"type":"Feature","geometry":{"type":"Point","coordinates":[-96.731306,33.126488]}},{"properties":{"city":"Bradenton","lon":-82.61869,"zip":34209,"phone":"941-792-0777","id":"a62k5cuhn0va","address":"5757 Manatee Ave W","lat":27.495802,"location":"Next To Sweetbay","state":"FL"},"type":"Feature","geometry":{"type":"Point","coordinates":[-82.61869,27.495802]}},{"properties":{"city":"Farmington Hills","lon":-83.359713,"zip":48334,"phone":"248-932-5350","id":"a62k5cplyxsq","address":"29945 Orchard Lake Rd","lat":42.516843,"location":"Next To Taco Bell","state":"MI"},"type":"Feature","geometry":{"type":"Point","coordinates":[-83.359713,42.516843]}},{"properties":{"city":"Waco","lon":-97.179686,"zip":76710,"phone":"254-776-3046","id":"a62k5ctywhvl","address":"819 N Valley Mills Dr","lat":31.529912,"location":"Next To Taco Bueno","state":"TX"},"type":"Feature","geometry":{"type":"Point","coordinates":[-97.179686,31.529912]}},{"properties":{"city":"Tomball","lon":-95.637401,"zip":77377,"phone":"281-516-3833","id":"a62k5chqah6t","address":"14320 FM 2920 Rd","lat":30.089586,"location":"Next To Target","state":"TX"},"type":"Feature","geometry":{"type":"Point","coordinates":[-95.637401,30.089586]}},{"properties":{"city":"Mesquite","lon":-96.618149,"zip":75150,"phone":"972-270-5000","id":"a62k5cl2nyn5","address":"1515 N Town East Blvd","lat":32.811023,"location":"Next To Target","state":"TX"},"type":"Feature","geometry":{"type":"Point","coordinates":[-96.618149,32.811023]}},{"properties":{"city":"Norwood","lon":-71.068405,"zip":2062,"phone":"781-255-0781","id":"a62k5cjbxjal","address":"1335 Boston Providence Tpke","lat":42.351673,"location":"Next To Tgi Fridays and Kinkos","state":"MA"},"type":"Feature","geometry":{"type":"Point","coordinates":[-71.068405,42.351673]}},{"properties":{"city":"Charlotte","lon":-80.768518,"zip":28205,"phone":"704-532-5758","id":"a62k5cv307y2","address":"4402 E Independence Blvd","lat":35.196698,"location":"Next To The Olive Garden","state":"NC"},"type":"Feature","geometry":{"type":"Point","coordinates":[-80.768518,35.196698]}},{"properties":{"city":"Montgomery","lon":-86.222708,"zip":36117,"phone":"334-271-9623","id":"a62k5cky934b","address":"2725 Eastern Blvd","lat":32.345259,"location":"Next To Tj Maxx","state":"AL"},"type":"Feature","geometry":{"type":"Point","coordinates":[-86.222708,32.345259]}},{"properties":{"city":"Garland","lon":-96.60244,"zip":75040,"phone":"972-675-2919","id":"a62k5cof5uqv","address":"1802 Pleasant Valley Rd","lat":32.937627,"location":"Next To Tom Thumb","state":"TX"},"type":"Feature","geometry":{"type":"Point","coordinates":[-96.60244,32.937627]}},{"properties":{"city":"Allen","lon":-96.682955,"zip":75013,"phone":"972-747-8328","id":"a62k5cqryfil","address":"906 W Mcdermott Dr","lat":33.101476,"location":"Next To Tom Thumb","state":"TX"},"type":"Feature","geometry":{"type":"Point","coordinates":[-96.682955,33.101476]}},{"properties":{"city":"Frisco","lon":-96.805299,"zip":75034,"phone":"972-377-0209","id":"a62k5cjkfchp","address":"4944 Preston Rd","lat":33.119607,"location":"Next To Tom Thumb","state":"TX"},"type":"Feature","geometry":{"type":"Point","coordinates":[-96.805299,33.119607]}},{"properties":{"city":"Amherst","lon":-78.815663,"zip":14226,"phone":"716-838-1431","id":"a62k5crep4bh","address":"3185 Sheridan Dr","lat":42.980145,"location":"Next To Toms Restaurant","state":"NY"},"type":"Feature","geometry":{"type":"Point","coordinates":[-78.815663,42.980145]}},{"properties":{"city":"Warwick","lon":-71.49147,"zip":2886,"phone":"401-827-5336","id":"a62k5cphizcn","address":"1089 Bald Hill Rd","lat":41.708378,"location":"Next To Townfair Tire","state":"RI"},"type":"Feature","geometry":{"type":"Point","coordinates":[-71.49147,41.708378]}},{"properties":{"city":"Nanuet","lon":-74.006418,"zip":10954,"phone":"845-623-1005","id":"a62k5crm3cai","address":"110 E Route 59","lat":41.095386,"location":"Next To Toys R US","state":"NY"},"type":"Feature","geometry":{"type":"Point","coordinates":[-74.006418,41.095386]}},{"properties":{"city":"Las Vegas","lon":-115.156171,"zip":89119,"phone":"702-387-9333","id":"a62k5cowihkt","address":"365 E Arby Ave","lat":36.060432,"location":"Next To Ups Building","state":"NV"},"type":"Feature","geometry":{"type":"Point","coordinates":[-115.156171,36.060432]}},{"properties":{"city":"Fresno","lon":-119.700309,"zip":93727,"phone":"559-452-8452","id":"a62k5cjl0qap","address":"550 S Clovis Ave","lat":36.737534,"location":"Next To Walgreens","state":"CA"},"type":"Feature","geometry":{"type":"Point","coordinates":[-119.700309,36.737534]}},{"properties":{"city":"Plantation","lon":-80.287627,"zip":33324,"phone":"954-476-1075","id":"a62k5ckitqub","address":"879 N Nob Hill Rd","lat":26.13413,"location":"Next To Winn Dixie","state":"FL"},"type":"Feature","geometry":{"type":"Point","coordinates":[-80.287627,26.13413]}},{"properties":{"city":"Pompton Plains","lon":-74.286644,"zip":7444,"phone":"973-835-7600","id":"a62k5cup4dgv","address":"352 State Rt 23","lat":40.970837,"location":"North of Alexander Ave","state":"NJ"},"type":"Feature","geometry":{"type":"Point","coordinates":[-74.286644,40.970837]}},{"properties":{"city":"Mcallen","lon":-98.218222,"zip":78504,"phone":"956-631-3938","id":"a62k5cpee007","address":"7700 N 10th St","lat":26.271857,"location":"North of Trenton On 10th","state":"TX"},"type":"Feature","geometry":{"type":"Point","coordinates":[-98.218222,26.271857]}},{"properties":{"city":"Hurst","lon":-97.168037,"zip":76053,"phone":"817-268-4727","id":"a62k5cq73the","address":"101 W Bedford Euless Rd","lat":32.833861,"location":"Norwood &amp; Bedford/Euless","state":"TX"},"type":"Feature","geometry":{"type":"Point","coordinates":[-97.168037,32.833861]}},{"properties":{"city":"Ontario","lon":-117.562712,"zip":91761,"phone":"909-390-7767","id":"a62k5ct2864b","address":"1595 S Dupont Ave","lat":34.044148,"location":"Off Jurupa &amp; S Dupont Ave","state":"CA"},"type":"Feature","geometry":{"type":"Point","coordinates":[-117.562712,34.044148]}},{"properties":{"city":"Fort Myers","lon":-81.872194,"zip":33907,"phone":"239-274-3500","id":"a62k5cgeitdz","address":"11598 S Cleveland Ave","lat":26.57166,"location":"On 41 Btwn Crystal &amp; Boy Scout","state":"FL"},"type":"Feature","geometry":{"type":"Point","coordinates":[-81.872194,26.57166]}},{"properties":{"city":"Atlanta","lon":-84.378517,"zip":30328,"phone":"404-257-1986","id":"a62k5cnx59is","address":"263 Hilderbrand Dr NE","lat":33.922798,"location":"On Hilderbrand E of Roswell","state":"GA"},"type":"Feature","geometry":{"type":"Point","coordinates":[-84.378517,33.922798]}},{"properties":{"city":"Cape Coral","lon":-81.941295,"zip":33990,"phone":"239-574-0030","id":"a62k5ck8fo6i","address":"2314 Del Prado Blvd S","lat":26.609164,"location":"One Block N of Veterans","state":"FL"},"type":"Feature","geometry":{"type":"Point","coordinates":[-81.941295,26.609164]}},{"properties":{"city":"Palm Springs","lon":-116.545413,"zip":92264,"phone":"760-416-4275","id":"a62k5cjh9gd2","address":"590 S Indian Canyon Dr","lat":33.814122,"location":"One Block South of Ramon","state":"CA"},"type":"Feature","geometry":{"type":"Point","coordinates":[-116.545413,33.814122]}},{"properties":{"city":"Tarzana","lon":-118.556453,"zip":91356,"phone":"818-345-7404","id":"a62k5cu078u8","address":"19433 Ventura Blvd","lat":34.172866,"location":"One Block West of Tampa","state":"CA"},"type":"Feature","geometry":{"type":"Point","coordinates":[-118.556453,34.172866]}},{"properties":{"city":"North Babylon","lon":-73.320348,"zip":11703,"phone":"631-242-8993","id":"a62k5chf3hr6","address":"1251 Deer Park Ave","lat":40.738318,"location":"Pathmark Shopping Center","state":"NY"},"type":"Feature","geometry":{"type":"Point","coordinates":[-73.320348,40.738318]}},{"properties":{"city":"San Antonio","lon":-98.408775,"zip":78218,"phone":"210-657-5988","id":"a62k5co5m638","address":"2418 Austin Hwy","lat":29.509473,"location":"Perrin-Beitel &amp; Austin Hwy","state":"TX"},"type":"Feature","geometry":{"type":"Point","coordinates":[-98.408775,29.509473]}},{"properties":{"city":"San Antonio","lon":-98.408775,"zip":78218,"phone":"210-651-1500","id":"a62k5cmy7of8","address":"2418 Austin Hwy","lat":29.509473,"location":"Perrin-Beitel &amp; Austin Hwy","state":"TX"},"type":"Feature","geometry":{"type":"Point","coordinates":[-98.408775,29.509473]}},{"properties":{"city":"Stuart","lon":-80.26778,"zip":34994,"phone":"772-232-9870","id":"a62k5cf6t95o","address":"2415 NW Federal Hwy","lat":27.234208,"location":"Pineapple Commons Plaza","state":"FL"},"type":"Feature","geometry":{"type":"Point","coordinates":[-80.26778,27.234208]}},{"properties":{"city":"Oceanside","lon":-117.291518,"zip":92056,"phone":"760-630-2717","id":"a62k5cs218hk","address":"3837 Plaza Dr","lat":33.182325,"location":"Plaza Dr Behind Taco Bell","state":"CA"},"type":"Feature","geometry":{"type":"Point","coordinates":[-117.291518,33.182325]}},{"properties":{"city":"El Paso","lon":-106.562184,"zip":79912,"phone":"915-585-1183","id":"a62k5cp94vhg","address":"7500 N Mesa St","lat":31.838144,"location":"Promenade Shopping Center","state":"TX"},"type":"Feature","geometry":{"type":"Point","coordinates":[-106.562184,31.838144]}},{"properties":{"city":"St Petersburg","lon":-82.636633,"zip":33704,"phone":"727-822-1502","id":"a62k5chtzbz0","address":"280 37th Ave N","lat":27.805638,"location":"Publix Shopping Center","state":"FL"},"type":"Feature","geometry":{"type":"Point","coordinates":[-82.636633,27.805638]}},{"properties":{"city":"Shrewsbury","lon":-71.713791,"zip":1545,"phone":"508-753-2830","id":"a62k5cgc809a","address":"87 Boston Tpke","lat":42.298264,"location":"Quinsigamond Plaza","state":"MA"},"type":"Feature","geometry":{"type":"Point","coordinates":[-71.713791,42.298264]}},{"properties":{"city":"Pasadena","lon":-95.13439,"zip":77505,"phone":"281-487-5722","id":"a62k5cm0hahr","address":"6831 Spencer Hwy","lat":29.663632,"location":"Red Bluff &amp; Spencer","state":"TX"},"type":"Feature","geometry":{"type":"Point","coordinates":[-95.13439,29.663632]}},{"properties":{"city":"Toledo","lon":-83.664495,"zip":43614,"phone":"419-389-6300","id":"a62k5cr2x18f","address":"2525 S Reynolds Rd","lat":41.593733,"location":"Reynolds Plaza","state":"OH"},"type":"Feature","geometry":{"type":"Point","coordinates":[-83.664495,41.593733]}},{"properties":{"city":"Bakersfield","lon":-118.94951,"zip":93306,"phone":"661-873-8880","id":"a62k5chxs6mf","address":"2651 Oswell St","lat":35.394209,"location":"Rite-Aid / Petsmart Center","state":"CA"},"type":"Feature","geometry":{"type":"Point","coordinates":[-118.94951,35.394209]}},{"properties":{"city":"Cinnaminson","lon":-75.010475,"zip":8077,"phone":"856-303-9238","id":"a62k5conyt9x","address":"1013 Route 130 S","lat":39.987671,"location":"Riverton Rd &amp; Rte 130 S","state":"NJ"},"type":"Feature","geometry":{"type":"Point","coordinates":[-75.010475,39.987671]}},{"properties":{"city":"White Plains","lon":-73.793738,"zip":10607,"phone":"914-686-6274","id":"a62k5cjkr2ic","address":"288 Tarrytown Rd","lat":41.041786,"location":"Rosemont Plaza","state":"NY"},"type":"Feature","geometry":{"type":"Point","coordinates":[-73.793738,41.041786]}},{"properties":{"city":"North Miami Beach","lon":-80.167304,"zip":33179,"phone":"305-947-9400","id":"a62k5cpk9omv","address":"1688 NE Miami Gardens Dr","lat":25.945704,"location":"S Side Miami Garden At NE 18th","state":"FL"},"type":"Feature","geometry":{"type":"Point","coordinates":[-80.167304,25.945704]}},{"properties":{"city":"Pearland","lon":-95.256209,"zip":77581,"phone":"832-736-9123","id":"a62k5cgnp5fm","address":"2540 Broadway St","lat":29.552814,"location":"S of Broadway At Liberty","state":"TX"},"type":"Feature","geometry":{"type":"Point","coordinates":[-95.256209,29.552814]}},{"properties":{"city":"La Habra","lon":-117.933212,"zip":90631,"phone":"714-879-4674","id":"a62k5cff4yg6","address":"1231 S Harbor Blvd","lat":33.916901,"location":"S of Imperial/By Target","state":"CA"},"type":"Feature","geometry":{"type":"Point","coordinates":[-117.933212,33.916901]}},{"properties":{"city":"Tustin","lon":-117.810185,"zip":92780,"phone":"714-505-4431","id":"a62k5csxqbsj","address":"1092 Irvine Blvd","lat":33.748099,"location":"S of Newport/By Ralphs","state":"CA"},"type":"Feature","geometry":{"type":"Point","coordinates":[-117.810185,33.748099]}},{"properties":{"city":"Red Bank","lon":-74.077248,"zip":7701,"phone":"732-957-0595","id":"a62k5cjgb6qt","address":"472 State Route 35","lat":40.357128,"location":"S of Sr-35, S of Normandy Rd","state":"NJ"},"type":"Feature","geometry":{"type":"Point","coordinates":[-74.077248,40.357128]}},{"properties":{"city":"Palm City","lon":-80.29288,"zip":34990,"phone":"772-287-9262","id":"a62k5clv2sek","address":"2843 SW Cafe CT","lat":27.17115,"location":"SE Cnr Mrt Dwns/Hgh Medow","state":"FL"},"type":"Feature","geometry":{"type":"Point","coordinates":[-80.29288,27.17115]}},{"properties":{"city":"Phoenix","lon":-112.131777,"zip":85053,"phone":"602-504-3959","id":"a62k5cqnr5cp","address":"3425 W Thunderbird Rd","lat":33.610598,"location":"SE Cor 35th Ave &amp; Thunderbird","state":"AZ"},"type":"Feature","geometry":{"type":"Point","coordinates":[-112.131777,33.610598]}},{"properties":{"city":"Bonita Springs","lon":-81.804454,"zip":34135,"phone":"239-949-3126","id":"a62k5csz851p","address":"8951 Bonita Beach Rd","lat":26.330452,"location":"SE Cor Bonita Beach &amp; Us40","state":"FL"},"type":"Feature","geometry":{"type":"Point","coordinates":[-81.804454,26.330452]}},{"properties":{"city":"Mesa","lon":-111.635688,"zip":85212,"phone":"480-357-5793","id":"a62k5cp1ioo8","address":"2905 S Ellsworth Rd","lat":33.36222,"location":"SE Cor Elsworth &amp; Guadalupe","state":"AZ"},"type":"Feature","geometry":{"type":"Point","coordinates":[-111.635688,33.36222]}},{"properties":{"city":"Gilbert","lon":-111.789482,"zip":85295,"phone":"480-855-7829","id":"a62k5cn3gqsz","address":"2487 S Gilbert Rd","lat":33.303425,"location":"SE Cor Gilbert &amp; Williams Fld","state":"AZ"},"type":"Feature","geometry":{"type":"Point","coordinates":[-111.789482,33.303425]}},{"properties":{"city":"Deerfield Beach","lon":-80.09097,"zip":33441,"phone":"954-427-3167","id":"a62k5cmolldc","address":"250 S Federal Hwy","lat":26.315106,"location":"SE Cor Hillsboro &amp; Federal","state":"FL"},"type":"Feature","geometry":{"type":"Point","coordinates":[-80.09097,26.315106]}},{"properties":{"city":"Queen Creek","lon":-111.685774,"zip":85242,"phone":"480-840-3262","id":"a62k5ct8wyqc","address":"8495 S Power Rd","lat":33.26334,"location":"SE Cor Power &amp; Queen Creek","state":"AZ"},"type":"Feature","geometry":{"type":"Point","coordinates":[-111.685774,33.26334]}},{"properties":{"city":"Scottsdale","lon":-111.925266,"zip":85255,"phone":"480-419-6074","id":"a62k5ci74gn7","address":"20731 N Scottsdale Rd","lat":33.675732,"location":"SE Cor Scottsdale &amp; Grayhawk","state":"AZ"},"type":"Feature","geometry":{"type":"Point","coordinates":[-111.925266,33.675732]}},{"properties":{"city":"Phoenix","lon":-112.218855,"zip":85033,"phone":"623-846-0950","id":"a62k5cfgsp9m","address":"7333 W Thomas Rd","lat":33.480071,"location":"SE Cor of 75th Ave &amp; Thomas Rd","state":"AZ"},"type":"Feature","geometry":{"type":"Point","coordinates":[-112.218855,33.480071]}},{"properties":{"city":"La Quinta","lon":-116.293542,"zip":92253,"phone":"760-777-7884","id":"a62k5cmi6bh7","address":"78595 Highway 111","lat":33.713792,"location":"SE Corner 111 &amp; Washington","state":"CA"},"type":"Feature","geometry":{"type":"Point","coordinates":[-116.293542,33.713792]}},{"properties":{"city":"Phoenix","lon":-111.985168,"zip":85018,"phone":"602-808-9625","id":"a62k5co95ki5","address":"4501 E Thomas Rd","lat":33.480009,"location":"SE Corner 44th St &amp; Thomas","state":"AZ"},"type":"Feature","geometry":{"type":"Point","coordinates":[-111.985168,33.480009]}},{"properties":{"city":"Peoria","lon":-112.221639,"zip":85381,"phone":"623-334-0781","id":"a62k5cqgne45","address":"7549 W Cactus Rd","lat":33.595694,"location":"SE Corner 75th Ave &amp; Cactus","state":"AZ"},"type":"Feature","geometry":{"type":"Point","coordinates":[-112.221639,33.595694]}},{"properties":{"city":"Rancho Cucamonga","lon":-117.534635,"zip":91739,"phone":"909-646-9484","id":"a62k5cgkd5ji","address":"12375 Baseline Rd","lat":34.121425,"location":"SE Corner Day Creek &amp; Baseline","state":"CA"},"type":"Feature","geometry":{"type":"Point","coordinates":[-117.534635,34.121425]}},{"properties":{"city":"Mesa","lon":-111.632454,"zip":85207,"phone":"480-984-8255","id":"a62k5ctxsx06","address":"1157 N Ellsworth Rd","lat":33.436136,"location":"SE Corner Ellsworth &amp; Brown","state":"AZ"},"type":"Feature","geometry":{"type":"Point","coordinates":[-111.632454,33.436136]}},{"properties":{"city":"Flower Mound","lon":-97.068843,"zip":75028,"phone":"972-899-9100","id":"a62k5cv0yd5x","address":"2601 Flower Mound Rd","lat":33.013524,"location":"SE Corner FM 2499 &amp; FM 3040","state":"TX"},"type":"Feature","geometry":{"type":"Point","coordinates":[-97.068843,33.013524]}},{"properties":{"city":"Las Vegas","lon":-115.241197,"zip":89103,"phone":"702-876-9926","id":"a62k5cfylx4z","address":"6831 W Flamingo Rd","lat":36.114318,"location":"SE Corner Flamingo &amp; Rainbow","state":"NV"},"type":"Feature","geometry":{"type":"Point","coordinates":[-115.241197,36.114318]}},{"properties":{"city":"Sacramento","lon":-121.523538,"zip":95831,"phone":"916-392-6277","id":"a62k5cibt3to","address":"7215 Greenhaven Dr","lat":38.49524,"location":"SE Corner Florin &amp; Greenhaven","state":"CA"},"type":"Feature","geometry":{"type":"Point","coordinates":[-121.523538,38.49524]}},{"properties":{"city":"Mesa","lon":-111.787509,"zip":85203,"phone":"480-668-0756","id":"a62k5cs6xq80","address":"1927 N Gilbert Rd","lat":33.450651,"location":"SE Corner Gilbert &amp; Mckellips","state":"AZ"},"type":"Feature","geometry":{"type":"Point","coordinates":[-111.787509,33.450651]}},{"properties":{"city":"Mesa","lon":-111.718442,"zip":85206,"phone":"480-830-0854","id":"a62k5chhqegw","address":"5235 E Southern Ave","lat":33.393778,"location":"SE Corner Higley &amp; Southern","state":"AZ"},"type":"Feature","geometry":{"type":"Point","coordinates":[-111.718442,33.393778]}},{"properties":{"city":"Dallas","lon":-96.855868,"zip":75229,"phone":"214-350-7101","id":"a62k5csuxldu","address":"11722 Marsh Ln","lat":32.908103,"location":"SE Corner Marsh &amp; Forest","state":"TX"},"type":"Feature","geometry":{"type":"Point","coordinates":[-96.855868,32.908103]}},{"properties":{"city":"Webster","lon":-95.127868,"zip":77598,"phone":"281-338-5054","id":"a62k5cm83hd2","address":"1183 W Nasa Rd 1","lat":29.530429,"location":"SE Corner Nasa Rd 1 &amp; I-45","state":"TX"},"type":"Feature","geometry":{"type":"Point","coordinates":[-95.127868,29.530429]}},{"properties":{"city":"Cathedral City","lon":-116.456504,"zip":92234,"phone":"760-770-0437","id":"a62k5cusqfwa","address":"69195 Ramon Rd","lat":33.815738,"location":"SE Corner Ramon &amp; Date Palm","state":"CA"},"type":"Feature","geometry":{"type":"Point","coordinates":[-116.456504,33.815738]}},{"properties":{"city":"Scottsdale","lon":-111.976997,"zip":85254,"phone":"602-996-3233","id":"a62k5cpy9ltl","address":"4811 E Greenway Rd","lat":33.625882,"location":"SE Corner Tatum &amp; Greenway","state":"AZ"},"type":"Feature","geometry":{"type":"Point","coordinates":[-111.976997,33.625882]}},{"properties":{"city":"West Hills","lon":-118.64254,"zip":91307,"phone":"818-999-3272","id":"a62k5cs3z25r","address":"6510 Platt Ave","lat":34.188359,"location":"SE Corner Victory &amp; Platt","state":"CA"},"type":"Feature","geometry":{"type":"Point","coordinates":[-118.64254,34.188359]}},{"properties":{"city":"Glendale","lon":-112.183817,"zip":85308,"phone":"602-547-3107","id":"a62k5clgs8f7","address":"5775 W Bell Rd","lat":33.638545,"location":"SE Corner of 59th Ave &amp; Bell","state":"AZ"},"type":"Feature","geometry":{"type":"Point","coordinates":[-112.183817,33.638545]}},{"properties":{"city":"Tulsa","lon":-95.868356,"zip":74133,"phone":"918-252-2969","id":"a62k5ctyhv0l","address":"7175 S Mingo Rd","lat":36.059026,"location":"SE Corner of 71st &amp; Mingo","state":"OK"},"type":"Feature","geometry":{"type":"Point","coordinates":[-95.868356,36.059026]}},{"properties":{"city":"Oak Lawn","lon":-87.74061,"zip":60453,"phone":"708-425-9965","id":"a62k5cv3v2fv","address":"9521 S Cicero Ave","lat":41.719699,"location":"SE Crn 95th &amp; Cicero","state":"IL"},"type":"Feature","geometry":{"type":"Point","coordinates":[-87.74061,41.719699]}},{"properties":{"city":"Schererville","lon":-87.47085,"zip":46375,"phone":"219-864-7334","id":"a62k5co4867x","address":"1215 US Highway 41","lat":41.500022,"location":"SE Crn Indianaplis &amp; 65 Ave","state":"IN"},"type":"Feature","geometry":{"type":"Point","coordinates":[-87.47085,41.500022]}},{"properties":{"city":"Boynton Beach","lon":-80.090685,"zip":33426,"phone":"561-375-6394","id":"a62k5ces91m0","address":"113 N Congress Ave","lat":26.525444,"location":"SW Cnr Boyn Bch &amp; Congrss","state":"FL"},"type":"Feature","geometry":{"type":"Point","coordinates":[-80.090685,26.525444]}},{"properties":{"city":"Wichita","lon":-97.481594,"zip":67235,"phone":"316-722-9800","id":"a62k5cg5aias","address":"12111 W Maple St","lat":37.678845,"location":"SW Cnr Maple &amp; 119th","state":"KS"},"type":"Feature","geometry":{"type":"Point","coordinates":[-97.481594,37.678845]}},{"properties":{"city":"Peoria","lon":-112.239742,"zip":85382,"phone":"623-376-9075","id":"a62k5cn22619","address":"8385 W Deer Valley Rd","lat":33.681429,"location":"SW Cor 83rd Ave &amp; Deer Valley","state":"AZ"},"type":"Feature","geometry":{"type":"Point","coordinates":[-112.239742,33.681429]}},{"properties":{"city":"Anthem","lon":-112.138176,"zip":85086,"phone":"623-551-5126","id":"a62k5cmrv29d","address":"3655 W Anthem Way","lat":33.866383,"location":"SW Cor Anthem Way &amp; Gavilan Rd","state":"AZ"},"type":"Feature","geometry":{"type":"Point","coordinates":[-112.138176,33.866383]}},{"properties":{"city":"Cave Creek","lon":-111.982342,"zip":85331,"phone":"480-595-0695","id":"a62k5cpgef7f","address":"4705 E Carefree Hwy","lat":33.798976,"location":"SW Cor N Blk Mtn &amp; Carefree","state":"AZ"},"type":"Feature","geometry":{"type":"Point","coordinates":[-111.982342,33.798976]}},{"properties":{"city":"Tamarac","lon":-80.269914,"zip":33321,"phone":"954-597-2653","id":"a62k5cfvck11","address":"8299 N Pine Island Rd","lat":26.226863,"location":"SW Cor Pine Island &amp; Southgate","state":"FL"},"type":"Feature","geometry":{"type":"Point","coordinates":[-80.269914,26.226863]}},{"properties":{"city":"Pembroke Pines","lon":-80.312144,"zip":33027,"phone":"954-499-7248","id":"a62k5cl0kbmg","address":"100 S Flamingo Rd","lat":26.006856,"location":"SW Cor Pines &amp; Flamingo","state":"FL"},"type":"Feature","geometry":{"type":"Point","coordinates":[-80.312144,26.006856]}},{"properties":{"city":"Modesto","lon":-121.032662,"zip":95350,"phone":"209-238-0726","id":"a62k5cudkiiw","address":"2100 Standiford Ave","lat":37.689615,"location":"SW Cor Standiford &amp; Prescott","state":"CA"},"type":"Feature","geometry":{"type":"Point","coordinates":[-121.032662,37.689615]}},{"properties":{"city":"Tempe","lon":-111.91204,"zip":85284,"phone":"480-345-9886","id":"a62k5cj1o2dz","address":"1761 E Warner Rd","lat":33.334504,"location":"SW Cor Warner &amp; Mcclintock","state":"AZ"},"type":"Feature","geometry":{"type":"Point","coordinates":[-111.91204,33.334504]}},{"properties":{"city":"Palm Desert","lon":-116.402682,"zip":92260,"phone":"760-773-3093","id":"a62k5clo6vyp","address":"72333 Highway 111","lat":33.727886,"location":"SW Corner 111 &amp; Fred Waring","state":"CA"},"type":"Feature","geometry":{"type":"Point","coordinates":[-116.402682,33.727886]}},{"properties":{"city":"Henderson","lon":-115.062464,"zip":89012,"phone":"702-837-0700","id":"a62k5cuiz91d","address":"55 S Valle Verde Dr","lat":36.025203,"location":"SW Corner 215 &amp; Valle Verde","state":"NV"},"type":"Feature","geometry":{"type":"Point","coordinates":[-115.062464,36.025203]}},{"properties":{"city":"Scottsdale","lon":-111.886687,"zip":85258,"phone":"480-314-2360","id":"a62k5ch4kh2s","address":"10390 N 90th St","lat":33.58033,"location":"SW Corner 90th St &amp; Shea","state":"AZ"},"type":"Feature","geometry":{"type":"Point","coordinates":[-111.886687,33.58033]}},{"properties":{"city":"Arlington","lon":-97.134809,"zip":76017,"phone":"817-784-8552","id":"a62k5cp6a5iu","address":"4644 S Cooper St","lat":32.671512,"location":"SW Corner Cooper &amp; I 20","state":"TX"},"type":"Feature","geometry":{"type":"Point","coordinates":[-97.134809,32.671512]}},{"properties":{"city":"Houston","lon":-95.644094,"zip":77083,"phone":"281-498-0010","id":"a62k5cnu0hb7","address":"6890 Highway 6 S","lat":29.702659,"location":"SW Corner Hwy 6 &amp; Bellaire","state":"TX"},"type":"Feature","geometry":{"type":"Point","coordinates":[-95.644094,29.702659]}},{"properties":{"city":"Fair Oaks","lon":-121.225853,"zip":95628,"phone":"916-966-6790","id":"a62k5cptyssd","address":"5225 Hazel Ave","lat":38.661066,"location":"SW Corner Madison &amp; Hazel","state":"CA"},"type":"Feature","geometry":{"type":"Point","coordinates":[-121.225853,38.661066]}},{"properties":{"city":"Fontana","lon":-117.43843,"zip":92335,"phone":"909-428-6490","id":"a62k5ct2h96l","address":"16767 Valley Blvd","lat":34.070152,"location":"SW Corner Sierra &amp; Valley","state":"CA"},"type":"Feature","geometry":{"type":"Point","coordinates":[-117.43843,34.070152]}},{"properties":{"city":"Moreno Valley","lon":-117.244406,"zip":92553,"phone":"951-242-8297","id":"a62k5cjzczu7","address":"23965 Sunnymead Blvd","lat":33.938908,"location":"SW Corner Sunnymead &amp; Heacock","state":"CA"},"type":"Feature","geometry":{"type":"Point","coordinates":[-117.244406,33.938908]}},{"properties":{"city":"Houston","lon":-95.399407,"zip":77060,"phone":"281-821-9501","id":"a62k5cr0rm04","address":"18209 Chisholm Trl","lat":29.961548,"location":"SW Corner of Rankin &amp; Chisholm","state":"TX"},"type":"Feature","geometry":{"type":"Point","coordinates":[-95.399407,29.961548]}},{"properties":{"city":"Garland","lon":-96.685948,"zip":75041,"phone":"214-553-0384","id":"a62k5ck2r7oh","address":"3630 W Miller Rd","lat":32.894385,"location":"SW Crnr Jupiter &amp; Miller","state":"TX"},"type":"Feature","geometry":{"type":"Point","coordinates":[-96.685948,32.894385]}},{"properties":{"city":"Temecula","lon":-117.151598,"zip":92591,"phone":"951-296-1830","id":"a62k5cv21f7f","address":"40414 Winchester Rd","lat":33.530471,"location":"SW Crnr Margarita/Winchstr","state":"CA"},"type":"Feature","geometry":{"type":"Point","coordinates":[-117.151598,33.530471]}},{"properties":{"city":"Huntsville","lon":-86.572229,"zip":35802,"phone":"256-881-1443","id":"a62k5cl07cck","address":"7626 Memorial Pkwy SW","lat":34.665127,"location":"SW Memorial Pkwy &amp; Byrd Spr","state":"AL"},"type":"Feature","geometry":{"type":"Point","coordinates":[-86.572229,34.665127]}},{"properties":{"city":"Tucson","lon":-111.014265,"zip":85745,"phone":"520-624-7667","id":"a62k5ckbllso","address":"2480 N Silverbell Rd","lat":32.252429,"location":"Safeway Cntr Bhnd Walgreens","state":"AZ"},"type":"Feature","geometry":{"type":"Point","coordinates":[-111.014265,32.252429]}},{"properties":{"city":"Phoenix","lon":-112.052694,"zip":85048,"phone":"480-283-0305","id":"a62k5ci3ccdw","address":"1442 E Chandler Blvd","lat":33.305352,"location":"Safeway Shopping Center","state":"AZ"},"type":"Feature","geometry":{"type":"Point","coordinates":[-112.052694,33.305352]}},{"properties":{"city":"Chattanooga","lon":-85.165015,"zip":37421,"phone":"423-894-2399","id":"a62k5crvxzzs","address":"2040 Hamilton Place Blvd","lat":35.033009,"location":"Shoppes At Hamilton Plc","state":"TN"},"type":"Feature","geometry":{"type":"Point","coordinates":[-85.165015,35.033009]}},{"properties":{"city":"San Jose","lon":-121.809408,"zip":95121,"phone":"408-223-9884","id":"a62k5cnkwjpm","address":"1779 E Capitol Expy","lat":37.309005,"location":"Silver Crk Plz/By Safeway","state":"CA"},"type":"Feature","geometry":{"type":"Point","coordinates":[-121.809408,37.309005]}},{"properties":{"city":"Paramus","lon":-74.060287,"zip":7652,"phone":"201-599-1081","id":"a62k5cozeem4","address":"447 N State Rt 17","lat":40.926708,"location":"South 17 At Midland Ave","state":"NJ"},"type":"Feature","geometry":{"type":"Point","coordinates":[-74.060287,40.926708]}},{"properties":{"city":"Dayton","lon":-84.209601,"zip":45459,"phone":"937-435-9361","id":"a62k5ct5xa3c","address":"2142 Miamisburg Centerville Rd","lat":39.634062,"location":"South Town Center","state":"OH"},"type":"Feature","geometry":{"type":"Point","coordinates":[-84.209601,39.634062]}},{"properties":{"city":"Pompano Beach","lon":-80.106316,"zip":33062,"phone":"954-783-5893","id":"a62k5cuypr75","address":"1263 S Federal Hwy","lat":26.214692,"location":"South of Atlantic On Federal","state":"FL"},"type":"Feature","geometry":{"type":"Point","coordinates":[-80.106316,26.214692]}},{"properties":{"city":"Ramona","lon":-116.882943,"zip":92065,"phone":"760-789-7351","id":"a62k5cgeky9s","address":"1905 Main St","lat":33.033525,"location":"South of Kmart","state":"CA"},"type":"Feature","geometry":{"type":"Point","coordinates":[-116.882943,33.033525]}},{"properties":{"city":"Fountain Hills","lon":-111.72047,"zip":85268,"phone":"480-816-5823","id":"a62k5cpuh9ak","address":"13243 N La Montana Dr","lat":33.607135,"location":"South of Palisades Blvd","state":"AZ"},"type":"Feature","geometry":{"type":"Point","coordinates":[-111.72047,33.607135]}},{"properties":{"city":"Wichita","lon":-97.281361,"zip":67208,"phone":"316-682-3093","id":"a62k5ctjnz5b","address":"4725 E Central Ave","lat":37.69363,"location":"South of Quick Trip","state":"KS"},"type":"Feature","geometry":{"type":"Point","coordinates":[-97.281361,37.69363]}},{"properties":{"city":"Whitehall","lon":-75.489644,"zip":18052,"phone":"610-434-8750","id":"a62k5cu0rs31","address":"2326 Macarthur Rd","lat":40.639515,"location":"South of Schadt Avenue","state":"PA"},"type":"Feature","geometry":{"type":"Point","coordinates":[-75.489644,40.639515]}},{"properties":{"city":"El Centro","lon":-115.570187,"zip":92243,"phone":"760-352-0385","id":"a62k5cixst82","address":"830 N Imperial Ave","lat":32.799581,"location":"South of Scott Avenue","state":"CA"},"type":"Feature","geometry":{"type":"Point","coordinates":[-115.570187,32.799581]}},{"properties":{"city":"Ontario","lon":-117.670014,"zip":91762,"phone":"909-984-1129","id":"a62k5ch06z2v","address":"1520 N Mountain Ave","lat":34.085594,"location":"South of the 10 Freeway","state":"CA"},"type":"Feature","geometry":{"type":"Point","coordinates":[-117.670014,34.085594]}},{"properties":{"city":"Tempe","lon":-111.909284,"zip":85282,"phone":"480-777-5140","id":"a62k5cqox3qy","address":"3130 S Mcclintock Dr","lat":33.394939,"location":"Southern Palms Plaza","state":"AZ"},"type":"Feature","geometry":{"type":"Point","coordinates":[-111.909284,33.394939]}},{"properties":{"city":"Houston","lon":-95.110008,"zip":77058,"phone":"281-218-7500","id":"a62k5cqktzrg","address":"2353 Bay Area Blvd","lat":29.571921,"location":"Space Ctr &amp; Bay Area","state":"TX"},"type":"Feature","geometry":{"type":"Point","coordinates":[-95.110008,29.571921]}},{"properties":{"city":"Houston","lon":-95.547209,"zip":77070,"phone":"281-370-6353","id":"a62k5cjr894p","address":"22513 Tomball Pkwy","lat":29.96004,"location":"Spring Cypress &amp; 249 W/ Ross","state":"TX"},"type":"Feature","geometry":{"type":"Point","coordinates":[-95.547209,29.96004]}},{"properties":{"city":"Dallas","lon":-96.769168,"zip":75254,"phone":"972-231-3793","id":"a62k5ciofl32","address":"14203 Coit Rd","lat":32.94135,"location":"Spring Valley &amp; Coit","state":"TX"},"type":"Feature","geometry":{"type":"Point","coordinates":[-96.769168,32.94135]}},{"properties":{"city":"Arlington","lon":-97.196236,"zip":76016,"phone":"817-478-6881","id":"a62k5cnd81qe","address":"4201 W Green Oaks Blvd","lat":32.6808,"location":"Stanton Plaza","state":"TX"},"type":"Feature","geometry":{"type":"Point","coordinates":[-97.196236,32.6808]}},{"properties":{"city":"Las Vegas","lon":-115.207355,"zip":89141,"phone":"702-896-3688","id":"a62k5csjhmum","address":"10540 Southern Highlands Pkwy","lat":35.997787,"location":"Sthrn Highlands Marketplc","state":"NV"},"type":"Feature","geometry":{"type":"Point","coordinates":[-115.207355,35.997787]}},{"properties":{"city":"Stone Mountain","lon":-84.112948,"zip":30087,"phone":"678-476-0398","id":"a62k5cuosqk3","address":"5370 Highway 78","lat":33.822926,"location":"Stn Mtn Sq E of Rockbrg","state":"GA"},"type":"Feature","geometry":{"type":"Point","coordinates":[-84.112948,33.822926]}},{"properties":{"city":"Bakersfield","lon":-119.056454,"zip":93309,"phone":"661-835-7187","id":"a62k5cijdabi","address":"3360 Stine Rd","lat":35.324072,"location":"Stockdale Shopping Ctr","state":"CA"},"type":"Feature","geometry":{"type":"Point","coordinates":[-119.056454,35.324072]}},{"properties":{"city":"Riverview","lon":-82.332719,"zip":33579,"phone":"813-671-4104","id":"a62k5coj1al2","address":"10651 Big Bend Rd","lat":27.791838,"location":"Sweetbay Shopping Ctr","state":"FL"},"type":"Feature","geometry":{"type":"Point","coordinates":[-82.332719,27.791838]}},{"properties":{"city":"San Diego","lon":-117.177143,"zip":92111,"phone":"858-492-9543","id":"a62k5cm5hy7h","address":"5980 Balboa Ave","lat":32.820527,"location":"Target Ctr By Mcdonalds","state":"CA"},"type":"Feature","geometry":{"type":"Point","coordinates":[-117.177143,32.820527]}},{"properties":{"city":"Slidell","lon":-89.825869,"zip":70460,"phone":"985-641-2371","id":"a62k5csccqkm","address":"61123 Airport Rd","lat":30.31689,"location":"Target Shopping Ctr","state":"LA"},"type":"Feature","geometry":{"type":"Point","coordinates":[-89.825869,30.31689]}},{"properties":{"city":"Lexington","lon":-84.529896,"zip":40503,"phone":"859-971-0422","id":"a62k5co500a5","address":"130 W Tiverton Way","lat":37.980569,"location":"Tiverton Crossing Shops","state":"KY"},"type":"Feature","geometry":{"type":"Point","coordinates":[-84.529896,37.980569]}},{"properties":{"city":"Rockwall","lon":-96.453441,"zip":75087,"phone":"214-771-3210","id":"a62k5cn1y54n","address":"983 E Interstate 30","lat":32.904499,"location":"Tj Maxx Shopping Center","state":"TX"},"type":"Feature","geometry":{"type":"Point","coordinates":[-96.453441,32.904499]}},{"properties":{"city":"Bakersfield","lon":-119.094803,"zip":93311,"phone":"661-396-9738","id":"a62k5ck57bfa","address":"8200 Stockdale Hwy","lat":35.354577,"location":"Town &amp; Country Village","state":"CA"},"type":"Feature","geometry":{"type":"Point","coordinates":[-119.094803,35.354577]}},{"properties":{"city":"El Paso","lon":-106.318608,"zip":79936,"phone":"915-594-1137","id":"a62k5clzhe4t","address":"1506 N Lee Trevino Dr","lat":31.752365,"location":"Towne Centre","state":"TX"},"type":"Feature","geometry":{"type":"Point","coordinates":[-106.318608,31.752365]}},{"properties":{"city":"Desoto","lon":-96.840944,"zip":75115,"phone":"972-228-1706","id":"a62k5csc9zqz","address":"901 N Polk St","lat":32.604472,"location":"Townsend Sq/By Bealls","state":"TX"},"type":"Feature","geometry":{"type":"Point","coordinates":[-96.840944,32.604472]}},{"properties":{"city":"Mission Viejo","lon":-117.65439,"zip":92692,"phone":"949-455-9733","id":"a62k5ctxto4r","address":"24021 Marguerite Pkwy","lat":33.614335,"location":"Trabuco Across From Ymca","state":"CA"},"type":"Feature","geometry":{"type":"Point","coordinates":[-117.65439,33.614335]}},{"properties":{"city":"Fairfield","lon":-73.270645,"zip":6825,"phone":"203-332-1001","id":"a62k5ctwe8xs","address":"525 Tunxis Hill Cut Off","lat":41.139534,"location":"Tunxis Hill Crnr Shop Ctr","state":"CT"},"type":"Feature","geometry":{"type":"Point","coordinates":[-73.270645,41.139534]}},{"properties":{"city":"Metairie","lon":-90.186822,"zip":70006,"phone":"504-456-9905","id":"a62k5ciki6a6","address":"4640 Veterans Memorial Blvd","lat":30.004898,"location":"Vets Mem Blvd &amp; N Clearview","state":"LA"},"type":"Feature","geometry":{"type":"Point","coordinates":[-90.186822,30.004898]}},{"properties":{"city":"Smithtown","lon":-73.192202,"zip":11787,"phone":"631-724-0569","id":"a62k5cjj19c6","address":"54 E Main St","lat":40.855409,"location":"Village Commons Shopping Ctr","state":"NY"},"type":"Feature","geometry":{"type":"Point","coordinates":[-73.192202,40.855409]}},{"properties":{"city":"Fayetteville","lon":-84.462632,"zip":30214,"phone":"770-461-7845","id":"a62k5cjgeviy","address":"400 Stonewall Ave W","lat":33.447599,"location":"W 85 On 54 E Before Merge","state":"GA"},"type":"Feature","geometry":{"type":"Point","coordinates":[-84.462632,33.447599]}},{"properties":{"city":"Boca Raton","lon":-80.20357,"zip":33428,"phone":"561-482-1066","id":"a62k5cuckzv1","address":"21735 US Highway 441","lat":26.353736,"location":"W Side 441 Btwn Palmetto/Glade","state":"FL"},"type":"Feature","geometry":{"type":"Point","coordinates":[-80.20357,26.353736]}},{"properties":{"city":"Lilburn","lon":-84.141585,"zip":30047,"phone":"770-921-9013","id":"a62k5cps3qnb","address":"555 Indian Trl Rd NW","lat":33.899071,"location":"W of 29, By Napa Auto","state":"GA"},"type":"Feature","geometry":{"type":"Point","coordinates":[-84.141585,33.899071]}},{"properties":{"city":"Levittown","lon":-73.508682,"zip":11756,"phone":"516-796-4300","id":"a62k5cmgfrzt","address":"3365 Hempstead Tpke","lat":40.725858,"location":"Waldbaums Grocery Center","state":"NY"},"type":"Feature","geometry":{"type":"Point","coordinates":[-73.508682,40.725858]}},{"properties":{"city":"East Islip","lon":-73.176737,"zip":11730,"phone":"631-277-3984","id":"a62k5cgft7bf","address":"310 E Main St","lat":40.734058,"location":"Waldbaums Grocery Center","state":"NY"},"type":"Feature","geometry":{"type":"Point","coordinates":[-73.176737,40.734058]}},{"properties":{"city":"Kansas City","lon":-94.605619,"zip":64114,"phone":"816-941-7730","id":"a62k5ckxu279","address":"1168 W 103rd St","lat":38.942033,"location":"Watts Mill Center","state":"MO"},"type":"Feature","geometry":{"type":"Point","coordinates":[-94.605619,38.942033]}},{"properties":{"city":"Orange City","lon":-81.285559,"zip":32763,"phone":"386-774-1925","id":"a62k5cgea3vn","address":"985 Harley Strickland Blvd","lat":28.916728,"location":"West Volusia Town Center","state":"FL"},"type":"Feature","geometry":{"type":"Point","coordinates":[-81.285559,28.916728]}},{"properties":{"city":"Arlington","lon":-97.066389,"zip":76011,"phone":"817-652-7406","id":"a62k5cnnpdbr","address":"2416 E Randol Mill Rd","lat":32.748135,"location":"West of 360 &amp; Randol Mill Rd","state":"TX"},"type":"Feature","geometry":{"type":"Point","coordinates":[-97.066389,32.748135]}},{"properties":{"city":"Riverside","lon":-117.389454,"zip":92506,"phone":"951-682-1633","id":"a62k5ctbo8ie","address":"3550 Central Ave","lat":33.953434,"location":"West of Riverside Ave","state":"CA"},"type":"Feature","geometry":{"type":"Point","coordinates":[-117.389454,33.953434]}},{"properties":{"city":"Murphy","lon":-96.614646,"zip":75094,"phone":"972-509-1636","id":"a62k5cqbyoiz","address":"158 W FM 544","lat":33.01131,"location":"West of Walmart","state":"TX"},"type":"Feature","geometry":{"type":"Point","coordinates":[-96.614646,33.01131]}},{"properties":{"city":"Sugar Land","lon":-95.614296,"zip":77478,"phone":"281-242-2346","id":"a62k5cmdop1e","address":"15327 Southwest Fwy","lat":29.605465,"location":"Williams Trace &amp; 59 By Conn's","state":"TX"},"type":"Feature","geometry":{"type":"Point","coordinates":[-95.614296,29.605465]}},{"properties":{"city":"Alpharetta","lon":-84.276641,"zip":30004,"phone":"770-569-1971","id":"a62k5cqnldku","address":"12850 Highway 9 N","lat":34.095213,"location":"Windward Pkwy W of Sr-9","state":"GA"},"type":"Feature","geometry":{"type":"Point","coordinates":[-84.276641,34.095213]}},{"properties":{"city":"San Jose","lon":-121.865205,"zip":95123,"phone":"408-226-2700","id":"a62k5cgd7rov","address":"950 Blossom Hill Rd","lat":37.250163,"location":"Winfield Shopping Center","state":"CA"},"type":"Feature","geometry":{"type":"Point","coordinates":[-121.865205,37.250163]}},{"properties":{"city":"Palm Bay","lon":-80.674271,"zip":32907,"phone":"321-726-6645","id":"a62k5csd6ov3","address":"160 Malabar Rd SW","lat":27.998907,"location":"Winn Dixie - Bealls Plaza","state":"FL"},"type":"Feature","geometry":{"type":"Point","coordinates":[-80.674271,27.998907]}},{"properties":{"city":"Winter Springs","lon":-81.264671,"zip":32708,"phone":"407-327-4114","id":"a62k5ctfz5id","address":"1146 E Sr 434","lat":28.699468,"location":"Winter Springs Town Ctr","state":"FL"},"type":"Feature","geometry":{"type":"Point","coordinates":[-81.264671,28.699468]}},{"properties":{"city":"Kingwood","lon":-95.183604,"zip":77339,"phone":"281-361-4593","id":"a62k5cqebfq1","address":"2855 W Lake Houston Pkwy","lat":30.047849,"location":"With Blockbuster &amp; Kinkos","state":"TX"},"type":"Feature","geometry":{"type":"Point","coordinates":[-95.183604,30.047849]}}],"is_temporal":false,"author":{"url":"http://leslies.know-where.com/leslies/","metadata":"","contact_name":"","contact_address":"","source":"Leslie's Swimming Pool Supplies","contact_phone":""},"source":"http://leslies.know-where.com/leslies/","pagination":{"sort":null,"start":0,"total":602,"limit":1000000},"state":"complete","tags":"aquatics,leslies,pools,retail,supplies,swimming","published":"2008-12-16T12:00:00Z","id":8277}