{"type":"FeatureCollection","data_type":"Dataset","url_type":null,"permissions":[{"permissions":{"download":true,"view":true},"group_id":"everyone"}],"classification":null,"title":"Brooks Brothers Retail Locations, USA, 12.2008","count":224,"stream_id":8323,"contributor":{"url":"http://geocommons.com/users/139","name":"Burkey"},"data_attributes":null,"calculation_params":null,"icon_link":null,"link":"http://geocommons.com/overlays/8323.json","extent":[-158.008,0.0,0.0,48.092],"geometry_types":["point"],"unique_name":null,"name":"Brooks Brothers Retail Locations, USA, 12.2008","feature_count":224,"description":"This dataset displays the locations of all Brooks Brothers retail locations across the USA as of 12.2008. The data comes from brooksbrother.com and includes: location, type, address, city, state, zip, phone, and lat/lon location. The lat/lon location was determined through the use of a geocoder found at gpsvisualizer.com","next_feature":null,"is_raster":false,"short_classification":"Y","stats":{"lon":{"max":0,"mean":-82.0411197544643,"variance":684.56229107757,"stdev":26.1641413212352,"min":-158.00795,"median":-81.345403},"zip":{"max":98271,"mean":40482.5491071429,"variance":883113695.576052,"stdev":29717.2289350143,"min":1238,"median":33154},"lat":{"max":48.091989,"mean":35.06033225,"variance":106.126127494744,"stdev":10.3017536126013,"min":0,"median":38.690814}},"features":[{"properties":{"city":"ALLEN","lon":-96.66154,"zip":75013,"phone":"972-678-2877","id":"a62m1rzpxym5","storetype":"Factory/Outlet","address":"820 WEST STACY ROAD","lat":33.130071,"location":"Allen Premium Outlets","state":"TX"},"type":"Feature","geometry":{"type":"Point","coordinates":[-96.66154,33.130071]}},{"properties":{"city":"MANHASSET","lon":-73.670986,"zip":11030,"phone":"516-365-3502","id":"a62m1ry1ye1i","storetype":"Retail","address":"2128 NORTHERN BLVD","lat":40.796569,"location":"Americana Manhasset","state":"NY"},"type":"Feature","geometry":{"type":"Point","coordinates":[-73.670986,40.796569]}},{"properties":{"city":"AURORA","lon":-81.345403,"zip":44202,"phone":"330-562-1122","id":"a62m1rrhz98y","storetype":"Factory/Outlet","address":"549 SOUTH CHILLICOTHE RD","lat":41.302851,"location":"Aurora Premium Outlets","state":"OH"},"type":"Feature","geometry":{"type":"Point","coordinates":[-81.345403,41.302851]}},{"properties":{"city":"BAL HARBOUR","lon":-80.124179,"zip":33154,"phone":"305-865-8686","id":"a62m1rzif06a","storetype":"Retail","address":"9700 COLLINS AVENUE","lat":25.889073,"location":"Bal Harbour Shops","state":"FL"},"type":"Feature","geometry":{"type":"Point","coordinates":[-80.124179,25.889073]}},{"properties":{"city":"GLENDALE","lon":-87.914067,"zip":53217,"phone":"414-967-0893","id":"a62m1rspnehw","storetype":"Retail","address":"5700 NORTH BAYSHORE DRIVE","lat":43.121049,"location":"Bayshore Town Center","state":"WI"},"type":"Feature","geometry":{"type":"Point","coordinates":[-87.914067,43.121049]}},{"properties":{"city":"BEACHWOOD","lon":-81.496613,"zip":44122,"phone":"216-292-6852","id":"a62m1rx8vvq8","storetype":"Retail","address":"26300 CEDAR ROAD","lat":41.501147,"location":"Beachwood Place","state":"OH"},"type":"Feature","geometry":{"type":"Point","coordinates":[-81.496613,41.501147]}},{"properties":{"city":"FREEPORT","lon":-70.101479,"zip":4032,"phone":"207-865-1835","id":"a62m1rqt8ig9","storetype":"Factory/Outlet","address":"24 BOW STREET","lat":43.856632,"location":"Bow Street","state":"ME"},"type":"Feature","geometry":{"type":"Point","coordinates":[-70.101479,43.856632]}},{"properties":{"city":"NEWPORT","lon":-71.315727,"zip":2840,"phone":"401-847-1950","id":"a62m1rqcjjqt","storetype":"Retail - Country Club","address":"139 SWINBURNE ROW","lat":41.490124,"location":"Brick Market II - COUNTRY CLUB","state":"RI"},"type":"Feature","geometry":{"type":"Point","coordinates":[-71.315727,41.490124]}},{"properties":{"city":"NEW YORK","lon":-73.981935,"zip":10023,"phone":"212-362-2374","id":"a62m1s2wobjq","storetype":"Retail","address":"1934 BROADWAY at 65th STREET","lat":40.772805,"location":"Broadway","state":"NY"},"type":"Feature","geometry":{"type":"Point","coordinates":[-73.981935,40.772805]}},{"properties":{"city":"Camarillo","lon":-119.058683,"zip":93010,"phone":"805-383-6225","id":"a62m1rsotlro","storetype":"Factory/Outlet","address":"900 CAMARILLO CENTER DRIVE","lat":34.215791,"location":"Camarillo Premium Outlets","state":"CA"},"type":"Feature","geometry":{"type":"Point","coordinates":[-119.058683,34.215791]}},{"properties":{"city":"CARLSBAD","lon":-117.322796,"zip":92008,"phone":"760-930-8066","id":"a62m1s1ps6k9","storetype":"Factory/Outlet","address":"5610 PASEO DEL NORTE","lat":33.126518,"location":"Carlsbad Premium Outlets","state":"CA"},"type":"Feature","geometry":{"type":"Point","coordinates":[-117.322796,33.126518]}},{"properties":{"city":"SMITHFIELD","lon":-78.308217,"zip":27577,"phone":"919-989-6328","id":"a62m1rzn3c78","storetype":"Factory/Outlet","address":"1209 INDUSTRIAL PARK DRIVE","lat":35.511109,"location":"Carolina Premium Outlets","state":"NC"},"type":"Feature","geometry":{"type":"Point","coordinates":[-78.308217,35.511109]}},{"properties":{"city":"DENVER","lon":-104.952114,"zip":80206,"phone":"303-355-0069","id":"a62m1s4s5t4y","storetype":"Retail","address":"3000 EAST FIRST AVENUE","lat":39.717958,"location":"Cherry Creek S/C","state":"CO"},"type":"Feature","geometry":{"type":"Point","coordinates":[-104.952114,39.717958]}},{"properties":{"city":"CHERRY HILL","lon":0,"zip":8002,"phone":"856-661-1505","id":"a62m1rzorpld","storetype":"Retail","address":"2000 ROUTE 38","lat":0,"location":"Cherry Hill Mall","state":"NJ"},"type":"Feature","geometry":{"type":"Point","coordinates":[0.0,0.0]}},{"properties":{"city":"AURORA","lon":-88.276851,"zip":60502,"phone":"630-585-1034","id":"a62m1rv3n3fn","storetype":"Factory/Outlet","address":"1650 PREMIUM OUTLET BLVD","lat":41.799567,"location":"Chicago Premium Outlets","state":"IL"},"type":"Feature","geometry":{"type":"Point","coordinates":[-88.276851,41.799567]}},{"properties":{"city":"HEBRON","lon":0,"zip":41048,"phone":"859-767-4987","id":"a62m1s1sa5xb","storetype":"Airport","address":"TERMINAL 2 WAREHOUSE","lat":0,"location":"Cincinnati/Northern Kentucky Airport","state":"KY"},"type":"Feature","geometry":{"type":"Point","coordinates":[0.0,0.0]}},{"properties":{"city":"MINNEAPOLIS","lon":-93.272819,"zip":55402,"phone":"612-338-1718","id":"a62m1rvk9rj5","storetype":"Retail","address":"40 SOUTH SEVENTH STREET","lat":44.977286,"location":"City Center","state":"MN"},"type":"Feature","geometry":{"type":"Point","coordinates":[-93.272819,44.977286]}},{"properties":{"city":"LAKEWOOD","lon":-105.159162,"zip":80401,"phone":"303-279-8871","id":"a62m1rxzeza6","storetype":"Factory/Outlet","address":"14500 W COLFAX AVENUE","lat":39.734984,"location":"Colorado Mills","state":"CO"},"type":"Feature","geometry":{"type":"Point","coordinates":[-105.159162,39.734984]}},{"properties":{"city":"CONCORD","lon":-80.718768,"zip":28027,"phone":"704-979-6060","id":"a62m1rx0i05n","storetype":"Factory/Outlet","address":"8111 CONCORD MILLS BLVD","lat":35.371414,"location":"Concord Mills","state":"NC"},"type":"Feature","geometry":{"type":"Point","coordinates":[-80.718768,35.371414]}},{"properties":{"city":"WASHINGTON","lon":-77.041027,"zip":20036,"phone":"202-659-4650","id":"a62m1rxlgtyt","storetype":"Retail","address":"1201 CONNECTICUT AVENUE NW","lat":38.905832,"location":"Connecticut Avenue","state":"DC"},"type":"Feature","geometry":{"type":"Point","coordinates":[-77.041027,38.905832]}},{"properties":{"city":"FRANKLIN","lon":-86.811051,"zip":37067,"phone":"615-771-6548","id":"a62m1s1upkd0","storetype":"Retail - 346","address":"1800 GALLERIA BOULEVARD","lat":35.958899,"location":"Cool Springs Galleria - \"346\" BROOKS BROTHERS","state":"TN"},"type":"Feature","geometry":{"type":"Point","coordinates":[-86.811051,35.958899]}},{"properties":{"city":"KANSAS CITY","lon":-94.592204,"zip":64112,"phone":"816-756-2600","id":"a62m1rsioul0","storetype":"Retail","address":"424 NICHOLS ROAD","lat":39.041395,"location":"Country Club Plaza","state":"MO"},"type":"Feature","geometry":{"type":"Point","coordinates":[-94.592204,39.041395]}},{"properties":{"city":"KANSAS CITY","lon":-94.592077,"zip":64112,"phone":"816-753-8281","id":"a62m1rzao9ws","storetype":"Retail - Women's Only","address":"439 WEST 47TH STREET","lat":39.042201,"location":"Country Club Plaza - WOMEN'S ONLY","state":"MO"},"type":"Feature","geometry":{"type":"Point","coordinates":[-94.592077,39.042201]}},{"properties":{"city":"KING OF PRUSSIA","lon":-75.38587,"zip":19406,"phone":"610-337-9888","id":"a62m1s4lq76a","storetype":"Retail","address":"690 WEST DEKALB PIKE","lat":40.086872,"location":"Court At King Of Prussia","state":"PA"},"type":"Feature","geometry":{"type":"Point","coordinates":[-75.38587,40.086872]}},{"properties":{"city":"RALEIGH","lon":-78.678763,"zip":27612,"phone":"919-783-9050","id":"a62m1s0ugmo6","storetype":"Retail","address":"4325 GLENWOOD AVENUE","lat":35.841312,"location":"Crabtree Valley Mall","state":"NC"},"type":"Feature","geometry":{"type":"Point","coordinates":[-78.678763,35.841312]}},{"properties":{"city":"TANNERSVILLE","lon":-75.311133,"zip":18372,"phone":"570-629-0771","id":"a62m1s16wkdw","storetype":"Factory/Outlet","address":"1000 ROUTE 611","lat":41.048167,"location":"Crossings Premium Outlets","state":"PA"},"type":"Feature","geometry":{"type":"Point","coordinates":[-75.311133,41.048167]}},{"properties":{"city":"DALLAS","lon":0,"zip":75261,"phone":"972-574-3602","id":"a62m1rp5yuh2","storetype":"Airport","address":"2920 NORTHBOUND SERVICE ROAD","lat":0,"location":"Dallas/Fort Worth International Airport","state":"TX"},"type":"Feature","geometry":{"type":"Point","coordinates":[0.0,0.0]}},{"properties":{"city":"CABAZON","lon":-116.81447,"zip":92230,"phone":"951-849-0072","id":"a62m1rzbxt69","storetype":"Factory/Outlet","address":"48650 SEMINOLE DRIVE","lat":33.927492,"location":"Desert Hills Premium Outlets","state":"CA"},"type":"Feature","geometry":{"type":"Point","coordinates":[-116.81447,33.927492]}},{"properties":{"city":"DETROIT","lon":-83.347959,"zip":48242,"phone":"734-247-5344","id":"a62m1rrjfute","storetype":"Airport","address":"15474 PINE ROAD","lat":42.221231,"location":"Detroit Midfield Airport","state":"MI"},"type":"Feature","geometry":{"type":"Point","coordinates":[-83.347959,42.221231]}},{"properties":{"city":"MIAMI","lon":-80.376825,"zip":33172,"phone":"786-845-0881","id":"a62m1s0ersxs","storetype":"Factory/Outlet","address":"11401 NW 12TH STREET","lat":25.7829,"location":"Dolphin Mall","state":"FL"},"type":"Feature","geometry":{"type":"Point","coordinates":[-80.376825,25.7829]}},{"properties":{"city":"DULLES","lon":-77.404824,"zip":20166,"phone":"703-572-6194","id":"a62m1ry9wsah","storetype":"Airport","address":"B TERMINAL","lat":38.983417,"location":"Dulles International Airport","state":"VA"},"type":"Feature","geometry":{"type":"Point","coordinates":[-77.404824,38.983417]}},{"properties":{"city":"WILLIAMSVILLE","lon":-78.696715,"zip":14221,"phone":"716-634-1576","id":"a62m1rpgh70s","storetype":"Retail - 346","address":"4545 TRANSIT ROAD","lat":42.971101,"location":"Eastern Hills Mall - \"346\" BROOKS BROTHERS","state":"NY"},"type":"Feature","geometry":{"type":"Point","coordinates":[-78.696715,42.971101]}},{"properties":{"city":"ESSEX","lon":0,"zip":5452,"phone":"802-288-9368","id":"a62m1s1et4tg","storetype":"Factory/Outlet","address":"21 ESSEX WAY","lat":0,"location":"Essex Outlet Fair","state":"VT"},"type":"Feature","geometry":{"type":"Point","coordinates":[0.0,0.0]}},{"properties":{"city":"MIAMI","lon":-80.337954,"zip":33176,"phone":"305-259-7870","id":"a62m1ryafx1y","storetype":"Retail","address":"8888 SOUTHWEST 136TH ST","lat":25.646305,"location":"Falls,The","state":"FL"},"type":"Feature","geometry":{"type":"Point","coordinates":[-80.337954,25.646305]}},{"properties":{"city":"INDIANAPOLIS","lon":-86.10976,"zip":46240,"phone":"317-846-1660","id":"a62m1rwmrgul","storetype":"Retail","address":"8702 KEYSTONE CROSSING","lat":39.914277,"location":"Fashion Mall At Keystone","state":"IN"},"type":"Feature","geometry":{"type":"Point","coordinates":[-86.10976,39.914277]}},{"properties":{"city":"NIAGARA FALLS","lon":0,"zip":14304,"phone":"716-297-5040","id":"a62m1s3a51m6","storetype":"Factory/Outlet","address":"1836 MILITARY ROAD","lat":0,"location":"Fashion Outlets Of Niagara Falls","state":"NY"},"type":"Feature","geometry":{"type":"Point","coordinates":[0.0,0.0]}},{"properties":{"city":"SANTA FE","lon":-106.032487,"zip":87507,"phone":"505-473-0200","id":"a62m1rq05kmz","storetype":"Factory/Outlet","address":"8380 CERILLOS ROAD","lat":35.613951,"location":"Fashion Outlets of Santa Fe","state":"NM"},"type":"Feature","geometry":{"type":"Point","coordinates":[-106.032487,35.613951]}},{"properties":{"city":"RICHMOND","lon":-77.573167,"zip":23235,"phone":"804-272-8424","id":"a62m1s01kjf9","storetype":"Retail","address":"9200 STONY POINT PARKWAY","lat":37.547678,"location":"Fashion Park At Stony Point","state":"VA"},"type":"Feature","geometry":{"type":"Point","coordinates":[-77.573167,37.547678]}},{"properties":{"city":"NEW YORK","lon":0,"zip":10103,"phone":"212-261-9440","id":"a62m1rqo2tp1","storetype":"Retail","address":"666 FIFTH AVENUE at 53rd STREET","lat":0,"location":"Fifth Avenue - New York","state":"NY"},"type":"Feature","geometry":{"type":"Point","coordinates":[0.0,0.0]}},{"properties":{"city":"FOLSOM","lon":-121.189675,"zip":95630,"phone":"916-294-0717","id":"a62m1rx2bb98","storetype":"Factory/Outlet","address":"13000 FOLSOM BLVD","lat":38.645014,"location":"Folsom Premium Outlets","state":"CA"},"type":"Feature","geometry":{"type":"Point","coordinates":[-121.189675,38.645014]}},{"properties":{"city":"FORT LAUDERDALE","lon":-80.14483,"zip":33315,"phone":"954-359-2916","id":"a62m1s2sxzc8","storetype":"Airport","address":"200 TERMINAL DRIVE","lat":26.072093,"location":"Fort Lauderdale-Hollywood International Airport","state":"FL"},"type":"Feature","geometry":{"type":"Point","coordinates":[-80.14483,26.072093]}},{"properties":{"city":"LAS VEGAS","lon":-115.17416,"zip":89109,"phone":"702-369-0705","id":"a62m1rqp4qum","storetype":"Retail","address":"3500 LAS VEGAS BLVD SOUTH","lat":36.116475,"location":"Forum Shops At Caesar's","state":"NV"},"type":"Feature","geometry":{"type":"Point","coordinates":[-115.17416,36.116475]}},{"properties":{"city":"CINCINNATI","lon":-84.513121,"zip":45202,"phone":"513-651-1800","id":"a62m1s2ldywr","storetype":"Retail","address":"505 VINE STREET","lat":39.101239,"location":"Fountain Place","state":"OH"},"type":"Feature","geometry":{"type":"Point","coordinates":[-84.513121,39.101239]}},{"properties":{"city":"PHILADELPHIA","lon":-74.958503,"zip":19154,"phone":"215-632-9004","id":"a62m1rq20lfp","storetype":"Factory/Outlet","address":"1643 FRANKLIN MILLS CIRCLE","lat":40.091686,"location":"Franklin Mills","state":"PA"},"type":"Feature","geometry":{"type":"Point","coordinates":[-74.958503,40.091686]}},{"properties":{"city":"TARENTUM","lon":-79.794541,"zip":15084,"phone":"724-274-1901","id":"a62m1rxfbs3a","storetype":"Retail - 346","address":"241 PITTSBURGH MILLS CIRCLE","lat":40.571024,"location":"Galleria At Pittsburgh Mills - \"346\" BROOKS BROTHERS","state":"PA"},"type":"Feature","geometry":{"type":"Point","coordinates":[-79.794541,40.571024]}},{"properties":{"city":"HOUSTON","lon":-95.464842,"zip":77056,"phone":"713-877-8775","id":"a62m1s3nfowz","storetype":"Retail","address":"5135 W ALABAMA","lat":29.7379,"location":"Galleria-Houston","state":"TX"},"type":"Feature","geometry":{"type":"Point","coordinates":[-95.464842,29.7379]}},{"properties":{"city":"HOUSTON","lon":-95.463638,"zip":77056,"phone":"713-627-2057","id":"a62m1rwzr3yc","storetype":"Retail","address":"5085 WESTHEIMER","lat":29.74055,"location":"Galleria-Houston","state":"TX"},"type":"Feature","geometry":{"type":"Point","coordinates":[-95.463638,29.74055]}},{"properties":{"city":"BALTIMORE","lon":-76.611329,"zip":21202,"phone":"410-625-0971","id":"a62m1ryr5zh5","storetype":"Retail","address":"200 E PRATT STREET","lat":39.286649,"location":"Gallery At Harborplace","state":"MD"},"type":"Feature","geometry":{"type":"Point","coordinates":[-76.611329,39.286649]}},{"properties":{"city":"PALM BEACH GARDENS","lon":-80.084296,"zip":33410,"phone":"561-775-0383","id":"a62m1rtjgu75","storetype":"Retail","address":"3101 PGA BLVD","lat":26.845197,"location":"Gardens Of The Palm Beaches","state":"FL"},"type":"Feature","geometry":{"type":"Point","coordinates":[-80.084296,26.845197]}},{"properties":{"city":"PALM DESERT","lon":-116.382969,"zip":92260,"phone":"760-779-0823","id":"a62m1rxyjeft","storetype":"Retail","address":"73-595 EL PASEO","lat":33.71969,"location":"Gardens On El Paseo","state":"CA"},"type":"Feature","geometry":{"type":"Point","coordinates":[-116.382969,33.71969]}},{"properties":{"city":"GARLAND","lon":-78.38793,"zip":28441,"phone":"910-529-1612","id":"a62m1s1janfx","storetype":"Factory/Outlet","address":"15 EAST FRONT STREET","lat":34.777115,"location":"Garland Clearance Center","state":"NC"},"type":"Feature","geometry":{"type":"Point","coordinates":[-78.38793,34.777115]}},{"properties":{"city":"MILWAUKEE","lon":-87.909454,"zip":53207,"phone":"414-489-1568","id":"a62m1rysc7pz","storetype":"Airport","address":"5300 SOUTH HOWELL AVENUE","lat":42.947668,"location":"General Mitchell International Airport","state":"WI"},"type":"Feature","geometry":{"type":"Point","coordinates":[-87.909454,42.947668]}},{"properties":{"city":"GILROY","lon":-121.562614,"zip":95020,"phone":"408-847-3440","id":"a62m1rx1q0jf","storetype":"Factory/Outlet","address":"8300 ARROYO CIRCLE","lat":37.023023,"location":"Gilroy Premium Outlets","state":"CA"},"type":"Feature","geometry":{"type":"Point","coordinates":[-121.562614,37.023023]}},{"properties":{"city":"SANDESTIN","lon":0,"zip":32550,"phone":"850-269-1255","id":"a62m1rshpqgu","storetype":"Retail - Country Club","address":"560 GRAND BOULEVARD","lat":0,"location":"Grand Boulevard At Sandestin - COUNTRY CLUB","state":"FL"},"type":"Feature","geometry":{"type":"Point","coordinates":[0.0,0.0]}},{"properties":{"city":"AUBURN HILLS","lon":-83.306629,"zip":48326,"phone":"248-333-1811","id":"a62m1rq4pmwq","storetype":"Factory/Outlet","address":"4076 BALDWIN ROAD","lat":42.69234,"location":"Great Lakes Crossing","state":"MI"},"type":"Feature","geometry":{"type":"Point","coordinates":[-83.306629,42.69234]}},{"properties":{"city":"MILPITAS","lon":-121.894761,"zip":95035,"phone":"408-262-1200","id":"a62m1rqff4bp","storetype":"Factory/Outlet","address":"556 GREAT MALL DRIVE","lat":37.416374,"location":"Great Mall","state":"CA"},"type":"Feature","geometry":{"type":"Point","coordinates":[-121.894761,37.416374]}},{"properties":{"city":"SHREWSBURY","lon":-74.062469,"zip":7702,"phone":"732-530-6530","id":"a62m1rvcu2hb","storetype":"Retail","address":"615 BROAD STREET","lat":40.331692,"location":"Grove At Shrewsbury","state":"NJ"},"type":"Feature","geometry":{"type":"Point","coordinates":[-74.062469,40.331692]}},{"properties":{"city":"HOUSTON","lon":-95.34588,"zip":77032,"phone":"281-233-7750","id":"a62m1ryg719k","storetype":"Airport","address":"3214 IGLOO","lat":29.980374,"location":"Houston George Bush Airport","state":"TX"},"type":"Feature","geometry":{"type":"Point","coordinates":[-95.34588,29.980374]}},{"properties":{"city":"CYPRESS","lon":-95.704339,"zip":77433,"phone":"281-256-2398","id":"a62m1row5p9d","storetype":"Factory/Outlet","address":"29300 HEMPSTEAD RD","lat":29.9738,"location":"Houston Premium Outlet","state":"TX"},"type":"Feature","geometry":{"type":"Point","coordinates":[-95.704339,29.9738]}},{"properties":{"city":"JACKSON","lon":-74.419937,"zip":8527,"phone":"732-928-4452","id":"a62m1rym7qrq","storetype":"Factory/Outlet","address":"537 MONMOUTH ROAD","lat":40.162941,"location":"Jackson Premium Outlets","state":"NJ"},"type":"Feature","geometry":{"type":"Point","coordinates":[-74.419937,40.162941]}},{"properties":{"city":"ELIZABETH","lon":-74.174171,"zip":7201,"phone":"908-355-2845","id":"a62m1rookkxz","storetype":"Factory/Outlet","address":"651 KAPOWSKI ROAD","lat":40.663197,"location":"Jersey Gardens","state":"NJ"},"type":"Feature","geometry":{"type":"Point","coordinates":[-74.174171,40.663197]}},{"properties":{"city":"Tinton Falls","lon":-74.092529,"zip":7753,"phone":"732-493-1393","id":"a62m1s1u8rfq","storetype":"Factory/Outlet","address":"1 PREMIUM OUTLET BLVD","lat":40.299549,"location":"Jersey Shore Premium Outlets","state":"NJ"},"type":"Feature","geometry":{"type":"Point","coordinates":[-74.092529,40.299549]}},{"properties":{"city":"WEST DES MOINES","lon":-93.809016,"zip":50266,"phone":"515-223-0718","id":"a62m1rx8a7t3","storetype":"Retail - 346","address":"101 JORDAN CREEK PARKWAY","lat":41.568902,"location":"Jordan Creek Town Center - \"346\" BROOKS BROTHERS","state":"IA"},"type":"Feature","geometry":{"type":"Point","coordinates":[-93.809016,41.568902]}},{"properties":{"city":"GROSSE POINTE FARMS","lon":-82.905708,"zip":48236,"phone":"313-886-2300","id":"a62m1s29anjn","storetype":"Factory/Outlet","address":"11 KERCHEVAL AVENUE","lat":42.394051,"location":"Kercheval Avenue","state":"MI"},"type":"Feature","geometry":{"type":"Point","coordinates":[-82.905708,42.394051]}},{"properties":{"city":"TUCSON","lon":-110.930448,"zip":85718,"phone":"520-529-5598","id":"a62m1rylpbvq","storetype":"Retail - Country Club","address":"2905 E SKYLINE DRIVE","lat":32.322936,"location":"La Encantada - COUNTRY CLUB","state":"AZ"},"type":"Feature","geometry":{"type":"Point","coordinates":[-110.930448,32.322936]}},{"properties":{"city":"TUCSON","lon":-110.930448,"zip":85718,"phone":"520-615-0604","id":"a62m1roik6gv","storetype":"Retail - Women's Only","address":"2905 E SKYLINE DRIVE","lat":32.322936,"location":"La Encantada - WOMEN'S ONLY","state":"AZ"},"type":"Feature","geometry":{"type":"Point","coordinates":[-110.930448,32.322936]}},{"properties":{"city":"FLUSHING","lon":-73.871799,"zip":11371,"phone":"718-458-2369","id":"a62m1rtunu4j","storetype":"Airport","address":"DELTA FLIGHT CENTER","lat":40.772126,"location":"Laguardia Airport","state":"NY"},"type":"Feature","geometry":{"type":"Point","coordinates":[-73.871799,40.772126]}},{"properties":{"city":"SAN DIEGO","lon":-117.041951,"zip":92173,"phone":"619-934-4580","id":"a62m1s18jq7b","storetype":"Factory/Outlet","address":"4265 CAMINO DE LA PLAZA","lat":32.545285,"location":"Las Americas Premium Outlets","state":"CA"},"type":"Feature","geometry":{"type":"Point","coordinates":[-117.041951,32.545285]}},{"properties":{"city":"LAS VEGAS","lon":-115.156855,"zip":89106,"phone":"702-380-3081","id":"a62m1s2jlc3e","storetype":"Factory/Outlet","address":"905 SOUTH GRAND CENTRAL PKWY","lat":36.163707,"location":"Las Vegas Premium Outlets","state":"NV"},"type":"Feature","geometry":{"type":"Point","coordinates":[-115.156855,36.163707]}},{"properties":{"city":"LEESBURG","lon":-77.536571,"zip":20176,"phone":"703-443-9435","id":"a62m1rv7gx42","storetype":"Factory/Outlet","address":"241 FORT EVANS ROAD, NE","lat":39.109601,"location":"Leesburg Corner Premium Outlts","state":"VA"},"type":"Feature","geometry":{"type":"Point","coordinates":[-77.536571,39.109601]}},{"properties":{"city":"KANSAS CITY","lon":-94.829128,"zip":66111,"phone":"913-788-8763","id":"a62m1s0ygp5s","storetype":"Factory/Outlet","address":"1847 VILLAGE WEST PARKWAY","lat":39.125669,"location":"Legends At Village West","state":"KS"},"type":"Feature","geometry":{"type":"Point","coordinates":[-94.829128,39.125669]}},{"properties":{"city":"ATLANTA","lon":-84.364767,"zip":30326,"phone":"404-237-7000","id":"a62m1rucrc0c","storetype":"Retail","address":"3393 PEACHTREE ROAD NE","lat":33.848774,"location":"Lenox Square","state":"GA"},"type":"Feature","geometry":{"type":"Point","coordinates":[-84.364767,33.848774]}},{"properties":{"city":"NEW YORK","lon":-74.010549,"zip":10006,"phone":"212-267-2400","id":"a62m1rv2kaxx","storetype":"Retail","address":"ONE LIBERTY PLAZA","lat":40.70915,"location":"Liberty Plaza","state":"NY"},"type":"Feature","geometry":{"type":"Point","coordinates":[-74.010549,40.70915]}},{"properties":{"city":"FLEMINGTON","lon":-74.858475,"zip":8822,"phone":"908-788-4858","id":"a62m1rod4jtz","storetype":"Factory/Outlet","address":"75-B LIBERTY VILLAGE PREMIUM","lat":40.495823,"location":"Liberty Village Premium Outlet","state":"NJ"},"type":"Feature","geometry":{"type":"Point","coordinates":[-74.858475,40.495823]}},{"properties":{"city":"MICHIGAN CITY","lon":-86.905369,"zip":46360,"phone":"219-879-6777","id":"a62m1rrpvebb","storetype":"Factory/Outlet","address":"411 LIGHTHOUSE PLACE","lat":41.715635,"location":"Lighthouse Place Premium Outlet","state":"IN"},"type":"Feature","geometry":{"type":"Point","coordinates":[-86.905369,41.715635]}},{"properties":{"city":"LAKE GEORGE","lon":-73.698732,"zip":12845,"phone":"518-798-0948","id":"a62m1ruksbk2","storetype":"Factory/Outlet","address":"1476 STATE ROUTE 9","lat":43.367534,"location":"Log Jam Outlets","state":"NY"},"type":"Feature","geometry":{"type":"Point","coordinates":[-73.698732,43.367534]}},{"properties":{"city":"NEW YORK","lon":0,"zip":10017,"phone":"212-682-8800","id":"a62m1s3mbvfg","storetype":"Retail","address":"346 MADISON AVENUE at 44th STREET","lat":0,"location":"Madison Avenue","state":"NY"},"type":"Feature","geometry":{"type":"Point","coordinates":[0.0,0.0]}},{"properties":{"city":"WESTPORT","lon":-73.36171,"zip":6880,"phone":"203-226-7678","id":"a62m1ryox96d","storetype":"Retail","address":"136 MAIN STREET","lat":41.14344,"location":"Main Street","state":"CT"},"type":"Feature","geometry":{"type":"Point","coordinates":[-73.36171,41.14344]}},{"properties":{"city":"SOUTHAMPTON","lon":-72.389266,"zip":11968,"phone":"631-287-3936","id":"a62m1rvywvnp","storetype":"Retail - Country Club","address":"48-50 MAIN STREET","lat":40.885566,"location":"Main Street - Southampton - COUNTRY CLUB","state":"NY"},"type":"Feature","geometry":{"type":"Point","coordinates":[-72.389266,40.885566]}},{"properties":{"city":"WESTPORT","lon":-73.362061,"zip":6880,"phone":"203-226-9893","id":"a62m1rr0337j","storetype":"Retail - Women's Only","address":"125 MAIN STREET","lat":41.143337,"location":"Main Street - WOMEN'S ONLY","state":"CT"},"type":"Feature","geometry":{"type":"Point","coordinates":[-73.362061,41.143337]}},{"properties":{"city":"CHESTNUT HILL","lon":-71.176025,"zip":2467,"phone":"617-964-3600","id":"a62m1rswjv5c","storetype":"Retail","address":"199 BOYLSTON STREET","lat":42.320251,"location":"Mall At Chestnut Hill","state":"MA"},"type":"Feature","geometry":{"type":"Point","coordinates":[-71.176025,42.320251]}},{"properties":{"city":"NASHVILLE","lon":-86.815706,"zip":37215,"phone":"615-269-5652","id":"a62m1rsssd2y","storetype":"Retail","address":"2177 GREEN HILLS VILLAGE DRIVE","lat":36.108441,"location":"Mall At Green Hills","state":"TN"},"type":"Feature","geometry":{"type":"Point","coordinates":[-86.815706,36.108441]}},{"properties":{"city":"CLINTON TOWNSHIP","lon":0,"zip":48038,"phone":"586-263-4058","id":"a62m1rqgjmt1","storetype":"Retail","address":"17370 HALL ROAD","lat":0,"location":"Mall At Partridge Creek","state":"MI"},"type":"Feature","geometry":{"type":"Point","coordinates":[0.0,0.0]}},{"properties":{"city":"ATLANTA","lon":-84.387444,"zip":30303,"phone":"404-577-4040","id":"a62m1rrfvz3q","storetype":"Retail","address":"235 PEACHTREE STREET NE","lat":33.760585,"location":"Mall At Peachtree Center","state":"GA"},"type":"Feature","geometry":{"type":"Point","coordinates":[-84.387444,33.760585]}},{"properties":{"city":"SHORT HILLS","lon":-74.364952,"zip":7078,"phone":"973-467-5400","id":"a62m1rx08yag","storetype":"Retail","address":"1200 MORRIS TURNPIKE","lat":40.738083,"location":"Mall At Short Hills","state":"NJ"},"type":"Feature","geometry":{"type":"Point","coordinates":[-74.364952,40.738083]}},{"properties":{"city":"WELLINGTON","lon":-80.207511,"zip":33414,"phone":"561-795-0989","id":"a62m1rre8n9v","storetype":"Retail - 346","address":"10300 WEST FOREST HILL BLVD","lat":26.650823,"location":"Mall At Wellington Green - \"346\" BROOKS BROTHERS","state":"FL"},"type":"Feature","geometry":{"type":"Point","coordinates":[-80.207511,26.650823]}},{"properties":{"city":"LOUISVILLE","lon":-85.62345,"zip":40207,"phone":"502-896-4045","id":"a62m1ryl0hhq","storetype":"Retail","address":"5000 SHELBYVILLE ROAD","lat":38.250116,"location":"Mall St.Matthews S/C","state":"KY"},"type":"Feature","geometry":{"type":"Point","coordinates":[-85.62345,38.250116]}},{"properties":{"city":"MANCHESTER CENTER","lon":0,"zip":5255,"phone":"802-362-7044","id":"a62m1rt2zi5m","storetype":"Factory/Outlet","address":"460 DEPOT STREET","lat":0,"location":"Manchester Square","state":"VT"},"type":"Feature","geometry":{"type":"Point","coordinates":[0.0,0.0]}},{"properties":{"city":"MYRTLE BEACH","lon":-78.939146,"zip":29577,"phone":"843-232-0416","id":"a62m1rw985ld","storetype":"Retail - Country Club","address":"3096 HOWARD AVENUE","lat":33.668668,"location":"Market Common - COUNTRY CLUB","state":"SC"},"type":"Feature","geometry":{"type":"Point","coordinates":[-78.939146,33.668668]}},{"properties":{"city":"ESTERO","lon":-81.772283,"zip":33928,"phone":"239-948-2177","id":"a62m1s1y570i","storetype":"Factory/Outlet","address":"10801 CORKSCREW ROAD","lat":26.435219,"location":"Miromar Outlets","state":"FL"},"type":"Feature","geometry":{"type":"Point","coordinates":[-81.772283,26.435219]}},{"properties":{"city":"NAPA","lon":-122.303873,"zip":94558,"phone":"707)258-1351","id":"a62m1s4g9svk","storetype":"Factory/Outlet","address":"637 FACTORY STORES DRIVE","lat":38.295718,"location":"Napa Premium Outlets","state":"CA"},"type":"Feature","geometry":{"type":"Point","coordinates":[-122.303873,38.295718]}},{"properties":{"city":"NATICK","lon":-71.766838,"zip":1760,"phone":"508-650-6920","id":"a62m1rwv72v4","storetype":"Retail","address":"1245 WORCESTER ROAD","lat":42.272774,"location":"Natick Mall","state":"MA"},"type":"Feature","geometry":{"type":"Point","coordinates":[-71.766838,42.272774]}},{"properties":{"city":"ELIZABETH","lon":-74.187675,"zip":7201,"phone":"973-645-0382","id":"a62m1rwrb7lm","storetype":"Airport","address":"606 DOWD AVE","lat":40.66674,"location":"Newark Airport","state":"NJ"},"type":"Feature","geometry":{"type":"Point","coordinates":[-74.187675,40.66674]}},{"properties":{"city":"BOSTON","lon":0,"zip":2116,"phone":"617-267-2600","id":"a62m1rqk74gx","storetype":"Retail","address":"46 NEWBURY STREET","lat":0,"location":"Newbury Street","state":"MA"},"type":"Feature","geometry":{"type":"Point","coordinates":[0.0,0.0]}},{"properties":{"city":"DAWSONVILLE","lon":-84.045993,"zip":30534,"phone":"706-216-2865","id":"a62m1rp8mbjt","storetype":"Factory/Outlet","address":"800 HIGHWAY 400 SOUTH","lat":34.35632,"location":"North Georgia Premium Outlets","state":"GA"},"type":"Feature","geometry":{"type":"Point","coordinates":[-84.045993,34.35632]}},{"properties":{"city":"DAWSONVILLE","lon":-84.045993,"zip":30534,"phone":"706-531-9996","id":"a62m1rvwpptm","storetype":"Factory/Outlet - Women's Only","address":"800 HIGHWAY 400 SOUTH","lat":34.35632,"location":"North Georgia Premium Outlets - WOMEN'S ONLY","state":"GA"},"type":"Feature","geometry":{"type":"Point","coordinates":[-84.045993,34.35632]}},{"properties":{"city":"CHICAGO","lon":-87.624067,"zip":60611,"phone":"312-915-0060","id":"a62m1s446sq2","storetype":"Retail","address":"713 NORTH MICHIGAN AVENUE","lat":41.895295,"location":"North Michigan Avenue","state":"IL"},"type":"Feature","geometry":{"type":"Point","coordinates":[-87.624067,41.895295]}},{"properties":{"city":"NORTHBROOK","lon":-87.81712,"zip":60062,"phone":"847-272-3800","id":"a62m1s12uz66","storetype":"Retail","address":"1146 NORTHBROOK COURT","lat":42.151929,"location":"Northbrook Court","state":"IL"},"type":"Feature","geometry":{"type":"Point","coordinates":[-87.81712,42.151929]}},{"properties":{"city":"CHARLOTTE","lon":-80.850339,"zip":28216,"phone":"704-509-1669","id":"a62m1s4138op","storetype":"Retail","address":"6801 NORTHLAKE MALL DRIVE","lat":35.349937,"location":"Northlake Mall","state":"NC"},"type":"Feature","geometry":{"type":"Point","coordinates":[-80.850339,35.349937]}},{"properties":{"city":"PEABODY","lon":-70.928513,"zip":1960,"phone":"978-538-0090","id":"a62m1rp3s713","storetype":"Retail","address":"JUNCTION RTE 114 &amp; 128","lat":42.52634,"location":"Northshore Mall","state":"MA"},"type":"Feature","geometry":{"type":"Point","coordinates":[-70.928513,42.52634]}},{"properties":{"city":"OAK BROOK","lon":-87.956919,"zip":60523,"phone":"630-571-0700","id":"a62m1s2vrggo","storetype":"Retail","address":"212 OAKBROOK CENTER","lat":41.850071,"location":"Oakbrook Center","state":"IL"},"type":"Feature","geometry":{"type":"Point","coordinates":[-87.956919,41.850071]}},{"properties":{"city":"TAMPA","lon":-82.475735,"zip":33606,"phone":"813-251-4711","id":"a62m1rsciucu","storetype":"Retail","address":"700 S DAKOTA AVE","lat":27.93727,"location":"Old Hyde Park","state":"FL"},"type":"Feature","geometry":{"type":"Point","coordinates":[-82.475735,27.93727]}},{"properties":{"city":"NASHVILLE","lon":-86.694141,"zip":37214,"phone":"615-514-1190","id":"a62m1s0x9x6e","storetype":"Factory/Outlet","address":"202 OPRY MILLS DRIVE","lat":36.201013,"location":"Opry Mills","state":"TN"},"type":"Feature","geometry":{"type":"Point","coordinates":[-86.694141,36.201013]}},{"properties":{"city":"ORLANDO","lon":-81.49598,"zip":32821,"phone":"407-239-9000","id":"a62m1s3kczfs","storetype":"Factory/Outlet","address":"8200 VINELAND AVENUE","lat":28.385928,"location":"Orlando Premium Outlets","state":"FL"},"type":"Feature","geometry":{"type":"Point","coordinates":[-81.49598,28.385928]}},{"properties":{"city":"OSAGE BEACH","lon":-92.658857,"zip":65065,"phone":"573-348-2205","id":"a62m1s02ljpt","storetype":"Factory/Outlet","address":"HIGHWAY 54","lat":38.12724,"location":"Osage Beach Premium Outlets","state":"MO"},"type":"Feature","geometry":{"type":"Point","coordinates":[-92.658857,38.12724]}},{"properties":{"city":"CANUTILLO","lon":-106.584739,"zip":79835,"phone":"915-877-2548","id":"a62m1rz6t09v","storetype":"Factory/Outlet","address":"7051 S DESERT BOULEVARD","lat":31.956588,"location":"Outlet Shoppes At El Paso","state":"TX"},"type":"Feature","geometry":{"type":"Point","coordinates":[-106.584739,31.956588]}},{"properties":{"city":"CASTLE ROCK","lon":-104.874991,"zip":80108,"phone":"303-688-8988","id":"a62m1rxgdxyf","storetype":"Factory/Outlet","address":"5050 FACTORY SHOP BLVD","lat":39.413833,"location":"Outlets At Castle Rock","state":"CO"},"type":"Feature","geometry":{"type":"Point","coordinates":[-104.874991,39.413833]}},{"properties":{"city":"HERSHEY","lon":-76.647185,"zip":17033,"phone":"717-531-3430","id":"a62m1rzovn4i","storetype":"Factory/Outlet","address":"72 OUTLETS SQUARE","lat":40.294156,"location":"Outlets At Hershey","state":"PA"},"type":"Feature","geometry":{"type":"Point","coordinates":[-76.647185,40.294156]}},{"properties":{"city":"WEST NYACK","lon":-73.959295,"zip":10994,"phone":"845-348-4773","id":"a62m1royoti6","storetype":"Retail","address":"1690 PALISADES CENTER DRIVE","lat":41.095732,"location":"Palisades Center","state":"NY"},"type":"Feature","geometry":{"type":"Point","coordinates":[-73.959295,41.095732]}},{"properties":{"city":"Lone Tree","lon":-104.872678,"zip":80124,"phone":"303-792-2683","id":"a62m1ruhz7z5","storetype":"Retail - Country Club","address":"8433 PARK MEADOWS CENTER DRIVE","lat":39.56169,"location":"Park Meadows - COUNTRY CLUB","state":"CO"},"type":"Feature","geometry":{"type":"Point","coordinates":[-104.872678,39.56169]}},{"properties":{"city":"Pearland","lon":-95.395163,"zip":77581,"phone":"713-436-9348","id":"a62m1rz5wvxi","storetype":"Retail","address":"11200 BROADWAY","lat":29.555518,"location":"Pearland Town Center","state":"TX"},"type":"Feature","geometry":{"type":"Point","coordinates":[-95.395163,29.555518]}},{"properties":{"city":"LAHASKA","lon":-75.030915,"zip":18931,"phone":"215-794-0727","id":"a62m1rvqxqdn","storetype":"Factory/Outlet","address":"5861 YORK ROAD","lat":40.346886,"location":"Penn's Purchase","state":"PA"},"type":"Feature","geometry":{"type":"Point","coordinates":[-75.030915,40.346886]}},{"properties":{"city":"ATLANTA","lon":-84.338894,"zip":30346,"phone":"770-394-9051","id":"a62m1rro4ia4","storetype":"Retail","address":"4400 ASHFORD DUNWOODY ROAD","lat":33.922367,"location":"Perimeter Mall","state":"GA"},"type":"Feature","geometry":{"type":"Point","coordinates":[-84.338894,33.922367]}},{"properties":{"city":"PETALUMA","lon":-122.651544,"zip":94952,"phone":"707-766-8144","id":"a62m1ryxo565","storetype":"Factory/Outlet","address":"2200 PETALUMA BOULEVARD N","lat":38.255331,"location":"Petaluma Village Premium Outlet","state":"CA"},"type":"Feature","geometry":{"type":"Point","coordinates":[-122.651544,38.255331]}},{"properties":{"city":"PHILADELPHIA","lon":-75.232754,"zip":19153,"phone":"215-492-4478","id":"a62m1rr7hw78","storetype":"Airport","address":"B C CONNECTOR TERMINAL","lat":39.909085,"location":"Philadelphia International Airport","state":"PA"},"type":"Feature","geometry":{"type":"Point","coordinates":[-75.232754,39.909085]}},{"properties":{"city":"POTTSTOWN","lon":-75.5591,"zip":19464,"phone":"610-326-1804","id":"a62m1rrkbn9f","storetype":"Factory/Outlet","address":"18 LIGHTCAP ROAD","lat":40.229875,"location":"Philadelphia Premium Outlets","state":"PA"},"type":"Feature","geometry":{"type":"Point","coordinates":[-75.5591,40.229875]}},{"properties":{"city":"SARASOTA","lon":-82.540438,"zip":34236,"phone":"941-954-7545","id":"a62m1s0oh5r1","storetype":"Retail - Country Club","address":"1500 MAIN STREET","lat":27.336317,"location":"Pineapple Square - COUNTRY CLUB","state":"FL"},"type":"Feature","geometry":{"type":"Point","coordinates":[-82.540438,27.336317]}},{"properties":{"city":"PITTSBURGH","lon":-80.258934,"zip":15231,"phone":"412-472-3276","id":"a62m1rz9nh03","storetype":"Airport","address":"CENTRAL SERVICE BUILDING","lat":40.495967,"location":"Pittsburgh International Airport","state":"PA"},"type":"Feature","geometry":{"type":"Point","coordinates":[-80.258934,40.495967]}},{"properties":{"city":"COLUMBUS","lon":-82.977676,"zip":43240,"phone":"614-430-8167","id":"a62m1rxn99m0","storetype":"Retail","address":"1500 POLARIS PARKWAY","lat":40.141704,"location":"Polaris Fashion Place","state":"OH"},"type":"Feature","geometry":{"type":"Point","coordinates":[-82.977676,40.141704]}},{"properties":{"city":"COLUMBUS","lon":-82.890097,"zip":43219,"phone":"614-239-3312","id":"a62m1s1e1amj","storetype":"Airport","address":"4600 INTERNATIONAL GATEWAY","lat":39.998622,"location":"Port Columbus International Airport","state":"OH"},"type":"Feature","geometry":{"type":"Point","coordinates":[-82.890097,39.998622]}},{"properties":{"city":"SAN FRANCISCO","lon":-122.40472,"zip":94108,"phone":"415-397-4500","id":"a62m1s1w6wbv","storetype":"Retail","address":"150 POST STREET","lat":37.788908,"location":"Post Street","state":"CA"},"type":"Feature","geometry":{"type":"Point","coordinates":[-122.40472,37.788908]}},{"properties":{"city":"WOODBRIDGE","lon":-77.299368,"zip":22192,"phone":"703-491-2950","id":"a62m1rs1boa5","storetype":"Factory/Outlet","address":"2700 POTOMAC MILLS CIRCLE","lat":38.645195,"location":"Potomac Mills","state":"VA"},"type":"Feature","geometry":{"type":"Point","coordinates":[-77.299368,38.645195]}},{"properties":{"city":"BIRCH RUN","lon":-83.776603,"zip":48415,"phone":"989-624-0170","id":"a62m1rppjrw4","storetype":"Factory/Outlet","address":"8825 MARKET PLACE DRIVE","lat":43.245125,"location":"Prime O/C Birch Run","state":"MI"},"type":"Feature","geometry":{"type":"Point","coordinates":[-83.776603,43.245125]}},{"properties":{"city":"ELLENTON","lon":-82.506769,"zip":34222,"phone":"941-729-8944","id":"a62m1s18gc65","storetype":"Factory/Outlet","address":"5553 FACTORY SHOPS BLVD","lat":27.53405,"location":"Prime O/C Ellenton","state":"FL"},"type":"Feature","geometry":{"type":"Point","coordinates":[-82.506769,27.53405]}},{"properties":{"city":"GAFFNEY","lon":-81.708622,"zip":29341,"phone":"864-488-1919","id":"a62m1rz4br5q","storetype":"Factory/Outlet","address":"700 FACTORY SHOPS BLVD","lat":35.082877,"location":"Prime O/C Gaffney","state":"SC"},"type":"Feature","geometry":{"type":"Point","coordinates":[-81.708622,35.082877]}},{"properties":{"city":"GROVE CITY","lon":-80.154869,"zip":16127,"phone":"724-748-4163","id":"a62m1s1i5uvf","storetype":"Factory/Outlet","address":"INTERSECTION I-79 &amp; ROUTE 208","lat":41.14349,"location":"Prime O/C Grove City","state":"PA"},"type":"Feature","geometry":{"type":"Point","coordinates":[-80.154869,41.14349]}},{"properties":{"city":"HAGERSTOWN","lon":-77.732274,"zip":21740,"phone":"301-797-6505","id":"a62m1rtvsqa9","storetype":"Factory/Outlet","address":"175 PRIME OUTLETS BLVD","lat":39.608095,"location":"Prime O/C Hagerstown","state":"MD"},"type":"Feature","geometry":{"type":"Point","coordinates":[-77.732274,39.608095]}},{"properties":{"city":"JEFFERSONVILLE","lon":-83.602295,"zip":43128,"phone":"740-948-2030","id":"a62m1rpislxt","storetype":"Factory/Outlet","address":"8400 FACTORY SHOPS BLVD","lat":39.620908,"location":"Prime O/C Jeffersonville","state":"OH"},"type":"Feature","geometry":{"type":"Point","coordinates":[-83.602295,39.620908]}},{"properties":{"city":"LEBANON","lon":-86.302968,"zip":37090,"phone":"615-453-3636","id":"a62m1ryjl8z5","storetype":"Factory/Outlet","address":"170 OUTLET VILLAGE BLVD","lat":36.178196,"location":"Prime O/C Lebanon","state":"TN"},"type":"Feature","geometry":{"type":"Point","coordinates":[-86.302968,36.178196]}},{"properties":{"city":"LEE","lon":-73.235199,"zip":1238,"phone":"413-394-9601","id":"a62m1s12fq6x","storetype":"Factory/Outlet","address":"50 WATER STREET","lat":42.296875,"location":"Prime O/C Lee","state":"MA"},"type":"Feature","geometry":{"type":"Point","coordinates":[-73.235199,42.296875]}},{"properties":{"city":"ORLANDO","lon":-81.450022,"zip":32819,"phone":"407-363-5918","id":"a62m1s2isuvn","storetype":"Factory/Outlet","address":"4957 INTERNATIONAL DRIVE","lat":28.474245,"location":"Prime O/C Orlando","state":"FL"},"type":"Feature","geometry":{"type":"Point","coordinates":[-81.450022,28.474245]}},{"properties":{"city":"PLEASANT PRAIRIE","lon":-87.882899,"zip":53158,"phone":"262-857-6900","id":"a62m1rpwqlm1","storetype":"Factory/Outlet","address":"11211-120TH AVENUE","lat":42.526971,"location":"Prime O/C Pleasant Prairie","state":"WI"},"type":"Feature","geometry":{"type":"Point","coordinates":[-87.882899,42.526971]}},{"properties":{"city":"QUEENSTOWN","lon":-76.159721,"zip":21658,"phone":"410-827-5740","id":"a62m1ruvl4cx","storetype":"Factory/Outlet","address":"307 OUTLET CENTER DRIVE","lat":38.983024,"location":"Prime O/C Queenstown","state":"MD"},"type":"Feature","geometry":{"type":"Point","coordinates":[-76.159721,38.983024]}},{"properties":{"city":"SAN MARCOS","lon":-97.983765,"zip":78666,"phone":"512-396-3753","id":"a62m1rrvmgcr","storetype":"Factory/Outlet","address":"3939 INTERSTATE HWY-35 SOUTH","lat":29.82873,"location":"Prime O/C San Marcos","state":"TX"},"type":"Feature","geometry":{"type":"Point","coordinates":[-97.983765,29.82873]}},{"properties":{"city":"WILLIAMSBURG","lon":-76.73591,"zip":23188,"phone":"757-565-2501","id":"a62m1rq5x2ng","storetype":"Factory/Outlet","address":"5711-21 RICHMOND ROAD","lat":37.320203,"location":"Prime O/C Williamsburg","state":"VA"},"type":"Feature","geometry":{"type":"Point","coordinates":[-76.73591,37.320203]}},{"properties":{"city":"Williamsburg","lon":-76.735833,"zip":23188,"phone":"757-221-0395","id":"a62m1ry89w5o","storetype":"Factory/Outlet - Women's Only","address":"5709-66 RICHMOND ROAD","lat":37.320022,"location":"Prime O/C Williamsburg - WOMEN'S ONLY","state":"VA"},"type":"Feature","geometry":{"type":"Point","coordinates":[-76.735833,37.320022]}},{"properties":{"city":"CENTER VALLEY","lon":-75.410829,"zip":18034,"phone":"610-797-4571","id":"a62m1roj6kaj","storetype":"Retail","address":"2985 CENTER VALLEY PARKWAY","lat":40.55806,"location":"Promenade Shops At Saucon Valley","state":"PA"},"type":"Feature","geometry":{"type":"Point","coordinates":[-75.410829,40.55806]}},{"properties":{"city":"Marlton","lon":-74.921783,"zip":8053,"phone":"856-983-0143","id":"a62m1rodsfyh","storetype":"Retail","address":"500 ROUTE 73 SOUTH","lat":39.880939,"location":"Promenade at Sagemore","state":"NJ"},"type":"Feature","geometry":{"type":"Point","coordinates":[-74.921783,39.880939]}},{"properties":{"city":"PROVIDENCE","lon":-71.415611,"zip":2903,"phone":"401-270-4100","id":"a62m1s49ohg2","storetype":"Retail","address":"29 PROVIDENCE PLACE","lat":41.826168,"location":"Providence Place","state":"RI"},"type":"Feature","geometry":{"type":"Point","coordinates":[-71.415611,41.826168]}},{"properties":{"city":"RALEIGH","lon":-78.642169,"zip":27623,"phone":"919-840-4550","id":"a62m1s28oa6c","storetype":"Airport","address":"1600 TERMINAL BLVD","lat":35.78824,"location":"Raleigh/Durham Airport","state":"NC"},"type":"Feature","geometry":{"type":"Point","coordinates":[-78.642169,35.78824]}},{"properties":{"city":"Mercedes","lon":-97.887177,"zip":78570,"phone":"956-565-1315","id":"a62m1rs6xqih","storetype":"Factory/Outlet","address":"5001 E Expressway 83","lat":26.159647,"location":"Rio Grande Valley O/C","state":"TX"},"type":"Feature","geometry":{"type":"Point","coordinates":[-97.887177,26.159647]}},{"properties":{"city":"BIRMINGHAM","lon":-86.811038,"zip":35244,"phone":"205-985-9898","id":"a62m1rsxsceh","storetype":"Retail","address":"2000 RIVERCHASE GALLERIA","lat":33.378593,"location":"Riverchase Galleria","state":"AL"},"type":"Feature","geometry":{"type":"Point","coordinates":[-86.811038,33.378593]}},{"properties":{"city":"BEVERLY HILLS","lon":-118.404084,"zip":90210,"phone":"310-274-4003","id":"a62m1rvjcn9v","storetype":"Retail","address":"468 N RODEO DRIVE","lat":34.070536,"location":"Rodeo Drive","state":"CA"},"type":"Feature","geometry":{"type":"Point","coordinates":[-118.404084,34.070536]}},{"properties":{"city":"WASHINGTON","lon":-77.011889,"zip":20001,"phone":"703-417-1071","id":"a62m1rs0si6x","storetype":"Airport","address":"AIR CARGO ROAD","lat":38.917005,"location":"Ronald Reagan Washington National Airport","state":"DC"},"type":"Feature","geometry":{"type":"Point","coordinates":[-77.011889,38.917005]}},{"properties":{"city":"CHICAGO","lon":-87.632199,"zip":60604,"phone":"312-263-0100","id":"a62m1rvb9rc4","storetype":"Retail","address":"209 S LASALLE STREET","lat":41.879235,"location":"Rookery,The","state":"IL"},"type":"Feature","geometry":{"type":"Point","coordinates":[-87.632199,41.879235]}},{"properties":{"city":"GARDEN CITY","lon":-73.614928,"zip":11530,"phone":"516-746-2012","id":"a62m1rpiopwb","storetype":"Retail","address":"630 OLD COUNTY ROAD","lat":40.743067,"location":"Roosevelt Field Mall","state":"NY"},"type":"Feature","geometry":{"type":"Point","coordinates":[-73.614928,40.743067]}},{"properties":{"city":"ROUND ROCK","lon":-97.693243,"zip":78664,"phone":"512-869-3076","id":"a62m1s3g5mzz","storetype":"Factory/Outlet","address":"4104 N IH 35","lat":30.560025,"location":"Round Rock P/O","state":"TX"},"type":"Feature","geometry":{"type":"Point","coordinates":[-97.693243,30.560025]}},{"properties":{"city":"SACRAMENTO","lon":-121.586711,"zip":95837,"phone":"916-925-0935","id":"a62m1rxf1lh4","storetype":"Airport","address":"6850 AIRPORT BLVD","lat":38.690814,"location":"Sacramento International Airport","state":"CA"},"type":"Feature","geometry":{"type":"Point","coordinates":[-121.586711,38.690814]}},{"properties":{"city":"SAN JOSE","lon":-121.948026,"zip":95128,"phone":"408-244-1815","id":"a62m1rzgtsn9","storetype":"Retail","address":"333 SANTANA ROW","lat":37.321794,"location":"Santana Row","state":"CA"},"type":"Feature","geometry":{"type":"Point","coordinates":[-121.948026,37.321794]}},{"properties":{"city":"SUNRISE","lon":-80.323904,"zip":33323,"phone":"954-845-0404","id":"a62m1rqkfy6h","storetype":"Factory/Outlet","address":"12801 WEST SUNRISE BLVD","lat":26.144997,"location":"Sawgrass Mills","state":"FL"},"type":"Feature","geometry":{"type":"Point","coordinates":[-80.323904,26.144997]}},{"properties":{"city":"SCOTTSDALE","lon":-111.928906,"zip":85251,"phone":"480-425-1115","id":"a62m1rvm0ahe","storetype":"Retail","address":"7014-1288 E CAMELBACK RD","lat":33.502354,"location":"Scottsdale Fashion Square","state":"AZ"},"type":"Feature","geometry":{"type":"Point","coordinates":[-111.928906,33.502354]}},{"properties":{"city":"TULALIP","lon":-122.185862,"zip":98271,"phone":"360-651-0446","id":"a62m1rwz87s0","storetype":"Factory/Outlet","address":"10600 QUIL CEDA BOULEVARD","lat":48.091989,"location":"Seattle Premium Outlets","state":"WA"},"type":"Feature","geometry":{"type":"Point","coordinates":[-122.185862,48.091989]}},{"properties":{"city":"N.CONWAY","lon":-71.109528,"zip":3860,"phone":"603-356-4418","id":"a62m1rvdh7sz","storetype":"Factory/Outlet","address":"2 COMMON COURT","lat":44.024124,"location":"Settlers Green Outlet Village","state":"NH"},"type":"Feature","geometry":{"type":"Point","coordinates":[-71.109528,44.024124]}},{"properties":{"city":"MAPLE GROVE","lon":-93.436464,"zip":55369,"phone":"763-425-0830","id":"a62m1ry6md7p","storetype":"Retail","address":"12285 ELM CREEK BLVD","lat":45.093883,"location":"Shoppes At Arbor Lakes","state":"MN"},"type":"Feature","geometry":{"type":"Point","coordinates":[-93.436464,45.093883]}},{"properties":{"city":"NEW ORLEANS","lon":-90.064932,"zip":70130,"phone":"504-522-4200","id":"a62m1s0xf8dl","storetype":"Retail","address":"333 CANAL STREET","lat":29.950658,"location":"Shops At Canal Place","state":"LA"},"type":"Feature","geometry":{"type":"Point","coordinates":[-90.064932,29.950658]}},{"properties":{"city":"GREENSBORO","lon":-79.836441,"zip":27408,"phone":"336-294-0256","id":"a62m1rsoz5e8","storetype":"Retail","address":"3334 W FRIENDLY AVENUE","lat":36.085141,"location":"Shops At Friendly Center","state":"NC"},"type":"Feature","geometry":{"type":"Point","coordinates":[-79.836441,36.085141]}},{"properties":{"city":"SAN ANTONIO","lon":-98.61947,"zip":78256,"phone":"210-877-9275","id":"a62m1rqus05u","storetype":"Retail","address":"15900 LACANTERA PARKWAY","lat":29.589525,"location":"Shops At Lacantera","state":"TX"},"type":"Feature","geometry":{"type":"Point","coordinates":[-98.61947,29.589525]}},{"properties":{"city":"Hackensack","lon":0,"zip":7601,"phone":"201-343-4318","id":"a62m1ruvjb8n","storetype":"Retail","address":"113 RIVERSIDE SQUARE","lat":0,"location":"Shops At Riverside","state":"NJ"},"type":"Feature","geometry":{"type":"Point","coordinates":[0.0,0.0]}},{"properties":{"city":"HACKENSACK","lon":0,"zip":7601,"phone":"201-343-1521","id":"a62m1s253d3f","storetype":"Retail - Women's Only","address":"150 RIVERSIDE SQUARE","lat":0,"location":"Shops At Riverside - WOMEN'S ONLY","state":"NJ"},"type":"Feature","geometry":{"type":"Point","coordinates":[0.0,0.0]}},{"properties":{"city":"PLANO","lon":-96.832899,"zip":75093,"phone":"972-202-4616","id":"a62m1rva0xqj","storetype":"Retail","address":"6121 WEST PARK BOULEVARD","lat":33.02784,"location":"Shops At Willow Bend","state":"TX"},"type":"Feature","geometry":{"type":"Point","coordinates":[-96.832899,33.02784]}},{"properties":{"city":"DESTIN","lon":-86.350641,"zip":32550,"phone":"850-654-4780","id":"a62m1s3ufwpy","storetype":"Factory/Outlet","address":"10562 EMERALD COAST PKWY WEST","lat":30.377872,"location":"Silver Sands Factory Stores","state":"FL"},"type":"Feature","geometry":{"type":"Point","coordinates":[-86.350641,30.377872]}},{"properties":{"city":"SEATTLE","lon":-122.333873,"zip":98101,"phone":"206-624-4400","id":"a62m1rsr7l0m","storetype":"Retail","address":"1330 FIFTH AVENUE","lat":47.609022,"location":"Skinner Building","state":"WA"},"type":"Feature","geometry":{"type":"Point","coordinates":[-122.333873,47.609022]}},{"properties":{"city":"PITTSBURGH","lon":-79.997547,"zip":15222,"phone":"412-471-2300","id":"a62m1s12bhkd","storetype":"Retail","address":"600 SMITHFIELD STREET","lat":40.441476,"location":"Smithfield Street","state":"PA"},"type":"Feature","geometry":{"type":"Point","coordinates":[-79.997547,40.441476]}},{"properties":{"city":"TROY","lon":-83.185356,"zip":48084,"phone":"248-643-6888","id":"a62m1rv256g7","storetype":"Retail","address":"2801 W BIG BEAVER ROAD","lat":42.56106,"location":"Somerset Collection","state":"MI"},"type":"Feature","geometry":{"type":"Point","coordinates":[-83.185356,42.56106]}},{"properties":{"city":"COSTA MESA","lon":-117.885765,"zip":92626,"phone":"714-436-1961","id":"a62m1rz500qq","storetype":"Retail","address":"3333 BRISTOL STREET","lat":33.690364,"location":"South Coast Plaza","state":"CA"},"type":"Feature","geometry":{"type":"Point","coordinates":[-117.885765,33.690364]}},{"properties":{"city":"CHARLOTTE","lon":-80.828827,"zip":28211,"phone":"704-367-1900","id":"a62m1rqcbl61","storetype":"Retail","address":"4400 SHARON ROAD","lat":35.151246,"location":"Southpark Mall","state":"NC"},"type":"Feature","geometry":{"type":"Point","coordinates":[-80.828827,35.151246]}},{"properties":{"city":"JACKSONVILLE","lon":-81.52546,"zip":32246,"phone":"904-642-8193","id":"a62m1rrcd6oq","storetype":"Retail","address":"4812 RIVER CITY DRIVE","lat":30.255047,"location":"St. John's Town Center","state":"FL"},"type":"Feature","geometry":{"type":"Point","coordinates":[-81.52546,30.255047]}},{"properties":{"city":"MARYLAND HEIGHTS","lon":-90.434243,"zip":63146,"phone":"314-423-2088","id":"a62m1rpxjyqe","storetype":"Airport","address":"2302 CENTERLINE INDUSTRIAL DRIVE","lat":38.703388,"location":"St. Louis Airport","state":"MO"},"type":"Feature","geometry":{"type":"Point","coordinates":[-90.434243,38.703388]}},{"properties":{"city":"ST.AUGUSTINE","lon":-81.417954,"zip":32092,"phone":"904-829-2147","id":"a62m1rzla2fl","storetype":"Factory/Outlet","address":"2700 STATE ROAD 16","lat":29.922909,"location":"St.Augustine Premium Outlets","state":"FL"},"type":"Feature","geometry":{"type":"Point","coordinates":[-81.417954,29.922909]}},{"properties":{"city":"ST. HELENA","lon":-122.49968,"zip":94574,"phone":"707-963-9296","id":"a62m1s154khj","storetype":"Factory/Outlet","address":"3111 NORTH ST HELENA HWY","lat":38.527536,"location":"St.Helena Marketplace","state":"CA"},"type":"Feature","geometry":{"type":"Point","coordinates":[-122.49968,38.527536]}},{"properties":{"city":"ST. LOUIS","lon":-90.347328,"zip":63117,"phone":"314-726-6600","id":"a62m1rsjlnk2","storetype":"Retail","address":"1155 ST LOUIS GALLERIA","lat":38.636191,"location":"St.Louis Galleria","state":"MO"},"type":"Feature","geometry":{"type":"Point","coordinates":[-90.347328,38.636191]}},{"properties":{"city":"STAMFORD","lon":-73.536255,"zip":6901,"phone":"203-359-2300","id":"a62m1s24f6iw","storetype":"Retail","address":"100 GREYROCK PLACE","lat":41.05352,"location":"Stamford Town Center","state":"CT"},"type":"Feature","geometry":{"type":"Point","coordinates":[-73.536255,41.05352]}},{"properties":{"city":"PALO ALTO","lon":-122.173085,"zip":94304,"phone":"650-462-0936","id":"a62m1s3v75e5","storetype":"Retail","address":"383 STANFORD SHOPPING CENTER","lat":37.441853,"location":"Stanford Shopping Center","state":"CA"},"type":"Feature","geometry":{"type":"Point","coordinates":[-122.173085,37.441853]}},{"properties":{"city":"BOSTON","lon":-71.055809,"zip":2109,"phone":"617-261-9990","id":"a62m1rvqcj1k","storetype":"Retail","address":"75 STATE STREET","lat":42.358849,"location":"State Street","state":"MA"},"type":"Feature","geometry":{"type":"Point","coordinates":[-71.055809,42.358849]}},{"properties":{"city":"RIVERHEAD","lon":-72.715769,"zip":11901,"phone":"631-369-2874","id":"a62m1s2knptd","storetype":"Factory/Outlet","address":"805 TANGER MALL DRIVE","lat":40.918832,"location":"Tanger Ii O/C Riverhead","state":"NY"},"type":"Feature","geometry":{"type":"Point","coordinates":[-72.715769,40.918832]}},{"properties":{"city":"RIVERHEAD","lon":-72.715769,"zip":11901,"phone":"631-369-4160","id":"a62m1rwv098m","storetype":"Factory/Outlet - Women's Only","address":"815 TANGER MALL DRIVE","lat":40.918832,"location":"Tanger Ii Outlet Center Riverhead -- WOMEN'S ONLY","state":"NY"},"type":"Feature","geometry":{"type":"Point","coordinates":[-72.715769,40.918832]}},{"properties":{"city":"MYRTLE BEACH","lon":-78.770488,"zip":29572,"phone":"843-449-1825","id":"a62m1rs3w4af","storetype":"Factory/Outlet","address":"10831 KINGS ROAD","lat":33.784609,"location":"Tanger O/C 17 Myrtle Beach","state":"SC"},"type":"Feature","geometry":{"type":"Point","coordinates":[-78.770488,33.784609]}},{"properties":{"city":"N. CHARLESTON","lon":-80.016311,"zip":29418,"phone":"843-744-9069","id":"a62m1rvvjtp3","storetype":"Factory/Outlet","address":"4840 TANGER OUTLET BLVD","lat":32.874096,"location":"Tanger O/C Charleston","state":"SC"},"type":"Feature","geometry":{"type":"Point","coordinates":[-80.016311,32.874096]}},{"properties":{"city":"COMMERCE","lon":-83.465883,"zip":30529,"phone":"706-336-6947","id":"a62m1rxs21hr","storetype":"Factory/Outlet","address":"800 STEVEN B TANGER BLVD","lat":34.25749,"location":"Tanger O/C Commerce","state":"GA"},"type":"Feature","geometry":{"type":"Point","coordinates":[-83.465883,34.25749]}},{"properties":{"city":"FOLEY","lon":-87.682984,"zip":36535,"phone":"251-943-2829","id":"a62m1rpq3rgi","storetype":"Factory/Outlet","address":"2601 S MCKENZIE ST","lat":30.377682,"location":"Tanger O/C Foley","state":"AL"},"type":"Feature","geometry":{"type":"Point","coordinates":[-87.682984,30.377682]}},{"properties":{"city":"BLUFFTON","lon":-80.831307,"zip":29910,"phone":"843-837-3400","id":"a62m1rqmbucm","storetype":"Factory/Outlet","address":"1270 FORDING ISLAND ROAD","lat":32.246887,"location":"Tanger O/C Hilton Head","state":"SC"},"type":"Feature","geometry":{"type":"Point","coordinates":[-80.831307,32.246887]}},{"properties":{"city":"KITTERY","lon":-70.727348,"zip":3904,"phone":"207-439-5533","id":"a62m1s15f6ic","storetype":"Factory/Outlet","address":"360 US ROUTE 1","lat":43.116428,"location":"Tanger O/C Kittery","state":"ME"},"type":"Feature","geometry":{"type":"Point","coordinates":[-70.727348,43.116428]}},{"properties":{"city":"MYRTLE BEACH","lon":-78.960305,"zip":29579,"phone":"843-236-8934","id":"a62m1rxdaadj","storetype":"Factory/Outlet","address":"4638 FACTORY STORES","lat":33.751843,"location":"Tanger O/C Myrtle Beach","state":"SC"},"type":"Feature","geometry":{"type":"Point","coordinates":[-78.960305,33.751843]}},{"properties":{"city":"Washington","lon":-80.253181,"zip":15301,"phone":"724-225-0239","id":"a62m1rty8a9g","storetype":"Factory/Outlet","address":"2200 TANGER BOULEVARD","lat":40.171136,"location":"Tanger O/C Pittsburgh","state":"PA"},"type":"Feature","geometry":{"type":"Point","coordinates":[-80.253181,40.171136]}},{"properties":{"city":"REHOBOTH BEACH","lon":-75.11292,"zip":19971,"phone":"302-226-8426","id":"a62m1rohtq1j","storetype":"Factory/Outlet","address":"36508 SEASIDE OUTLET DRIVE","lat":38.718399,"location":"Tanger O/C Rehoboth","state":"DE"},"type":"Feature","geometry":{"type":"Point","coordinates":[-75.11292,38.718399]}},{"properties":{"city":"Sevierville","lon":-83.572657,"zip":37862,"phone":"865-428-1938","id":"a62m1rz716d9","storetype":"Factory/Outlet","address":"1645 PARKWAY","lat":35.833059,"location":"Tanger O/C Sevierville","state":"TN"},"type":"Feature","geometry":{"type":"Point","coordinates":[-83.572657,35.833059]}},{"properties":{"city":"TILTON","lon":-71.484947,"zip":3276,"phone":"603-286-9466","id":"a62m1rwqs4ue","storetype":"Factory/Outlet","address":"120 LACONIA ROAD","lat":43.56361,"location":"Tanger O/C Tilton","state":"NH"},"type":"Feature","geometry":{"type":"Point","coordinates":[-71.484947,43.56361]}},{"properties":{"city":"WILLIAMSBURG","lon":-92.046346,"zip":52361,"phone":"319-668-2356","id":"a62m1rs4383i","storetype":"Factory/Outlet","address":"501 TANGER DRIVE","lat":41.626849,"location":"Tanger O/C Williamsburg","state":"IA"},"type":"Feature","geometry":{"type":"Point","coordinates":[-92.046346,41.626849]}},{"properties":{"city":"LANCASTER","lon":-76.221601,"zip":17602,"phone":"717-390-1830","id":"a62m1rzz08fl","storetype":"Factory/Outlet","address":"108 STANLEY K TANGER BLVD","lat":40.02684,"location":"Tanger Outlet Center Millstream","state":"PA"},"type":"Feature","geometry":{"type":"Point","coordinates":[-76.221601,40.02684]}},{"properties":{"city":"Tannersville","lon":-75.311133,"zip":18372,"phone":"570-619-4219","id":"a62m1rqu6cuv","storetype":"Factory/Outlet - Women's Only","address":"1000 ROUTE 611","lat":41.048167,"location":"The Crossing Premium Outlets - WOMEN'S ONLY","state":"PA"},"type":"Feature","geometry":{"type":"Point","coordinates":[-75.311133,41.048167]}},{"properties":{"city":"PORTLAND","lon":-122.681318,"zip":97205,"phone":"503-223-4039","id":"a62m1rp9u97c","storetype":"Retail","address":"921 SW MORRISON STREET","lat":45.519938,"location":"The Galleria","state":"OR"},"type":"Feature","geometry":{"type":"Point","coordinates":[-122.681318,45.519938]}},{"properties":{"city":"ATLANTIC CITY","lon":-74.444786,"zip":8401,"phone":"609-340-0092","id":"a62m1rxecaw1","storetype":"Airport","address":"2801 PACIFIC AVENUE","lat":39.353527,"location":"The Quarter At The Tropicana Casino &amp; Resort","state":"NJ"},"type":"Feature","geometry":{"type":"Point","coordinates":[-74.444786,39.353527]}},{"properties":{"city":"BRIDGEWATER","lon":-74.613983,"zip":8807,"phone":"908-231-0666","id":"a62m1rrdrhn8","storetype":"Retail","address":"620 COMMONS WAY","lat":40.583904,"location":"The Village At Bridgewater Commons","state":"NJ"},"type":"Feature","geometry":{"type":"Point","coordinates":[-74.613983,40.583904]}},{"properties":{"city":"ATLANTIC CITY","lon":-74.435776,"zip":8401,"phone":"609-348-3110","id":"a62m1rw563jt","storetype":"Factory/Outlet","address":"35 NORTH MICHIGAN AVE","lat":39.359711,"location":"The Walk","state":"NJ"},"type":"Feature","geometry":{"type":"Point","coordinates":[-74.435776,39.359711]}},{"properties":{"city":"WICHITA","lon":-97.220658,"zip":67208,"phone":"316-634-6482","id":"a62m1rzj91hh","storetype":"Retail","address":"10096 E 13TH","lat":37.708571,"location":"The Waterfront","state":"KS"},"type":"Feature","geometry":{"type":"Point","coordinates":[-97.220658,37.708571]}},{"properties":{"city":"CLEVELAND","lon":-81.693816,"zip":44113,"phone":"216-781-9800","id":"a62m1rplsxc2","storetype":"Retail","address":"230 HURON ROAD","lat":41.496876,"location":"Tower City Center","state":"OH"},"type":"Feature","geometry":{"type":"Point","coordinates":[-81.693816,41.496876]}},{"properties":{"city":"Virginia Beach","lon":-76.135453,"zip":23462,"phone":"757-497-4769","id":"a62m1ryeu5d0","storetype":"Retail","address":"4554 BANK STREET","lat":36.842898,"location":"Town Center of Virginia Beach","state":"VA"},"type":"Feature","geometry":{"type":"Point","coordinates":[-76.135453,36.842898]}},{"properties":{"city":"MCLEAN","lon":-77.22017,"zip":22102,"phone":"703-556-6566","id":"a62m1rs1val8","storetype":"Retail","address":"8009-U TYSONS CORNER CENTER","lat":38.919288,"location":"Tysons Corner Center","state":"VA"},"type":"Feature","geometry":{"type":"Point","coordinates":[-77.22017,38.919288]}},{"properties":{"city":"SCARSDALE","lon":-73.807059,"zip":10583,"phone":"914-723-3000","id":"a62m1rr5zmo9","storetype":"Retail","address":"696 WHITE PLAINS ROAD","lat":40.96982,"location":"Vernon Hills Shopping Cnter","state":"NY"},"type":"Feature","geometry":{"type":"Point","coordinates":[-73.807059,40.96982]}},{"properties":{"city":"CHARLESTON","lon":-79.933277,"zip":29401,"phone":"843-723-9405","id":"a62m1rvifip5","storetype":"Retail","address":"205 KING STREET","lat":32.780045,"location":"Victoria Center","state":"SC"},"type":"Feature","geometry":{"type":"Point","coordinates":[-79.933277,32.780045]}},{"properties":{"city":"WAIPAHU","lon":-158.00795,"zip":96797,"phone":"808-678-0035","id":"a62m1rto3mah","storetype":"Factory/Outlet","address":"94-790 LUMIAINA STREET","lat":21.400802,"location":"Waikele Premium Outlets","state":"HI"},"type":"Feature","geometry":{"type":"Point","coordinates":[-158.00795,21.400802]}},{"properties":{"city":"La Jolla","lon":-117.273772,"zip":92037,"phone":"858-456-2104","id":"a62m1rsdkjyx","storetype":"Retail","address":"1055 WALL STREET","lat":32.846667,"location":"Wall Street","state":"CA"},"type":"Feature","geometry":{"type":"Point","coordinates":[-117.273772,32.846667]}},{"properties":{"city":"PHILADELPHIA","lon":-75.166515,"zip":19102,"phone":"215-564-4100","id":"a62m1rqh1wd1","storetype":"Retail","address":"1513 WALNUT STREET","lat":39.949762,"location":"Walnut Street","state":"PA"},"type":"Feature","geometry":{"type":"Point","coordinates":[-75.166515,39.949762]}},{"properties":{"city":"HUNTINGTON STATION","lon":-73.412179,"zip":11746,"phone":"631-549-7089","id":"a62m1rsq5c5e","storetype":"Retail","address":"160 WALT WHITMAN ROAD","lat":40.822305,"location":"Walt Whitman Mall","state":"NY"},"type":"Feature","geometry":{"type":"Point","coordinates":[-73.412179,40.822305]}},{"properties":{"city":"WATERLOO","lon":-76.921651,"zip":13165,"phone":"315-539-4279","id":"a62m1s1udkrm","storetype":"Factory/Outlet","address":"655 ROUTE 318","lat":42.954342,"location":"Waterloo Premium Outlets","state":"NY"},"type":"Feature","geometry":{"type":"Point","coordinates":[-76.921651,42.954342]}},{"properties":{"city":"NAPLES","lon":-81.800736,"zip":34108,"phone":"239-254-7921","id":"a62m1s4nsq4q","storetype":"Retail","address":"5485 TAMIAMI TRAIL NORTH","lat":26.214087,"location":"Waterside Shops At Pelican Bay","state":"FL"},"type":"Feature","geometry":{"type":"Point","coordinates":[-81.800736,26.214087]}},{"properties":{"city":"DES PERES","lon":-90.448117,"zip":63131,"phone":"314-965-1113","id":"a62m1rsdyo6i","storetype":"Retail","address":"35 WEST COUNTY CENTER","lat":38.60275,"location":"West County Center","state":"MO"},"type":"Feature","geometry":{"type":"Point","coordinates":[-90.448117,38.60275]}},{"properties":{"city":"LOS ANGELES","lon":-118.258589,"zip":90017,"phone":"213-629-4200","id":"a62m1s4fvfpb","storetype":"Retail","address":"604 S FIGUEROA STREET","lat":34.050541,"location":"West Sixth Street Building","state":"CA"},"type":"Feature","geometry":{"type":"Point","coordinates":[-118.258589,34.050541]}},{"properties":{"city":"KNOXVILLE","lon":-84.037537,"zip":37919,"phone":"865-531-9996","id":"a62m1ruz2at8","storetype":"Retail","address":"7600 KINGSTON PKE","lat":35.928009,"location":"West Town Mall","state":"TN"},"type":"Feature","geometry":{"type":"Point","coordinates":[-84.037537,35.928009]}},{"properties":{"city":"DALLAS","lon":-96.797246,"zip":75204,"phone":"214-520-8854","id":"a62m1s01846a","storetype":"Retail","address":"3636 MCKINNEY AVENUE","lat":32.807305,"location":"West Village","state":"TX"},"type":"Feature","geometry":{"type":"Point","coordinates":[-96.797246,32.807305]}},{"properties":{"city":"WHITE PLAINS","lon":-73.758221,"zip":10601,"phone":"914-644-8616","id":"a62m1rssde0g","storetype":"Retail","address":"125 WESTCHESTER AVENUE","lat":41.032528,"location":"Westchester,The","state":"NY"},"type":"Feature","geometry":{"type":"Point","coordinates":[-73.758221,41.032528]}},{"properties":{"city":"FARMINGTON","lon":-72.867683,"zip":6032,"phone":"860-521-6624","id":"a62m1rrvpepq","storetype":"Retail","address":"445 WESTFARMS MALL","lat":41.748878,"location":"Westfarms","state":"CT"},"type":"Feature","geometry":{"type":"Point","coordinates":[-72.867683,41.748878]}},{"properties":{"city":"LOS ANGELES","lon":-118.419764,"zip":90067,"phone":"310-553-3335","id":"a62m1rws2jou","storetype":"Retail","address":"10250 SANTA MONICA BLVD","lat":34.059995,"location":"Westfield Century City","state":"CA"},"type":"Feature","geometry":{"type":"Point","coordinates":[-118.419764,34.059995]}},{"properties":{"city":"TOLEDO","lon":-83.642206,"zip":43623,"phone":"419-473-3309","id":"a62m1ry70rhl","storetype":"Retail - 346","address":"5001 MONROE STREET","lat":41.698081,"location":"Westfield Franklin Park - \"346\" BROOKS BROTHERS","state":"OH"},"type":"Feature","geometry":{"type":"Point","coordinates":[-83.642206,41.698081]}},{"properties":{"city":"PARAMUS","lon":0,"zip":7652,"phone":"201-845-6700","id":"a62m1s4rsjcv","storetype":"Retail","address":"GARDEN STATE PLAZA","lat":0,"location":"Westfield Garden State Plaza","state":"NJ"},"type":"Feature","geometry":{"type":"Point","coordinates":[0.0,0.0]}},{"properties":{"city":"SKOKIE","lon":-87.74912,"zip":60077,"phone":"847-679-9090","id":"a62m1s06s53t","storetype":"Retail","address":"153 OLD ORCHARD CENTER","lat":42.055984,"location":"Westfield Old Orchard","state":"IL"},"type":"Feature","geometry":{"type":"Point","coordinates":[-87.74912,42.055984]}},{"properties":{"city":"CHEVY CHASE","lon":-77.087516,"zip":20815,"phone":"301-654-8202","id":"a62m1s2a7in4","storetype":"Retail","address":"5504 WISCONSIN AVENUE","lat":38.963931,"location":"Wisconsin Avenue","state":"MD"},"type":"Feature","geometry":{"type":"Point","coordinates":[-77.087516,38.963931]}},{"properties":{"city":"MEMPHIS","lon":-89.802134,"zip":38133,"phone":"901-372-5534","id":"a62m1rpkim8b","storetype":"Retail","address":"2760 NGERMANTOWN PARKWAY","lat":35.208529,"location":"Wolfchase Galleria","state":"TN"},"type":"Feature","geometry":{"type":"Point","coordinates":[-89.802134,35.208529]}},{"properties":{"city":"WOODBURN","lon":-122.878009,"zip":97071,"phone":"503-981-6140","id":"a62m1s13jt91","storetype":"Factory/Outlet","address":"1001 ARNEY ROAD","lat":45.154707,"location":"Woodburn Company Stores","state":"OR"},"type":"Feature","geometry":{"type":"Point","coordinates":[-122.878009,45.154707]}},{"properties":{"city":"CENTRAL VALLEY","lon":-74.126941,"zip":10917,"phone":"845-928-2664","id":"a62m1rub91a7","storetype":"Factory/Outlet","address":"243 RED APPLE COURT","lat":41.314683,"location":"Woodbury Common P/O","state":"NY"},"type":"Feature","geometry":{"type":"Point","coordinates":[-74.126941,41.314683]}},{"properties":{"city":"SCHAUMBURG","lon":-88.040294,"zip":60173,"phone":"847-619-8346","id":"a62m1rtb861l","storetype":"Retail - 346","address":"313 WOODFIELD MALL","lat":42.04933,"location":"Woodfield Mall - \"346\" BROOKS BROTHERS","state":"IL"},"type":"Feature","geometry":{"type":"Point","coordinates":[-88.040294,42.04933]}},{"properties":{"city":"PALM BEACH","lon":-80.037207,"zip":33480,"phone":"561-659-6464","id":"a62m1s34wl9y","storetype":"Retail","address":"225-C WORTH AVENUE","lat":26.700948,"location":"Worth Avenue","state":"FL"},"type":"Feature","geometry":{"type":"Point","coordinates":[-80.037207,26.700948]}},{"properties":{"city":"WRENTHAM","lon":-71.347191,"zip":2093,"phone":"508-384-3589","id":"a62m1s0vv47c","storetype":"Factory/Outlet - Women's Only","address":"1 PREMIUM OUTLET BLVD","lat":42.036125,"location":"Wrentham Village Premium Outlet - WOMEN'S ONLY","state":"MA"},"type":"Feature","geometry":{"type":"Point","coordinates":[-71.347191,42.036125]}},{"properties":{"city":"WRENTHAM","lon":-71.347191,"zip":2093,"phone":"508-384-9864","id":"a62m1s0stzq0","storetype":"Factory/Outlet","address":"1 PREMIUM OUTLET BLVD","lat":42.036125,"location":"Wrentham Village Premium Outlt","state":"MA"},"type":"Feature","geometry":{"type":"Point","coordinates":[-71.347191,42.036125]}}],"is_temporal":false,"author":{"url":"http://www.brooksbrothers.com/storelocator/landing_stores.tem","metadata":"","contact_name":"","contact_address":"","source":"Brooks Brothers","contact_phone":""},"source":"http://www.brooksbrothers.com/storelocator/landing_stores.tem","pagination":{"sort":null,"start":0,"total":224,"limit":1000000},"state":"complete","tags":"business,clothing,retail","published":"2008-12-17T12:00:00Z","id":8323}