{"type":"FeatureCollection","data_type":"Dataset","url_type":null,"permissions":[{"permissions":{"download":true,"view":true},"group_id":"everyone"}],"classification":null,"title":"Postcode test","count":318,"stream_id":83883,"contributor":{"url":"http://geocommons.com/users/20538","name":"mfacer"},"data_attributes":null,"calculation_params":null,"icon_link":null,"link":"http://geocommons.com/overlays/83883.json","extent":[-7.33098,50.1942,1.33828,56.419],"geometry_types":["point"],"unique_name":null,"name":"Postcode test","feature_count":318,"description":"","next_feature":null,"is_raster":false,"short_classification":"Y","stats":{"lat":{"max":56.418968,"mean":52.4600108333333,"variance":1.62049090300454,"stdev":1.27298503644173,"min":50.194186,"median":52.305374},"long":{"max":1.338277,"mean":-1.45460318553459,"variance":1.91737380221268,"stdev":1.38469267428288,"min":-7.330976,"median":-1.498704}},"features":[{"properties":{"column_4":"Mansfield","column_5":"Nottinghamshire","postcode":"NG208RY","id":"a6algtltilmg","lat":53.197922,"long":-1.203875},"type":"Feature","geometry":{"type":"Point","coordinates":[-1.203875,53.197922]}},{"properties":{"column_4":"Mansfield","column_5":"Nottinghamshire","postcode":"NG208RY","id":"a6algtx1qnlb","lat":53.197922,"long":-1.203875},"type":"Feature","geometry":{"type":"Point","coordinates":[-1.203875,53.197922]}},{"properties":{"column_4":"Mansfield","column_5":"Nottinghamshire","postcode":"NG208RY","id":"a6algtl7nc66","lat":53.197922,"long":-1.203875},"type":"Feature","geometry":{"type":"Point","coordinates":[-1.203875,53.197922]}},{"properties":{"column_4":null,"column_5":null,"postcode":"CM72RF","id":"a6algtxq02sl","lat":51.886405,"long":0.536792},"type":"Feature","geometry":{"type":"Point","coordinates":[0.536792,51.886405]}},{"properties":{"column_4":null,"column_5":null,"postcode":"CM72RF","id":"a6algtp5xn43","lat":51.886405,"long":0.536792},"type":"Feature","geometry":{"type":"Point","coordinates":[0.536792,51.886405]}},{"properties":{"column_4":null,"column_5":null,"postcode":"CM72RF","id":"a6algto1sx28","lat":51.886405,"long":0.536792},"type":"Feature","geometry":{"type":"Point","coordinates":[0.536792,51.886405]}},{"properties":{"column_4":null,"column_5":null,"postcode":"CM73RG","id":"a6algtwbpwv4","lat":51.875404,"long":0.568021},"type":"Feature","geometry":{"type":"Point","coordinates":[0.568021,51.875404]}},{"properties":{"column_4":null,"column_5":null,"postcode":"CR04BD","id":"a6algtrxi4hj","lat":51.360065,"long":-0.118987},"type":"Feature","geometry":{"type":"Point","coordinates":[-0.118987,51.360065]}},{"properties":{"column_4":"Bromsgrove","column_5":"Worcestershire","postcode":"B603DJ","id":"a6algtr24ux6","lat":52.315767,"long":-2.066203},"type":"Feature","geometry":{"type":"Point","coordinates":[-2.066203,52.315767]}},{"properties":{"column_4":"Bromsgrove","column_5":"Worcestershire","postcode":"B603DJ","id":"a6algtyh7suq","lat":52.315767,"long":-2.066203},"type":"Feature","geometry":{"type":"Point","coordinates":[-2.066203,52.315767]}},{"properties":{"column_4":"Pontyclun","column_5":"Mid Glamorgan","postcode":"CF728YU","id":"a6algtrahrki","lat":51.551627,"long":-3.3911},"type":"Feature","geometry":{"type":"Point","coordinates":[-3.3911,51.551627]}},{"properties":{"column_4":"Pontyclun","column_5":"Mid Glamorgan","postcode":"CF728YU","id":"a6algtrm8t9t","lat":51.551627,"long":-3.3911},"type":"Feature","geometry":{"type":"Point","coordinates":[-3.3911,51.551627]}},{"properties":{"column_4":null,"column_5":null,"postcode":"NN106GL","id":"a6algtsj40sp","lat":52.294401,"long":-0.630638},"type":"Feature","geometry":{"type":"Point","coordinates":[-0.630638,52.294401]}},{"properties":{"column_4":null,"column_5":null,"postcode":"NN106GL","id":"a6algtjmheqy","lat":52.294401,"long":-0.630638},"type":"Feature","geometry":{"type":"Point","coordinates":[-0.630638,52.294401]}},{"properties":{"column_4":null,"column_5":null,"postcode":"NN106GL","id":"a6algtw0eagr","lat":52.294401,"long":-0.630638},"type":"Feature","geometry":{"type":"Point","coordinates":[-0.630638,52.294401]}},{"properties":{"column_4":null,"column_5":null,"postcode":"SN146NQ","id":"a6algtkcylnn","lat":51.479774,"long":-2.140902},"type":"Feature","geometry":{"type":"Point","coordinates":[-2.140902,51.479774]}},{"properties":{"column_4":null,"column_5":null,"postcode":"SN146LH","id":"a6algtjk6v0g","lat":51.463261,"long":-2.144376},"type":"Feature","geometry":{"type":"Point","coordinates":[-2.144376,51.463261]}},{"properties":{"column_4":null,"column_5":null,"postcode":"SN146QA","id":"a6algtrr3nwo","lat":51.464446,"long":-2.147557},"type":"Feature","geometry":{"type":"Point","coordinates":[-2.147557,51.464446]}},{"properties":{"column_4":null,"column_5":null,"postcode":"SN146NQ","id":"a6algtmfntq5","lat":51.479774,"long":-2.140902},"type":"Feature","geometry":{"type":"Point","coordinates":[-2.140902,51.479774]}},{"properties":{"column_4":null,"column_5":null,"postcode":"SN146QA","id":"a6algtrhklhb","lat":51.464446,"long":-2.147557},"type":"Feature","geometry":{"type":"Point","coordinates":[-2.147557,51.464446]}},{"properties":{"column_4":null,"column_5":null,"postcode":"BL47EP","id":"a6algtxhh3jk","lat":53.55242,"long":-2.404279},"type":"Feature","geometry":{"type":"Point","coordinates":[-2.404279,53.55242]}},{"properties":{"column_4":"Birmingham","column_5":"West Midlands","postcode":"B461DA","id":"a6algtjtggpf","lat":52.52326,"long":-1.708943},"type":"Feature","geometry":{"type":"Point","coordinates":[-1.708943,52.52326]}},{"properties":{"column_4":null,"column_5":null,"postcode":"EH549BL","id":"a6algtlnun7p","lat":55.866923,"long":-3.52908},"type":"Feature","geometry":{"type":"Point","coordinates":[-3.52908,55.866923]}},{"properties":{"column_4":null,"column_5":null,"postcode":"SN139RH","id":"a6algtu0dh5f","lat":51.424405,"long":-2.192445},"type":"Feature","geometry":{"type":"Point","coordinates":[-2.192445,51.424405]}},{"properties":{"column_4":null,"column_5":null,"postcode":"SN139RH","id":"a6algtpqa0fj","lat":51.424405,"long":-2.192445},"type":"Feature","geometry":{"type":"Point","coordinates":[-2.192445,51.424405]}},{"properties":{"column_4":null,"column_5":null,"postcode":"BL36BU","id":"a6algtn4w40k","lat":53.569824,"long":-2.426717},"type":"Feature","geometry":{"type":"Point","coordinates":[-2.426717,53.569824]}},{"properties":{"column_4":null,"column_5":null,"postcode":"SL62HR","id":"a6algtj028gu","lat":51.518554,"long":-0.714794},"type":"Feature","geometry":{"type":"Point","coordinates":[-0.714794,51.518554]}},{"properties":{"column_4":null,"column_5":null,"postcode":"LS252HR","id":"a6algtw90v9d","lat":53.798164,"long":-1.38174},"type":"Feature","geometry":{"type":"Point","coordinates":[-1.38174,53.798164]}},{"properties":{"column_4":null,"column_5":null,"postcode":"WF160NQ","id":"a6algtxn8r3u","lat":53.702637,"long":-1.673444},"type":"Feature","geometry":{"type":"Point","coordinates":[-1.673444,53.702637]}},{"properties":{"column_4":"Christchurch","column_5":"Dorset","postcode":"BH233TG","id":"a6algtoao692","lat":50.735867,"long":-1.74529},"type":"Feature","geometry":{"type":"Point","coordinates":[-1.74529,50.735867]}},{"properties":{"column_4":"Christchurch","column_5":"Dorset","postcode":"BH233TG","id":"a6algtp0n6nv","lat":50.735867,"long":-1.74529},"type":"Feature","geometry":{"type":"Point","coordinates":[-1.74529,50.735867]}},{"properties":{"column_4":"Newcastle Upon Tyne","column_5":"Tyne And Wear","postcode":"NE270QF","id":"a6algtihz01z","lat":55.020941,"long":-1.495957},"type":"Feature","geometry":{"type":"Point","coordinates":[-1.495957,55.020941]}},{"properties":{"column_4":null,"column_5":null,"postcode":"SN21EN","id":"a6algtisgeaz","lat":51.566664,"long":-1.793974},"type":"Feature","geometry":{"type":"Point","coordinates":[-1.793974,51.566664]}},{"properties":{"column_4":null,"column_5":null,"postcode":"SN21EN","id":"a6algtvcgj9r","lat":51.566664,"long":-1.793974},"type":"Feature","geometry":{"type":"Point","coordinates":[-1.793974,51.566664]}},{"properties":{"column_4":null,"column_5":null,"postcode":"SN21EN","id":"a6algtox6eof","lat":51.566664,"long":-1.793974},"type":"Feature","geometry":{"type":"Point","coordinates":[-1.793974,51.566664]}},{"properties":{"column_4":null,"column_5":null,"postcode":"SN21EL","id":"a6algtv75b5p","lat":51.565737,"long":-1.793618},"type":"Feature","geometry":{"type":"Point","coordinates":[-1.793618,51.565737]}},{"properties":{"column_4":null,"column_5":null,"postcode":"SN21EN","id":"a6algtu7bsbs","lat":51.566664,"long":-1.793974},"type":"Feature","geometry":{"type":"Point","coordinates":[-1.793974,51.566664]}},{"properties":{"column_4":"Cupar","column_5":"Fife","postcode":"KY154RB","id":"a6algtsf7inb","lat":56.323514,"long":-2.992564},"type":"Feature","geometry":{"type":"Point","coordinates":[-2.992564,56.323514]}},{"properties":{"column_4":"Milton Keynes","column_5":"Buckinghamshire","postcode":"MK80JA","id":"a6algtn5vvjo","lat":52.033257,"long":-0.806771},"type":"Feature","geometry":{"type":"Point","coordinates":[-0.806771,52.033257]}},{"properties":{"column_4":null,"column_5":null,"postcode":"LU79GT","id":"a6algtwduea9","lat":51.827821,"long":-0.648721},"type":"Feature","geometry":{"type":"Point","coordinates":[-0.648721,51.827821]}},{"properties":{"column_4":"Newry","column_5":"County Down","postcode":"BT342JP","id":"a6algtv1py7l","lat":54.157623,"long":-6.328883},"type":"Feature","geometry":{"type":"Point","coordinates":[-6.328883,54.157623]}},{"properties":{"column_4":"Norwich","column_5":"Norfolk","postcode":"NR79AG","id":"a6algttij005","lat":52.649527,"long":1.338277},"type":"Feature","geometry":{"type":"Point","coordinates":[1.338277,52.649527]}},{"properties":{"column_4":"Birmingham","column_5":"West Midlands","postcode":"B248TA","id":"a6algtwmgpri","lat":52.507504,"long":-1.845371},"type":"Feature","geometry":{"type":"Point","coordinates":[-1.845371,52.507504]}},{"properties":{"column_4":"Birmingham","column_5":"West Midlands","postcode":"B248TA","id":"a6algtt5x4lx","lat":52.507504,"long":-1.845371},"type":"Feature","geometry":{"type":"Point","coordinates":[-1.845371,52.507504]}},{"properties":{"column_4":"Nottingham","column_5":"Nottinghamshire","postcode":"NG24EL","id":"a6algtoijwxl","lat":52.946485,"long":-1.117655},"type":"Feature","geometry":{"type":"Point","coordinates":[-1.117655,52.946485]}},{"properties":{"column_4":null,"column_5":null,"postcode":"LS252HR","id":"a6algtirj2qc","lat":53.798164,"long":-1.38174},"type":"Feature","geometry":{"type":"Point","coordinates":[-1.38174,53.798164]}},{"properties":{"column_4":null,"column_5":null,"postcode":"M282WD","id":"a6algtxfo1sf","lat":53.512595,"long":-2.361375},"type":"Feature","geometry":{"type":"Point","coordinates":[-2.361375,53.512595]}},{"properties":{"column_4":"Wolverhampton","column_5":"West Midlands","postcode":"WV107EH","id":"a6algts41to9","lat":52.633125,"long":-2.127957},"type":"Feature","geometry":{"type":"Point","coordinates":[-2.127957,52.633125]}},{"properties":{"column_4":null,"column_5":null,"postcode":"WA14RQ","id":"a6algtvi2okp","lat":53.399666,"long":-2.518936},"type":"Feature","geometry":{"type":"Point","coordinates":[-2.518936,53.399666]}},{"properties":{"column_4":null,"column_5":null,"postcode":"WA14RQ","id":"a6algtptwrvy","lat":53.399666,"long":-2.518936},"type":"Feature","geometry":{"type":"Point","coordinates":[-2.518936,53.399666]}},{"properties":{"column_4":"Spennymoor","column_5":null,"postcode":"DL166YG","id":"a6algtjlj92j","lat":54.714221,"long":-1.597924},"type":"Feature","geometry":{"type":"Point","coordinates":[-1.597924,54.714221]}},{"properties":{"column_4":"Spennymoor","column_5":null,"postcode":"DL166YG","id":"a6algtub2pwl","lat":54.714221,"long":-1.597924},"type":"Feature","geometry":{"type":"Point","coordinates":[-1.597924,54.714221]}},{"properties":{"column_4":null,"column_5":null,"postcode":"ST44EY","id":"a6algtqlexl3","lat":52.989509,"long":-2.190235},"type":"Feature","geometry":{"type":"Point","coordinates":[-2.190235,52.989509]}},{"properties":{"column_4":null,"column_5":null,"postcode":"SN21EN","id":"a6algtv98yms","lat":51.566664,"long":-1.793974},"type":"Feature","geometry":{"type":"Point","coordinates":[-1.793974,51.566664]}},{"properties":{"column_4":null,"column_5":null,"postcode":"SN21EN","id":"a6algtyuwf16","lat":51.566664,"long":-1.793974},"type":"Feature","geometry":{"type":"Point","coordinates":[-1.793974,51.566664]}},{"properties":{"column_4":null,"column_5":null,"postcode":"SN21EN","id":"a6algtljhz7h","lat":51.566664,"long":-1.793974},"type":"Feature","geometry":{"type":"Point","coordinates":[-1.793974,51.566664]}},{"properties":{"column_4":null,"column_5":null,"postcode":"SN21EL","id":"a6algtp0ww2u","lat":51.565737,"long":-1.793618},"type":"Feature","geometry":{"type":"Point","coordinates":[-1.793618,51.565737]}},{"properties":{"column_4":null,"column_5":null,"postcode":"SN21EN","id":"a6algtp6olhp","lat":51.566664,"long":-1.793974},"type":"Feature","geometry":{"type":"Point","coordinates":[-1.793974,51.566664]}},{"properties":{"column_4":null,"column_5":null,"postcode":"EX27LF","id":"a6algtm5z8fy","lat":50.717012,"long":-3.468343},"type":"Feature","geometry":{"type":"Point","coordinates":[-3.468343,50.717012]}},{"properties":{"column_4":null,"column_5":null,"postcode":"LS124BD","id":"a6algtn2enp5","lat":53.7915,"long":-1.585366},"type":"Feature","geometry":{"type":"Point","coordinates":[-1.585366,53.7915]}},{"properties":{"column_4":null,"column_5":null,"postcode":"SN28ER","id":"a6algtw0le12","lat":51.574808,"long":-1.76414},"type":"Feature","geometry":{"type":"Point","coordinates":[-1.76414,51.574808]}},{"properties":{"column_4":null,"column_5":null,"postcode":"BD200DE","id":"a6algtsur9g7","lat":53.911977,"long":-1.942187},"type":"Feature","geometry":{"type":"Point","coordinates":[-1.942187,53.911977]}},{"properties":{"column_4":"Beverley","column_5":"North Humberside","postcode":"HU170TB","id":"a6algtxzwvdw","lat":53.830731,"long":-0.399967},"type":"Feature","geometry":{"type":"Point","coordinates":[-0.399967,53.830731]}},{"properties":{"column_4":"Newark-on-Trent","column_5":"Nottinghamshire","postcode":"NG242NH","id":"a6algtvm3g6l","lat":53.091125,"long":-0.780555},"type":"Feature","geometry":{"type":"Point","coordinates":[-0.780555,53.091125]}},{"properties":{"column_4":"Newark-on-Trent","column_5":"Nottinghamshire","postcode":"NG242NH","id":"a6algtvowmvc","lat":53.091125,"long":-0.780555},"type":"Feature","geometry":{"type":"Point","coordinates":[-0.780555,53.091125]}},{"properties":{"column_4":null,"column_5":null,"postcode":"RG142AH","id":"a6algtlxnrj4","lat":51.405966,"long":-1.316815},"type":"Feature","geometry":{"type":"Point","coordinates":[-1.316815,51.405966]}},{"properties":{"column_4":"Birmingham","column_5":"West Midlands","postcode":"B67JJ","id":"a6algtukxl84","lat":52.513102,"long":-1.872365},"type":"Feature","geometry":{"type":"Point","coordinates":[-1.872365,52.513102]}},{"properties":{"column_4":"Edinburgh","column_5":"Midlothian","postcode":"EH142QR","id":"a6algtqfyoen","lat":55.921073,"long":-3.270576},"type":"Feature","geometry":{"type":"Point","coordinates":[-3.270576,55.921073]}},{"properties":{"column_4":"London","column_5":"Greater London","postcode":"EC1A9DD","id":"a6algtqmfn6t","lat":51.517402,"long":-0.101673},"type":"Feature","geometry":{"type":"Point","coordinates":[-0.101673,51.517402]}},{"properties":{"column_4":null,"column_5":null,"postcode":"TQ124YQ","id":"a6algtjta8lj","lat":50.527522,"long":-3.597347},"type":"Feature","geometry":{"type":"Point","coordinates":[-3.597347,50.527522]}},{"properties":{"column_4":"Wimborne","column_5":"Dorset","postcode":"BH216QW","id":"a6algtjschzh","lat":50.84024,"long":-1.88477},"type":"Feature","geometry":{"type":"Point","coordinates":[-1.88477,50.84024]}},{"properties":{"column_4":null,"column_5":null,"postcode":"NN47JE","id":"a6algtq8ejkx","lat":52.223736,"long":-0.867756},"type":"Feature","geometry":{"type":"Point","coordinates":[-0.867756,52.223736]}},{"properties":{"column_4":"Aberystwyth","column_5":"Dyfed","postcode":"SY233AQ","id":"a6algtwv2vz2","lat":52.401741,"long":-4.041799},"type":"Feature","geometry":{"type":"Point","coordinates":[-4.041799,52.401741]}},{"properties":{"column_4":null,"column_5":null,"postcode":"SN55YU","id":"a6algtrpdzfc","lat":51.572136,"long":-1.831306},"type":"Feature","geometry":{"type":"Point","coordinates":[-1.831306,51.572136]}},{"properties":{"column_4":null,"column_5":null,"postcode":"RG306AZ","id":"a6algtiz7ww5","lat":51.465263,"long":-1.016388},"type":"Feature","geometry":{"type":"Point","coordinates":[-1.016388,51.465263]}},{"properties":{"column_4":null,"column_5":null,"postcode":"SK144QF","id":"a6algtwm4xm7","lat":53.463202,"long":-2.092909},"type":"Feature","geometry":{"type":"Point","coordinates":[-2.092909,53.463202]}},{"properties":{"column_4":"Sutton Coldfield","column_5":"West Midlands","postcode":"B757BU","id":"a6algtntp3yw","lat":52.561043,"long":-1.809769},"type":"Feature","geometry":{"type":"Point","coordinates":[-1.809769,52.561043]}},{"properties":{"column_4":null,"column_5":null,"postcode":"OX107QX","id":"a6algtwo0kjj","lat":51.659916,"long":-1.175546},"type":"Feature","geometry":{"type":"Point","coordinates":[-1.175546,51.659916]}},{"properties":{"column_4":"Birmingham","column_5":"West Midlands","postcode":"B67JJ","id":"a6algtmsomrb","lat":52.513102,"long":-1.872365},"type":"Feature","geometry":{"type":"Point","coordinates":[-1.872365,52.513102]}},{"properties":{"column_4":null,"column_5":null,"postcode":"BL36BU","id":"a6algtu2oalb","lat":53.569824,"long":-2.426717},"type":"Feature","geometry":{"type":"Point","coordinates":[-2.426717,53.569824]}},{"properties":{"column_4":"King's Lynn","column_5":"Norfolk","postcode":"PE302JE","id":"a6algtscijo7","lat":52.770295,"long":0.414366},"type":"Feature","geometry":{"type":"Point","coordinates":[0.414366,52.770295]}},{"properties":{"column_4":null,"column_5":null,"postcode":"PR58AR","id":"a6algtu4mjui","lat":53.720414,"long":-2.640534},"type":"Feature","geometry":{"type":"Point","coordinates":[-2.640534,53.720414]}},{"properties":{"column_4":null,"column_5":null,"postcode":"PR58AR","id":"a6algtpis69s","lat":53.720414,"long":-2.640534},"type":"Feature","geometry":{"type":"Point","coordinates":[-2.640534,53.720414]}},{"properties":{"column_4":"London","column_5":"Greater London","postcode":"W51UA","id":"a6algts95rt0","lat":51.531307,"long":-0.295732},"type":"Feature","geometry":{"type":"Point","coordinates":[-0.295732,51.531307]}},{"properties":{"column_4":null,"column_5":null,"postcode":"BL67JG","id":"a6algtuy0w22","lat":53.601359,"long":-2.553155},"type":"Feature","geometry":{"type":"Point","coordinates":[-2.553155,53.601359]}},{"properties":{"column_4":null,"column_5":null,"postcode":"BL67JG","id":"a6algtwr4swz","lat":53.601359,"long":-2.553155},"type":"Feature","geometry":{"type":"Point","coordinates":[-2.553155,53.601359]}},{"properties":{"column_4":"Milton Keynes","column_5":"Buckinghamshire","postcode":"MK11QU","id":"a6algtto5eoc","lat":52.004055,"long":-0.722191},"type":"Feature","geometry":{"type":"Point","coordinates":[-0.722191,52.004055]}},{"properties":{"column_4":null,"column_5":null,"postcode":"LS126NA","id":"a6algtuxm0gb","lat":53.770519,"long":-1.595161},"type":"Feature","geometry":{"type":"Point","coordinates":[-1.595161,53.770519]}},{"properties":{"column_4":null,"column_5":null,"postcode":"WS136RT","id":"a6algtnudjf9","lat":52.690088,"long":-1.807996},"type":"Feature","geometry":{"type":"Point","coordinates":[-1.807996,52.690088]}},{"properties":{"column_4":"Halesowen","column_5":"West Midlands","postcode":"B633XL","id":"a6algtw3a59c","lat":52.461376,"long":-2.055281},"type":"Feature","geometry":{"type":"Point","coordinates":[-2.055281,52.461376]}},{"properties":{"column_4":null,"column_5":null,"postcode":"CO28HH","id":"a6algtvh622m","lat":51.874352,"long":0.931899},"type":"Feature","geometry":{"type":"Point","coordinates":[0.931899,51.874352]}},{"properties":{"column_4":"North Shields","column_5":"Tyne And Wear","postcode":"NE297HA","id":"a6algtjwpoaq","lat":55.006775,"long":-1.480108},"type":"Feature","geometry":{"type":"Point","coordinates":[-1.480108,55.006775]}},{"properties":{"column_4":null,"column_5":null,"postcode":"GL154TA","id":"a6algtoknj51","lat":51.760573,"long":-2.528931},"type":"Feature","geometry":{"type":"Point","coordinates":[-2.528931,51.760573]}},{"properties":{"column_4":null,"column_5":null,"postcode":"GL43RT","id":"a6algtr2g1x5","lat":51.865358,"long":-2.200495},"type":"Feature","geometry":{"type":"Point","coordinates":[-2.200495,51.865358]}},{"properties":{"column_4":"Cambridge","column_5":"Cambridgeshire","postcode":"CB245QE","id":"a6algtlvh4vg","lat":52.305374,"long":0.020068},"type":"Feature","geometry":{"type":"Point","coordinates":[0.020068,52.305374]}},{"properties":{"column_4":null,"column_5":null,"postcode":"SS25QH","id":"a6algtr68jld","lat":51.559451,"long":0.707706},"type":"Feature","geometry":{"type":"Point","coordinates":[0.707706,51.559451]}},{"properties":{"column_4":null,"column_5":null,"postcode":"M88FT","id":"a6algtw5n5kd","lat":53.493503,"long":-2.248603},"type":"Feature","geometry":{"type":"Point","coordinates":[-2.248603,53.493503]}},{"properties":{"column_4":"London","column_5":"Greater London","postcode":"W1K2NJ","id":"a6algtitow1w","lat":51.51042,"long":-0.153296},"type":"Feature","geometry":{"type":"Point","coordinates":[-0.153296,51.51042]}},{"properties":{"column_4":null,"column_5":null,"postcode":"TQ124AD","id":"a6algtv59fcf","lat":50.532614,"long":-3.595967},"type":"Feature","geometry":{"type":"Point","coordinates":[-3.595967,50.532614]}},{"properties":{"column_4":null,"column_5":null,"postcode":"PL75ET","id":"a6algtn6ywmd","lat":50.386583,"long":-4.018343},"type":"Feature","geometry":{"type":"Point","coordinates":[-4.018343,50.386583]}},{"properties":{"column_4":"Borehamwood","column_5":"Hertfordshire","postcode":"WD61RU","id":"a6algtirp06i","lat":51.656392,"long":-0.252458},"type":"Feature","geometry":{"type":"Point","coordinates":[-0.252458,51.656392]}},{"properties":{"column_4":null,"column_5":null,"postcode":"OX42EX","id":"a6algtpe614i","lat":51.735184,"long":-1.212394},"type":"Feature","geometry":{"type":"Point","coordinates":[-1.212394,51.735184]}},{"properties":{"column_4":null,"column_5":null,"postcode":"NN36NW","id":"a6algtiiw55j","lat":52.27387,"long":-0.875464},"type":"Feature","geometry":{"type":"Point","coordinates":[-0.875464,52.27387]}},{"properties":{"column_4":"Lisburn","column_5":"County Antrim","postcode":"BT282SA","id":"a6algtwv685p","lat":54.512563,"long":-6.079629},"type":"Feature","geometry":{"type":"Point","coordinates":[-6.079629,54.512563]}},{"properties":{"column_4":"Lisburn","column_5":"County Antrim","postcode":"BT282RB","id":"a6algtv7lrpo","lat":54.549804,"long":-6.142254},"type":"Feature","geometry":{"type":"Point","coordinates":[-6.142254,54.549804]}},{"properties":{"column_4":"Lisburn","column_5":"County Antrim","postcode":"BT282RB","id":"a6algtoo0wsu","lat":54.549804,"long":-6.142254},"type":"Feature","geometry":{"type":"Point","coordinates":[-6.142254,54.549804]}},{"properties":{"column_4":null,"column_5":null,"postcode":"CM12QX","id":"a6algtrkwc8w","lat":51.730647,"long":0.456511},"type":"Feature","geometry":{"type":"Point","coordinates":[0.456511,51.730647]}},{"properties":{"column_4":"Hastings","column_5":"East Sussex","postcode":"TN354NN","id":"a6algtu0iglh","lat":50.885179,"long":0.59922},"type":"Feature","geometry":{"type":"Point","coordinates":[0.59922,50.885179]}},{"properties":{"column_4":null,"column_5":null,"postcode":"SP105RW","id":"a6algtjc4ooq","lat":51.218001,"long":-1.458056},"type":"Feature","geometry":{"type":"Point","coordinates":[-1.458056,51.218001]}},{"properties":{"column_4":"Nottingham","column_5":"Nottinghamshire","postcode":"NG72LX","id":"a6algtlkum7z","lat":52.944376,"long":-1.180901},"type":"Feature","geometry":{"type":"Point","coordinates":[-1.180901,52.944376]}},{"properties":{"column_4":null,"column_5":null,"postcode":"ME156RG","id":"a6algtrmeknk","lat":51.262046,"long":0.512031},"type":"Feature","geometry":{"type":"Point","coordinates":[0.512031,51.262046]}},{"properties":{"column_4":null,"column_5":null,"postcode":"LS286LE","id":"a6algtk7xqwz","lat":53.803116,"long":-1.657784},"type":"Feature","geometry":{"type":"Point","coordinates":[-1.657784,53.803116]}},{"properties":{"column_4":null,"column_5":null,"postcode":"GU342QG","id":"a6algtr6br0c","lat":51.153411,"long":-0.96039},"type":"Feature","geometry":{"type":"Point","coordinates":[-0.96039,51.153411]}},{"properties":{"column_4":null,"column_5":null,"postcode":"GU342QG","id":"a6algtlm84s6","lat":51.153411,"long":-0.96039},"type":"Feature","geometry":{"type":"Point","coordinates":[-0.96039,51.153411]}},{"properties":{"column_4":null,"column_5":null,"postcode":"UB31HJ","id":"a6algtp358ci","lat":51.506089,"long":-0.434845},"type":"Feature","geometry":{"type":"Point","coordinates":[-0.434845,51.506089]}},{"properties":{"column_4":null,"column_5":null,"postcode":"CB113AQ","id":"a6algtxfewdf","lat":52.020605,"long":0.254489},"type":"Feature","geometry":{"type":"Point","coordinates":[0.254489,52.020605]}},{"properties":{"column_4":null,"column_5":null,"postcode":"CB113AQ","id":"a6algtlfxmxq","lat":52.020605,"long":0.254489},"type":"Feature","geometry":{"type":"Point","coordinates":[0.254489,52.020605]}},{"properties":{"column_4":"Wigston","column_5":"Leicestershire","postcode":"LE184YU","id":"a6algtosff14","lat":52.5844,"long":-1.1294},"type":"Feature","geometry":{"type":"Point","coordinates":[-1.1294,52.5844]}},{"properties":{"column_4":"Polegate","column_5":"East Sussex","postcode":"BN266SZ","id":"a6algtrl6a4l","lat":50.839209,"long":0.165438},"type":"Feature","geometry":{"type":"Point","coordinates":[0.165438,50.839209]}},{"properties":{"column_4":"London","column_5":"Greater London","postcode":"SW191LH","id":"a6algtitj9wn","lat":51.414381,"long":-0.20204},"type":"Feature","geometry":{"type":"Point","coordinates":[-0.20204,51.414381]}},{"properties":{"column_4":"Birmingham","column_5":"West Midlands","postcode":"B191DS","id":"a6algtmsrvye","lat":52.496464,"long":-1.914613},"type":"Feature","geometry":{"type":"Point","coordinates":[-1.914613,52.496464]}},{"properties":{"column_4":null,"column_5":null,"postcode":"SO238QY","id":"a6algtku591m","lat":51.063697,"long":-1.311259},"type":"Feature","geometry":{"type":"Point","coordinates":[-1.311259,51.063697]}},{"properties":{"column_4":"Birmingham","column_5":"West Midlands","postcode":"B191DS","id":"a6algtlcyyfr","lat":52.496464,"long":-1.914613},"type":"Feature","geometry":{"type":"Point","coordinates":[-1.914613,52.496464]}},{"properties":{"column_4":"Birmingham","column_5":"West Midlands","postcode":"B191DS","id":"a6algtynqwfe","lat":52.496464,"long":-1.914613},"type":"Feature","geometry":{"type":"Point","coordinates":[-1.914613,52.496464]}},{"properties":{"column_4":null,"column_5":null,"postcode":"EX27JG","id":"a6algtneio2z","lat":50.72465,"long":-3.464558},"type":"Feature","geometry":{"type":"Point","coordinates":[-3.464558,50.72465]}},{"properties":{"column_4":"London","column_5":"Greater London","postcode":"E33PA","id":"a6algtrzqlzw","lat":51.521578,"long":-0.015402},"type":"Feature","geometry":{"type":"Point","coordinates":[-0.015402,51.521578]}},{"properties":{"column_4":null,"column_5":null,"postcode":"M171DD","id":"a6algtxaovkh","lat":53.468322,"long":-2.297956},"type":"Feature","geometry":{"type":"Point","coordinates":[-2.297956,53.468322]}},{"properties":{"column_4":"Leicester","column_5":"Leicestershire","postcode":"LE190AL","id":"a6algtu17cv7","lat":52.583313,"long":-1.209061},"type":"Feature","geometry":{"type":"Point","coordinates":[-1.209061,52.583313]}},{"properties":{"column_4":"Birmingham","column_5":"West Midlands","postcode":"B330JL","id":"a6algtx0xuzx","lat":52.475722,"long":-1.770768},"type":"Feature","geometry":{"type":"Point","coordinates":[-1.770768,52.475722]}},{"properties":{"column_4":"Birmingham","column_5":"West Midlands","postcode":"B330JL","id":"a6algtwu2g8b","lat":52.475722,"long":-1.770768},"type":"Feature","geometry":{"type":"Point","coordinates":[-1.770768,52.475722]}},{"properties":{"column_4":null,"column_5":null,"postcode":"ME207WZ","id":"a6algtjix5xe","lat":51.290359,"long":0.467175},"type":"Feature","geometry":{"type":"Point","coordinates":[0.467175,51.290359]}},{"properties":{"column_4":null,"column_5":null,"postcode":"ME207WZ","id":"a6algtkmp4hr","lat":51.290359,"long":0.467175},"type":"Feature","geometry":{"type":"Point","coordinates":[0.467175,51.290359]}},{"properties":{"column_4":"Milton Keynes","column_5":"Buckinghamshire","postcode":"MK100DA","id":"a6algtvqvi05","lat":52.028925,"long":-0.685479},"type":"Feature","geometry":{"type":"Point","coordinates":[-0.685479,52.028925]}},{"properties":{"column_4":null,"column_5":null,"postcode":"ME207WZ","id":"a6algtiye3mw","lat":51.290359,"long":0.467175},"type":"Feature","geometry":{"type":"Point","coordinates":[0.467175,51.290359]}},{"properties":{"column_4":null,"column_5":null,"postcode":"ME207WZ","id":"a6algtux5uy6","lat":51.290359,"long":0.467175},"type":"Feature","geometry":{"type":"Point","coordinates":[0.467175,51.290359]}},{"properties":{"column_4":null,"column_5":null,"postcode":"ME207WZ","id":"a6algtqa6wz4","lat":51.290359,"long":0.467175},"type":"Feature","geometry":{"type":"Point","coordinates":[0.467175,51.290359]}},{"properties":{"column_4":null,"column_5":null,"postcode":"ME207WZ","id":"a6algtp3l3qf","lat":51.290359,"long":0.467175},"type":"Feature","geometry":{"type":"Point","coordinates":[0.467175,51.290359]}},{"properties":{"column_4":null,"column_5":null,"postcode":"ME207WZ","id":"a6algtshynbc","lat":51.290359,"long":0.467175},"type":"Feature","geometry":{"type":"Point","coordinates":[0.467175,51.290359]}},{"properties":{"column_4":null,"column_5":null,"postcode":"ME207WZ","id":"a6algtw4vcgn","lat":51.290359,"long":0.467175},"type":"Feature","geometry":{"type":"Point","coordinates":[0.467175,51.290359]}},{"properties":{"column_4":null,"column_5":null,"postcode":"ME207WZ","id":"a6algtnslm66","lat":51.290359,"long":0.467175},"type":"Feature","geometry":{"type":"Point","coordinates":[0.467175,51.290359]}},{"properties":{"column_4":null,"column_5":null,"postcode":"ME207WZ","id":"a6algtwb8a59","lat":51.290359,"long":0.467175},"type":"Feature","geometry":{"type":"Point","coordinates":[0.467175,51.290359]}},{"properties":{"column_4":null,"column_5":null,"postcode":"ME207WZ","id":"a6algtk6yu7t","lat":51.290359,"long":0.467175},"type":"Feature","geometry":{"type":"Point","coordinates":[0.467175,51.290359]}},{"properties":{"column_4":null,"column_5":null,"postcode":"CV81NP","id":"a6algtx3lfm6","lat":52.353831,"long":-1.650584},"type":"Feature","geometry":{"type":"Point","coordinates":[-1.650584,52.353831]}},{"properties":{"column_4":null,"column_5":null,"postcode":"CV81NP","id":"a6algtnjd8f4","lat":52.353831,"long":-1.650584},"type":"Feature","geometry":{"type":"Point","coordinates":[-1.650584,52.353831]}},{"properties":{"column_4":"Peterborough","column_5":"Cambridgeshire","postcode":"PE26DP","id":"a6algtlc9hx0","lat":52.538313,"long":-0.318962},"type":"Feature","geometry":{"type":"Point","coordinates":[-0.318962,52.538313]}},{"properties":{"column_4":"Peterborough","column_5":"Cambridgeshire","postcode":"PE26DP","id":"a6algtrlk5di","lat":52.538313,"long":-0.318962},"type":"Feature","geometry":{"type":"Point","coordinates":[-0.318962,52.538313]}},{"properties":{"column_4":"Peterborough","column_5":"Cambridgeshire","postcode":"PE26DP","id":"a6algtjdl2fn","lat":52.538313,"long":-0.318962},"type":"Feature","geometry":{"type":"Point","coordinates":[-0.318962,52.538313]}},{"properties":{"column_4":"Perth","column_5":"Perthshire","postcode":"PH13UN","id":"a6algttncftc","lat":56.418968,"long":-3.475681},"type":"Feature","geometry":{"type":"Point","coordinates":[-3.475681,56.418968]}},{"properties":{"column_4":null,"column_5":null,"postcode":"RM81RW","id":"a6algtunwcwq","lat":51.56654,"long":0.137113},"type":"Feature","geometry":{"type":"Point","coordinates":[0.137113,51.56654]}},{"properties":{"column_4":null,"column_5":null,"postcode":"RM81RW","id":"a6algtkyf8z3","lat":51.56654,"long":0.137113},"type":"Feature","geometry":{"type":"Point","coordinates":[0.137113,51.56654]}},{"properties":{"column_4":null,"column_5":null,"postcode":"RM81RW","id":"a6algtskkwng","lat":51.56654,"long":0.137113},"type":"Feature","geometry":{"type":"Point","coordinates":[0.137113,51.56654]}},{"properties":{"column_4":null,"column_5":null,"postcode":"SK152QF","id":"a6algtub2ltv","lat":53.485845,"long":-2.042685},"type":"Feature","geometry":{"type":"Point","coordinates":[-2.042685,53.485845]}},{"properties":{"column_4":"Hinckley","column_5":"Leicestershire","postcode":"LE100AW","id":"a6algtiyfoyj","lat":52.53963,"long":-1.374172},"type":"Feature","geometry":{"type":"Point","coordinates":[-1.374172,52.53963]}},{"properties":{"column_4":"Halesowen","column_5":"West Midlands","postcode":"B633PG","id":"a6algtkqen4o","lat":52.461517,"long":-2.060049},"type":"Feature","geometry":{"type":"Point","coordinates":[-2.060049,52.461517]}},{"properties":{"column_4":"Scarborough","column_5":"North Yorkshire","postcode":"YO113DU","id":"a6algtm7d1qy","lat":54.238664,"long":-0.410803},"type":"Feature","geometry":{"type":"Point","coordinates":[-0.410803,54.238664]}},{"properties":{"column_4":null,"column_5":null,"postcode":"G750RS","id":"a6algtld2lht","lat":55.747986,"long":-4.16081},"type":"Feature","geometry":{"type":"Point","coordinates":[-4.16081,55.747986]}},{"properties":{"column_4":"King's Lynn","column_5":"Norfolk","postcode":"PE304HP","id":"a6algtx72w7y","lat":52.746315,"long":0.417178},"type":"Feature","geometry":{"type":"Point","coordinates":[0.417178,52.746315]}},{"properties":{"column_4":"Birmingham","column_5":"West Midlands","postcode":"B248TA","id":"a6algtn4xlj3","lat":52.507504,"long":-1.845371},"type":"Feature","geometry":{"type":"Point","coordinates":[-1.845371,52.507504]}},{"properties":{"column_4":"Birmingham","column_5":"West Midlands","postcode":"B248TA","id":"a6algtnp2bht","lat":52.507504,"long":-1.845371},"type":"Feature","geometry":{"type":"Point","coordinates":[-1.845371,52.507504]}},{"properties":{"column_4":"Birmingham","column_5":"West Midlands","postcode":"B64EX","id":"a6algtpq0kgk","lat":52.490826,"long":-1.891295},"type":"Feature","geometry":{"type":"Point","coordinates":[-1.891295,52.490826]}},{"properties":{"column_4":null,"column_5":null,"postcode":"DH87NU","id":"a6algtuxpkqe","lat":54.843193,"long":-1.837339},"type":"Feature","geometry":{"type":"Point","coordinates":[-1.837339,54.843193]}},{"properties":{"column_4":"Stowmarket","column_5":"Suffolk","postcode":"IP142EN","id":"a6algtjdygqy","lat":52.166448,"long":0.98573},"type":"Feature","geometry":{"type":"Point","coordinates":[0.98573,52.166448]}},{"properties":{"column_4":"Stowmarket","column_5":"Suffolk","postcode":"IP142EN","id":"a6algtjcoitj","lat":52.166448,"long":0.98573},"type":"Feature","geometry":{"type":"Point","coordinates":[0.98573,52.166448]}},{"properties":{"column_4":"Stowmarket","column_5":"Suffolk","postcode":"IP142EN","id":"a6algttolfon","lat":52.166448,"long":0.98573},"type":"Feature","geometry":{"type":"Point","coordinates":[0.98573,52.166448]}},{"properties":{"column_4":null,"column_5":null,"postcode":"LA33BJ","id":"a6algtkc7gkh","lat":54.060544,"long":-2.840733},"type":"Feature","geometry":{"type":"Point","coordinates":[-2.840733,54.060544]}},{"properties":{"column_4":null,"column_5":null,"postcode":"KT82RF","id":"a6algtir246c","lat":51.396655,"long":-0.379401},"type":"Feature","geometry":{"type":"Point","coordinates":[-0.379401,51.396655]}},{"properties":{"column_4":"Kilmarnock","column_5":"Ayrshire","postcode":"KA31RL","id":"a6algtowld53","lat":55.62158,"long":-4.491764},"type":"Feature","geometry":{"type":"Point","coordinates":[-4.491764,55.62158]}},{"properties":{"column_4":"London","column_5":"Greater London","postcode":"SW1E5NN","id":"a6algtstxl73","lat":51.496414,"long":-0.140492},"type":"Feature","geometry":{"type":"Point","coordinates":[-0.140492,51.496414]}},{"properties":{"column_4":"Glenrothes","column_5":"Fife","postcode":"KY75PZ","id":"a6algtkvgijw","lat":56.198063,"long":-3.156504},"type":"Feature","geometry":{"type":"Point","coordinates":[-3.156504,56.198063]}},{"properties":{"column_4":null,"column_5":null,"postcode":"HX59AS","id":"a6algtx5oeb3","lat":53.685952,"long":-1.834057},"type":"Feature","geometry":{"type":"Point","coordinates":[-1.834057,53.685952]}},{"properties":{"column_4":null,"column_5":null,"postcode":"SL67BN","id":"a6algtssm9cg","lat":51.529188,"long":-0.727203},"type":"Feature","geometry":{"type":"Point","coordinates":[-0.727203,51.529188]}},{"properties":{"column_4":null,"column_5":null,"postcode":"SL67BN","id":"a6algtuolaqc","lat":51.529188,"long":-0.727203},"type":"Feature","geometry":{"type":"Point","coordinates":[-0.727203,51.529188]}},{"properties":{"column_4":null,"column_5":null,"postcode":"TW140TH","id":"a6algtykg3db","lat":51.462264,"long":-0.410966},"type":"Feature","geometry":{"type":"Point","coordinates":[-0.410966,51.462264]}},{"properties":{"column_4":"Hastings","column_5":"East Sussex","postcode":"TN354NN","id":"a6algtw88hn9","lat":50.885179,"long":0.59922},"type":"Feature","geometry":{"type":"Point","coordinates":[0.59922,50.885179]}},{"properties":{"column_4":null,"column_5":null,"postcode":"TN145EL","id":"a6algtpedqc3","lat":51.299028,"long":0.195364},"type":"Feature","geometry":{"type":"Point","coordinates":[0.195364,51.299028]}},{"properties":{"column_4":null,"column_5":null,"postcode":"TN145EL","id":"a6algtu0g9rd","lat":51.299028,"long":0.195364},"type":"Feature","geometry":{"type":"Point","coordinates":[0.195364,51.299028]}},{"properties":{"column_4":"London","column_5":"Greater London","postcode":"EC4A2NJ","id":"a6algtv8tlgb","lat":51.514035,"long":-0.110936},"type":"Feature","geometry":{"type":"Point","coordinates":[-0.110936,51.514035]}},{"properties":{"column_4":null,"column_5":null,"postcode":"LN63RS","id":"a6algtsxgi0f","lat":53.203706,"long":-0.609044},"type":"Feature","geometry":{"type":"Point","coordinates":[-0.609044,53.203706]}},{"properties":{"column_4":"London","column_5":"Greater London","postcode":"E149QD","id":"a6algtls69m9","lat":51.49604,"long":-0.015039},"type":"Feature","geometry":{"type":"Point","coordinates":[-0.015039,51.49604]}},{"properties":{"column_4":null,"column_5":null,"postcode":"SN34RJ","id":"a6algtsx6cpu","lat":51.584574,"long":-1.756252},"type":"Feature","geometry":{"type":"Point","coordinates":[-1.756252,51.584574]}},{"properties":{"column_4":null,"column_5":null,"postcode":"SN34RJ","id":"a6algtut9pch","lat":51.584574,"long":-1.756252},"type":"Feature","geometry":{"type":"Point","coordinates":[-1.756252,51.584574]}},{"properties":{"column_4":null,"column_5":null,"postcode":"LS101HD","id":"a6algtpjwghr","lat":53.79138,"long":-1.537977},"type":"Feature","geometry":{"type":"Point","coordinates":[-1.537977,53.79138]}},{"properties":{"column_4":null,"column_5":null,"postcode":"CR44NF","id":"a6algtv8cmu3","lat":51.394755,"long":-0.168922},"type":"Feature","geometry":{"type":"Point","coordinates":[-0.168922,51.394755]}},{"properties":{"column_4":null,"column_5":null,"postcode":"TQ126UD","id":"a6algtrev3m2","lat":50.574547,"long":-3.658043},"type":"Feature","geometry":{"type":"Point","coordinates":[-3.658043,50.574547]}},{"properties":{"column_4":null,"column_5":null,"postcode":"LS126NA","id":"a6algtohomeq","lat":53.770519,"long":-1.595161},"type":"Feature","geometry":{"type":"Point","coordinates":[-1.595161,53.770519]}},{"properties":{"column_4":"Wolverhampton","column_5":"West Midlands","postcode":"WV24HL","id":"a6algtokd8em","lat":52.576691,"long":-2.131924},"type":"Feature","geometry":{"type":"Point","coordinates":[-2.131924,52.576691]}},{"properties":{"column_4":null,"column_5":null,"postcode":"OX117PR","id":"a6algttwh16i","lat":51.621585,"long":-1.245028},"type":"Feature","geometry":{"type":"Point","coordinates":[-1.245028,51.621585]}},{"properties":{"column_4":"Edinburgh","column_5":"Midlothian","postcode":"EH129EG","id":"a6algttiprj5","lat":55.931368,"long":-3.301758},"type":"Feature","geometry":{"type":"Point","coordinates":[-3.301758,55.931368]}},{"properties":{"column_4":"Spennymoor","column_5":null,"postcode":"DL166YG","id":"a6algtplqhdd","lat":54.714221,"long":-1.597924},"type":"Feature","geometry":{"type":"Point","coordinates":[-1.597924,54.714221]}},{"properties":{"column_4":"Spennymoor","column_5":null,"postcode":"DL166YG","id":"a6algtk7p65h","lat":54.714221,"long":-1.597924},"type":"Feature","geometry":{"type":"Point","coordinates":[-1.597924,54.714221]}},{"properties":{"column_4":null,"column_5":null,"postcode":"SO249BJ","id":"a6algtux7kzg","lat":51.091591,"long":-1.167355},"type":"Feature","geometry":{"type":"Point","coordinates":[-1.167355,51.091591]}},{"properties":{"column_4":null,"column_5":null,"postcode":"PR58AR","id":"a6algts2u0ks","lat":53.720414,"long":-2.640534},"type":"Feature","geometry":{"type":"Point","coordinates":[-2.640534,53.720414]}},{"properties":{"column_4":null,"column_5":null,"postcode":"PR58AR","id":"a6algtv4atp6","lat":53.720414,"long":-2.640534},"type":"Feature","geometry":{"type":"Point","coordinates":[-2.640534,53.720414]}},{"properties":{"column_4":null,"column_5":null,"postcode":"TN110QL","id":"a6algtyum3gc","lat":51.186757,"long":0.291409},"type":"Feature","geometry":{"type":"Point","coordinates":[0.291409,51.186757]}},{"properties":{"column_4":null,"column_5":null,"postcode":"IG117NZ","id":"a6algtqhjptm","lat":51.529578,"long":0.079138},"type":"Feature","geometry":{"type":"Point","coordinates":[0.079138,51.529578]}},{"properties":{"column_4":null,"column_5":null,"postcode":"IG117NZ","id":"a6algtxrkn8q","lat":51.529578,"long":0.079138},"type":"Feature","geometry":{"type":"Point","coordinates":[0.079138,51.529578]}},{"properties":{"column_4":"Newark-on-Trent","column_5":"Nottinghamshire","postcode":"NG242NH","id":"a6algtw061zb","lat":53.091125,"long":-0.780555},"type":"Feature","geometry":{"type":"Point","coordinates":[-0.780555,53.091125]}},{"properties":{"column_4":null,"column_5":null,"postcode":"LS270NN","id":"a6algtswfwud","lat":53.737199,"long":-1.594754},"type":"Feature","geometry":{"type":"Point","coordinates":[-1.594754,53.737199]}},{"properties":{"column_4":null,"column_5":null,"postcode":"LS270NN","id":"a6algtnm2oxj","lat":53.737199,"long":-1.594754},"type":"Feature","geometry":{"type":"Point","coordinates":[-1.594754,53.737199]}},{"properties":{"column_4":"Wimborne","column_5":"Dorset","postcode":"BH217QG","id":"a6algtm4jw60","lat":50.81166,"long":-1.914064},"type":"Feature","geometry":{"type":"Point","coordinates":[-1.914064,50.81166]}},{"properties":{"column_4":"Solihull","column_5":"West Midlands","postcode":"B904NG","id":"a6algtkwvrjd","lat":52.398143,"long":-1.803312},"type":"Feature","geometry":{"type":"Point","coordinates":[-1.803312,52.398143]}},{"properties":{"column_4":null,"column_5":null,"postcode":"WF176PU","id":"a6algtmc2rs4","lat":53.709827,"long":-1.615818},"type":"Feature","geometry":{"type":"Point","coordinates":[-1.615818,53.709827]}},{"properties":{"column_4":null,"column_5":null,"postcode":"WF176PU","id":"a6algtkzb1sb","lat":53.709827,"long":-1.615818},"type":"Feature","geometry":{"type":"Point","coordinates":[-1.615818,53.709827]}},{"properties":{"column_4":null,"column_5":null,"postcode":"WF176PU","id":"a6algtsjvpie","lat":53.709827,"long":-1.615818},"type":"Feature","geometry":{"type":"Point","coordinates":[-1.615818,53.709827]}},{"properties":{"column_4":null,"column_5":null,"postcode":"WF176PU","id":"a6algtvrg3hp","lat":53.709827,"long":-1.615818},"type":"Feature","geometry":{"type":"Point","coordinates":[-1.615818,53.709827]}},{"properties":{"column_4":null,"column_5":null,"postcode":"BB13BW","id":"a6algttkj8rk","lat":53.755075,"long":-2.462096},"type":"Feature","geometry":{"type":"Point","coordinates":[-2.462096,53.755075]}},{"properties":{"column_4":null,"column_5":null,"postcode":"BB13BW","id":"a6algtncvhcj","lat":53.755075,"long":-2.462096},"type":"Feature","geometry":{"type":"Point","coordinates":[-2.462096,53.755075]}},{"properties":{"column_4":"Hinckley","column_5":"Leicestershire","postcode":"LE101YG","id":"a6algtq6wpou","lat":52.556565,"long":-1.37647},"type":"Feature","geometry":{"type":"Point","coordinates":[-1.37647,52.556565]}},{"properties":{"column_4":null,"column_5":null,"postcode":"TQ47NG","id":"a6algtvy03gt","lat":50.412873,"long":-3.590574},"type":"Feature","geometry":{"type":"Point","coordinates":[-3.590574,50.412873]}},{"properties":{"column_4":null,"column_5":null,"postcode":"TQ47NG","id":"a6algtircv4l","lat":50.412873,"long":-3.590574},"type":"Feature","geometry":{"type":"Point","coordinates":[-3.590574,50.412873]}},{"properties":{"column_4":null,"column_5":null,"postcode":"TQ47NG","id":"a6algtvc05v6","lat":50.412873,"long":-3.590574},"type":"Feature","geometry":{"type":"Point","coordinates":[-3.590574,50.412873]}},{"properties":{"column_4":null,"column_5":null,"postcode":"WF61TF","id":"a6algtjctr40","lat":53.70025,"long":-1.396459},"type":"Feature","geometry":{"type":"Point","coordinates":[-1.396459,53.70025]}},{"properties":{"column_4":null,"column_5":null,"postcode":"WF62UA","id":"a6algtlxni4u","lat":53.717098,"long":-1.415401},"type":"Feature","geometry":{"type":"Point","coordinates":[-1.415401,53.717098]}},{"properties":{"column_4":null,"column_5":null,"postcode":"WF62UA","id":"a6algtrp1hj0","lat":53.717098,"long":-1.415401},"type":"Feature","geometry":{"type":"Point","coordinates":[-1.415401,53.717098]}},{"properties":{"column_4":"Londonderry","column_5":"County Londonderry","postcode":"BT480LY","id":"a6algtkbf71v","lat":55.018445,"long":-7.330976},"type":"Feature","geometry":{"type":"Point","coordinates":[-7.330976,55.018445]}},{"properties":{"column_4":"Cambridge","column_5":"Cambridgeshire","postcode":"CB245QE","id":"a6algtxu3det","lat":52.305374,"long":0.020068},"type":"Feature","geometry":{"type":"Point","coordinates":[0.020068,52.305374]}},{"properties":{"column_4":"Robertsbridge","column_5":"East Sussex","postcode":"TN325DH","id":"a6algtvu2w3h","lat":50.985088,"long":0.472852},"type":"Feature","geometry":{"type":"Point","coordinates":[0.472852,50.985088]}},{"properties":{"column_4":null,"column_5":null,"postcode":"SO403WX","id":"a6algtpgal68","lat":50.932626,"long":-1.498704},"type":"Feature","geometry":{"type":"Point","coordinates":[-1.498704,50.932626]}},{"properties":{"column_4":null,"column_5":null,"postcode":"SO403WX","id":"a6algttpqn21","lat":50.932626,"long":-1.498704},"type":"Feature","geometry":{"type":"Point","coordinates":[-1.498704,50.932626]}},{"properties":{"column_4":null,"column_5":null,"postcode":"NN57UN","id":"a6algtlw0a7i","lat":52.25703,"long":-0.942536},"type":"Feature","geometry":{"type":"Point","coordinates":[-0.942536,52.25703]}},{"properties":{"column_4":null,"column_5":null,"postcode":"WA14RQ","id":"a6algtkg6lig","lat":53.399666,"long":-2.518936},"type":"Feature","geometry":{"type":"Point","coordinates":[-2.518936,53.399666]}},{"properties":{"column_4":null,"column_5":null,"postcode":"WA14RQ","id":"a6algtkrwn3a","lat":53.399666,"long":-2.518936},"type":"Feature","geometry":{"type":"Point","coordinates":[-2.518936,53.399666]}},{"properties":{"column_4":null,"column_5":null,"postcode":"M458SH","id":"a6algtxqvv9t","lat":53.550313,"long":-2.29091},"type":"Feature","geometry":{"type":"Point","coordinates":[-2.29091,53.550313]}},{"properties":{"column_4":null,"column_5":null,"postcode":"M458SH","id":"a6algtobz62i","lat":53.550313,"long":-2.29091},"type":"Feature","geometry":{"type":"Point","coordinates":[-2.29091,53.550313]}},{"properties":{"column_4":null,"column_5":null,"postcode":"M458SH","id":"a6algtp7kwjs","lat":53.550313,"long":-2.29091},"type":"Feature","geometry":{"type":"Point","coordinates":[-2.29091,53.550313]}},{"properties":{"column_4":"Hinckley","column_5":"Leicestershire","postcode":"LE103BS","id":"a6algttse15y","lat":52.540766,"long":-1.413583},"type":"Feature","geometry":{"type":"Point","coordinates":[-1.413583,52.540766]}},{"properties":{"column_4":"Hinckley","column_5":"Leicestershire","postcode":"LE103BS","id":"a6algtmcjcf5","lat":52.540766,"long":-1.413583},"type":"Feature","geometry":{"type":"Point","coordinates":[-1.413583,52.540766]}},{"properties":{"column_4":"Nottingham","column_5":"Nottinghamshire","postcode":"NG179LE","id":"a6algtvek25k","lat":53.0913,"long":-1.275413},"type":"Feature","geometry":{"type":"Point","coordinates":[-1.275413,53.0913]}},{"properties":{"column_4":null,"column_5":null,"postcode":"M502UE","id":"a6algtl6u0dy","lat":53.475749,"long":-2.307862},"type":"Feature","geometry":{"type":"Point","coordinates":[-2.307862,53.475749]}},{"properties":{"column_4":"Watford","column_5":"Hertfordshire","postcode":"WD188RH","id":"a6algtpu5j31","lat":51.642089,"long":-0.429011},"type":"Feature","geometry":{"type":"Point","coordinates":[-0.429011,51.642089]}},{"properties":{"column_4":null,"column_5":null,"postcode":"CR04NE","id":"a6algtwuinme","lat":51.364113,"long":-0.119525},"type":"Feature","geometry":{"type":"Point","coordinates":[-0.119525,51.364113]}},{"properties":{"column_4":null,"column_5":null,"postcode":"M171SN","id":"a6algtysmt5q","lat":53.467789,"long":-2.32954},"type":"Feature","geometry":{"type":"Point","coordinates":[-2.32954,53.467789]}},{"properties":{"column_4":null,"column_5":null,"postcode":"M171SN","id":"a6algtppq9cj","lat":53.467789,"long":-2.32954},"type":"Feature","geometry":{"type":"Point","coordinates":[-2.32954,53.467789]}},{"properties":{"column_4":null,"column_5":null,"postcode":"SG175HQ","id":"a6algtwdhqz3","lat":52.036295,"long":-0.335041},"type":"Feature","geometry":{"type":"Point","coordinates":[-0.335041,52.036295]}},{"properties":{"column_4":null,"column_5":null,"postcode":"NE227AA","id":"a6algtjum77q","lat":55.14523,"long":-1.568806},"type":"Feature","geometry":{"type":"Point","coordinates":[-1.568806,55.14523]}},{"properties":{"column_4":"Rotherham","column_5":"South Yorkshire","postcode":"S601EN","id":"a6algtkfszyl","lat":53.421202,"long":-1.375181},"type":"Feature","geometry":{"type":"Point","coordinates":[-1.375181,53.421202]}},{"properties":{"column_4":"Hull","column_5":"North Humberside","postcode":"HU54HF","id":"a6algttm5ihe","lat":53.757346,"long":-0.388681},"type":"Feature","geometry":{"type":"Point","coordinates":[-0.388681,53.757346]}},{"properties":{"column_4":"Sudbury","column_5":"Suffolk","postcode":"CO101WH","id":"a6algtio66bz","lat":52.052346,"long":0.73796},"type":"Feature","geometry":{"type":"Point","coordinates":[0.73796,52.052346]}},{"properties":{"column_4":"Sudbury","column_5":"Suffolk","postcode":"CO101WH","id":"a6algttt1lw4","lat":52.052346,"long":0.73796},"type":"Feature","geometry":{"type":"Point","coordinates":[0.73796,52.052346]}},{"properties":{"column_4":"Sudbury","column_5":"Suffolk","postcode":"CO101WH","id":"a6algtrfym99","lat":52.052346,"long":0.73796},"type":"Feature","geometry":{"type":"Point","coordinates":[0.73796,52.052346]}},{"properties":{"column_4":null,"column_5":null,"postcode":"BL52AL","id":"a6algtpf6fh4","lat":53.54422,"long":-2.531266},"type":"Feature","geometry":{"type":"Point","coordinates":[-2.531266,53.54422]}},{"properties":{"column_4":null,"column_5":null,"postcode":"CR04BD","id":"a6algtmd8duo","lat":51.360065,"long":-0.118987},"type":"Feature","geometry":{"type":"Point","coordinates":[-0.118987,51.360065]}},{"properties":{"column_4":null,"column_5":null,"postcode":"WF61TN","id":"a6algtx90xso","lat":53.705839,"long":-1.388766},"type":"Feature","geometry":{"type":"Point","coordinates":[-1.388766,53.705839]}},{"properties":{"column_4":null,"column_5":null,"postcode":"WF61TN","id":"a6algtnsl2x7","lat":53.705839,"long":-1.388766},"type":"Feature","geometry":{"type":"Point","coordinates":[-1.388766,53.705839]}},{"properties":{"column_4":"Birmingham","column_5":"West Midlands","postcode":"B248TA","id":"a6algtmc1a9k","lat":52.507504,"long":-1.845371},"type":"Feature","geometry":{"type":"Point","coordinates":[-1.845371,52.507504]}},{"properties":{"column_4":"Birmingham","column_5":"West Midlands","postcode":"B248TA","id":"a6algtqes2lv","lat":52.507504,"long":-1.845371},"type":"Feature","geometry":{"type":"Point","coordinates":[-1.845371,52.507504]}},{"properties":{"column_4":null,"column_5":null,"postcode":"NN144JR","id":"a6algty9g3gr","lat":52.394056,"long":-0.54061},"type":"Feature","geometry":{"type":"Point","coordinates":[-0.54061,52.394056]}},{"properties":{"column_4":null,"column_5":null,"postcode":"NN174HH","id":"a6algtnpmnr2","lat":52.508092,"long":-0.691004},"type":"Feature","geometry":{"type":"Point","coordinates":[-0.691004,52.508092]}},{"properties":{"column_4":"Chichester","column_5":"West Sussex","postcode":"PO202FT","id":"a6algtnjr0s8","lat":50.85343,"long":-0.706763},"type":"Feature","geometry":{"type":"Point","coordinates":[-0.706763,50.85343]}},{"properties":{"column_4":null,"column_5":null,"postcode":"OX108DE","id":"a6algtxxc4il","lat":51.590073,"long":-1.118984},"type":"Feature","geometry":{"type":"Point","coordinates":[-1.118984,51.590073]}},{"properties":{"column_4":null,"column_5":null,"postcode":"RG145EG","id":"a6algtwd22sb","lat":51.400304,"long":-1.300555},"type":"Feature","geometry":{"type":"Point","coordinates":[-1.300555,51.400304]}},{"properties":{"column_4":null,"column_5":null,"postcode":"GU124JU","id":"a6algtwqk4wd","lat":51.242538,"long":-0.755394},"type":"Feature","geometry":{"type":"Point","coordinates":[-0.755394,51.242538]}},{"properties":{"column_4":"Nottingham","column_5":"Nottinghamshire","postcode":"NG177LA","id":"a6algtsi4o4k","lat":53.110923,"long":-1.240739},"type":"Feature","geometry":{"type":"Point","coordinates":[-1.240739,53.110923]}},{"properties":{"column_4":"Bournemouth","column_5":"Dorset","postcode":"BH11JU","id":"a6algtpu5v1q","lat":50.722182,"long":-1.869254},"type":"Feature","geometry":{"type":"Point","coordinates":[-1.869254,50.722182]}},{"properties":{"column_4":null,"column_5":null,"postcode":"SO403WX","id":"a6algtjm5fqd","lat":50.932626,"long":-1.498704},"type":"Feature","geometry":{"type":"Point","coordinates":[-1.498704,50.932626]}},{"properties":{"column_4":null,"column_5":null,"postcode":"SO403WX","id":"a6algtku8c8s","lat":50.932626,"long":-1.498704},"type":"Feature","geometry":{"type":"Point","coordinates":[-1.498704,50.932626]}},{"properties":{"column_4":null,"column_5":null,"postcode":"SO403WX","id":"a6algtmk8hib","lat":50.932626,"long":-1.498704},"type":"Feature","geometry":{"type":"Point","coordinates":[-1.498704,50.932626]}},{"properties":{"column_4":null,"column_5":null,"postcode":"SO403WX","id":"a6algtw15qjp","lat":50.932626,"long":-1.498704},"type":"Feature","geometry":{"type":"Point","coordinates":[-1.498704,50.932626]}},{"properties":{"column_4":null,"column_5":null,"postcode":"SO403WX","id":"a6algtqs0o5o","lat":50.932626,"long":-1.498704},"type":"Feature","geometry":{"type":"Point","coordinates":[-1.498704,50.932626]}},{"properties":{"column_4":null,"column_5":null,"postcode":"EX396EA","id":"a6algtkavlej","lat":50.976681,"long":-4.517236},"type":"Feature","geometry":{"type":"Point","coordinates":[-4.517236,50.976681]}},{"properties":{"column_4":"Nottingham","column_5":"Nottinghamshire","postcode":"NG31GE","id":"a6algtuipz6n","lat":52.956531,"long":-1.136564},"type":"Feature","geometry":{"type":"Point","coordinates":[-1.136564,52.956531]}},{"properties":{"column_4":"Nottingham","column_5":"Nottinghamshire","postcode":"NG31GE","id":"a6algtm9rzt8","lat":52.956531,"long":-1.136564},"type":"Feature","geometry":{"type":"Point","coordinates":[-1.136564,52.956531]}},{"properties":{"column_4":null,"column_5":null,"postcode":"TR275JR","id":"a6algtih4gy7","lat":50.194186,"long":-5.393314},"type":"Feature","geometry":{"type":"Point","coordinates":[-5.393314,50.194186]}},{"properties":{"column_4":"Bristol","column_5":"Avon","postcode":"BS353UU","id":"a6algtri4mpe","lat":51.615168,"long":-2.54103},"type":"Feature","geometry":{"type":"Point","coordinates":[-2.54103,51.615168]}},{"properties":{"column_4":null,"column_5":null,"postcode":"WN89TB","id":"a6algtvtieb8","lat":53.538569,"long":-2.776997},"type":"Feature","geometry":{"type":"Point","coordinates":[-2.776997,53.538569]}},{"properties":{"column_4":"Bewdley","column_5":"Worcestershire","postcode":"DY122TZ","id":"a6algticqd1o","lat":52.366055,"long":-2.35777},"type":"Feature","geometry":{"type":"Point","coordinates":[-2.35777,52.366055]}},{"properties":{"column_4":null,"column_5":null,"postcode":"NN67GX","id":"a6algtun6zns","lat":52.355901,"long":-1.163864},"type":"Feature","geometry":{"type":"Point","coordinates":[-1.163864,52.355901]}},{"properties":{"column_4":"Bristol","column_5":"Avon","postcode":"BS320BF","id":"a6algtuc1dng","lat":51.5473,"long":-2.550204},"type":"Feature","geometry":{"type":"Point","coordinates":[-2.550204,51.5473]}},{"properties":{"column_4":"Redditch","column_5":"Worcestershire","postcode":"B989NL","id":"a6algtp68rrj","lat":52.319998,"long":-1.8923},"type":"Feature","geometry":{"type":"Point","coordinates":[-1.8923,52.319998]}},{"properties":{"column_4":"Redditch","column_5":"Worcestershire","postcode":"B989NL","id":"a6algtoxvgz3","lat":52.319998,"long":-1.8923},"type":"Feature","geometry":{"type":"Point","coordinates":[-1.8923,52.319998]}},{"properties":{"column_4":"Bristol","column_5":"Avon","postcode":"BS320BF","id":"a6algtvigqz5","lat":51.5473,"long":-2.550204},"type":"Feature","geometry":{"type":"Point","coordinates":[-2.550204,51.5473]}},{"properties":{"column_4":"Birmingham","column_5":"West Midlands","postcode":"B461HG","id":"a6algtqjyakm","lat":52.511951,"long":-1.712805},"type":"Feature","geometry":{"type":"Point","coordinates":[-1.712805,52.511951]}},{"properties":{"column_4":null,"column_5":"Swindon","postcode":"SN22DS","id":"a6algtwu34sl","lat":51.577329,"long":-1.811268},"type":"Feature","geometry":{"type":"Point","coordinates":[-1.811268,51.577329]}},{"properties":{"column_4":"Liverpool","column_5":"Merseyside","postcode":"L248AD","id":"a6algtqf6akc","lat":53.344233,"long":-2.875613},"type":"Feature","geometry":{"type":"Point","coordinates":[-2.875613,53.344233]}},{"properties":{"column_4":"St Neots","column_5":"Cambridgeshire","postcode":"PE196YH","id":"a6algtswzqfv","lat":52.208179,"long":-0.270571},"type":"Feature","geometry":{"type":"Point","coordinates":[-0.270571,52.208179]}},{"properties":{"column_4":null,"column_5":null,"postcode":"GL208BL","id":"a6algttwh6n0","lat":51.99785,"long":-2.12676},"type":"Feature","geometry":{"type":"Point","coordinates":[-2.12676,51.99785]}},{"properties":{"column_4":null,"column_5":null,"postcode":"NN95NT","id":"a6algtnlns9s","lat":52.342331,"long":-0.669203},"type":"Feature","geometry":{"type":"Point","coordinates":[-0.669203,52.342331]}},{"properties":{"column_4":null,"column_5":null,"postcode":"NN47EX","id":"a6algtwwogce","lat":52.220648,"long":-0.857833},"type":"Feature","geometry":{"type":"Point","coordinates":[-0.857833,52.220648]}},{"properties":{"column_4":null,"column_5":null,"postcode":"NN47EX","id":"a6algtti8tg2","lat":52.220648,"long":-0.857833},"type":"Feature","geometry":{"type":"Point","coordinates":[-0.857833,52.220648]}},{"properties":{"column_4":null,"column_5":null,"postcode":"NN47EX","id":"a6algtoaq5z8","lat":52.220648,"long":-0.857833},"type":"Feature","geometry":{"type":"Point","coordinates":[-0.857833,52.220648]}},{"properties":{"column_4":"Maghera","column_5":"County Londonderry","postcode":"BT465AA","id":"a6algtxtds0b","lat":54.843514,"long":-6.672028},"type":"Feature","geometry":{"type":"Point","coordinates":[-6.672028,54.843514]}},{"properties":{"column_4":"London","column_5":"Greater London","postcode":"SW84AS","id":"a6algtpal53k","lat":51.477784,"long":-0.144044},"type":"Feature","geometry":{"type":"Point","coordinates":[-0.144044,51.477784]}},{"properties":{"column_4":null,"column_5":null,"postcode":"TW167HB","id":"a6algtrqbzdk","lat":51.414422,"long":-0.430723},"type":"Feature","geometry":{"type":"Point","coordinates":[-0.430723,51.414422]}},{"properties":{"column_4":"Newtownabbey","column_5":"County Antrim","postcode":"BT364PY","id":"a6algtv7vi47","lat":54.676074,"long":-6.00331},"type":"Feature","geometry":{"type":"Point","coordinates":[-6.00331,54.676074]}},{"properties":{"column_4":"Chesterfield","column_5":"Derbyshire","postcode":"S419QB","id":"a6algto6izoo","lat":53.275218,"long":-1.460495},"type":"Feature","geometry":{"type":"Point","coordinates":[-1.460495,53.275218]}},{"properties":{"column_4":null,"column_5":null,"postcode":"TN163YN","id":"a6algtk11y5m","lat":51.319366,"long":0.033768},"type":"Feature","geometry":{"type":"Point","coordinates":[0.033768,51.319366]}},{"properties":{"column_4":"Christchurch","column_5":"Dorset","postcode":"BH233PE","id":"a6algtqi97b4","lat":50.737043,"long":-1.748064},"type":"Feature","geometry":{"type":"Point","coordinates":[-1.748064,50.737043]}},{"properties":{"column_4":null,"column_5":null,"postcode":"RG145XF","id":"a6algtwfygu6","lat":51.400401,"long":-1.298728},"type":"Feature","geometry":{"type":"Point","coordinates":[-1.298728,51.400401]}},{"properties":{"column_4":null,"column_5":null,"postcode":"RG145XF","id":"a6algtod43dd","lat":51.400401,"long":-1.298728},"type":"Feature","geometry":{"type":"Point","coordinates":[-1.298728,51.400401]}},{"properties":{"column_4":"Milton Keynes","column_5":"Buckinghamshire","postcode":"MK138PJ","id":"a6algtmhfqhn","lat":52.043645,"long":-0.780918},"type":"Feature","geometry":{"type":"Point","coordinates":[-0.780918,52.043645]}},{"properties":{"column_4":null,"column_5":null,"postcode":"UB67JS","id":"a6algty9oyd9","lat":51.537492,"long":-0.338039},"type":"Feature","geometry":{"type":"Point","coordinates":[-0.338039,51.537492]}},{"properties":{"column_4":"Washington","column_5":"Tyne And Wear","postcode":"NE373HX","id":"a6algtiw2who","lat":54.920035,"long":-1.511602},"type":"Feature","geometry":{"type":"Point","coordinates":[-1.511602,54.920035]}},{"properties":{"column_4":"Washington","column_5":"Tyne And Wear","postcode":"NE373HX","id":"a6algtrejo38","lat":54.920035,"long":-1.511602},"type":"Feature","geometry":{"type":"Point","coordinates":[-1.511602,54.920035]}},{"properties":{"column_4":"High Wycombe","column_5":"Buckinghamshire","postcode":"HP100AU","id":"a6algtjoeov0","lat":51.592305,"long":-0.677504},"type":"Feature","geometry":{"type":"Point","coordinates":[-0.677504,51.592305]}},{"properties":{"column_4":"Lutterworth","column_5":"Leicestershire","postcode":"LE174XW","id":"a6algtk600ja","lat":52.457225,"long":-1.243096},"type":"Feature","geometry":{"type":"Point","coordinates":[-1.243096,52.457225]}},{"properties":{"column_4":"Huntingdon","column_5":"Cambridgeshire","postcode":"PE296ED","id":"a6algtwbsq6u","lat":52.342956,"long":-0.193466},"type":"Feature","geometry":{"type":"Point","coordinates":[-0.193466,52.342956]}},{"properties":{"column_4":"Barnet","column_5":"Hertfordshire","postcode":"EN55XT","id":"a6algtsc2o1o","lat":51.657535,"long":-0.210346},"type":"Feature","geometry":{"type":"Point","coordinates":[-0.210346,51.657535]}},{"properties":{"column_4":null,"column_5":null,"postcode":"G745PE","id":"a6algtr42vd6","lat":55.759518,"long":-4.230734},"type":"Feature","geometry":{"type":"Point","coordinates":[-4.230734,55.759518]}},{"properties":{"column_4":null,"column_5":null,"postcode":"G745PE","id":"a6algtvlz1iu","lat":55.759518,"long":-4.230734},"type":"Feature","geometry":{"type":"Point","coordinates":[-4.230734,55.759518]}},{"properties":{"column_4":null,"column_5":null,"postcode":"WF61TN","id":"a6algttekgoc","lat":53.705839,"long":-1.388766},"type":"Feature","geometry":{"type":"Point","coordinates":[-1.388766,53.705839]}},{"properties":{"column_4":null,"column_5":null,"postcode":"DE143NX","id":"a6algts7ep03","lat":52.800953,"long":-1.646222},"type":"Feature","geometry":{"type":"Point","coordinates":[-1.646222,52.800953]}},{"properties":{"column_4":null,"column_5":null,"postcode":"DE143NX","id":"a6algtlpqptr","lat":52.800953,"long":-1.646222},"type":"Feature","geometry":{"type":"Point","coordinates":[-1.646222,52.800953]}},{"properties":{"column_4":null,"column_5":null,"postcode":"WF20XE","id":"a6algtw9xqze","lat":53.716541,"long":-1.520886},"type":"Feature","geometry":{"type":"Point","coordinates":[-1.520886,53.716541]}},{"properties":{"column_4":null,"column_5":null,"postcode":"WF20XE","id":"a6algtscig8z","lat":53.716541,"long":-1.520886},"type":"Feature","geometry":{"type":"Point","coordinates":[-1.520886,53.716541]}},{"properties":{"column_4":null,"column_5":null,"postcode":"UB40TP","id":"a6algtrxkdpa","lat":51.512787,"long":-0.3968},"type":"Feature","geometry":{"type":"Point","coordinates":[-0.3968,51.512787]}},{"properties":{"column_4":"London","column_5":"Greater London","postcode":"E145LB","id":"a6algtyqwp9t","lat":51.503837,"long":-0.018324},"type":"Feature","geometry":{"type":"Point","coordinates":[-0.018324,51.503837]}},{"properties":{"column_4":null,"column_5":null,"postcode":"CV211PR","id":"a6algtvboq4u","lat":52.379779,"long":-1.248049},"type":"Feature","geometry":{"type":"Point","coordinates":[-1.248049,52.379779]}},{"properties":{"column_4":"Birmingham","column_5":"West Midlands","postcode":"B357AG","id":"a6algtqovre7","lat":52.511038,"long":-1.786866},"type":"Feature","geometry":{"type":"Point","coordinates":[-1.786866,52.511038]}},{"properties":{"column_4":"South Shields","column_5":"Tyne And Wear","postcode":"NE335SP","id":"a6algtwivp7s","lat":54.979818,"long":-1.445739},"type":"Feature","geometry":{"type":"Point","coordinates":[-1.445739,54.979818]}},{"properties":{"column_4":"South Shields","column_5":"Tyne And Wear","postcode":"NE335SP","id":"a6algttbvro3","lat":54.979818,"long":-1.445739},"type":"Feature","geometry":{"type":"Point","coordinates":[-1.445739,54.979818]}},{"properties":{"column_4":"Milton Keynes","column_5":"Buckinghamshire","postcode":"MK126HS","id":"a6algtxlbo1c","lat":52.050632,"long":-0.79788},"type":"Feature","geometry":{"type":"Point","coordinates":[-0.79788,52.050632]}},{"properties":{"column_4":null,"column_5":null,"postcode":"CO124RX","id":"a6algts1l29g","lat":51.931574,"long":1.239524},"type":"Feature","geometry":{"type":"Point","coordinates":[1.239524,51.931574]}},{"properties":{"column_4":"Lewes","column_5":"East Sussex","postcode":"BN86DG","id":"a6algtrly5zl","lat":50.911366,"long":0.127275},"type":"Feature","geometry":{"type":"Point","coordinates":[0.127275,50.911366]}},{"properties":{"column_4":null,"column_5":null,"postcode":"GU125PQ","id":"a6algtr9b59e","lat":51.276689,"long":-0.731704},"type":"Feature","geometry":{"type":"Point","coordinates":[-0.731704,51.276689]}},{"properties":{"column_4":null,"column_5":null,"postcode":"M224TE","id":"a6algtjtz9z0","lat":53.400354,"long":-2.258087},"type":"Feature","geometry":{"type":"Point","coordinates":[-2.258087,53.400354]}},{"properties":{"column_4":null,"column_5":null,"postcode":"CV213XH","id":"a6algtlpau0q","lat":52.380243,"long":-1.243281},"type":"Feature","geometry":{"type":"Point","coordinates":[-1.243281,52.380243]}},{"properties":{"column_4":null,"column_5":null,"postcode":"EX28QF","id":"a6algtyjioha","lat":50.70345,"long":-3.524488},"type":"Feature","geometry":{"type":"Point","coordinates":[-3.524488,50.70345]}},{"properties":{"column_4":null,"column_5":null,"postcode":"CM202SE","id":"a6algtohrvpz","lat":51.787823,"long":0.11167},"type":"Feature","geometry":{"type":"Point","coordinates":[0.11167,51.787823]}}],"is_temporal":false,"author":{"url":"","metadata":"","contact_name":"","contact_address":"","source":"","contact_phone":""},"source":"","pagination":{"sort":null,"start":0,"total":318,"limit":1000000},"state":"complete","tags":"","published":"2014-08-10T16:12:05-04:00","id":83883}