{"type":"FeatureCollection","data_type":"Dataset","url_type":null,"permissions":[{"permissions":{"download":true,"view":true},"group_id":"everyone"}],"classification":null,"title":"Ski and Snowboard Retail Shops, Washington DC Area, 12.2008","count":55,"stream_id":8388,"contributor":{"url":"http://geocommons.com/users/139","name":"Burkey"},"data_attributes":null,"calculation_params":null,"icon_link":null,"link":"http://geocommons.com/overlays/8388.json","extent":[-77.599,38.6204,-76.4426,39.4642],"geometry_types":["point"],"unique_name":null,"name":"Ski and Snowboard Retail Shops, Washington DC Area, 12.2008","feature_count":55,"description":"This dataset shows the locations of ski and snowboard retail stores in the greater Washington DC area as of 12.2008. The data comes from a local business results on Google Maps and includes: store name, address, city, state, and lat/lon location. The lat/lon location was obtained through a geocoding application found at gpsvisualizer.com. ","next_feature":null,"is_raster":false,"short_classification":"Y","stats":{"lon":{"max":-76.442574,"mean":-77.0029703636364,"variance":0.105307624472273,"stdev":0.324511362624289,"min":-77.599029,"median":-77.080325},"lat":{"max":39.464166,"mean":39.0470057090909,"variance":0.049487181509173,"stdev":0.222457145331799,"min":38.620444,"median":39.013655}},"features":[{"properties":{"city":"Sterling","lon":-77.43077,"ski shop":"Alpine Ski Shop?","phone":"703-444-7844?","id":"a63qcnooti76","address":"21999 Shaw Rd","lat":39.003102,"state":"VA"},"type":"Feature","geometry":{"type":"Point","coordinates":[-77.43077,39.003102]}},{"properties":{"city":"Rockville","lon":-77.112875,"ski shop":"Asylum Wake Skate &amp; Snow","phone":"301-230-6555","id":"a63qcnhm3mym","address":"11620 Rockville Pike","lat":39.046608,"state":"MD"},"type":"Feature","geometry":{"type":"Point","coordinates":[-77.112875,39.046608]}},{"properties":{"city":"Bethesda","lon":-77.096918,"ski shop":"Asylum Wake Skate &amp; Snow?","phone":"301-654-1510?","id":"a63qcnj6xzko","address":"4856 Bethesda Ave","lat":38.98076,"state":"MD"},"type":"Feature","geometry":{"type":"Point","coordinates":[-77.096918,38.98076]}},{"properties":{"city":"Glen Burnie","lon":-76.652521,"ski shop":"Baltimore Ski Warehouse?","phone":"410-590-4604?","id":"a63qcnfn8h9l","address":"7038 Aviation Blvd","lat":39.184607,"state":"MD"},"type":"Feature","geometry":{"type":"Point","coordinates":[-76.652521,39.184607]}},{"properties":{"city":"Falls Church","lon":-77.126524,"ski shop":"Dick's Sporting Goods","phone":"703-933-0736","id":"a63qcnef1qgr","address":"5714 Columbia Pike","lat":38.851715,"state":"VA"},"type":"Feature","geometry":{"type":"Point","coordinates":[-77.126524,38.851715]}},{"properties":{"city":"Annapolis","lon":-76.543107,"ski shop":"East of Maui Surf Shop","phone":"410-573-9463","id":"a63qcnqrtfcc","address":"2303 Forest Dr","lat":38.980287,"state":"MD"},"type":"Feature","geometry":{"type":"Point","coordinates":[-76.543107,38.980287]}},{"properties":{"city":"Annapolis","lon":-76.541597,"ski shop":"Eastern Mountain Sports?","phone":"410-573-1240?","id":"a63qcni72u7q","address":"2554 Solomons Island Rd","lat":38.97466,"state":"MD"},"type":"Feature","geometry":{"type":"Point","coordinates":[-76.541597,38.97466]}},{"properties":{"city":"Arlington","lon":-77.091797,"ski shop":"Eastern Mountain Sports?","phone":"703-248-8310?","id":"a63qcnmgbzih","address":"2800 Clarendon Blvd","lat":38.888253,"state":"VA"},"type":"Feature","geometry":{"type":"Point","coordinates":[-77.091797,38.888253]}},{"properties":{"city":"Chantilly","lon":-77.431531,"ski shop":"Extreme Allsport?","phone":"703-449-9700?","id":"a63qcnqq7ho4","address":"4008 Walney Rd","lat":38.893695,"state":"VA"},"type":"Feature","geometry":{"type":"Point","coordinates":[-77.431531,38.893695]}},{"properties":{"city":"Fairfax","lon":-77.302179,"ski shop":"Fairfax Surf Shop?","phone":"703-273-0015?","id":"a63qcnooksbh","address":"3936 Old Lee Hwy","lat":38.847512,"state":"VA"},"type":"Feature","geometry":{"type":"Point","coordinates":[-77.302179,38.847512]}},{"properties":{"city":"Baltimore","lon":-76.62129,"ski shop":"H &amp; H Outdoors?","phone":"410-752-2580?","id":"a63qcnqr6q2e","address":"424 N Eutaw St","lat":39.294426,"state":"MD"},"type":"Feature","geometry":{"type":"Point","coordinates":[-76.62129,39.294426]}},{"properties":{"city":"Washington","lon":-77.080325,"ski shop":"Hudson Trail Outfitters Ltd","phone":"202-363-9810","id":"a63qcnmrzsbq","address":"4530 Wisconsin Ave NW","lat":38.948781,"state":"DC"},"type":"Feature","geometry":{"type":"Point","coordinates":[-77.080325,38.948781]}},{"properties":{"city":"Reisterstown","lon":-76.829149,"ski shop":"Kid'Ski 2?","phone":"410-833-1101?","id":"a63qcnphqvrb","address":"202 Main St","lat":39.464166,"state":"MD"},"type":"Feature","geometry":{"type":"Point","coordinates":[-76.829149,39.464166]}},{"properties":{"city":"Waldorf","lon":-76.912826,"ski shop":"Owens Ski &amp; Sport?","phone":"301-843-9899?","id":"a63qcng4xupd","address":"3070 Festival Way","lat":38.62893,"state":"MD"},"type":"Feature","geometry":{"type":"Point","coordinates":[-76.912826,38.62893]}},{"properties":{"city":"Gambrills","lon":-76.681196,"ski shop":"Owens Ski &amp; Sport?","phone":"301-858-1962?","id":"a63qcngyz5ap","address":"1308 Main Chapel Way","lat":39.038313,"state":"MD"},"type":"Feature","geometry":{"type":"Point","coordinates":[-76.681196,39.038313]}},{"properties":{"city":"Frederick","lon":-77.410812,"ski shop":"Pitcrew Skateboards &amp; Snowboards?","phone":"301-698-1813?","id":"a63qcnfmnl21","address":"207 N Market St","lat":39.416796,"state":"MD"},"type":"Feature","geometry":{"type":"Point","coordinates":[-77.410812,39.416796]}},{"properties":{"city":"Ellicott City","lon":-76.82771,"ski shop":"Play It Again Sports?","phone":"410-418-9371?","id":"a63qcno7i84q","address":"9150 Baltimore National Pike","lat":39.277316,"state":"MD"},"type":"Feature","geometry":{"type":"Point","coordinates":[-76.82771,39.277316]}},{"properties":{"city":"Baltimore","lon":-76.656677,"ski shop":"Princeton Sports","phone":"410-828-1127","id":"a63qcnfzi3d2","address":"6239 Falls Rd","lat":39.383319,"state":"MD"},"type":"Feature","geometry":{"type":"Point","coordinates":[-76.656677,39.383319]}},{"properties":{"city":"Columbia","lon":-76.874323,"ski shop":"Princeton Sports?","phone":"410-995-1894?","id":"a63qcnp10rfs","address":"10730 Little Patuxent Pkwy","lat":39.214703,"state":"MD"},"type":"Feature","geometry":{"type":"Point","coordinates":[-76.874323,39.214703]}},{"properties":{"city":"Leesburg","lon":-77.552549,"ski shop":"Pro-Fit Ski &amp; Skate?","phone":"703-777-7547?","id":"a63qcnfldf8h","address":"545 E Market St","lat":39.108888,"state":"VA"},"type":"Feature","geometry":{"type":"Point","coordinates":[-77.552549,39.108888]}},{"properties":{"city":"Rockville","lon":-77.124103,"ski shop":"REI - Recreational Equipment Inc.","phone":"301-230-7670","id":"a63qcnk2oe9o","address":"1701 Rockville Pike","lat":39.06153,"state":"MD"},"type":"Feature","geometry":{"type":"Point","coordinates":[-77.124103,39.06153]}},{"properties":{"city":"Fairfax","lon":-77.357829,"ski shop":"REI - Recreational Equipment Inc.?","phone":"571-522-6568?","id":"a63qcnfon49r","address":"11950 Grand Commons Ave","lat":38.857966,"state":"VA"},"type":"Feature","geometry":{"type":"Point","coordinates":[-77.357829,38.857966]}},{"properties":{"city":"Timonium","lon":-76.626917,"ski shop":"REI - Recreational Equipment Inc.?","phone":"410-252-5920?","id":"a63qcnldcry2","address":"63 W Aylesbury Road","lat":39.438116,"state":"MD"},"type":"Feature","geometry":{"type":"Point","coordinates":[-76.626917,39.438116]}},{"properties":{"city":"College Park","lon":-76.92128,"ski shop":"REI - Recreational Equipment Inc.?","phone":"301-982-9681?","id":"a63qcnjxcblb","address":"9801 Rhode Island Ave","lat":39.013655,"state":"MD"},"type":"Feature","geometry":{"type":"Point","coordinates":[-76.92128,39.013655]}},{"properties":{"city":"Bailey's Crossroads","lon":-77.12399,"ski shop":"REI - Recreational Equipment Inc.?","phone":"703-379-9400?","id":"a63qcnoxpd38","address":"3509 Carlin Springs Rd","lat":38.848692,"state":"VA"},"type":"Feature","geometry":{"type":"Point","coordinates":[-77.12399,38.848692]}},{"properties":{"city":"Arnold","lon":-76.526239,"ski shop":"Sail &amp; Ski Shop?","phone":"410-544-0666?","id":"a63qcnifii05","address":"953 Ritchie Hwy","lat":39.056188,"state":"MD"},"type":"Feature","geometry":{"type":"Point","coordinates":[-76.526239,39.056188]}},{"properties":{"city":"Crofton","lon":-76.702302,"ski shop":"Sail &amp; Ski Shop?","phone":"410-721-0676?","id":"a63qcnk0c9fh","address":"1153 Route 3","lat":38.993977,"state":"MD"},"type":"Feature","geometry":{"type":"Point","coordinates":[-76.702302,38.993977]}},{"properties":{"city":"Chantilly","lon":-77.425059,"ski shop":"Ski &amp; Dive Shop?","phone":"703-263-0427?","id":"a63qcnopcwkh","address":"13903 Metrotech Dr","lat":38.893735,"state":"VA"},"type":"Feature","geometry":{"type":"Point","coordinates":[-77.425059,38.893735]}},{"properties":{"city":"Washington","lon":-77.096649,"ski shop":"Ski Center?","phone":"202-966-4474?","id":"a63qcnhd0o9k","address":"4300 Fordham Rd NW","lat":38.944347,"state":"DC"},"type":"Feature","geometry":{"type":"Point","coordinates":[-77.096649,38.944347]}},{"properties":{"city":"Arlington","lon":-77.085742,"ski shop":"Ski Chalet of Arlington?","phone":"703-521-1700?","id":"a63qcnn2pvrh","address":"2704 Columbia Pike","lat":38.86276,"state":"VA"},"type":"Feature","geometry":{"type":"Point","coordinates":[-77.085742,38.86276]}},{"properties":{"city":"Chantilly","lon":-77.434607,"ski shop":"Ski Chalet of Chantilly?","phone":"703-631-7880?","id":"a63qcnrdatpf","address":"14130 Sullyfield Cir","lat":38.890804,"state":"VA"},"type":"Feature","geometry":{"type":"Point","coordinates":[-77.434607,38.890804]}},{"properties":{"city":"Gaithersburg","lon":-77.206538,"ski shop":"Ski Chalet of Shady Grove?","phone":"301-948-5200?","id":"a63qcnr8e8us","address":"203 Muddy Branch Rd","lat":39.130891,"state":"MD"},"type":"Feature","geometry":{"type":"Point","coordinates":[-77.206538,39.130891]}},{"properties":{"city":"Annapolis","lon":-76.442574,"ski shop":"Ski Haus Sports Ctr?","phone":"410-757-6444?","id":"a63qcnj9defr","address":"824 E College Pkwy","lat":39.0268,"state":"MD"},"type":"Feature","geometry":{"type":"Point","coordinates":[-76.442574,39.0268]}},{"properties":{"city":"Glen Burnie","lon":-76.617535,"ski shop":"Ski Haus?","phone":"410-760-6130?","id":"a63qcnfvv3b3","address":"904 Crain Hwy N","lat":39.177533,"state":"MD"},"type":"Feature","geometry":{"type":"Point","coordinates":[-76.617535,39.177533]}},{"properties":{"city":"Olney","lon":-77.067645,"ski shop":"Ski Racquet?","phone":"301-260-0361?","id":"a63qcnfup769","address":"3414 Olney Laytonsville Rd","lat":39.15338,"state":"MD"},"type":"Feature","geometry":{"type":"Point","coordinates":[-77.067645,39.15338]}},{"properties":{"city":"Laurel","lon":-76.806264,"ski shop":"The Sports Authority?","phone":"888-801-9164?","id":"a63qcnpfiuep","address":"3335 Corridor Marketplace","lat":39.097083,"state":"MD"},"type":"Feature","geometry":{"type":"Point","coordinates":[-76.806264,39.097083]}},{"properties":{"city":"Alexandria","lon":-77.051697,"ski shop":"The Sports Authority?","phone":"888-801-9164?","id":"a63qcngkt99e","address":"3701 Jefferson Davis Hwy","lat":38.837945,"state":"VA"},"type":"Feature","geometry":{"type":"Point","coordinates":[-77.051697,38.837945]}},{"properties":{"city":"Bowie","lon":-76.720555,"ski shop":"The Sports Authority?","phone":"888-801-9164?","id":"a63qcngz6mvu","address":"4520 Mitchellville Rd","lat":38.951513,"state":"MD"},"type":"Feature","geometry":{"type":"Point","coordinates":[-76.720555,38.951513]}},{"properties":{"city":"Gainesville","lon":-77.599029,"ski shop":"The Sports Authority?","phone":"888-801-9164?","id":"a63qcnqbspbc","address":"5085 Wellington Rd","lat":38.79373,"state":"VA"},"type":"Feature","geometry":{"type":"Point","coordinates":[-77.599029,38.79373]}},{"properties":{"city":"Frederick","lon":-77.399509,"ski shop":"The Sports Authority?","phone":"888-801-9164?","id":"a63qcnk0rztg","address":"5425 Urbana Pike","lat":39.380869,"state":"MD"},"type":"Feature","geometry":{"type":"Point","coordinates":[-77.399509,39.380869]}},{"properties":{"city":"Waldorf","lon":-76.916234,"ski shop":"The Sports Authority?","phone":"888-801-9164?","id":"a63qcnd2jcfy","address":"3326 Crain Hwy","lat":38.620444,"state":"MD"},"type":"Feature","geometry":{"type":"Point","coordinates":[-76.916234,38.620444]}},{"properties":{"city":"Woodbridge","lon":-77.299368,"ski shop":"The Sports Authority?","phone":"888-801-9164?","id":"a63qcnrm6fcy","address":"2700 Potomac Mills Cir","lat":38.645195,"state":"VA"},"type":"Feature","geometry":{"type":"Point","coordinates":[-77.299368,38.645195]}},{"properties":{"city":"Glen Burnie","lon":-76.596212,"ski shop":"The Sports Authority?","phone":"888-801-9164?","id":"a63qcnd69lf8","address":"595 E Ordnance Rd","lat":39.198563,"state":"MD"},"type":"Feature","geometry":{"type":"Point","coordinates":[-76.596212,39.198563]}},{"properties":{"city":"Upper Marlboro","lon":-76.847841,"ski shop":"The Sports Authority?","phone":"888-801-9164?","id":"a63qcnr3wtxw","address":"1000 Shoppers Way","lat":38.903228,"state":"MD"},"type":"Feature","geometry":{"type":"Point","coordinates":[-76.847841,38.903228]}},{"properties":{"city":"Towson","lon":-76.581049,"ski shop":"The Sports Authority?","phone":"888-801-9164?","id":"a63qcnf4g6jq","address":"1238 Putty Hill Ave","lat":39.393207,"state":"MD"},"type":"Feature","geometry":{"type":"Point","coordinates":[-76.581049,39.393207]}},{"properties":{"city":"Vienna","lon":-77.233708,"ski shop":"The Sports Authority?","phone":"888-801-9164?","id":"a63qcnrwf9xv","address":"8335 Leesburg Pike","lat":38.920218,"state":"VA"},"type":"Feature","geometry":{"type":"Point","coordinates":[-77.233708,38.920218]}},{"properties":{"city":"Fairfax","lon":-77.371604,"ski shop":"The Sports Authority?","phone":"888-801-9164?","id":"a63qcnqpbwkk","address":"12300 Price Club Plz","lat":38.848115,"state":"VA"},"type":"Feature","geometry":{"type":"Point","coordinates":[-77.371604,38.848115]}},{"properties":{"city":"Baltimore","lon":-76.472886,"ski shop":"The Sports Authority?","phone":"888-801-9164?","id":"a63qcnjy6cus","address":"8200 Perry Hall Blvd","lat":39.375298,"state":"MD"},"type":"Feature","geometry":{"type":"Point","coordinates":[-76.472886,39.375298]}},{"properties":{"city":"Rockville","lon":-77.117119,"ski shop":"The Sports Authority?","phone":"888-801-9164?","id":"a63qcnpd2533","address":"12055 Rockville Pike","lat":39.054104,"state":"MD"},"type":"Feature","geometry":{"type":"Point","coordinates":[-77.117119,39.054104]}},{"properties":{"city":"Gaithersburg","lon":-77.206574,"ski shop":"The Sports Authority?","phone":"888-801-9164?","id":"a63qcnkmux7x","address":"110 Odendhal Ave","lat":39.148813,"state":"MD"},"type":"Feature","geometry":{"type":"Point","coordinates":[-77.206574,39.148813]}},{"properties":{"city":"Catonsville","lon":-76.762029,"ski shop":"The Sports Authority?","phone":"888-801-9164?","id":"a63qcnirmxvl","address":"6510 Baltimore National Pike","lat":39.285861,"state":"MD"},"type":"Feature","geometry":{"type":"Point","coordinates":[-76.762029,39.285861]}},{"properties":{"city":"Frederick","lon":-77.391015,"ski shop":"Under the Sun Sports?","phone":"301-698-8900?","id":"a63qcncz30xv","address":"1003 E Patrick St","lat":39.409004,"state":"MD"},"type":"Feature","geometry":{"type":"Point","coordinates":[-77.391015,39.409004]}},{"properties":{"city":"Woodbridge","lon":-77.318054,"ski shop":"Village Skis &amp; Bikes?","phone":"703-730-0303?","id":"a63qcnkcdmro","address":"12383 Dillingham Sq","lat":38.684581,"state":"VA"},"type":"Feature","geometry":{"type":"Point","coordinates":[-77.318054,38.684581]}},{"properties":{"city":"Towson","lon":-76.601314,"ski shop":"Wavedancer Surf Shops?","phone":"410-583-5635?","id":"a63qcngz89ck","address":"825 Dulaney Valley Road","lat":39.404717,"state":"MD"},"type":"Feature","geometry":{"type":"Point","coordinates":[-76.601314,39.404717]}},{"properties":{"city":"Fairfax","lon":-77.335624,"ski shop":"Willis Ski &amp; Snowboard?","phone":"703-385-7669?","id":"a63qcnj0svnp","address":"11236 James Swart Cir","lat":38.855615,"state":"VA"},"type":"Feature","geometry":{"type":"Point","coordinates":[-77.335624,38.855615]}}],"is_temporal":false,"author":{"url":"http://maps.google.com/maps?hl=en&client=firefox-a&rls=org.mozilla:en-US:official&hs=vsB&um=1&ie=UTF-8&q=ski+shops+washington+dc&fb=1&view=text&sa=X&oi=local_group&resnum=4&ct=more-results&cd=1","metadata":"","contact_name":"","contact_address":"","source":"Local Business Results - Google Maps","contact_phone":""},"source":"http://maps.google.com/maps?hl=en&client=firefox-a&rls=org.mozilla:en-US:official&hs=vsB&um=1&ie=UTF-8&q=ski+shops+washington+dc&fb=1&view=text&sa=X&oi=local_group&resnum=4&ct=more-results&cd=1","pagination":{"sort":null,"start":0,"total":55,"limit":1000000},"state":"complete","tags":"mountain,recreation,retail,ski,skiing,snow,snowboard,snowboarding,travel","published":"2008-12-23T12:00:00Z","id":8388}