{"type":"FeatureCollection","data_type":"Dataset","url_type":null,"permissions":[{"permissions":{"download":true,"view":true},"group_id":"everyone"}],"classification":null,"title":"Ski Resorts, Washington DC Area, 12.2008","count":13,"stream_id":8389,"contributor":{"url":"http://geocommons.com/users/139","name":"Burkey"},"data_attributes":null,"calculation_params":null,"icon_link":null,"link":"http://geocommons.com/overlays/8389.json","extent":[-81.1228,37.6008,-76.9271,40.1096],"geometry_types":["point"],"unique_name":null,"name":"Ski Resorts, Washington DC Area, 12.2008","feature_count":13,"description":"This dataset displays ski resorts that are close to the Washington DC area in the states of Virginia, Maryland, West Virginia, and Southern Pennsylvania as of 12.2008. The information comes from Goski.com and contains: resort name, address, city, state, zip, phone, and lat/lon location. The lat/lon location was found by using Google Earth and manually recording the lat/lon at the ski resort location.","next_feature":null,"is_raster":false,"short_classification":"Y","stats":{"lon":{"max":-76.927096,"mean":-79.1160095384615,"variance":1.4540286344986,"stdev":1.20583109700265,"min":-81.122764,"median":-79.363334},"zip":{"max":26260,"mean":22851.0769230769,"variance":12514867.5769231,"stdev":3537.63587398747,"min":17236,"median":22958},"lat":{"max":40.109625,"mean":38.9589441538461,"variance":0.727915699689142,"stdev":0.853179758133737,"min":37.600777,"median":39.008163}},"features":[{"properties":{"city":"Basye","lon":-78.765628,"zip":22810,"phone":"540-856-2121","id":"a6297uh146es","address":"1982 Fairway Drive","lat":38.817461,"resort":"Bryce Resort","state":"VA"},"type":"Feature","geometry":{"type":"Point","coordinates":[-78.765628,38.817461]}},{"properties":{"city":"Davis","lon":-79.438326,"zip":26260,"phone":"304-866-4121","id":"a6297u4991ru","address":"Rte 32","lat":39.008163,"resort":"Canaan Valley","state":"WV"},"type":"Feature","geometry":{"type":"Point","coordinates":[-79.438326,39.008163]}},{"properties":{"city":"McGaheysville","lon":-78.755672,"zip":22840,"phone":"540-289-4954","id":"a6297ughteci","address":"1822 Resort Drive","lat":38.404903,"resort":"Massanutten","state":"VA"},"type":"Feature","geometry":{"type":"Point","coordinates":[-78.755672,38.404903]}},{"properties":{"city":"Wheeling","lon":-80.660375,"zip":26003,"phone":"304-243-4000","id":"a6297u840q0y","address":"Rt 88 N","lat":40.098785,"resort":"Oglebay","state":"WV"},"type":"Feature","geometry":{"type":"Point","coordinates":[-80.660375,40.098785]}},{"properties":{"city":"Carroll Valley","lon":-77.374572,"zip":17320,"phone":"717-642-8282","id":"a6297u7ihswl","address":"78 Country Club Trail","lat":39.761615,"resort":"Ski Liberty","state":"PA"},"type":"Feature","geometry":{"type":"Point","coordinates":[-77.374572,39.761615]}},{"properties":{"city":"Lewisberry","lon":-76.927096,"zip":17339,"phone":"717-432-9631","id":"a6297uf76ab8","address":"925 Roundtop Rd","lat":40.109625,"resort":"Ski Roundtop","state":"PA"},"type":"Feature","geometry":{"type":"Point","coordinates":[-76.927096,40.109625]}},{"properties":{"city":"Snowshoe","lon":-79.996042,"zip":26209,"phone":"304-572-1000","id":"a6297ucjt6wn","address":"10 Snowshoe Dr","lat":38.411269,"resort":"Snowshoe Mountain","state":"WV"},"type":"Feature","geometry":{"type":"Point","coordinates":[-79.996042,38.411269]}},{"properties":{"city":"Hot Springs","lon":-79.830194,"zip":24445,"phone":"540-839-1766","id":"a6297ujcfhn9","address":"1766 Homestead Drive","lat":37.997063,"resort":"The Homestead","state":"VA"},"type":"Feature","geometry":{"type":"Point","coordinates":[-79.830194,37.997063]}},{"properties":{"city":"Davis","lon":-79.399187,"zip":26260,"phone":"304-866-4801","id":"a6297uja49wt","address":"Timberline Rd","lat":39.043236,"resort":"Timberline","state":"WV"},"type":"Feature","geometry":{"type":"Point","coordinates":[-79.399187,39.043236]}},{"properties":{"city":"McHenry","lon":-79.363334,"zip":21541,"phone":"301-387-4911","id":"a6297u4ai9ls","address":"296 Marsh Hill Road","lat":39.557099,"resort":"WISP at Depp Creek Mountain Resort","state":"MD"},"type":"Feature","geometry":{"type":"Point","coordinates":[-79.363334,39.557099]}},{"properties":{"city":"Mercersburg","lon":-77.93296,"zip":17236,"phone":"717-328-9400","id":"a6297ua9mrnt","address":"13805 Blairs Valley Road","lat":39.741678,"resort":"Whitetail","state":"PA"},"type":"Feature","geometry":{"type":"Point","coordinates":[-77.93296,39.741678]}},{"properties":{"city":"Wintergreen","lon":-78.941974,"zip":22958,"phone":"434-325-2200","id":"a6297udc9tuc","address":"Route 664","lat":37.9146,"resort":"Wintergreen Resort","state":"VA"},"type":"Feature","geometry":{"type":"Point","coordinates":[-78.941974,37.9146]}},{"properties":{"city":"Ghent","lon":-81.122764,"zip":25843,"phone":"304-787-3221","id":"a6297u6w7854","address":"100 Old Flat Top Mt Rd","lat":37.600777,"resort":"Winterplace","state":"WV"},"type":"Feature","geometry":{"type":"Point","coordinates":[-81.122764,37.600777]}}],"is_temporal":false,"author":{"url":"http://www.goski.com/usa_index.html","metadata":"","contact_name":"","contact_address":"","source":"GoSki.com","contact_phone":""},"source":"http://www.goski.com/usa_index.html","pagination":{"sort":null,"start":0,"total":13,"limit":1000000},"state":"complete","tags":"mountain,recreation,resorts,ski,skiing,snow,snowboard,snowboarding,travel","published":"2008-12-23T12:00:00Z","id":8389}