{"type":"FeatureCollection","data_type":"Dataset","url_type":null,"permissions":[{"permissions":{"download":true,"view":true},"group_id":"everyone"}],"classification":null,"title":"Ford Factories in the United States","count":42,"stream_id":8483,"contributor":{"url":"http://geocommons.com/users/2943","name":"Margot"},"data_attributes":null,"calculation_params":null,"icon_link":null,"link":"http://geocommons.com/overlays/8483.json","extent":[-121.898,33.6593,-74.3936,44.9438],"geometry_types":["point"],"unique_name":null,"name":"Ford Factories in the United States","feature_count":42,"description":"I found this data by searching for Ford Factories in the US on wikipedia.org. I took the cities and states for all plants found in the US and geocoded them for latitude and longitude using batchgeocode.com. I then uploaded the data into Finder! as a csv. Points were checked for accuracy once in Maker!","next_feature":null,"is_raster":false,"short_classification":"Y","stats":{"lat":{"max":44.943829,"mean":40.9401394285714,"variance":5.33692396888601,"stdev":2.31017834135939,"min":33.65931,"median":41.56334},"long":{"max":-74.39357,"mean":-85.6992140238095,"variance":75.9379588495956,"stdev":8.71423885658384,"min":-121.898065,"median":-83.244798}},"features":[{"properties":{"city":"Hapeville","plantname":"Atlanta Assembly","id":"a62eoluhshtb","lat":33.65931,"state":"Georgia","long":-84.408554},"type":"Feature","geometry":{"type":"Point","coordinates":[-84.408554,33.65931]}},{"properties":{"city":"Flat Rock","plantname":"AutoAlliance International","id":"a62eolvuw18z","lat":42.09449,"state":"Michigan","long":-83.281534},"type":"Feature","geometry":{"type":"Point","coordinates":[-83.281534,42.09449]}},{"properties":{"city":"Batavia","plantname":"Batavia Transmission","id":"a62eolxdbdf3","lat":39.07859,"state":"Ohio","long":-84.179414},"type":"Feature","geometry":{"type":"Point","coordinates":[-84.179414,39.07859]}},{"properties":{"city":"Buffalo","plantname":"Buffalo Stamping","id":"a62eoll1exxe","lat":42.88544,"state":"New York","long":-78.878464},"type":"Feature","geometry":{"type":"Point","coordinates":[-78.878464,42.88544]}},{"properties":{"city":"Chicago","plantname":"Chicago Assembly","id":"a62eolt90ph7","lat":41.88415,"state":"Illinois","long":-87.632409},"type":"Feature","geometry":{"type":"Point","coordinates":[-87.632409,41.88415]}},{"properties":{"city":"Chicago Heights","plantname":"Chicago Stamping","id":"a62eoltn865h","lat":41.50197,"state":"Illinois","long":-87.640524},"type":"Feature","geometry":{"type":"Point","coordinates":[-87.640524,41.50197]}},{"properties":{"city":"Brook Park","plantname":"Cleveland Aluminum Casting Plant","id":"a62eolns0bmk","lat":41.396745,"state":"Ohio","long":-81.823197},"type":"Feature","geometry":{"type":"Point","coordinates":[-81.823197,41.396745]}},{"properties":{"city":"Brook Park","plantname":"Cleveland Casting","id":"a62eolo5rmy9","lat":41.396745,"state":"Ohio","long":-81.823197},"type":"Feature","geometry":{"type":"Point","coordinates":[-81.823197,41.396745]}},{"properties":{"city":"Brook Park","plantname":"Cleveland Engine #1","id":"a62eolvcbqrk","lat":41.396745,"state":"Ohio","long":-81.823197},"type":"Feature","geometry":{"type":"Point","coordinates":[-81.823197,41.396745]}},{"properties":{"city":"Brook Park","plantname":"Cleveland Engine #2","id":"a62eoli1ekb8","lat":41.396745,"state":"Ohio","long":-81.823197},"type":"Feature","geometry":{"type":"Point","coordinates":[-81.823197,41.396745]}},{"properties":{"city":"Dearborn","plantname":"Dearborn Engine","id":"a62eolomel6p","lat":42.32209,"state":"Michigan","long":-83.176239},"type":"Feature","geometry":{"type":"Point","coordinates":[-83.176239,42.32209]}},{"properties":{"city":"Dearborn","plantname":"Dearborn Frame","id":"a62eolo91lok","lat":42.32209,"state":"Michigan","long":-83.176239},"type":"Feature","geometry":{"type":"Point","coordinates":[-83.176239,42.32209]}},{"properties":{"city":"Dearborn","plantname":"Dearborn Stamping","id":"a62eolh7hajk","lat":42.32209,"state":"Michigan","long":-83.176239},"type":"Feature","geometry":{"type":"Point","coordinates":[-83.176239,42.32209]}},{"properties":{"city":"Dearborn","plantname":"Dearborn Tool &amp; Die","id":"a62eolosvywp","lat":42.32209,"state":"Michigan","long":-83.176239},"type":"Feature","geometry":{"type":"Point","coordinates":[-83.176239,42.32209]}},{"properties":{"city":"Dearborn","plantname":"Dearborn Truck","id":"a62eolirxdrh","lat":42.32209,"state":"Michigan","long":-83.176239},"type":"Feature","geometry":{"type":"Point","coordinates":[-83.176239,42.32209]}},{"properties":{"city":"Detroit","plantname":"Detroit Empowerment Zone","id":"a62eolwdpktp","lat":42.331685,"state":"Michigan","long":-83.047924},"type":"Feature","geometry":{"type":"Point","coordinates":[-83.047924,42.331685]}},{"properties":{"city":"Edison","plantname":"Edison Assembly","id":"a62eolpzr8b2","lat":40.526798,"state":"New Jersey","long":-74.39357},"type":"Feature","geometry":{"type":"Point","coordinates":[-74.39357,40.526798]}},{"properties":{"city":"Claycomo","plantname":"Kansas City Assembly","id":"a62eolinp8x2","lat":39.200475,"state":"Missouri","long":-94.497839},"type":"Feature","geometry":{"type":"Point","coordinates":[-94.497839,39.200475]}},{"properties":{"city":"Louisville","plantname":"Kentucky Truck Assembly","id":"a62eolrwhqik","lat":38.25486,"state":"Kentucky","long":-85.766404},"type":"Feature","geometry":{"type":"Point","coordinates":[-85.766404,38.25486]}},{"properties":{"city":"Lima","plantname":"Lima Engine","id":"a62eolr2mzvj","lat":40.742695,"state":"Ohio","long":-84.107294},"type":"Feature","geometry":{"type":"Point","coordinates":[-84.107294,40.742695]}},{"properties":{"city":"Livonia","plantname":"Livonia Transmission","id":"a62eoloaquh7","lat":42.39658,"state":"Michigan","long":-83.369574},"type":"Feature","geometry":{"type":"Point","coordinates":[-83.369574,42.39658]}},{"properties":{"city":"Long Beach","plantname":"Long Beach Assembly","id":"a62eolwmb4v9","lat":33.766425,"state":"California","long":-118.192394},"type":"Feature","geometry":{"type":"Point","coordinates":[-118.192394,33.766425]}},{"properties":{"city":"Lorain","plantname":"Lorain Assembly","id":"a62eoli842fp","lat":41.4682,"state":"Ohio","long":-82.178149},"type":"Feature","geometry":{"type":"Point","coordinates":[-82.178149,41.4682]}},{"properties":{"city":"Louisville","plantname":"Louisville Assembly","id":"a62eolkzx8pu","lat":38.25486,"state":"Kentucky","long":-85.766404},"type":"Feature","geometry":{"type":"Point","coordinates":[-85.766404,38.25486]}},{"properties":{"city":"Maumee","plantname":"Maumee Stamping","id":"a62eolpgppni","lat":41.56334,"state":"Ohio","long":-83.654164},"type":"Feature","geometry":{"type":"Point","coordinates":[-83.654164,41.56334]}},{"properties":{"city":"Wayne","plantname":"Michigan Truck","id":"a62eolng5bxk","lat":42.284745,"state":"Michigan","long":-83.383481},"type":"Feature","geometry":{"type":"Point","coordinates":[-83.383481,42.284745]}},{"properties":{"city":"Allen Park","plantname":"New Model Programs Development Center","id":"a62eolnse775","lat":42.263723,"state":"Michigan","long":-83.219789},"type":"Feature","geometry":{"type":"Point","coordinates":[-83.219789,42.263723]}},{"properties":{"city":"Norfolk","plantname":"Norfolk Assembly","id":"a62eolp7m163","lat":36.846825,"state":"Virginia","long":-76.285069},"type":"Feature","geometry":{"type":"Point","coordinates":[-76.285069,36.846825]}},{"properties":{"city":"Avon Lake","plantname":"Ohio Assembly","id":"a62eolqdj62g","lat":41.51295,"state":"Ohio","long":-82.018544},"type":"Feature","geometry":{"type":"Point","coordinates":[-82.018544,41.51295]}},{"properties":{"city":"Omaha","plantname":"Omaha Ford Motor Company Assembly Plant","id":"a62eolul2j7i","lat":41.260645,"state":"Nebraska","long":-95.940469},"type":"Feature","geometry":{"type":"Point","coordinates":[-95.940469,41.260645]}},{"properties":{"city":"Ypsilanti","plantname":"Rawsonville Parts","id":"a62eolnwhpn3","lat":42.24088,"state":"Michigan","long":-83.613089},"type":"Feature","geometry":{"type":"Point","coordinates":[-83.613089,42.24088]}},{"properties":{"city":"Romeo","plantname":"Romeo Engine","id":"a62eoll5wb5d","lat":42.802595,"state":"Michigan","long":-83.014019},"type":"Feature","geometry":{"type":"Point","coordinates":[-83.014019,42.802595]}},{"properties":{"city":"Milpitas","plantname":"San Jose Assembly Plant","id":"a62eolt5dm33","lat":37.432539,"state":"California","long":-121.898065},"type":"Feature","geometry":{"type":"Point","coordinates":[-121.898065,37.432539]}},{"properties":{"city":"Sharonville","plantname":"Sharonville Transmission","id":"a62eolut3g9n","lat":39.26573,"state":"Ohio","long":-84.414354},"type":"Feature","geometry":{"type":"Point","coordinates":[-84.414354,39.26573]}},{"properties":{"city":"Hazelwood","plantname":"St. Louis Assembly","id":"a62eolovgmtg","lat":38.784988,"state":"Missouri","long":-90.355291},"type":"Feature","geometry":{"type":"Point","coordinates":[-90.355291,38.784988]}},{"properties":{"city":"St. Paul","plantname":"Twin Cities Assembly","id":"a62eolk1iml9","lat":44.943829,"state":"Minnesota","long":-93.093326},"type":"Feature","geometry":{"type":"Point","coordinates":[-93.093326,44.943829]}},{"properties":{"city":"Sterling Heights","plantname":"Van Dyke Transmission Plant","id":"a62eolm15uct","lat":42.593309,"state":"Michigan","long":-83.01337},"type":"Feature","geometry":{"type":"Point","coordinates":[-83.01337,42.593309]}},{"properties":{"city":"Walton Hills","plantname":"Walton Hills Stamping","id":"a62eolhj77z6","lat":41.35955,"state":"Ohio","long":-81.546074},"type":"Feature","geometry":{"type":"Point","coordinates":[-81.546074,41.35955]}},{"properties":{"city":"Wayne","plantname":"Wayne Stamping &amp; Assembly","id":"a62eolun80zi","lat":42.284745,"state":"Michigan","long":-83.383481},"type":"Feature","geometry":{"type":"Point","coordinates":[-83.383481,42.284745]}},{"properties":{"city":"Wixom","plantname":"Wixom Assembly Plant","id":"a62eoltqffsl","lat":42.524515,"state":"Michigan","long":-83.530374},"type":"Feature","geometry":{"type":"Point","coordinates":[-83.530374,42.524515]}},{"properties":{"city":"Woodhaven","plantname":"Woodhaven Forging","id":"a62eoluy5gg9","lat":42.138495,"state":"Michigan","long":-83.244798},"type":"Feature","geometry":{"type":"Point","coordinates":[-83.244798,42.138495]}},{"properties":{"city":"Woodhaven","plantname":"Woodhaven Stamping","id":"a62eolrdas3b","lat":42.138495,"state":"Michigan","long":-83.244798},"type":"Feature","geometry":{"type":"Point","coordinates":[-83.244798,42.138495]}}],"is_temporal":false,"author":{"url":"http://en.wikipedia.org/wiki/List_of_Ford_factories","metadata":"http://en.wikipedia.org/wiki/List_of_Ford_factories","contact_name":"","contact_address":"","source":"Wikipedia.org","contact_phone":""},"source":"http://en.wikipedia.org/wiki/List_of_Ford_factories","pagination":{"sort":null,"start":0,"total":42,"limit":1000000},"state":"complete","tags":"assembly,automobiles,autoplants,cars,ford,makers,manufacturing,plants,states,us","published":"2009-01-05T12:00:00Z","id":8483}