{"type":"FeatureCollection","data_type":"Dataset","url_type":null,"permissions":[{"permissions":{"download":true,"view":true},"group_id":"everyone"}],"classification":null,"title":"Sales By Postcode Art 1.7.10 - 4.1.10","count":120,"stream_id":85197,"contributor":{"url":"http://geocommons.com/users/20840","name":"sales analysis"},"data_attributes":null,"calculation_params":null,"icon_link":null,"link":"http://geocommons.com/overlays/85197.json","extent":[144.44,-34.9179,151.751,-32.0329],"geometry_types":["point"],"unique_name":null,"name":"Sales By Postcode Art 1.7.10 - 4.1.10","feature_count":120,"description":"","next_feature":null,"is_raster":false,"short_classification":"Y","stats":{"sales":{"max":210,"mean":16.8916666666667,"variance":943.206652661063,"stdev":30.711669649517,"min":0,"median":6},"ranking":{"max":120,"mean":60.5,"variance":1210.0,"stdev":34.7850542618522,"min":1,"median":61},"sales amount":{"max":85717.0,"mean":7730.58741666667,"variance":185352613.531008,"stdev":13614.4266691994,"min":0.0,"median":2598.0},"gp%":{"max":93.8,"mean":46.5435833333333,"variance":166.065972766107,"stdev":12.8866587122538,"min":-42.28,"median":47.45},"lat":{"max":-32.032911,"mean":-33.761452525,"variance":0.119777814323781,"stdev":0.346089315529649,"min":-34.917864,"median":-33.802403},"long":{"max":151.751451,"mean":151.017803041667,"variance":0.803618027917069,"stdev":0.89644744849716,"min":144.440184,"median":151.155678}},"features":[{"properties":{"sales":210,"postcode":"2065","country":"Australia","ranking":1,"sales amount":85717.0,"gp%":49.16,"id":"a6f8zys0pqnt","lat":-33.82609,"long":151.199192,"state":"NSW"},"type":"Feature","geometry":{"type":"Point","coordinates":[151.199192,-33.82609]}},{"properties":{"sales":161,"postcode":"2066","country":"Australia","ranking":2,"sales amount":72324.16,"gp%":46.95,"id":"a6f8zygyjgwu","lat":-33.82609,"long":151.199192,"state":"NSW"},"type":"Feature","geometry":{"type":"Point","coordinates":[151.199192,-33.82609]}},{"properties":{"sales":117,"postcode":"2067","country":"Australia","ranking":3,"sales amount":58881.0,"gp%":45.21,"id":"a6f8zym41ccw","lat":-33.795617,"long":151.185329,"state":"NSW"},"type":"Feature","geometry":{"type":"Point","coordinates":[151.185329,-33.795617]}},{"properties":{"sales":110,"postcode":"2064","country":"Australia","ranking":4,"sales amount":45330.46,"gp%":48.02,"id":"a6f8zypawopu","lat":-33.807664,"long":151.189662,"state":"NSW"},"type":"Feature","geometry":{"type":"Point","coordinates":[151.189662,-33.807664]}},{"properties":{"sales":80,"postcode":"2088","country":"Australia","ranking":5,"sales amount":40995.0,"gp%":41.85,"id":"a6f8zyfzhbe4","lat":-33.829077,"long":151.24409,"state":"NSW"},"type":"Feature","geometry":{"type":"Point","coordinates":[151.24409,-33.829077]}},{"properties":{"sales":88,"postcode":"2060","country":"Australia","ranking":6,"sales amount":37671.0,"gp%":48.83,"id":"a6f8zypjg05y","lat":-33.840633,"long":151.19497,"state":"NSW"},"type":"Feature","geometry":{"type":"Point","coordinates":[151.19497,-33.840633]}},{"properties":{"sales":59,"postcode":"2113","country":"Australia","ranking":7,"sales amount":31241.0,"gp%":48.81,"id":"a6f8zyjlr3fu","lat":-33.798595,"long":151.133903,"state":"NSW"},"type":"Feature","geometry":{"type":"Point","coordinates":[151.133903,-33.798595]}},{"properties":{"sales":63,"postcode":"2089","country":"Australia","ranking":8,"sales amount":26370.0,"gp%":47.49,"id":"a6f8zym9cqgd","lat":-33.83112,"long":151.221232,"state":"NSW"},"type":"Feature","geometry":{"type":"Point","coordinates":[151.221232,-33.83112]}},{"properties":{"sales":51,"postcode":"2112","country":"Australia","ranking":9,"sales amount":25414.0,"gp%":47.66,"id":"a6f8zykscq2k","lat":-33.797177,"long":151.097546,"state":"NSW"},"type":"Feature","geometry":{"type":"Point","coordinates":[151.097546,-33.797177]}},{"properties":{"sales":45,"postcode":"2076","country":"Australia","ranking":10,"sales amount":22093.0,"gp%":46.61,"id":"a6f8zyjizd09","lat":-33.720999,"long":151.097331,"state":"NSW"},"type":"Feature","geometry":{"type":"Point","coordinates":[151.097331,-33.720999]}},{"properties":{"sales":34,"postcode":"2061","country":"Australia","ranking":11,"sales amount":21663.0,"gp%":49.64,"id":"a6f8zykbb7zs","lat":-33.846275,"long":151.212705,"state":"NSW"},"type":"Feature","geometry":{"type":"Point","coordinates":[151.212705,-33.846275]}},{"properties":{"sales":46,"postcode":"2068","country":"Australia","ranking":12,"sales amount":20756.0,"gp%":47.92,"id":"a6f8zynsep71","lat":-33.802403,"long":151.212643,"state":"NSW"},"type":"Feature","geometry":{"type":"Point","coordinates":[151.212643,-33.802403]}},{"properties":{"sales":34,"postcode":"2122","country":"Australia","ranking":13,"sales amount":19387.0,"gp%":44.66,"id":"a6f8zypgpwvu","lat":-33.789986,"long":151.080914,"state":"NSW"},"type":"Feature","geometry":{"type":"Point","coordinates":[151.080914,-33.789986]}},{"properties":{"sales":54,"postcode":"2075","country":"Australia","ranking":14,"sales amount":19252.0,"gp%":35.17,"id":"a6f8zyg2f59l","lat":-33.730601,"long":151.158551,"state":"NSW"},"type":"Feature","geometry":{"type":"Point","coordinates":[151.158551,-33.730601]}},{"properties":{"sales":45,"postcode":"2071","country":"Australia","ranking":15,"sales amount":17858.0,"gp%":48.68,"id":"a6f8zymnygd0","lat":-33.753498,"long":151.170003,"state":"NSW"},"type":"Feature","geometry":{"type":"Point","coordinates":[151.170003,-33.753498]}},{"properties":{"sales":34,"postcode":"2070","country":"Australia","ranking":16,"sales amount":17558.0,"gp%":47.78,"id":"a6f8zyh3ge1f","lat":-33.766415,"long":151.186095,"state":"NSW"},"type":"Feature","geometry":{"type":"Point","coordinates":[151.186095,-33.766415]}},{"properties":{"sales":35,"postcode":"2062","country":"Australia","ranking":17,"sales amount":17457.0,"gp%":49.14,"id":"a6f8zyn31hee","lat":-33.821953,"long":151.21043,"state":"NSW"},"type":"Feature","geometry":{"type":"Point","coordinates":[151.21043,-33.821953]}},{"properties":{"sales":38,"postcode":"2090","country":"Australia","ranking":18,"sales amount":16994.0,"gp%":47.45,"id":"a6f8zyntqnja","lat":-33.828131,"long":151.230233,"state":"NSW"},"type":"Feature","geometry":{"type":"Point","coordinates":[151.230233,-33.828131]}},{"properties":{"sales":36,"postcode":"2086","country":"Australia","ranking":19,"sales amount":16257.0,"gp%":48.2,"id":"a6f8zyhjttp0","lat":-33.750964,"long":151.226036,"state":"NSW"},"type":"Feature","geometry":{"type":"Point","coordinates":[151.226036,-33.750964]}},{"properties":{"sales":21,"postcode":"2069","country":"Australia","ranking":20,"sales amount":14597.86,"gp%":53.5,"id":"a6f8zyt6j1nr","lat":-33.784165,"long":151.199948,"state":"NSW"},"type":"Feature","geometry":{"type":"Point","coordinates":[151.199948,-33.784165]}},{"properties":{"sales":26,"postcode":"2074","country":"Australia","ranking":21,"sales amount":13245.01,"gp%":46.41,"id":"a6f8zys8iq9b","lat":-33.713419,"long":151.147146,"state":"NSW"},"type":"Feature","geometry":{"type":"Point","coordinates":[151.147146,-33.713419]}},{"properties":{"sales":28,"postcode":"2073","country":"Australia","ranking":22,"sales amount":12686.0,"gp%":53.06,"id":"a6f8zytqk7pt","lat":-33.74414,"long":151.141103,"state":"NSW"},"type":"Feature","geometry":{"type":"Point","coordinates":[151.141103,-33.74414]}},{"properties":{"sales":28,"postcode":"2077","country":"Australia","ranking":23,"sales amount":11683.0,"gp%":55.4,"id":"a6f8zylofyit","lat":-33.687484,"long":151.108685,"state":"NSW"},"type":"Feature","geometry":{"type":"Point","coordinates":[151.108685,-33.687484]}},{"properties":{"sales":23,"postcode":"2101","country":"Australia","ranking":24,"sales amount":10674.0,"gp%":48.64,"id":"a6f8zyfxd4z0","lat":-33.695015,"long":151.280156,"state":"NSW"},"type":"Feature","geometry":{"type":"Point","coordinates":[151.280156,-33.695015]}},{"properties":{"sales":25,"postcode":"2000","country":"Australia","ranking":25,"sales amount":10554.0,"gp%":51.58,"id":"a6f8zys56xrj","lat":-33.855601,"long":151.20822,"state":"NSW"},"type":"Feature","geometry":{"type":"Point","coordinates":[151.20822,-33.855601]}},{"properties":{"sales":18,"postcode":"2323","country":"Australia","ranking":26,"sales amount":10437.0,"gp%":46.09,"id":"a6f8zyjaifkc","lat":-32.77382,"long":151.601,"state":"NSW"},"type":"Feature","geometry":{"type":"Point","coordinates":[151.601,-32.77382]}},{"properties":{"sales":14,"postcode":"2153","country":"Australia","ranking":27,"sales amount":10196.0,"gp%":49.46,"id":"a6f8zyoemmmq","lat":-33.758601,"long":150.992887,"state":"NSW"},"type":"Feature","geometry":{"type":"Point","coordinates":[150.992887,-33.758601]}},{"properties":{"sales":24,"postcode":"2087","country":"Australia","ranking":28,"sales amount":9996.0,"gp%":45.5,"id":"a6f8zyr6d8yh","lat":-33.762011,"long":151.21406,"state":"NSW"},"type":"Feature","geometry":{"type":"Point","coordinates":[151.21406,-33.762011]}},{"properties":{"sales":25,"postcode":"2093","country":"Australia","ranking":29,"sales amount":8184.0,"gp%":50.19,"id":"a6f8zyno6qvk","lat":-33.794121,"long":151.26268,"state":"NSW"},"type":"Feature","geometry":{"type":"Point","coordinates":[151.26268,-33.794121]}},{"properties":{"sales":14,"postcode":"2125","country":"Australia","ranking":30,"sales amount":8174.0,"gp%":49.68,"id":"a6f8zytudno8","lat":-33.753676,"long":151.039113,"state":"NSW"},"type":"Feature","geometry":{"type":"Point","coordinates":[151.039113,-33.753676]}},{"properties":{"sales":10,"postcode":"2216","country":"Australia","ranking":31,"sales amount":7985.0,"gp%":45.03,"id":"a6f8zyvlhpbm","lat":-33.945237,"long":151.140161,"state":"NSW"},"type":"Feature","geometry":{"type":"Point","coordinates":[151.140161,-33.945237]}},{"properties":{"sales":15,"postcode":"2114","country":"Australia","ranking":32,"sales amount":7571.0,"gp%":50.72,"id":"a6f8zymf1lkg","lat":-33.799441,"long":151.07959,"state":"NSW"},"type":"Feature","geometry":{"type":"Point","coordinates":[151.07959,-33.799441]}},{"properties":{"sales":22,"postcode":"2111","country":"Australia","ranking":33,"sales amount":7044.0,"gp%":46.63,"id":"a6f8zyi12t06","lat":-33.820941,"long":151.140067,"state":"NSW"},"type":"Feature","geometry":{"type":"Point","coordinates":[151.140067,-33.820941]}},{"properties":{"sales":14,"postcode":"2118","country":"Australia","ranking":34,"sales amount":6156.0,"gp%":48.95,"id":"a6f8zyw9pqzp","lat":-33.820941,"long":151.140067,"state":"NSW"},"type":"Feature","geometry":{"type":"Point","coordinates":[151.140067,-33.820941]}},{"properties":{"sales":9,"postcode":"2103","country":"Australia","ranking":35,"sales amount":6053.0,"gp%":44.58,"id":"a6f8zyv2vu3n","lat":-33.67707,"long":151.300316,"state":"NSW"},"type":"Feature","geometry":{"type":"Point","coordinates":[151.300316,-33.67707]}},{"properties":{"sales":10,"postcode":"2019","country":"Australia","ranking":36,"sales amount":5698.0,"gp%":46.57,"id":"a6f8zym6wbu3","lat":-33.95742,"long":151.206715,"state":"NSW"},"type":"Feature","geometry":{"type":"Point","coordinates":[151.206715,-33.95742]}},{"properties":{"sales":18,"postcode":"2031","country":"Australia","ranking":37,"sales amount":5459.0,"gp%":50.95,"id":"a6f8zyrtft7u","lat":-33.912639,"long":151.262021,"state":"NSW"},"type":"Feature","geometry":{"type":"Point","coordinates":[151.262021,-33.912639]}},{"properties":{"sales":12,"postcode":"2041","country":"Australia","ranking":38,"sales amount":5356.0,"gp%":40.37,"id":"a6f8zyikclnv","lat":-33.856498,"long":151.178009,"state":"NSW"},"type":"Feature","geometry":{"type":"Point","coordinates":[151.178009,-33.856498]}},{"properties":{"sales":12,"postcode":"2028","country":"Australia","ranking":39,"sales amount":5200.0,"gp%":50.9,"id":"a6f8zyh4syux","lat":-33.87906,"long":151.243095,"state":"NSW"},"type":"Feature","geometry":{"type":"Point","coordinates":[151.243095,-33.87906]}},{"properties":{"sales":11,"postcode":"2072","country":"Australia","ranking":40,"sales amount":4843.0,"gp%":46.77,"id":"a6f8zyu65qfd","lat":-33.757349,"long":151.155678,"state":"NSW"},"type":"Feature","geometry":{"type":"Point","coordinates":[151.155678,-33.757349]}},{"properties":{"sales":6,"postcode":"2095","country":"Australia","ranking":41,"sales amount":4767.0,"gp%":48.17,"id":"a6f8zytotjvl","lat":-33.797144,"long":151.28804,"state":"NSW"},"type":"Feature","geometry":{"type":"Point","coordinates":[151.28804,-33.797144]}},{"properties":{"sales":4,"postcode":"2116","country":"Australia","ranking":42,"sales amount":4728.0,"gp%":49.45,"id":"a6f8zyt476q0","lat":-33.811244,"long":151.034464,"state":"NSW"},"type":"Feature","geometry":{"type":"Point","coordinates":[151.034464,-33.811244]}},{"properties":{"sales":6,"postcode":"2016","country":"Australia","ranking":43,"sales amount":4294.0,"gp%":51.66,"id":"a6f8zyspmgmh","lat":-33.892778,"long":151.203901,"state":"NSW"},"type":"Feature","geometry":{"type":"Point","coordinates":[151.203901,-33.892778]}},{"properties":{"sales":6,"postcode":"2110","country":"Australia","ranking":44,"sales amount":4287.0,"gp%":41.79,"id":"a6f8zykeknht","lat":-33.83484,"long":151.154196,"state":"NSW"},"type":"Feature","geometry":{"type":"Point","coordinates":[151.154196,-33.83484]}},{"properties":{"sales":8,"postcode":"2100","country":"Australia","ranking":45,"sales amount":4253.0,"gp%":52.72,"id":"a6f8zyo0meks","lat":-33.765076,"long":151.248864,"state":"NSW"},"type":"Feature","geometry":{"type":"Point","coordinates":[151.248864,-33.765076]}},{"properties":{"sales":10,"postcode":"2120","country":"Australia","ranking":46,"sales amount":3942.0,"gp%":52.58,"id":"a6f8zygkpvry","lat":-33.738681,"long":151.071433,"state":"NSW"},"type":"Feature","geometry":{"type":"Point","coordinates":[151.071433,-33.738681]}},{"properties":{"sales":15,"postcode":"2085","country":"Australia","ranking":47,"sales amount":3707.0,"gp%":56.45,"id":"a6f8zyudtfwi","lat":-33.739288,"long":151.211439,"state":"NSW"},"type":"Feature","geometry":{"type":"Point","coordinates":[151.211439,-33.739288]}},{"properties":{"sales":7,"postcode":"2010","country":"Australia","ranking":48,"sales amount":3534.0,"gp%":46.1,"id":"a6f8zyult33b","lat":-33.879825,"long":151.21956,"state":"NSW"},"type":"Feature","geometry":{"type":"Point","coordinates":[151.21956,-33.879825]}},{"properties":{"sales":10,"postcode":"2213","country":"Australia","ranking":49,"sales amount":3448.0,"gp%":47.85,"id":"a6f8zyjb1hjh","lat":-33.963359,"long":150.986695,"state":"NSW"},"type":"Feature","geometry":{"type":"Point","coordinates":[150.986695,-33.963359]}},{"properties":{"sales":4,"postcode":"2500","country":"Australia","ranking":50,"sales amount":3279.0,"gp%":50.21,"id":"a6f8zyrhswho","lat":-34.436545,"long":150.885559,"state":"NSW"},"type":"Feature","geometry":{"type":"Point","coordinates":[150.885559,-34.436545]}},{"properties":{"sales":2,"postcode":"2079","country":"Australia","ranking":51,"sales amount":3199.0,"gp%":48.73,"id":"a6f8zys5cf3t","lat":-33.664817,"long":151.117161,"state":"NSW"},"type":"Feature","geometry":{"type":"Point","coordinates":[151.117161,-33.664817]}},{"properties":{"sales":6,"postcode":"2159","country":"Australia","ranking":52,"sales amount":3198.0,"gp%":39.82,"id":"a6f8zyiy0lfg","lat":-33.623101,"long":151.052726,"state":"NSW"},"type":"Feature","geometry":{"type":"Point","coordinates":[151.052726,-33.623101]}},{"properties":{"sales":21,"postcode":"2047","country":"Australia","ranking":53,"sales amount":3185.0,"gp%":51.15,"id":"a6f8zyjk3osa","lat":-33.851056,"long":151.154542,"state":"NSW"},"type":"Feature","geometry":{"type":"Point","coordinates":[151.154542,-33.851056]}},{"properties":{"sales":11,"postcode":"2063","country":"Australia","ranking":54,"sales amount":3176.0,"gp%":52.24,"id":"a6f8zyk78k63","lat":-33.815028,"long":151.222266,"state":"NSW"},"type":"Feature","geometry":{"type":"Point","coordinates":[151.222266,-33.815028]}},{"properties":{"sales":10,"postcode":"2126","country":"Australia","ranking":55,"sales amount":3169.0,"gp%":47.68,"id":"a6f8zyhzohpx","lat":-33.722019,"long":151.041806,"state":"NSW"},"type":"Feature","geometry":{"type":"Point","coordinates":[151.041806,-33.722019]}},{"properties":{"sales":2,"postcode":"2026","country":"Australia","ranking":56,"sales amount":3098.0,"gp%":41.44,"id":"a6f8zyhi2ate","lat":-33.893739,"long":151.262502,"state":"NSW"},"type":"Feature","geometry":{"type":"Point","coordinates":[151.262502,-33.893739]}},{"properties":{"sales":2,"postcode":"2131","country":"Australia","ranking":57,"sales amount":2998.0,"gp%":44.71,"id":"a6f8zyfsavdt","lat":-33.889498,"long":151.127444,"state":"NSW"},"type":"Feature","geometry":{"type":"Point","coordinates":[151.127444,-33.889498]}},{"properties":{"sales":2,"postcode":"2200","country":"Australia","ranking":58,"sales amount":2939.0,"gp%":44.78,"id":"a6f8zyvzrrgr","lat":-33.919539,"long":151.034909,"state":"NSW"},"type":"Feature","geometry":{"type":"Point","coordinates":[151.034909,-33.919539]}},{"properties":{"sales":2,"postcode":"2142","country":"Australia","ranking":59,"sales amount":2668.0,"gp%":42.2,"id":"a6f8zyn3yxll","lat":-33.853251,"long":151.008129,"state":"NSW"},"type":"Feature","geometry":{"type":"Point","coordinates":[151.008129,-33.853251]}},{"properties":{"sales":8,"postcode":"2763","country":"Australia","ranking":60,"sales amount":2598.0,"gp%":53.0,"id":"a6f8zymehm42","lat":-33.730077,"long":150.906502,"state":"NSW"},"type":"Feature","geometry":{"type":"Point","coordinates":[150.906502,-33.730077]}},{"properties":{"sales":11,"postcode":"2540","country":"Australia","ranking":61,"sales amount":2499.0,"gp%":-42.28,"id":"a6f8zyqsl31k","lat":-34.894362,"long":150.534464,"state":"NSW"},"type":"Feature","geometry":{"type":"Point","coordinates":[150.534464,-34.894362]}},{"properties":{"sales":9,"postcode":"2223","country":"Australia","ranking":62,"sales amount":2495.0,"gp%":46.81,"id":"a6f8zytn3vob","lat":-33.972239,"long":151.075391,"state":"NSW"},"type":"Feature","geometry":{"type":"Point","coordinates":[151.075391,-33.972239]}},{"properties":{"sales":9,"postcode":"2768","country":"Australia","ranking":63,"sales amount":2199.0,"gp%":54.98,"id":"a6f8zyvif2ko","lat":-33.737863,"long":150.922732,"state":"NSW"},"type":"Feature","geometry":{"type":"Point","coordinates":[150.922732,-33.737863]}},{"properties":{"sales":6,"postcode":"2040","country":"Australia","ranking":64,"sales amount":2192.0,"gp%":47.09,"id":"a6f8zynqf1ik","lat":-33.883793,"long":151.157057,"state":"NSW"},"type":"Feature","geometry":{"type":"Point","coordinates":[151.157057,-33.883793]}},{"properties":{"sales":2,"postcode":"2048","country":"Australia","ranking":65,"sales amount":2098.0,"gp%":38.02,"id":"a6f8zykm8mr4","lat":-33.897351,"long":151.16535,"state":"NSW"},"type":"Feature","geometry":{"type":"Point","coordinates":[151.16535,-33.897351]}},{"properties":{"sales":4,"postcode":"2121","country":"Australia","ranking":66,"sales amount":2088.0,"gp%":49.15,"id":"a6f8zyviaxzs","lat":-33.772549,"long":151.082365,"state":"NSW"},"type":"Feature","geometry":{"type":"Point","coordinates":[151.082365,-33.772549]}},{"properties":{"sales":6,"postcode":"2009","country":"Australia","ranking":67,"sales amount":2034.0,"gp%":41.87,"id":"a6f8zylfndlt","lat":-33.869709,"long":151.19393,"state":"NSW"},"type":"Feature","geometry":{"type":"Point","coordinates":[151.19393,-33.869709]}},{"properties":{"sales":6,"postcode":"2099","country":"Australia","ranking":68,"sales amount":2024.0,"gp%":49.02,"id":"a6f8zymvf7n5","lat":-33.740353,"long":151.278523,"state":"NSW"},"type":"Feature","geometry":{"type":"Point","coordinates":[151.278523,-33.740353]}},{"properties":{"sales":6,"postcode":"2037","country":"Australia","ranking":69,"sales amount":1925.0,"gp%":41.53,"id":"a6f8zyw5etyb","lat":-33.740353,"long":151.278523,"state":"NSW"},"type":"Feature","geometry":{"type":"Point","coordinates":[151.278523,-33.740353]}},{"properties":{"sales":1,"postcode":"2127","country":"Australia","ranking":70,"sales amount":1840.0,"gp%":38.71,"id":"a6f8zyreoinm","lat":-33.85283,"long":151.076186,"state":"NSW"},"type":"Feature","geometry":{"type":"Point","coordinates":[151.076186,-33.85283]}},{"properties":{"sales":4,"postcode":"2137","country":"Australia","ranking":71,"sales amount":1738.0,"gp%":46.71,"id":"a6f8zyq61rla","lat":-33.841583,"long":151.107502,"state":"NSW"},"type":"Feature","geometry":{"type":"Point","coordinates":[151.107502,-33.841583]}},{"properties":{"sales":1,"postcode":"2835","country":"Australia","ranking":72,"sales amount":1699.0,"gp%":40.62,"id":"a6f8zyrg5dug","lat":-32.032911,"long":144.440184,"state":"NSW"},"type":"Feature","geometry":{"type":"Point","coordinates":[144.440184,-32.032911]}},{"properties":{"sales":2,"postcode":"2750","country":"Australia","ranking":73,"sales amount":1618.0,"gp%":41.0,"id":"a6f8zyhz595j","lat":-32.032911,"long":144.440184,"state":"NSW"},"type":"Feature","geometry":{"type":"Point","coordinates":[144.440184,-32.032911]}},{"properties":{"sales":1,"postcode":"2166","country":"Australia","ranking":74,"sales amount":1499.0,"gp%":56.66,"id":"a6f8zyn9aq9x","lat":-33.89507,"long":150.935889,"state":"NSW"},"type":"Feature","geometry":{"type":"Point","coordinates":[150.935889,-33.89507]}},{"properties":{"sales":1,"postcode":"2745","country":"Australia","ranking":75,"sales amount":1499.0,"gp%":26.83,"id":"a6f8zynhnmby","lat":-33.790683,"long":150.6693,"state":"NSW"},"type":"Feature","geometry":{"type":"Point","coordinates":[150.6693,-33.790683]}},{"properties":{"sales":1,"postcode":"2147","country":"Australia","ranking":76,"sales amount":1449.0,"gp%":47.43,"id":"a6f8zysbwf8t","lat":-33.742079,"long":150.922711,"state":"NSW"},"type":"Feature","geometry":{"type":"Point","coordinates":[150.922711,-33.742079]}},{"properties":{"sales":8,"postcode":"2261","country":"Australia","ranking":77,"sales amount":1448.0,"gp%":45.6,"id":"a6f8zyjbrenl","lat":-33.381213,"long":151.479104,"state":"NSW"},"type":"Feature","geometry":{"type":"Point","coordinates":[151.479104,-33.381213]}},{"properties":{"sales":1,"postcode":"2150","country":"Australia","ranking":78,"sales amount":1399.0,"gp%":46.51,"id":"a6f8zyho94hc","lat":-33.822427,"long":151.008961,"state":"NSW"},"type":"Feature","geometry":{"type":"Point","coordinates":[151.008961,-33.822427]}},{"properties":{"sales":2,"postcode":"2021","country":"Australia","ranking":79,"sales amount":1398.0,"gp%":45.93,"id":"a6f8zyjn9cfg","lat":-33.893632,"long":151.219357,"state":"NSW"},"type":"Feature","geometry":{"type":"Point","coordinates":[151.219357,-33.893632]}},{"properties":{"sales":4,"postcode":"2176","country":"Australia","ranking":80,"sales amount":1376.0,"gp%":46.9,"id":"a6f8zyqwe12u","lat":-33.877538,"long":150.867768,"state":"NSW"},"type":"Feature","geometry":{"type":"Point","coordinates":[150.867768,-33.877538]}},{"properties":{"sales":1,"postcode":"2097","country":"Australia","ranking":81,"sales amount":1350.0,"gp%":42.94,"id":"a6f8zyhbrpg7","lat":-33.740969,"long":151.303133,"state":"NSW"},"type":"Feature","geometry":{"type":"Point","coordinates":[151.303133,-33.740969]}},{"properties":{"sales":4,"postcode":"2046","country":"Australia","ranking":82,"sales amount":1316.0,"gp%":40.49,"id":"a6f8zyi4ynma","lat":-33.852469,"long":151.129453,"state":"NSW"},"type":"Feature","geometry":{"type":"Point","coordinates":[151.129453,-33.852469]}},{"properties":{"sales":2,"postcode":"2259","country":"Australia","ranking":83,"sales amount":1298.0,"gp%":33.66,"id":"a6f8zyhfrrwx","lat":-33.265998,"long":151.403858,"state":"NSW"},"type":"Feature","geometry":{"type":"Point","coordinates":[151.403858,-33.265998]}},{"properties":{"sales":2,"postcode":"2033","country":"Australia","ranking":84,"sales amount":1198.0,"gp%":40.91,"id":"a6f8zyoo58lm","lat":-33.912997,"long":151.219017,"state":"NSW"},"type":"Feature","geometry":{"type":"Point","coordinates":[151.219017,-33.912997]}},{"properties":{"sales":7,"postcode":"2756","country":"Australia","ranking":85,"sales amount":1099.0,"gp%":42.29,"id":"a6f8zysnnjv3","lat":-33.63765,"long":150.79458,"state":"NSW"},"type":"Feature","geometry":{"type":"Point","coordinates":[150.79458,-33.63765]}},{"properties":{"sales":1,"postcode":"2034","country":"Australia","ranking":86,"sales amount":1098.0,"gp%":46.43,"id":"a6f8zyrx4yge","lat":-33.920491,"long":151.254401,"state":"NSW"},"type":"Feature","geometry":{"type":"Point","coordinates":[151.254401,-33.920491]}},{"properties":{"sales":1,"postcode":"2190","country":"Australia","ranking":87,"sales amount":1000.0,"gp%":69.44,"id":"a6f8zyjw12k6","lat":-33.892441,"long":151.055898,"state":"NSW"},"type":"Feature","geometry":{"type":"Point","coordinates":[151.055898,-33.892441]}},{"properties":{"sales":5,"postcode":"2154","country":"Australia","ranking":88,"sales amount":999.0,"gp%":50.6,"id":"a6f8zynqemj8","lat":-33.732307,"long":151.005616,"state":"NSW"},"type":"Feature","geometry":{"type":"Point","coordinates":[151.005616,-33.732307]}},{"properties":{"sales":1,"postcode":"2218","country":"Australia","ranking":89,"sales amount":940.0,"gp%":44.49,"id":"a6f8zyl4eeop","lat":-33.970018,"long":151.114517,"state":"NSW"},"type":"Feature","geometry":{"type":"Point","coordinates":[151.114517,-33.970018]}},{"properties":{"sales":1,"postcode":"2092","country":"Australia","ranking":90,"sales amount":939.0,"gp%":71.01,"id":"a6f8zyhs9l2n","lat":-33.797106,"long":151.251146,"state":"NSW"},"type":"Feature","geometry":{"type":"Point","coordinates":[151.251146,-33.797106]}},{"properties":{"sales":4,"postcode":"2160","country":"Australia","ranking":91,"sales amount":880.0,"gp%":56.77,"id":"a6f8zyn6ni55","lat":-33.836381,"long":150.989219,"state":"NSW"},"type":"Feature","geometry":{"type":"Point","coordinates":[150.989219,-33.836381]}},{"properties":{"sales":2,"postcode":"2029","country":"Australia","ranking":92,"sales amount":868.0,"gp%":59.77,"id":"a6f8zyvco0z5","lat":-33.866555,"long":151.280456,"state":"NSW"},"type":"Feature","geometry":{"type":"Point","coordinates":[151.280456,-33.866555]}},{"properties":{"sales":1,"postcode":"2256","country":"Australia","ranking":93,"sales amount":840.0,"gp%":55.94,"id":"a6f8zylciu32","lat":-33.503434,"long":151.327632,"state":"NSW"},"type":"Feature","geometry":{"type":"Point","coordinates":[151.327632,-33.503434]}},{"properties":{"sales":5,"postcode":"2291","country":"Australia","ranking":94,"sales amount":815.0,"gp%":48.67,"id":"a6f8zykfjcr6","lat":-32.942237,"long":151.751451,"state":"NSW"},"type":"Feature","geometry":{"type":"Point","coordinates":[151.751451,-32.942237]}},{"properties":{"sales":1,"postcode":"2140","country":"Australia","ranking":95,"sales amount":699.0,"gp%":46.26,"id":"a6f8zyshtzq2","lat":-33.859654,"long":151.081847,"state":"NSW"},"type":"Feature","geometry":{"type":"Point","coordinates":[151.081847,-33.859654]}},{"properties":{"sales":1,"postcode":"2234","country":"Australia","ranking":96,"sales amount":699.0,"gp%":65.7,"id":"a6f8zyl26rxy","lat":-33.993303,"long":151.024751,"state":"NSW"},"type":"Feature","geometry":{"type":"Point","coordinates":[151.024751,-33.993303]}},{"properties":{"sales":1,"postcode":"2017","country":"Australia","ranking":97,"sales amount":699.0,"gp%":50.82,"id":"a6f8zyqdp5px","lat":-33.9004,"long":151.206144,"state":"NSW"},"type":"Feature","geometry":{"type":"Point","coordinates":[151.206144,-33.9004]}},{"properties":{"sales":1,"postcode":"2096","country":"Australia","ranking":98,"sales amount":699.0,"gp%":51.0,"id":"a6f8zyou5vj6","lat":-33.768937,"long":151.294035,"state":"NSW"},"type":"Feature","geometry":{"type":"Point","coordinates":[151.294035,-33.768937]}},{"properties":{"sales":5,"postcode":"2280","country":"Australia","ranking":99,"sales amount":699.0,"gp%":51.17,"id":"a6f8zymdek4n","lat":-33.036057,"long":151.660563,"state":"NSW"},"type":"Feature","geometry":{"type":"Point","coordinates":[151.660563,-33.036057]}},{"properties":{"sales":3,"postcode":"2038","country":"Australia","ranking":100,"sales amount":698.0,"gp%":45.51,"id":"a6f8zykhsxri","lat":-33.881435,"long":151.170681,"state":"NSW"},"type":"Feature","geometry":{"type":"Point","coordinates":[151.170681,-33.881435]}},{"properties":{"sales":3,"postcode":"2022","country":"Australia","ranking":101,"sales amount":657.0,"gp%":47.05,"id":"a6f8zylwsev9","lat":-33.892324,"long":151.24733,"state":"NSW"},"type":"Feature","geometry":{"type":"Point","coordinates":[151.24733,-33.892324]}},{"properties":{"sales":2,"postcode":"2170","country":"Australia","ranking":102,"sales amount":628.0,"gp%":55.74,"id":"a6f8zym3o8uk","lat":-33.94735,"long":150.907753,"state":"NSW"},"type":"Feature","geometry":{"type":"Point","coordinates":[150.907753,-33.94735]}},{"properties":{"sales":4,"postcode":"2081","country":"Australia","ranking":103,"sales amount":575.0,"gp%":42.46,"id":"a6f8zyhi7nx8","lat":-33.623581,"long":151.150117,"state":"NSW"},"type":"Feature","geometry":{"type":"Point","coordinates":[151.150117,-33.623581]}},{"properties":{"sales":1,"postcode":"2119","country":"Australia","ranking":104,"sales amount":499.0,"gp%":40.91,"id":"a6f8zypelfvb","lat":-33.749498,"long":151.064533,"state":"NSW"},"type":"Feature","geometry":{"type":"Point","coordinates":[151.064533,-33.749498]}},{"properties":{"sales":1,"postcode":"2027","country":"Australia","ranking":105,"sales amount":499.0,"gp%":57.04,"id":"a6f8zyoa47a4","lat":-33.873808,"long":151.236683,"state":"NSW"},"type":"Feature","geometry":{"type":"Point","coordinates":[151.236683,-33.873808]}},{"properties":{"sales":1,"postcode":"2094","country":"Australia","ranking":106,"sales amount":499.0,"gp%":50.46,"id":"a6f8zyfrrahh","lat":-33.794163,"long":151.273978,"state":"NSW"},"type":"Feature","geometry":{"type":"Point","coordinates":[151.273978,-33.794163]}},{"properties":{"sales":2,"postcode":"2148","country":"Australia","ranking":107,"sales amount":498.0,"gp%":46.43,"id":"a6f8zyvfom97","lat":-33.787266,"long":150.871959,"state":"NSW"},"type":"Feature","geometry":{"type":"Point","coordinates":[150.871959,-33.787266]}},{"properties":{"sales":5,"postcode":"2158","country":"Australia","ranking":108,"sales amount":419.0,"gp%":45.56,"id":"a6f8zyne1bmd","lat":-33.681875,"long":151.028435,"state":"NSW"},"type":"Feature","geometry":{"type":"Point","coordinates":[151.028435,-33.681875]}},{"properties":{"sales":1,"postcode":"2287","country":"Australia","ranking":109,"sales amount":399.0,"gp%":54.17,"id":"a6f8zyqg3kp9","lat":-32.890844,"long":151.690829,"state":"NSW"},"type":"Feature","geometry":{"type":"Point","coordinates":[151.690829,-32.890844]}},{"properties":{"sales":1,"postcode":"2285","country":"Australia","ranking":110,"sales amount":329.0,"gp%":53.7,"id":"a6f8zyg7as4b","lat":-32.933952,"long":151.655731,"state":"NSW"},"type":"Feature","geometry":{"type":"Point","coordinates":[151.655731,-32.933952]}},{"properties":{"sales":1,"postcode":"2115","country":"Australia","ranking":111,"sales amount":299.0,"gp%":42.84,"id":"a6f8zyqo9zkd","lat":-33.814144,"long":151.054495,"state":"NSW"},"type":"Feature","geometry":{"type":"Point","coordinates":[151.054495,-33.814144]}},{"properties":{"sales":1,"postcode":"2015","country":"Australia","ranking":112,"sales amount":299.0,"gp%":35.9,"id":"a6f8zyhd8a8h","lat":-33.897571,"long":151.195567,"state":"NSW"},"type":"Feature","geometry":{"type":"Point","coordinates":[151.195567,-33.897571]}},{"properties":{"sales":1,"postcode":"2777","country":"Australia","ranking":113,"sales amount":299.0,"gp%":67.94,"id":"a6f8zytm0q7t","lat":-33.665114,"long":150.650802,"state":"NSW"},"type":"Feature","geometry":{"type":"Point","coordinates":[150.650802,-33.665114]}},{"properties":{"sales":3,"postcode":"2155","country":"Australia","ranking":114,"sales amount":268.0,"gp%":38.38,"id":"a6f8zyl34v6f","lat":-33.703416,"long":150.946875,"state":"NSW"},"type":"Feature","geometry":{"type":"Point","coordinates":[150.946875,-33.703416]}},{"properties":{"sales":1,"postcode":"2036","country":"Australia","ranking":115,"sales amount":199.0,"gp%":31.7,"id":"a6f8zyp6qc06","lat":-33.976546,"long":151.240248,"state":"NSW"},"type":"Feature","geometry":{"type":"Point","coordinates":[151.240248,-33.976546]}},{"properties":{"sales":1,"postcode":"2581","country":"Australia","ranking":116,"sales amount":180.0,"gp%":40.26,"id":"a6f8zyts6aba","lat":-34.917864,"long":149.24271,"state":"NSW"},"type":"Feature","geometry":{"type":"Point","coordinates":[149.24271,-34.917864]}},{"properties":{"sales":0,"postcode":"2749","country":"Australia","ranking":117,"sales amount":168.0,"gp%":93.8,"id":"a6f8zyncncdy","lat":-33.668796,"long":150.67655,"state":"NSW"},"type":"Feature","geometry":{"type":"Point","coordinates":[150.67655,-33.668796]}},{"properties":{"sales":1,"postcode":"2232","country":"Australia","ranking":118,"sales amount":129.0,"gp%":44.99,"id":"a6f8zypbl3ly","lat":-34.075295,"long":151.056519,"state":"NSW"},"type":"Feature","geometry":{"type":"Point","coordinates":[151.056519,-34.075295]}},{"properties":{"sales":0,"postcode":"2145","country":"Australia","ranking":119,"sales amount":0.0,"gp%":0.0,"id":"a6f8zyq7xchb","lat":-33.799843,"long":150.947276,"state":"NSW"},"type":"Feature","geometry":{"type":"Point","coordinates":[150.947276,-33.799843]}},{"properties":{"sales":2,"postcode":"2220","country":"Australia","ranking":120,"sales amount":0.0,"gp%":0.0,"id":"a6f8zysb6bd3","lat":-33.965923,"long":151.101184,"state":"NSW"},"type":"Feature","geometry":{"type":"Point","coordinates":[151.101184,-33.965923]}}],"is_temporal":false,"author":{"url":"","metadata":"","contact_name":"","contact_address":"","source":"","contact_phone":""},"source":"","pagination":{"sort":null,"start":0,"total":120,"limit":1000000},"state":"complete","tags":"","published":"2014-08-10T17:57:04-04:00","id":85197}