{"type":"FeatureCollection","data_type":"Dataset","url_type":null,"permissions":[{"permissions":{"download":true,"view":true},"group_id":"everyone"}],"classification":null,"title":"Jakarta KFC's","count":29,"stream_id":85506,"contributor":{"url":"http://geocommons.com/users/695","name":"Bill"},"data_attributes":null,"calculation_params":null,"icon_link":null,"link":"http://geocommons.com/overlays/85506.json","extent":[106.738,-6.26131,106.907,-6.14628],"geometry_types":["point"],"unique_name":null,"name":"Jakarta KFC's","feature_count":29,"description":"","next_feature":null,"is_raster":false,"short_classification":"Y","stats":{"latitude":{"max":-6.14628,"mean":-6.17709806896552,"variance":0.000667103462995078,"stdev":0.0258283461142032,"min":-6.261312,"median":-6.17144},"longitude":{"max":106.90726,"mean":106.828731,"variance":0.0012522857351428,"stdev":0.0353876494718539,"min":106.73806,"median":106.82782}},"features":[{"properties":{"city":"Jakarta","place":"TAMAN PALEM","latitude":-6.15228,"pesan antar":"Tidak","country":"Indonesia","phone":"(021) 54352153","longitude":106.73806,"id":"a67klig4yrhc","address":"FOOD COURT LT. I ( CARREFOUR ) - JL. KAMAL RAYA OUTER RING ROAD CENGKARENG","chika club":"Ya"},"type":"Feature","geometry":{"type":"Point","coordinates":[106.73806,-6.15228]}},{"properties":{"city":"Jakarta","place":"GRAND INDONESIA","latitude":-6.17144,"pesan antar":"Tidak","country":"Indonesia","phone":"(021) 23580928","longitude":106.82782,"id":"a67klibp9j2s","address":"JL. MH THAMRIN RT. 11 RW. 15 - KEL. KEBON MELATI - KEC. TANAH ABANG","chika club":"Ya"},"type":"Feature","geometry":{"type":"Point","coordinates":[106.82782,-6.17144]}},{"properties":{"city":"Jakarta","place":"PANTAI INDAH KAPUK","latitude":-6.17144,"pesan antar":"Tidak","country":"Indonesia","phone":"(021) 30010330","longitude":106.82782,"id":"a67kli7s963z","address":"JL. PANTAI INDAH UTARA 2 METRO CENTRO - BLOK B 1 NO. 1","chika club":"Ya"},"type":"Feature","geometry":{"type":"Point","coordinates":[106.82782,-6.17144]}},{"properties":{"city":"Jakarta","place":"BUARAN PLAZA","latitude":-6.221199,"pesan antar":"Tidak","country":"Indonesia","phone":"(021) 86615080","longitude":106.90726,"id":"a67kli8bz8cx","address":"JL. RADIN INTEN RT.01 / 04 - KLENDER DUREN SAWIT","chika club":"Ya"},"type":"Feature","geometry":{"type":"Point","coordinates":[106.90726,-6.221199]}},{"properties":{"city":"Jakarta","place":"CARREFOUR DAAN MOGOT","latitude":-6.17144,"pesan antar":"Tidak","country":"Indonesia","phone":"(021) 5530971","longitude":106.82782,"id":"a67klij288sp","address":"JL. RAYA DAAN MOGOT KM 21","chika club":"Ya"},"type":"Feature","geometry":{"type":"Point","coordinates":[106.82782,-6.17144]}},{"properties":{"city":"Jakarta","place":"HYPERMART PURI INDAH","latitude":-6.17144,"pesan antar":"Tidak","country":"Indonesia","phone":"(021) 58358318","longitude":106.82782,"id":"a67kli5107zm","address":"JL. PURI INDAH - SAMPING KANTOR WALIKOTA JAKARTA BARAT","chika club":"Ya"},"type":"Feature","geometry":{"type":"Point","coordinates":[106.82782,-6.17144]}},{"properties":{"city":"Jakarta","place":"SGC CIKARANG","latitude":-6.17144,"pesan antar":"Tidak","country":"Indonesia","phone":"(021) 89115323","longitude":106.82782,"id":"a67klig63cv8","address":"GEDUNG SGC - LT. 2 - CIKARANG","chika club":"Ya"},"type":"Feature","geometry":{"type":"Point","coordinates":[106.82782,-6.17144]}},{"properties":{"city":"Jakarta","place":"CITRA GARDEN 2","latitude":-6.17144,"pesan antar":"Tidak","country":"Indonesia","phone":"(021) 5453845","longitude":106.82782,"id":"a67kliau9qyx","address":"JL. CITRA 2 BLOK D.J 1/1 -2 - CITRA GARDEN CITY","chika club":"Ya"},"type":"Feature","geometry":{"type":"Point","coordinates":[106.82782,-6.17144]}},{"properties":{"city":"Jakarta","place":"PAMULANG SQUARE","latitude":-6.17144,"pesan antar":"Tidak","country":"Indonesia","phone":"(021) 7423703","longitude":106.82782,"id":"a67kli51ycda","address":"JL. RAYA SILIWANGI- PAMULANG - DEPAN CARREFOUR PAMULANG","chika club":"Ya"},"type":"Feature","geometry":{"type":"Point","coordinates":[106.82782,-6.17144]}},{"properties":{"city":"Jakarta","place":"PUSAT GROSIR JATINEGARA","latitude":-6.17144,"pesan antar":"Tidak","country":"Indonesia","phone":"(021) 28506197","longitude":106.82782,"id":"a67klijvrdr9","address":"JL. MATRAMAN RAYA NO. 173 - 175","chika club":"Ya"},"type":"Feature","geometry":{"type":"Point","coordinates":[106.82782,-6.17144]}},{"properties":{"city":"Jakarta","place":"PONDOK INDAH PLAZA","latitude":-6.17144,"pesan antar":"Tidak","country":"Indonesia","phone":"(021) 75910657","longitude":106.82782,"id":"a67kli7u4rm9","address":"JL. METRO PONDOK INDAH","chika club":"Ya"},"type":"Feature","geometry":{"type":"Point","coordinates":[106.82782,-6.17144]}},{"properties":{"city":"Jakarta","place":"PUSAT GROSIR CILILITAN","latitude":-6.261312,"pesan antar":"Tidak","country":"Indonesia","phone":"-21","longitude":106.866993,"id":"a67kli6mqmt1","address":"JL. MAYJEN SUTOYO NO. 76 - CILILITAN - KRAMAT JATI","chika club":"Ya"},"type":"Feature","geometry":{"type":"Point","coordinates":[106.866993,-6.261312]}},{"properties":{"city":"Jakarta","place":"MALL OF INDONESIA","latitude":-6.17144,"pesan antar":"Tidak","country":"Indonesia","phone":"(021) 45868272","longitude":106.82782,"id":"a67kli75utm1","address":"JL. BOULEVARD BARAT RAYA - KELAPA GADING SQUARE","chika club":"Ya"},"type":"Feature","geometry":{"type":"Point","coordinates":[106.82782,-6.17144]}},{"properties":{"city":"Jakarta","place":"IMPERIUM PLUIT","latitude":-6.17144,"pesan antar":"Tidak","country":"Indonesia","phone":"(021) 6667615/76","longitude":106.82782,"id":"a67kliftd9he","address":"JL. RAYA PLUIT SELATAN - KEL. PENJARINGAN - JAKUT","chika club":"Ya"},"type":"Feature","geometry":{"type":"Point","coordinates":[106.82782,-6.17144]}},{"properties":{"city":"Jakarta","place":"HAYAM WURUK 2","latitude":-6.153586,"pesan antar":"Tidak","country":"Indonesia","phone":"(021) 6393319","longitude":106.818041,"id":"a67kli9fjmwg","address":"JL. HAYAM WURUK NO.103","chika club":"Ya"},"type":"Feature","geometry":{"type":"Point","coordinates":[106.818041,-6.153586]}},{"properties":{"city":"Jakarta","place":"SEASON CITY","latitude":-6.14628,"pesan antar":"Tidak","country":"Indonesia","phone":"(021) 6383312","longitude":106.801086,"id":"a67klig86n8p","address":"JL. JEMBATAN BESI NO. 33 - KEL. JEMBATAN BESI - KEC TAMBORA","chika club":"Ya"},"type":"Feature","geometry":{"type":"Point","coordinates":[106.801086,-6.14628]}},{"properties":{"city":"Jakarta","place":"CAKUNG","latitude":-6.17144,"pesan antar":"Tidak","country":"Indonesia","phone":"(021) 46821318/4610774","longitude":106.82782,"id":"a67klichqm8v","address":"PLZ TAMAN MODERN CAKUNG - JL. RAYA BEKASI KM. 24 - CAKUNG - JKATIM","chika club":"Ya"},"type":"Feature","geometry":{"type":"Point","coordinates":[106.82782,-6.17144]}},{"properties":{"city":"Jakarta","place":"GRAND INDONESIA LT. 5","latitude":-6.196688,"pesan antar":"Tidak","country":"Indonesia","phone":"(021) 2358124","longitude":106.822887,"id":"a67kli7w86li","address":"JL. MH. THAMRIN NO. 1","chika club":"Ya"},"type":"Feature","geometry":{"type":"Point","coordinates":[106.822887,-6.196688]}},{"properties":{"city":"Jakarta","place":"ITC MANGGA DUA","latitude":-6.17144,"pesan antar":"Tidak","country":"Indonesia","phone":"(021) 62314589","longitude":106.82782,"id":"a67klihij1sd","address":"GEDUNG PUSAT GROSIR PASAR PAGI - MANGGA DUA JEMBATAN LT. II NO. 1 - JL. MANGGA DUA RAYA","chika club":"Ya"},"type":"Feature","geometry":{"type":"Point","coordinates":[106.82782,-6.17144]}},{"properties":{"city":"Jakarta","place":"PONDOK BAMBU","latitude":-6.245832,"pesan antar":"Tidak","country":"Indonesia","phone":"(021) 8607779","longitude":106.905984,"id":"a67klicxj6s6","address":"JL.PAHLAWAN REVOLUSI","chika club":"Ya"},"type":"Feature","geometry":{"type":"Point","coordinates":[106.905984,-6.245832]}},{"properties":{"city":"Jakarta","place":"RAWAMANGUN SQUARE (ARTOMORO)","latitude":-6.196909,"pesan antar":"Tidak","country":"Indonesia","phone":"(021) 4707248","longitude":106.875375,"id":"a67kli9lzlu6","address":"JL. PENGGAMBIRAN NO. 55 - RAWAMANGUN","chika club":"Ya"},"type":"Feature","geometry":{"type":"Point","coordinates":[106.875375,-6.196909]}},{"properties":{"city":"Jakarta","place":"Depok Mall","latitude":-6.17144,"pesan antar":"Pesan Antar","country":"Indonesia","phone":"(O21) 7760653","longitude":106.82782,"id":"a67klijsti7s","address":"Jl.Margonda Raya,Depok","chika club":"Ya"},"type":"Feature","geometry":{"type":"Point","coordinates":[106.82782,-6.17144]}},{"properties":{"city":"Jakarta","place":"Grand Paragon","latitude":-6.148519,"pesan antar":"Pesan Antar","country":"Indonesia","phone":"(021) 6283321","longitude":106.812795,"id":"a67klii254ll","address":"Jl. Gajah Mada 126 Rt/Rw 013/08, Kel. Keagungan Kec. Taman Sari","chika club":"Ya"},"type":"Feature","geometry":{"type":"Point","coordinates":[106.812795,-6.148519]}},{"properties":{"city":"Jakarta","place":"Gandaria City","latitude":-6.17144,"pesan antar":"Pesan Antar","country":"Indonesia","phone":"(021) 29052952/3/8","longitude":106.82782,"id":"a67klidydkf3","address":"Jl. Gandaria Rt.12 Rw.04, Kel. Kebayoran Lama Utara, Kebayoran Lama - Jakarta Selatan","chika club":"Ya"},"type":"Feature","geometry":{"type":"Point","coordinates":[106.82782,-6.17144]}},{"properties":{"city":"Jakarta","place":"Cempaka Putih","latitude":-6.176139,"pesan antar":"Pesan Antar","country":"Indonesia","phone":"(021) 4209994/6201/4240133","longitude":106.86639,"id":"a67klibzi1r9","address":"Jl. Cempaka Putih Raya, No 106, Kel. Cempaka Putih Timur, Cempaka Putih","chika club":"Ya"},"type":"Feature","geometry":{"type":"Point","coordinates":[106.86639,-6.176139]}},{"properties":{"city":"Jakarta","place":"Cideng","latitude":-6.17089,"pesan antar":"Pesan Antar","country":"Indonesia","phone":"(021) 3861885, 3453148/3151","longitude":106.817574,"id":"a67kliaqwyrm","address":"Jl. Tanah Abang Ii No. 85, Kel. Petojo Selatan , Kec. Gambir","chika club":"Ya"},"type":"Feature","geometry":{"type":"Point","coordinates":[106.817574,-6.17089]}},{"properties":{"city":"Jakarta","place":"Itc Roxy Mas","latitude":-6.17089,"pesan antar":"Pesan Antar","country":"Indonesia","phone":"(021) 63861754/47","longitude":106.817574,"id":"a67kli88ziqv","address":"Jl. Kh. Hasyim Ashari , Kel. Cideng Kecamatan Gambir","chika club":"Ya"},"type":"Feature","geometry":{"type":"Point","coordinates":[106.817574,-6.17089]}},{"properties":{"city":"Jakarta","place":"La Teracce","latitude":-6.17144,"pesan antar":"Pesan Antar","country":"Indonesia","phone":"(021) 7869575/627/662/665","longitude":106.82782,"id":"a67kli6xwoa9","address":"Jl. Lenteng Agung Raya Rt. 003/06, Kel. Srenseng Sawah. Kec Jagakarsa, Jakarta Selatan","chika club":"Ya"},"type":"Feature","geometry":{"type":"Point","coordinates":[106.82782,-6.17144]}},{"properties":{"city":"Jakarta","place":"Taman Semanan Indah","latitude":-6.15228,"pesan antar":"Pesan Antar","country":"Indonesia","phone":"(021) 5444997/998/897/898","longitude":106.73806,"id":"a67klihqd3hp","address":"Komplek Taman Semanan Indah Blok F, No. 1,2,3 Rt. 00 / Rw. 11 Kel. Duri Kosambi, Kec. Cengkareng","chika club":"Ya"},"type":"Feature","geometry":{"type":"Point","coordinates":[106.73806,-6.15228]}}],"is_temporal":false,"author":{"url":"","metadata":"","contact_name":"","contact_address":"","source":"","contact_phone":""},"source":"","pagination":{"sort":null,"start":0,"total":29,"limit":1000000},"state":"complete","tags":"","published":"2014-08-10T18:31:33-04:00","id":85506}