{"type":"FeatureCollection","data_type":"Dataset","url_type":null,"permissions":[{"permissions":{"download":true,"view":true},"group_id":"everyone"}],"classification":null,"title":"Dialysis Clinics, Washington DC, 2002","count":24,"stream_id":8562,"contributor":{"url":"http://geocommons.com/users/955","name":"williambenjaminiv"},"data_attributes":null,"calculation_params":null,"icon_link":null,"link":"http://geocommons.com/overlays/8562.json","extent":[-77.0756,38.8356,-76.9252,38.9499],"geometry_types":["point"],"unique_name":null,"name":"Dialysis Clinics, Washington DC, 2002","feature_count":24,"description":"Dialysis Centers. This dataset contains points representing dialysis center locations, created as part of the DC Geographic Information System (DC GIS) for the D.C. Office of the Chief Technology Officer (OCTO) and participating D.C. government agencies.\n\nDialysis center locations were identified from Department of Health records, then geocoded and heads-up shifted to the appropriate building(s).","next_feature":null,"is_raster":false,"short_classification":"Y","stats":{},"features":[{"properties":{"NAME":"BMA of Anacostia","GIS_ID":"dia_24","PHONE":"(202) 397-2700","WEB_URL":"","id":"a6752jdoz41r","ADDRESS":"1444 I St NW"},"type":"Feature","geometry":{"type":"Point","coordinates":[-77.0327373970149,38.901133157812]}},{"properties":{"NAME":"BMA of Capitol Hill","GIS_ID":"dia_2","PHONE":"(202) 547-2880","WEB_URL":"","id":"a6752jpkvuxd","ADDRESS":"900 M St SE"},"type":"Feature","geometry":{"type":"Point","coordinates":[-76.9934260863305,38.8766928790411]}},{"properties":{"NAME":"BMA of Columbia Heights","GIS_ID":"dia_1","PHONE":"(202) 829-0060","WEB_URL":"","id":"a6752jmwtfh2","ADDRESS":"106 Irving St NW"},"type":"Feature","geometry":{"type":"Point","coordinates":[-77.0152353672887,38.9309633197059]}},{"properties":{"NAME":"BMA of Dupont Circle","GIS_ID":"dia_3","PHONE":"(202) 483-0176","WEB_URL":"","id":"a6752jliugdn","ADDRESS":"11 Dupont Circle NW"},"type":"Feature","geometry":{"type":"Point","coordinates":[-77.0424217890907,38.910211908463]}},{"properties":{"NAME":"BMA of East River Park","GIS_ID":"dia_22","PHONE":"(202) 397-2700","WEB_URL":"","id":"a6752jajzqsg","ADDRESS":"3929 Minnesota Ave NE"},"type":"Feature","geometry":{"type":"Point","coordinates":[-76.9497830101827,38.8939482150351]}},{"properties":{"NAME":"BMA of MLK","GIS_ID":"dia_21","PHONE":"(202) 889-1919","WEB_URL":"","id":"a6752jg9z3et","ADDRESS":"2051 Martin Luther King Jr Ave SE"},"type":"Feature","geometry":{"type":"Point","coordinates":[-76.9896228826716,38.8656206013657]}},{"properties":{"NAME":"BMA of Northeast","GIS_ID":"dia_15","PHONE":"(202) 832-4481","WEB_URL":"","id":"a6752jgl551r","ADDRESS":"817 Varnum St NE"},"type":"Feature","geometry":{"type":"Point","coordinates":[-76.9967706940932,38.9423931671275]}},{"properties":{"NAME":"BMA of Southeast","GIS_ID":"dia_14","PHONE":"(202) 561-0828","WEB_URL":"","id":"a6752jf2ccjs","ADDRESS":"1350 Southern Ave SE"},"type":"Feature","geometry":{"type":"Point","coordinates":[-76.9832446727735,38.8361873567874]}},{"properties":{"NAME":"Capitol Dialysis LLC","GIS_ID":"dia_4","PHONE":"(202) 636-9411","WEB_URL":"","id":"a6752jdixowc","ADDRESS":"140 Q St NE"},"type":"Feature","geometry":{"type":"Point","coordinates":[-77.0050320127158,38.91131273529]}},{"properties":{"NAME":"Capitol Dialysis NW","GIS_ID":"dia_5","PHONE":"(202) 362-1511","WEB_URL":"","id":"a6752je1s2re","ADDRESS":"3333 Wisconsin Ave NW"},"type":"Feature","geometry":{"type":"Point","coordinates":[-77.0721816730223,38.9338667323638]}},{"properties":{"NAME":"Children's National Medical Center","GIS_ID":"dia_20","PHONE":"(202) 884-5148","WEB_URL":"http://www.dcchildrens.com/","id":"a6752jnikh6p","ADDRESS":"111 Michigan Ave NW"},"type":"Feature","geometry":{"type":"Point","coordinates":[-77.014525876871,38.9271565251016]}},{"properties":{"NAME":"Da Vita Georgetown","GIS_ID":"dia_6","PHONE":"(202) 333-5211","WEB_URL":"http://www.davita.com/","id":"a6752jkovej6","ADDRESS":"3223 K St NW"},"type":"Feature","geometry":{"type":"Point","coordinates":[-77.0637953251595,38.9029340132758]}},{"properties":{"NAME":"Da Vita Union Plaza","GIS_ID":"dia_7","PHONE":"(202) 842-3127","WEB_URL":"http://www.davita.com/","id":"a6752jhqc7g3","ADDRESS":"810 1st St NE"},"type":"Feature","geometry":{"type":"Point","coordinates":[-77.0070244465843,38.9005427461132]}},{"properties":{"NAME":"Da Vita of Lee Street","GIS_ID":"dia_8","PHONE":"(202) 398-1047","WEB_URL":"http://www.davita.com/","id":"a6752jonc6e5","ADDRESS":"5155 Lee St NE"},"type":"Feature","geometry":{"type":"Point","coordinates":[-76.9251535340535,38.9044825325486]}},{"properties":{"NAME":"Gambro Healthcare Eighth St","GIS_ID":"dia_13","PHONE":"(202) 543-9105","WEB_URL":"http://www.gambro.com/","id":"a6752jl69i4a","ADDRESS":"300 8th St NE"},"type":"Feature","geometry":{"type":"Point","coordinates":[-76.9952990366679,38.8940070703184]}},{"properties":{"NAME":"Gambro Healthcare N Street","GIS_ID":"dia_12","PHONE":"(202) 861-2250","WEB_URL":"http://www.gambro.com/","id":"a6752jnt6phk","ADDRESS":"1920 N St NW"},"type":"Feature","geometry":{"type":"Point","coordinates":[-77.0441922912492,38.9070521874434]}},{"properties":{"NAME":"Gambro Healthcare of Brentwood","GIS_ID":"dia_11","PHONE":"(202) 635-4141","WEB_URL":"http://www.gambro.com/","id":"a6752jcsfzdg","ADDRESS":"1231 Brentwood Rd NE"},"type":"Feature","geometry":{"type":"Point","coordinates":[-76.9886688197368,38.9214353618912]}},{"properties":{"NAME":"Gambro Healthcare of DC","GIS_ID":"dia_9","PHONE":"(202) 829-6295","WEB_URL":"http://www.gambro.com/","id":"a6752jjka2w2","ADDRESS":"4907 Georgia Ave NW"},"type":"Feature","geometry":{"type":"Point","coordinates":[-77.0268837612864,38.9499317094232]}},{"properties":{"NAME":"Gambro Healthcare of GW","GIS_ID":"dia_10","PHONE":"(202) 581-9440","WEB_URL":"http://www.gambro.com/","id":"a6752jhr973o","ADDRESS":"3857 Pennsylvania Ave SE"},"type":"Feature","geometry":{"type":"Point","coordinates":[-76.9506207969005,38.865105102957]}},{"properties":{"NAME":"Georgetown Hospital","GIS_ID":"dia_17","PHONE":"(202) 784-3664","WEB_URL":"http://www.georgetownuniversityhospital.org/","id":"a6752jh04z6s","ADDRESS":"3800 Reservoir Rd NW"},"type":"Feature","geometry":{"type":"Point","coordinates":[-77.0755925237017,38.909322202539]}},{"properties":{"NAME":"Grant Park Dialysis","GIS_ID":"dia_23","PHONE":"(202) 399-7700","WEB_URL":"http://www.davita.com/","id":"a6752jdovljy","ADDRESS":"5000 Nannie Helen Burroughs Ave SE"},"type":"Feature","geometry":{"type":"Point","coordinates":[-76.9292962410893,38.8984756001956]}},{"properties":{"NAME":"Greater Southeast Community Hospital","GIS_ID":"dia_16","PHONE":"(202) 574-6564","WEB_URL":"http://www.greatersoutheastorg.verizonsupersite.com/home/","id":"a6752jbxkcyv","ADDRESS":"1310 Southern Ave SE"},"type":"Feature","geometry":{"type":"Point","coordinates":[-76.9848559585494,38.8356343678106]}},{"properties":{"NAME":"Howard University Hospital","GIS_ID":"dia_19","PHONE":"(202) 865-7365","WEB_URL":"http://www.huhosp.org/","id":"a6752jgex3c2","ADDRESS":"2112 Georgia Ave NW"},"type":"Feature","geometry":{"type":"Point","coordinates":[-77.0224598218963,38.9182248522108]}},{"properties":{"NAME":"Washington Hospital Center","GIS_ID":"dia_18","PHONE":"(202) 877-6101","WEB_URL":"http://www.whcenter.org/","id":"a6752jh2lta8","ADDRESS":"110 Irving St NW"},"type":"Feature","geometry":{"type":"Point","coordinates":[-77.0144355434723,38.9285316640043]}}],"is_temporal":false,"author":{"url":"http://data.octo.dc.gov","metadata":"http://data.octo.dc.gov/Metadata.aspx?id=37","contact_name":"","contact_address":"","source":"D.C. Office of the Chief Technology Officer (OCTO)","contact_phone":""},"source":"http://data.octo.dc.gov","pagination":{"sort":null,"start":0,"total":24,"limit":1000000},"state":"complete","tags":"care,dialysis,facilities,health,infrastrucutre,kidney,society","published":"2002-06-10T12:00:00Z","id":8562}