{"type":"FeatureCollection","data_type":"Dataset","url_type":null,"permissions":[{"permissions":{"download":true,"view":true},"group_id":"everyone"}],"classification":null,"title":"Pop 2020","count":51,"stream_id":85754,"contributor":{"url":"http://geocommons.com/users/10279","name":"wmsmith"},"data_attributes":null,"calculation_params":null,"icon_link":null,"link":"http://geocommons.com/overlays/85754.json","extent":[-157.531,21.1098,-69.3977,61.385],"geometry_types":["point"],"unique_name":null,"name":"Pop 2020","feature_count":51,"description":"65 and over population by U.S. States in 2020","next_feature":null,"is_raster":false,"short_classification":"Y","stats":{"latitude":{"max":61.385,"mean":39.4657274509804,"variance":36.7624769248314,"stdev":6.0632068185764,"min":21.1098,"median":39.8647},"2020 population":{"max":6199126,"mean":1057919.1372549,"variance":1481921063796.24,"stdev":1217341.80236951,"min":61535,"median":729741},"longitude":{"max":-69.3977,"mean":-93.3482176470589,"variance":371.856430787882,"stdev":19.2835793043688,"min":-157.5311,"median":-89.6385}},"features":[{"properties":{"latitude":32.799,"abbrivation":"AL","2020 population":842607,"longitude":-86.8073,"id":"a6l353wrboz2","state":"Alabama"},"type":"Feature","geometry":{"type":"Point","coordinates":[-86.8073,32.799]}},{"properties":{"latitude":61.385,"abbrivation":"AK","2020 population":96388,"longitude":-152.2683,"id":"a6l353nbca5c","state":"Alaska"},"type":"Feature","geometry":{"type":"Point","coordinates":[-152.2683,61.385]}},{"properties":{"latitude":33.7712,"abbrivation":"AZ","2020 population":842607,"longitude":-111.3877,"id":"a6l353vhzbp5","state":"Arizona"},"type":"Feature","geometry":{"type":"Point","coordinates":[-111.3877,33.7712]}},{"properties":{"latitude":34.9513,"abbrivation":"AR","2020 population":531028,"longitude":-92.3809,"id":"a6l353khaejy","state":"Arkansas"},"type":"Feature","geometry":{"type":"Point","coordinates":[-92.3809,34.9513]}},{"properties":{"latitude":36.17,"abbrivation":"CA","2020 population":6199126,"longitude":-119.7462,"id":"a6l353sj2bvc","state":"California"},"type":"Feature","geometry":{"type":"Point","coordinates":[-119.7462,36.17]}},{"properties":{"latitude":39.0646,"abbrivation":"CO","2020 population":750903,"longitude":-105.3272,"id":"a6l353y0er2e","state":"Colorado"},"type":"Feature","geometry":{"type":"Point","coordinates":[-105.3272,39.0646]}},{"properties":{"latitude":41.5834,"abbrivation":"CT","2020 population":642541,"longitude":-72.7622,"id":"a6l353v0l6gp","state":"Connecticut"},"type":"Feature","geometry":{"type":"Point","coordinates":[-72.7622,41.5834]}},{"properties":{"latitude":39.3498,"abbrivation":"DE","2020 population":176121,"longitude":-75.5148,"id":"a6l353pr3bef","state":"Delaware"},"type":"Feature","geometry":{"type":"Point","coordinates":[-75.5148,39.3498]}},{"properties":{"latitude":38.8964,"abbrivation":"DC","2020 population":61535,"longitude":-77.0262,"id":"a6l353t0s8r6","state":"Dis. Columbia"},"type":"Feature","geometry":{"type":"Point","coordinates":[-77.0262,38.8964]}},{"properties":{"latitude":27.8333,"abbrivation":"FL","2020 population":5106857,"longitude":-81.717,"id":"a6l353zgo1ia","state":"Florida"},"type":"Feature","geometry":{"type":"Point","coordinates":[-81.717,27.8333]}},{"properties":{"latitude":32.9866,"abbrivation":"GA","2020 population":1409923,"longitude":-83.6487,"id":"a6l353u3mkea","state":"Georgia"},"type":"Feature","geometry":{"type":"Point","coordinates":[-83.6487,32.9866]}},{"properties":{"latitude":21.1098,"abbrivation":"HI","2020 population":264527,"longitude":-157.5311,"id":"a6l353whmd7t","state":"Hawaii"},"type":"Feature","geometry":{"type":"Point","coordinates":[-157.5311,21.1098]}},{"properties":{"latitude":44.2394,"abbrivation":"ID","2020 population":269439,"longitude":-114.5103,"id":"a6l353jkddh4","state":"Idaho"},"type":"Feature","geometry":{"type":"Point","coordinates":[-114.5103,44.2394]}},{"properties":{"latitude":40.3363,"abbrivation":"IL","2020 population":1988764,"longitude":-89.0022,"id":"a6l353p68o2n","state":"Illinois"},"type":"Feature","geometry":{"type":"Point","coordinates":[-89.0022,40.3363]}},{"properties":{"latitude":39.8647,"abbrivation":"IN","2020 population":1019707,"longitude":-86.2604,"id":"a6l353rmx3lx","state":"Indiana"},"type":"Feature","geometry":{"type":"Point","coordinates":[-86.2604,39.8647]}},{"properties":{"latitude":42.0046,"abbrivation":"IA","2020 population":556540,"longitude":-93.214,"id":"a6l353xe1wfr","state":"Iowa"},"type":"Feature","geometry":{"type":"Point","coordinates":[-93.214,42.0046]}},{"properties":{"latitude":38.5111,"abbrivation":"KS","2020 population":479919,"longitude":-96.8005,"id":"a6l353k1vf83","state":"Kansas"},"type":"Feature","geometry":{"type":"Point","coordinates":[-96.8005,38.5111]}},{"properties":{"latitude":37.669,"abbrivation":"KY","2020 population":729741,"longitude":-84.6514,"id":"a6l353uicyh6","state":"Kentucky"},"type":"Feature","geometry":{"type":"Point","coordinates":[-84.6514,37.669]}},{"properties":{"latitude":31.1801,"abbrivation":"LA","2020 population":763468,"longitude":-91.8749,"id":"a6l353stkpau","state":"Louisiana"},"type":"Feature","geometry":{"type":"Point","coordinates":[-91.8749,31.1801]}},{"properties":{"latitude":44.6074,"abbrivation":"ME","2020 population":293990,"longitude":-69.3977,"id":"a6l353jk9vte","state":"Maine"},"type":"Feature","geometry":{"type":"Point","coordinates":[-69.3977,44.6074]}},{"properties":{"latitude":39.0724,"abbrivation":"MD","2020 population":962160,"longitude":-76.7902,"id":"a6l353o81sth","state":"Maryland"},"type":"Feature","geometry":{"type":"Point","coordinates":[-76.7902,39.0724]}},{"properties":{"latitude":42.2373,"abbrivation":"MA","2020 population":1159817,"longitude":-71.5314,"id":"a6l353zjprfp","state":"Massachusetts"},"type":"Feature","geometry":{"type":"Point","coordinates":[-71.5314,42.2373]}},{"properties":{"latitude":43.3504,"abbrivation":"MI","2020 population":1711476,"longitude":-84.5603,"id":"a6l353wxyr0p","state":"Michigan"},"type":"Feature","geometry":{"type":"Point","coordinates":[-84.5603,43.3504]}},{"properties":{"latitude":45.7326,"abbrivation":"MN","2020 population":909950,"longitude":-93.9196,"id":"a6l353zif4dh","state":"Minnesota"},"type":"Feature","geometry":{"type":"Point","coordinates":[-93.9196,45.7326]}},{"properties":{"latitude":32.7673,"abbrivation":"MS","2020 population":499190,"longitude":-89.6812,"id":"a6l353ow3wmf","state":"Mississippi"},"type":"Feature","geometry":{"type":"Point","coordinates":[-89.6812,32.7673]}},{"properties":{"latitude":38.4623,"abbrivation":"MO","2020 population":1047071,"longitude":-92.302,"id":"a6l353xxw0zu","state":"Missouri"},"type":"Feature","geometry":{"type":"Point","coordinates":[-92.302,38.4623]}},{"properties":{"latitude":46.9048,"abbrivation":"MT","2020 population":211783,"longitude":-110.3261,"id":"a6l353qsiotw","state":"Montana"},"type":"Feature","geometry":{"type":"Point","coordinates":[-110.3261,46.9048]}},{"properties":{"latitude":41.1289,"abbrivation":"NE","2020 population":308994,"longitude":-98.2883,"id":"a6l353oqei16","state":"Nebraska"},"type":"Feature","geometry":{"type":"Point","coordinates":[-98.2883,41.1289]}},{"properties":{"latitude":38.4199,"abbrivation":"NV","2020 population":531120,"longitude":-117.1219,"id":"a6l353s7vzuz","state":"Nevada"},"type":"Feature","geometry":{"type":"Point","coordinates":[-117.1219,38.4199]}},{"properties":{"latitude":43.4108,"abbrivation":"NH","2020 population":261856,"longitude":-71.5653,"id":"a6l353r8fgds","state":"New Hampshire"},"type":"Feature","geometry":{"type":"Point","coordinates":[-71.5653,43.4108]}},{"properties":{"latitude":40.314,"abbrivation":"NJ","2020 population":1552544,"longitude":-74.5089,"id":"a6l353lmncb9","state":"New Jersey"},"type":"Feature","geometry":{"type":"Point","coordinates":[-74.5089,40.314]}},{"properties":{"latitude":34.8375,"abbrivation":"NM","2020 population":419690,"longitude":-106.2371,"id":"a6l353mrguad","state":"New Mexico"},"type":"Feature","geometry":{"type":"Point","coordinates":[-106.2371,34.8375]}},{"properties":{"latitude":42.1497,"abbrivation":"NY","2020 population":3250020,"longitude":-74.9384,"id":"a6l353p3ck0r","state":"New York"},"type":"Feature","geometry":{"type":"Point","coordinates":[-74.9384,42.1497]}},{"properties":{"latitude":35.6411,"abbrivation":"NC","2020 population":1618578,"longitude":-79.8431,"id":"a6l353xe37ib","state":"North Carolina"},"type":"Feature","geometry":{"type":"Point","coordinates":[-79.8431,35.6411]}},{"properties":{"latitude":47.5362,"abbrivation":"ND","2020 population":125023,"longitude":-99.793,"id":"a6l353pikrgu","state":"North Dakota"},"type":"Feature","geometry":{"type":"Point","coordinates":[-99.793,47.5362]}},{"properties":{"latitude":40.3736,"abbrivation":"OH","2020 population":1978464,"longitude":-82.7755,"id":"a6l353vxseqp","state":"Ohio"},"type":"Feature","geometry":{"type":"Point","coordinates":[-82.7755,40.3736]}},{"properties":{"latitude":35.5376,"abbrivation":"OK","2020 population":625384,"longitude":-96.9247,"id":"a6l353pd1dmd","state":"Oklahoma"},"type":"Feature","geometry":{"type":"Point","coordinates":[-96.9247,35.5376]}},{"properties":{"latitude":44.5672,"abbrivation":"OR","2020 population":704866,"longitude":-122.1269,"id":"a6l353sf86vl","state":"Oregon"},"type":"Feature","geometry":{"type":"Point","coordinates":[-122.1269,44.5672]}},{"properties":{"latitude":40.5773,"abbrivation":"PA","2020 population":2403118,"longitude":-77.264,"id":"a6l353xiyt80","state":"Pennsylvania"},"type":"Feature","geometry":{"type":"Point","coordinates":[-77.264,40.5773]}},{"properties":{"latitude":41.6772,"abbrivation":"RI","2020 population":197972,"longitude":-71.5101,"id":"a6l353yzq2c4","state":"Rhode Island"},"type":"Feature","geometry":{"type":"Point","coordinates":[-71.5101,41.6772]}},{"properties":{"latitude":33.8191,"abbrivation":"SC","2020 population":866250,"longitude":-80.9066,"id":"a6l353wm93k4","state":"South Carolina"},"type":"Feature","geometry":{"type":"Point","coordinates":[-80.9066,33.8191]}},{"properties":{"latitude":44.2853,"abbrivation":"SD","2020 population":148398,"longitude":-99.4632,"id":"a6l353yqpjiu","state":"South Dakota"},"type":"Feature","geometry":{"type":"Point","coordinates":[-99.4632,44.2853]}},{"properties":{"latitude":35.7449,"abbrivation":"TN","2020 population":1121063,"longitude":-86.7489,"id":"a6l353jt85x1","state":"Tennessee"},"type":"Feature","geometry":{"type":"Point","coordinates":[-86.7489,35.7449]}},{"properties":{"latitude":31.106,"abbrivation":"TX","2020 population":3755814,"longitude":-97.6475,"id":"a6l353wppxdi","state":"Texas"},"type":"Feature","geometry":{"type":"Point","coordinates":[-97.6475,31.106]}},{"properties":{"latitude":40.1135,"abbrivation":"UT","2020 population":341095,"longitude":-111.8535,"id":"a6l353xhznko","state":"Utah"},"type":"Feature","geometry":{"type":"Point","coordinates":[-111.8535,40.1135]}},{"properties":{"latitude":44.0407,"abbrivation":"VT","2020 population":136449,"longitude":-72.7093,"id":"a6l353x8ic5a","state":"Vermont"},"type":"Feature","geometry":{"type":"Point","coordinates":[-72.7093,44.0407]}},{"properties":{"latitude":37.768,"abbrivation":"VA","2020 population":1404580,"longitude":-78.2057,"id":"a6l353zg1f22","state":"Virginia"},"type":"Feature","geometry":{"type":"Point","coordinates":[-78.2057,37.768]}},{"properties":{"latitude":47.3917,"abbrivation":"WA","2020 population":1168199,"longitude":-121.5708,"id":"a6l353mvv8d7","state":"Washington"},"type":"Feature","geometry":{"type":"Point","coordinates":[-121.5708,47.3917]}},{"properties":{"latitude":38.468,"abbrivation":"WV","2020 population":372024,"longitude":-80.9696,"id":"a6l353y3opcx","state":"West Virginia"},"type":"Feature","geometry":{"type":"Point","coordinates":[-80.9696,38.468]}},{"properties":{"latitude":44.2563,"abbrivation":"WI","2020 population":1025542,"longitude":-89.6385,"id":"a6l353khq3ug","state":"Wisconsin"},"type":"Feature","geometry":{"type":"Point","coordinates":[-89.6385,44.2563]}},{"properties":{"latitude":42.7475,"abbrivation":"WY","2020 population":109655,"longitude":-107.2085,"id":"a6l353txhz9i","state":"Wyoming"},"type":"Feature","geometry":{"type":"Point","coordinates":[-107.2085,42.7475]}}],"is_temporal":false,"author":{"url":"","metadata":"","contact_name":"","contact_address":"","source":"","contact_phone":""},"source":"","pagination":{"sort":null,"start":0,"total":51,"limit":1000000},"state":"complete","tags":"","published":"2014-08-10T18:48:03-04:00","id":85754}