{"type":"FeatureCollection","data_type":"Dataset","url_type":null,"permissions":[{"permissions":{"download":true,"view":true},"group_id":"everyone"}],"classification":null,"title":"Independent schools. Washington DC, 2002","count":65,"stream_id":8649,"contributor":{"url":"http://geocommons.com/users/955","name":"williambenjaminiv"},"data_attributes":null,"calculation_params":null,"icon_link":null,"link":"http://geocommons.com/overlays/8649.json","extent":[-77.0945,38.825,-76.9289,38.9848],"geometry_types":["point"],"unique_name":null,"name":"Independent schools. Washington DC, 2002","feature_count":65,"description":"Independent School locations. The dataset contains locations and attributes of Independent Schools, created as part of the DC Geographic Information System (DC GIS) for the D.C. Office of the Chief Technology Officer (OCTO) and participating D.C. government agencies.\n\nA publication identified Independent Schools and DC GIS staff geo-processed the data.\n","next_feature":null,"is_raster":false,"short_classification":"Y","stats":{"ID":{"max":66.0,"mean":33.2923076923077,"variance":371.366346153846,"stdev":19.270867810087,"min":1.0,"median":33.0}},"features":[{"properties":{"NAME":"Archbishop Carroll High","ZIP":"20017","GIS_ID":"IND_049","TELEPHONE":"202-529-0900","ID":1.0,"WEB_URL":"","id":"a673dfnc4y82","ADDRESS":"4300 Harewood                                                   R d"},"type":"Feature","geometry":{"type":"Point","coordinates":[-77.0065159334483,38.9408594049336]}},{"properties":{"NAME":"Calvary Christian Academy","ZIP":"20018","GIS_ID":"IND_022","TELEPHONE":"202-526-5176","ID":2.0,"WEB_URL":"","id":"a673dfoga4up","ADDRESS":"806 Rhode Island Ave NE"},"type":"Feature","geometry":{"type":"Point","coordinates":[-76.9942901765707,38.9221295748839]}},{"properties":{"NAME":"Ideal Alternative School","ZIP":"20011","GIS_ID":"IND_001","TELEPHONE":"202-723-6008","ID":3.0,"WEB_URL":"http://members.tripod.com/~idealschool/\r\nhttp://members.tripod.com/~idealschool/","id":"a673dfhkfnet","ADDRESS":"33 Ridge Rd NE"},"type":"Feature","geometry":{"type":"Point","coordinates":[-77.0086234567249,38.9552590545194]}},{"properties":{"NAME":"Jewels of Ann School","ZIP":"20018","GIS_ID":"IND_050","TELEPHONE":"202-529-5446","ID":4.0,"WEB_URL":"","id":"a673dfmcsbgy","ADDRESS":"2011 Bunker Hill Rd NE"},"type":"Feature","geometry":{"type":"Point","coordinates":[-76.9757179360398,38.9401168351664]}},{"properties":{"NAME":"Nannie Helen Burroughs School, Inc.","ZIP":"20019","GIS_ID":"IND_023","TELEPHONE":"202-398-5266","ID":5.0,"WEB_URL":"","id":"a673dfjlkms1","ADDRESS":"601 50th St NE"},"type":"Feature","geometry":{"type":"Point","coordinates":[-76.9289127081421,38.8972039994825]}},{"properties":{"NAME":"St. Anselm's Abbey School","ZIP":"20017","GIS_ID":"IND_024","TELEPHONE":"202-269-2350","ID":6.0,"WEB_URL":"","id":"a673dfcilchf","ADDRESS":"4501 South Dakota Ave NE"},"type":"Feature","geometry":{"type":"Point","coordinates":[-76.9847788355647,38.945767616009]}},{"properties":{"NAME":"St. Anthony's School","ZIP":"20017","GIS_ID":"IND_025","TELEPHONE":"202-526-4657","ID":7.0,"WEB_URL":"http://www.stanselms.org","id":"a673dffdmmqh","ADDRESS":"12th at Lawrence St NE"},"type":"Feature","geometry":{"type":"Point","coordinates":[-76.9913520324381,38.9317254558937]}},{"properties":{"NAME":"St. Benedict The Moor School","ZIP":"20002","GIS_ID":"IND_026","TELEPHONE":"202-397-3897","ID":8.0,"WEB_URL":"","id":"a673dfmwfke7","ADDRESS":"330 21st St NE"},"type":"Feature","geometry":{"type":"Point","coordinates":[-76.9754698918406,38.8945977993101]}},{"properties":{"NAME":"St. Francis De Sales School","ZIP":"20018","GIS_ID":"IND_027","TELEPHONE":"202-529-5394","ID":9.0,"WEB_URL":"","id":"a673dfgpbgoc","ADDRESS":"2019 Rhode Island Ave NE"},"type":"Feature","geometry":{"type":"Point","coordinates":[-76.9754083452202,38.9289477648648]}},{"properties":{"NAME":"Academy for Ideal Education","ZIP":"20011","GIS_ID":"IND_002","TELEPHONE":"202-726-0313","ID":10.0,"WEB_URL":"http://members.tripod.com/~idealschool/","id":"a673dfd57a6i","ADDRESS":"1501 Gallatin St NW"},"type":"Feature","geometry":{"type":"Point","coordinates":[-77.0347543515374,38.9521082313619]}},{"properties":{"NAME":"Aidan Montessori School","ZIP":"20008","GIS_ID":"IND_029","TELEPHONE":"202-387-2700","ID":11.0,"WEB_URL":"","id":"a673dfdoz5xz","ADDRESS":"2700 27th St NW"},"type":"Feature","geometry":{"type":"Point","coordinates":[-77.0556113034786,38.9261827390201]}},{"properties":{"NAME":"Annunciation School","ZIP":"20016","GIS_ID":"IND_028","TELEPHONE":"202-362-1408","ID":12.0,"WEB_URL":"","id":"a673dfh7783a","ADDRESS":"3825 Klingle Pl NW"},"type":"Feature","geometry":{"type":"Point","coordinates":[-77.0764140662545,38.929898079914]}},{"properties":{"NAME":"Beauvoir","ZIP":"20016","GIS_ID":"IND_051","TELEPHONE":"202-537-6485","ID":13.0,"WEB_URL":"http://www.beauvoirschool.org/","id":"a673dfeq06no","ADDRESS":"3500 Woodley Rd NW"},"type":"Feature","geometry":{"type":"Point","coordinates":[-77.0721736536424,38.9312711917314]}},{"properties":{"NAME":"Blessed Sacrament School","ZIP":"20015","GIS_ID":"IND_052","TELEPHONE":"202-966-6682","ID":14.0,"WEB_URL":"http://www.blessed-sacrament.com","id":"a673df9u7mbu","ADDRESS":"5841 Chevy Chase Pkwy NW"},"type":"Feature","geometry":{"type":"Point","coordinates":[-77.0751355277128,38.9679004426374]}},{"properties":{"NAME":"Bridges Academy","ZIP":"20011","GIS_ID":"IND_003","TELEPHONE":"202-829-1901","ID":15.0,"WEB_URL":"","id":"a673dfjwlrpb","ADDRESS":"6119 Georgia Ave NW"},"type":"Feature","geometry":{"type":"Point","coordinates":[-77.0274203372241,38.9643746125399]}},{"properties":{"NAME":"British School of Washington","ZIP":"20011","GIS_ID":"IND_030","TELEPHONE":"202-829-3700","ID":16.0,"WEB_URL":"http://www.britishschool.org","id":"a673dfbvslof","ADDRESS":"4715 16th St NW"},"type":"Feature","geometry":{"type":"Point","coordinates":[-77.035992055143,38.9480357652813]}},{"properties":{"NAME":"Edmund Burke School","ZIP":"20008","GIS_ID":"IND_053","TELEPHONE":"202-362-8882","ID":17.0,"WEB_URL":"http://www.eburke.org","id":"a673dfkz7fud","ADDRESS":"2955 Upton St NW"},"type":"Feature","geometry":{"type":"Point","coordinates":[-77.0614245266046,38.9423454812275]}},{"properties":{"NAME":"Emerson Preparatory School","ZIP":"20036","GIS_ID":"IND_054","TELEPHONE":"202-785-2877","ID":18.0,"WEB_URL":"http://www.emersonprep.net","id":"a673dfmecbxt","ADDRESS":"1324 18th St NW"},"type":"Feature","geometry":{"type":"Point","coordinates":[-77.0418998680369,38.9085348421013]}},{"properties":{"NAME":"The Field School","ZIP":"20008","GIS_ID":"IND_055","TELEPHONE":"202-232-0733","ID":19.0,"WEB_URL":"http://www.fieldschool.com","id":"a673dfdh8tit","ADDRESS":"2126 Wyoming Ave NW"},"type":"Feature","geometry":{"type":"Point","coordinates":[-77.0478408649751,38.9172380929051]}},{"properties":{"NAME":"Georgetown Day School High School","ZIP":"20016","GIS_ID":"IND_056","TELEPHONE":"202-274-3200","ID":20.0,"WEB_URL":"http://www.gds.org","id":"a673dfdc0m31","ADDRESS":"4200 Davenport St NW"},"type":"Feature","geometry":{"type":"Point","coordinates":[-77.0825703878314,38.9517998563872]}},{"properties":{"NAME":"Georgetown Day School Lower/Middle School","ZIP":"20007","GIS_ID":"IND_031","TELEPHONE":"202-295-6200","ID":21.0,"WEB_URL":"http://www.gds.org","id":"a673dflzj262","ADDRESS":"4530 MacArthur Blvd NW"},"type":"Feature","geometry":{"type":"Point","coordinates":[-77.0863004861096,38.9076334839947]}},{"properties":{"NAME":"Georgetown Visitation Preparatory School","ZIP":"20007","GIS_ID":"IND_057","TELEPHONE":"202-337-3350","ID":22.0,"WEB_URL":"http://www.ee.cua.edu/~georgvis","id":"a673dfgqt3js","ADDRESS":"1524 35th St NW"},"type":"Feature","geometry":{"type":"Point","coordinates":[-77.069319853262,38.9092046510717]}},{"properties":{"NAME":"Gonzaga College High School","ZIP":"20001","GIS_ID":"IND_058","TELEPHONE":"202-336-7100","ID":23.0,"WEB_URL":"http://www.gonzaga.org","id":"a673dfl3p4tk","ADDRESS":"19 Eye St NW"},"type":"Feature","geometry":{"type":"Point","coordinates":[-77.0108867623784,38.9016120302572]}},{"properties":{"NAME":"Holy Redeemer School","ZIP":"20001","GIS_ID":"IND_004","TELEPHONE":"202-638-5789","ID":24.0,"WEB_URL":"","id":"a673dfe2v7el","ADDRESS":"1135 New Jersey Ave NW"},"type":"Feature","geometry":{"type":"Point","coordinates":[-77.0142021616672,38.9049151905543]}},{"properties":{"NAME":"Holy Trinity School","ZIP":"20007","GIS_ID":"IND_005","TELEPHONE":"202-337-2339","ID":25.0,"WEB_URL":"","id":"a673dfbvww72","ADDRESS":"1325 36th St NW"},"type":"Feature","geometry":{"type":"Point","coordinates":[-77.0704776960374,38.9074516906496]}},{"properties":{"NAME":"Immaculate Conception School","ZIP":"20001","GIS_ID":"IND_032","TELEPHONE":"202-234-1093","ID":26.0,"WEB_URL":"","id":"a673dfhtdb0t","ADDRESS":"711 N St NW"},"type":"Feature","geometry":{"type":"Point","coordinates":[-77.0226615871858,38.9075165840907]}},{"properties":{"NAME":"Kingsbury Day School","ZIP":"20008","GIS_ID":"IND_006","TELEPHONE":"202-232-1702","ID":27.0,"WEB_URL":"","id":"a673dfhidb9d","ADDRESS":"2138 Bancroft Pl NW"},"type":"Feature","geometry":{"type":"Point","coordinates":[-77.048146859018,38.9146536564721]}},{"properties":{"NAME":"The Lab School of Washington","ZIP":"20007","GIS_ID":"IND_059","TELEPHONE":"202-965-6600","ID":28.0,"WEB_URL":"http://www.labschool.org","id":"a673dfayq5u3","ADDRESS":"4759 Reservoir Rd NW"},"type":"Feature","geometry":{"type":"Point","coordinates":[-77.0924940742604,38.9154577078131]}},{"properties":{"NAME":"Lowell School","ZIP":"20012","GIS_ID":"IND_060","TELEPHONE":"202-577-2000","ID":29.0,"WEB_URL":"http://www.lowellschool.org","id":"a673dfclianq","ADDRESS":"1640 Kalmia Rd NW"},"type":"Feature","geometry":{"type":"Point","coordinates":[-77.038382945609,38.9847880624681]}},{"properties":{"NAME":"Maret School","ZIP":"20008","GIS_ID":"IND_007","TELEPHONE":"202-939-8814","ID":30.0,"WEB_URL":"http://www.maret.org","id":"a673dfc6zd9o","ADDRESS":"3000 Cathedral Ave NW"},"type":"Feature","geometry":{"type":"Point","coordinates":[-77.0605685712215,38.9282144787339]}},{"properties":{"NAME":"National Cathedral School","ZIP":"20016","GIS_ID":"IND_061","TELEPHONE":"202-537-6300","ID":31.0,"WEB_URL":"http://www.ncs.cathedral.org","id":"a673dff38j3f","ADDRESS":"3612 Woodley Rd NW"},"type":"Feature","geometry":{"type":"Point","coordinates":[-77.0721817093413,38.9320627198269]}},{"properties":{"NAME":"National Presbyterian School","ZIP":"20016","GIS_ID":"IND_062","TELEPHONE":"202-537-7500","ID":32.0,"WEB_URL":"http://www.nps-dc.org","id":"a673dfloftw3","ADDRESS":"4121 Nebraska Ave NW"},"type":"Feature","geometry":{"type":"Point","coordinates":[-77.0809774466076,38.9417716341798]}},{"properties":{"NAME":"Nation House Watoto School","ZIP":"20010","GIS_ID":"IND_008","TELEPHONE":"202-291-5600","ID":33.0,"WEB_URL":"","id":"a673dfmxequh","ADDRESS":"770 Park Rd NW"},"type":"Feature","geometry":{"type":"Point","coordinates":[-77.0264957962077,38.9326272965063]}},{"properties":{"NAME":"Nativity Catholic Academy","ZIP":"20011","GIS_ID":"IND_037","TELEPHONE":"202-723-3322","ID":34.0,"WEB_URL":"","id":"a673dfcssm2w","ADDRESS":"6008 Georgia Ave NW"},"type":"Feature","geometry":{"type":"Point","coordinates":[-77.0283473284953,38.9631920586201]}},{"properties":{"NAME":"Oakcrest School","ZIP":"20016","GIS_ID":"IND_063","TELEPHONE":"202-686-9736","ID":35.0,"WEB_URL":"","id":"a673dfblhw5l","ADDRESS":"4101 Yuma St NW"},"type":"Feature","geometry":{"type":"Point","coordinates":[-77.0806923364911,38.9466016429736]}},{"properties":{"NAME":"Our Lady of Victory School","ZIP":"20007","GIS_ID":"IND_064","TELEPHONE":"202-337-1421","ID":36.0,"WEB_URL":"http://www.olvdc.com/","id":"a673dfi7428e","ADDRESS":"4755 Whitehaven Pkwy NW"},"type":"Feature","geometry":{"type":"Point","coordinates":[-77.0945012022152,38.9159643161751]}},{"properties":{"NAME":"The Owl School","ZIP":"20011","GIS_ID":"IND_065","TELEPHONE":"202-722-6957","ID":37.0,"WEB_URL":"http://www.owlschool.com","id":"a673dfj7f3ev","ADDRESS":"6045 16th St NW"},"type":"Feature","geometry":{"type":"Point","coordinates":[-77.035977211882,38.9640658862452]}},{"properties":{"NAME":"Parkmont School","ZIP":"20011","GIS_ID":"IND_009","TELEPHONE":"202-726-0740","ID":38.0,"WEB_URL":"http://www.parkmont.org","id":"a673df9gnkpg","ADDRESS":"4842 16th St NW"},"type":"Feature","geometry":{"type":"Point","coordinates":[-77.0367676545235,38.9499855996518]}},{"properties":{"NAME":"Rock Creek International School","ZIP":"20008","GIS_ID":"IND_010","TELEPHONE":"202-387-7254","ID":39.0,"WEB_URL":"","id":"a673dfdiiopg","ADDRESS":"2200 California St NW"},"type":"Feature","geometry":{"type":"Point","coordinates":[-77.0490825347856,38.9156664346206]}},{"properties":{"NAME":"Roots Activity Learning Center","ZIP":"20011","GIS_ID":"IND_038","TELEPHONE":"202-882-5155","ID":40.0,"WEB_URL":"http://www.rootsactivitylc.org/","id":"a673dffeqbn7","ADDRESS":"6222 North Capitol St NW"},"type":"Feature","geometry":{"type":"Point","coordinates":[-77.0094348926852,38.9662034096639]}},{"properties":{"NAME":"Sacred Heart School","ZIP":"20010","GIS_ID":"IND_041","TELEPHONE":"202-265-4828","ID":41.0,"WEB_URL":"","id":"a673dfh2lo8s","ADDRESS":"1625 Park Rd NW"},"type":"Feature","geometry":{"type":"Point","coordinates":[-77.0376668065938,38.9323072279612]}},{"properties":{"NAME":"St. Albans School","ZIP":"20016","GIS_ID":"IND_033","TELEPHONE":"202-537-6435","ID":42.0,"WEB_URL":"http://www.sta.cathedral.org","id":"a673dfeqcgau","ADDRESS":"Wisconsin and Massachusetts Ave NW"},"type":"Feature","geometry":{"type":"Point","coordinates":[-77.0727872908973,38.9290445241247]}},{"properties":{"NAME":"St. Ann's Academy","ZIP":"20016","GIS_ID":"IND_034","TELEPHONE":"202-363-4460","ID":43.0,"WEB_URL":"","id":"a673dfj3xk4v","ADDRESS":"4404 Wisconsin Ave NW"},"type":"Feature","geometry":{"type":"Point","coordinates":[-77.0800849404842,38.9469052164218]}},{"properties":{"NAME":"St. Augustine School","ZIP":"20009","GIS_ID":"IND_035","TELEPHONE":"202-667-2608","ID":44.0,"WEB_URL":"","id":"a673dfh0iius","ADDRESS":"1421 V St NW"},"type":"Feature","geometry":{"type":"Point","coordinates":[-77.0333176561934,38.9183808884321]}},{"properties":{"NAME":"St. Gabriel's School","ZIP":"20011","GIS_ID":"IND_036","TELEPHONE":"202-726-9212","ID":45.0,"WEB_URL":"","id":"a673df8omhwh","ADDRESS":"510 Webster St NW"},"type":"Feature","geometry":{"type":"Point","coordinates":[-77.0203204096423,38.9436807475193]}},{"properties":{"NAME":"St. John's College High School","ZIP":"20015","GIS_ID":"IND_042","TELEPHONE":"202-363-2316","ID":46.0,"WEB_URL":"http://www.stjohns-chs.org","id":"a673dfaqa4fi","ADDRESS":"2607 Military Rd NW"},"type":"Feature","geometry":{"type":"Point","coordinates":[-77.0549693476888,38.9624720569993]}},{"properties":{"NAME":"St. Patrick's Episcopal Day School","ZIP":"20007","GIS_ID":"IND_047","TELEPHONE":"202-342-2805","ID":48.0,"WEB_URL":"http://www.stpatsdc.org","id":"a673dfn3iaai","ADDRESS":"4700 Whitehaven Pkwy NW"},"type":"Feature","geometry":{"type":"Point","coordinates":[-77.0913605717335,38.9160874895928]}},{"properties":{"NAME":"Sheridan School","ZIP":"20008","GIS_ID":"IND_011","TELEPHONE":"202-362-7900","ID":49.0,"WEB_URL":"http://www.sheridanschool.org","id":"a673dfj9uz4y","ADDRESS":"4400 36th St NW"},"type":"Feature","geometry":{"type":"Point","coordinates":[-77.0705200938122,38.9467661280903]}},{"properties":{"NAME":"Sidwell Friends School","ZIP":"20016","GIS_ID":"IND_012","TELEPHONE":"202-537-8100","ID":50.0,"WEB_URL":"http://www.sidwell.edu","id":"a673dfkjfzkm","ADDRESS":"3825 Wisconsin Ave NW"},"type":"Feature","geometry":{"type":"Point","coordinates":[-77.0739854138616,38.9393645143341]}},{"properties":{"NAME":"Washington Hebrew Congregation Tyser Ecc","ZIP":"20016","GIS_ID":"IND_013","TELEPHONE":"202-895-6334","ID":51.0,"WEB_URL":"","id":"a673dfitfrz0","ADDRESS":"3935 Macomb St NW"},"type":"Feature","geometry":{"type":"Point","coordinates":[-77.0783583479541,38.9338311174299]}},{"properties":{"NAME":"Washington International School","ZIP":"20008","GIS_ID":"IND_014","TELEPHONE":"202-243-1800","ID":52.0,"WEB_URL":"http://www.wis.edu","id":"a673dfnly6py","ADDRESS":"3100 Macomb St NW"},"type":"Feature","geometry":{"type":"Point","coordinates":[-77.0611219276653,38.9324698245133]}},{"properties":{"NAME":"Assumption School","ZIP":"20032","GIS_ID":"IND_015","TELEPHONE":"202-562-7070","ID":53.0,"WEB_URL":"","id":"a673dfcl7jl8","ADDRESS":"220 High View Pl SE"},"type":"Feature","geometry":{"type":"Point","coordinates":[-77.0045275986265,38.8414963147375]}},{"properties":{"NAME":"Capitol Hill Day School","ZIP":"20008","GIS_ID":"IND_044","TELEPHONE":"202-547-2244","ID":54.0,"WEB_URL":"http://www.chds.org","id":"a673dfetakda","ADDRESS":"210 South Carolina Ave SE"},"type":"Feature","geometry":{"type":"Point","coordinates":[-77.0031788655675,38.8823012126429]}},{"properties":{"NAME":"Clara Muhammad School","ZIP":"20020","GIS_ID":"IND_016","TELEPHONE":"202-610-1090","ID":55.0,"WEB_URL":"","id":"a673dfeebdkq","ADDRESS":"2313 Martin Luther King Jr Ave SE"},"type":"Feature","geometry":{"type":"Point","coordinates":[-76.9918690333961,38.8632829314283]}},{"properties":{"NAME":"Cornerstone Bible Church School","ZIP":"20020","GIS_ID":"IND_046","TELEPHONE":"202-678-6555","ID":56.0,"WEB_URL":"","id":"a673df9ub6xl","ADDRESS":"1610 T St SE"},"type":"Feature","geometry":{"type":"Point","coordinates":[-76.9818905652708,38.8674789558515]}},{"properties":{"NAME":"Dupont Park School","ZIP":"20020","GIS_ID":"IND_017","TELEPHONE":"202-583-8500","ID":57.0,"WEB_URL":"","id":"a673dfb0qcb7","ADDRESS":"3942 Alabama Ave SE"},"type":"Feature","geometry":{"type":"Point","coordinates":[-76.9480404952622,38.8696677074853]}},{"properties":{"NAME":"Holy Comforter - St. Cyprian School","ZIP":"20003","GIS_ID":"IND_045","TELEPHONE":"202-547-7556","ID":58.0,"WEB_URL":"","id":"a673dfl5f792","ADDRESS":"1503 East Capitol St SE"},"type":"Feature","geometry":{"type":"Point","coordinates":[-76.9832356948587,38.889409638325]}},{"properties":{"NAME":"Naylor Road School","ZIP":"20020","GIS_ID":"IND_018","TELEPHONE":"202-584-5114","ID":59.0,"WEB_URL":"","id":"a673dfkpqcb1","ADDRESS":"2403 Naylor Rd SE"},"type":"Feature","geometry":{"type":"Point","coordinates":[-76.9721598943843,38.8692152497877]}},{"properties":{"NAME":"Our Lady of Perpetual Help","ZIP":"20020","GIS_ID":"IND_019","TELEPHONE":"202-678-0211","ID":60.0,"WEB_URL":"","id":"a673dfjq604t","ADDRESS":"1604 Morris Rd SE"},"type":"Feature","geometry":{"type":"Point","coordinates":[-76.9821156157855,38.8581146242155]}},{"properties":{"NAME":"Our Lady of Perpetual Help","ZIP":"20020","GIS_ID":"IND_020","TELEPHONE":"202-889-1662","ID":61.0,"WEB_URL":"","id":"a673dfhhqq6q","ADDRESS":"1409 V St SE"},"type":"Feature","geometry":{"type":"Point","coordinates":[-76.9847346293727,38.8646464780368]}},{"properties":{"NAME":"Our Lady Queen of Peace","ZIP":"20019","GIS_ID":"IND_021","TELEPHONE":"202-584-4278","ID":62.0,"WEB_URL":"","id":"a673dfk0whxd","ADDRESS":"3740 Ely Pl SE"},"type":"Feature","geometry":{"type":"Point","coordinates":[-76.9481109423463,38.8832110351506]}},{"properties":{"NAME":"St. Francis Xavier School","ZIP":"20020","GIS_ID":"IND_043","TELEPHONE":"202-581-2010","ID":63.0,"WEB_URL":"","id":"a673df92wlzp","ADDRESS":"2700 O St SE"},"type":"Feature","geometry":{"type":"Point","coordinates":[-76.9685938040209,38.8731413608298]}},{"properties":{"NAME":"St. Peter's Interparish School","ZIP":"20003","GIS_ID":"IND_039","TELEPHONE":"202-544-1618","ID":64.0,"WEB_URL":"","id":"a673dfcssttt","ADDRESS":"422 3rd St SE"},"type":"Feature","geometry":{"type":"Point","coordinates":[-77.0015630623778,38.8834647595301]}},{"properties":{"NAME":"St. Thomas More Catholic School","ZIP":"20032","GIS_ID":"IND_040","TELEPHONE":"202-561-1189","ID":65.0,"WEB_URL":"","id":"a673dff3i9o9","ADDRESS":"4265 4th St SE"},"type":"Feature","geometry":{"type":"Point","coordinates":[-76.9999550123924,38.8250336490977]}},{"properties":{"NAME":"Holy Name School","ZIP":"20002","GIS_ID":"IND_048","TELEPHONE":"202-397-1614","ID":66.0,"WEB_URL":"","id":"a673dfnmi5tp","ADDRESS":"1217 W est Virginia                  Ave  NE"},"type":"Feature","geometry":{"type":"Point","coordinates":[-76.9912120797077,38.9053028841345]}}],"is_temporal":false,"author":{"url":"http://data.octo.dc.gov/","metadata":"http://data.octo.dc.gov/Metadata.aspx?id=55","contact_name":"","contact_address":"","source":"D.C. Office of the Chief Technology Officer (OCTO)","contact_phone":""},"source":"http://data.octo.dc.gov/","pagination":{"sort":null,"start":0,"total":65,"limit":1000000},"state":"complete","tags":"education,infrastructure,religion,schools","published":"2002-06-10T12:00:00Z","id":8649}