{"type":"FeatureCollection","data_type":"Dataset","url_type":null,"permissions":[{"permissions":{"download":true,"view":true},"group_id":"everyone"}],"classification":null,"title":"Hotel Locations, Washington DC, 2006","count":152,"stream_id":8652,"contributor":{"url":"http://geocommons.com/users/955","name":"williambenjaminiv"},"data_attributes":null,"calculation_params":null,"icon_link":null,"link":"http://geocommons.com/overlays/8652.json","extent":[-77.0848,38.8593,-76.9672,38.977],"geometry_types":["point"],"unique_name":null,"name":"Hotel Locations, Washington DC, 2006","feature_count":152,"description":"Hotel locations. The dataset contains locations and attributes of Hotels, created as part of the DC Geographic Information System (DC GIS) for the D.C. Office of the Chief Technology Officer (OCTO) and participating D.C. government agencies.\n\nA database provided by the DC Taxi Commission (DCTC) and research at various commercial websites identified Hotels and DC GIS staff geo-processed the data.","next_feature":null,"is_raster":false,"short_classification":"Y","stats":{"NUMROOMS":{"max":1334,"mean":173.032894736842,"variance":48016.5353346113,"stdev":219.126756318372,"min":0,"median":132}},"features":[{"properties":{"NUMROOMS":0,"NAME":"WILLIAM LEWIS HOUSE BED &amp; BREAKFAST","ZIP":"20009","GIS_ID":"Htl_1","PHONE":"202-462-7574","WEB_URL":"","id":"a62d4de820mi","ADDRESS":"1309 R STREET NW"},"type":"Feature","geometry":{"type":"Point","coordinates":[-77.0301139283531,38.9127933662321]}},{"properties":{"NUMROOMS":0,"NAME":"KIRK'S MOTEL","ZIP":"20018","GIS_ID":"Htl_151","PHONE":"202-832-1829","WEB_URL":"","id":"a62d4dqcbksf","ADDRESS":"2385 RHODE ISLAND AVENUE NE"},"type":"Feature","geometry":{"type":"Point","coordinates":[-76.9734353968555,38.9300895203573]}},{"properties":{"NUMROOMS":0,"NAME":"DYNASTY INN","ZIP":"20018","GIS_ID":"Htl_150","PHONE":"202-832-0600","WEB_URL":"","id":"a62d4dncnc3s","ADDRESS":"2365 RHODE ISLAND AVENUE NE"},"type":"Feature","geometry":{"type":"Point","coordinates":[-76.9728823581368,38.9303466921037]}},{"properties":{"NUMROOMS":0,"NAME":"MILLENNIUM HOTELS &amp; RESORTS","ZIP":"20037","GIS_ID":"Htl_4","PHONE":"202-973-8111","WEB_URL":"","id":"a62d4dsvn57a","ADDRESS":"2300 M STREET NW"},"type":"Feature","geometry":{"type":"Point","coordinates":[-77.0505515621175,38.9050046325555]}},{"properties":{"NUMROOMS":0,"NAME":"STARWOOD HOTEL","ZIP":"20005","GIS_ID":"Htl_137","PHONE":"202-638-0281","WEB_URL":"","id":"a62d4do6ok78","ADDRESS":"1015 15TH STREET NW"},"type":"Feature","geometry":{"type":"Point","coordinates":[-77.0342498560756,38.9029968216232]}},{"properties":{"NUMROOMS":0,"NAME":"FOUR SEVENTEEN VICTORIAN TOWNHOUSE","ZIP":"20003","GIS_ID":"Htl_6","PHONE":"202-543-5131","WEB_URL":"","id":"a62d4dfvvjbu","ADDRESS":"417 A STREET SE"},"type":"Feature","geometry":{"type":"Point","coordinates":[-76.9997256731968,38.888509994409]}},{"properties":{"NUMROOMS":0,"NAME":"GALLERY INN","ZIP":"20009","GIS_ID":"Htl_125","PHONE":"202-234-8788","WEB_URL":"","id":"a62d4djuq1c2","ADDRESS":"1850 FLORIDA AVENUE NW"},"type":"Feature","geometry":{"type":"Point","coordinates":[-77.0431056762691,38.9158881632707]}},{"properties":{"NUMROOMS":1,"NAME":"INDEPENDENCE HOUSE BED &amp; BREAKFAST","ZIP":"20003","GIS_ID":"Htl_8","PHONE":"202-544-6011","WEB_URL":"","id":"a62d4df0opk8","ADDRESS":"504 INDEPENDENCE AVENUE SE"},"type":"Feature","geometry":{"type":"Point","coordinates":[-76.9991845199522,38.8877887811906]}},{"properties":{"NUMROOMS":5,"NAME":"A CAPITOL PLACE BED &amp; BREAKFAST","ZIP":"20003","GIS_ID":"Htl_9","PHONE":"202-543-1020","WEB_URL":"","id":"a62d4du6j92w","ADDRESS":"134 12TH STREET SE"},"type":"Feature","geometry":{"type":"Point","coordinates":[-76.9899771792954,38.8883656108464]}},{"properties":{"NUMROOMS":0,"NAME":"HEREFORD HOUSE","ZIP":"20003","GIS_ID":"Htl_10","PHONE":"202-543-0102","WEB_URL":"","id":"a62d4dhbnog6","ADDRESS":"604 SOUTH CAROLINA AVENUE SE"},"type":"Feature","geometry":{"type":"Point","coordinates":[-76.9981791939629,38.88362896964]}},{"properties":{"NUMROOMS":3,"NAME":"MAISON ORLEANS BED &amp; BREAKFAST","ZIP":"20003","GIS_ID":"Htl_11","PHONE":"202-544-3694","WEB_URL":"","id":"a62d4di20tmc","ADDRESS":"414 5TH STREET SE"},"type":"Feature","geometry":{"type":"Point","coordinates":[-76.9992644380636,38.8837723049123]}},{"properties":{"NUMROOMS":0,"NAME":"CORPORATE SUITES OF WASHINGTON","ZIP":"20010","GIS_ID":"Htl_12","PHONE":"202-483-0100","WEB_URL":"","id":"a62d4ds2wp64","ADDRESS":"3636 16TH STREET NW"},"type":"Feature","geometry":{"type":"Point","coordinates":[-77.0372628165931,38.9364279620498]}},{"properties":{"NUMROOMS":0,"NAME":"CONFERENCE RESORTS","ZIP":"20018","GIS_ID":"Htl_119","PHONE":"202-832-2828","WEB_URL":"","id":"a62d4dojutwq","ADDRESS":"2535 BLADENSBURG ROAD NE"},"type":"Feature","geometry":{"type":"Point","coordinates":[-76.9672014240324,38.9231969037925]}},{"properties":{"NUMROOMS":12,"NAME":"INTERNATIONAL GUEST HOUSE","ZIP":"20011","GIS_ID":"Htl_14","PHONE":"202-726-5808","WEB_URL":"","id":"a62d4dgq4rk0","ADDRESS":"1441 KENNEDY STREET NW"},"type":"Feature","geometry":{"type":"Point","coordinates":[-77.0353884175338,38.9564224247758]}},{"properties":{"NUMROOMS":10,"NAME":"BULL MOOSE BED AND BREAKFAST","ZIP":"20002","GIS_ID":"Htl_118","PHONE":"202-547-1050","WEB_URL":"","id":"a62d4deewahk","ADDRESS":"101 5TH STREET NE"},"type":"Feature","geometry":{"type":"Point","coordinates":[-76.9992604436455,38.8910780097903]}},{"properties":{"NUMROOMS":0,"NAME":"BUDGET MOTOR INN","ZIP":"20002","GIS_ID":"Htl_117","PHONE":"202-529-3900","WEB_URL":"","id":"a62d4dpb5c6q","ADDRESS":"1615 NEW YORK AVENUE NE"},"type":"Feature","geometry":{"type":"Point","coordinates":[-76.9804711776754,38.9166548754547]}},{"properties":{"NUMROOMS":0,"NAME":"BOWEN RESORT TOURIST","ZIP":"20020","GIS_ID":"Htl_116","PHONE":"202-610-3400","WEB_URL":"","id":"a62d4diw9lxd","ADDRESS":"2606 BOWEN ROAD SE"},"type":"Feature","geometry":{"type":"Point","coordinates":[-76.9926141779372,38.8593317352834]}},{"properties":{"NUMROOMS":0,"NAME":"BRIDGESTREET WESTBROOK","ZIP":"20037","GIS_ID":"Htl_24","PHONE":"202-456-3084","WEB_URL":"","id":"a62d4dkccjja","ADDRESS":"2201 N STREET NW"},"type":"Feature","geometry":{"type":"Point","coordinates":[-77.0495845771096,38.9074240591022]}},{"properties":{"NUMROOMS":0,"NAME":"BRIDGESTREET AMBASSADOR HOUSE","ZIP":"20036","GIS_ID":"Htl_25","PHONE":"202-518-1030","WEB_URL":"","id":"a62d4dh1rmd3","ADDRESS":"1750 P STREET NW"},"type":"Feature","geometry":{"type":"Point","coordinates":[-77.0406068499238,38.909416657077]}},{"properties":{"NUMROOMS":23,"NAME":"THE MANSION ON O STREET","ZIP":"20036","GIS_ID":"Htl_153","PHONE":"202-496-2020","WEB_URL":"","id":"a62d4dp5e8y3","ADDRESS":"2020 O STREET NW"},"type":"Feature","geometry":{"type":"Point","coordinates":[-77.0458740836758,38.9083626226434]}},{"properties":{"NUMROOMS":124,"NAME":"WASHINGTON SUITES GEORGETOWN","ZIP":"20037","GIS_ID":"Htl_144","PHONE":"202-338-8060","WEB_URL":"http://WashingtonSuitesHotel.com\r\nhttp://WashingtonSuitesHotel.com","id":"a62d4dlb1zh6","ADDRESS":"2500 PENNSYLVANIA AVENUE NW"},"type":"Feature","geometry":{"type":"Point","coordinates":[-77.0536700131291,38.9034336261695]}},{"properties":{"NUMROOMS":146,"NAME":"GEORGETOWN UNIVERSITY CONFERENCE CENTER","ZIP":"20057","GIS_ID":"Htl_110","PHONE":"202-687-3200","WEB_URL":"http://auxsrvcs.georgetown.edu/confctrinfo.html","id":"a62d4djmczpj","ADDRESS":"3800 RESERVOIR ROAD NW"},"type":"Feature","geometry":{"type":"Point","coordinates":[-77.0752711824161,38.9114991324731]}},{"properties":{"NUMROOMS":888,"NAME":"GRAND HYATT WASHINGTON","ZIP":"20001","GIS_ID":"Htl_49","PHONE":"202-582-1234","WEB_URL":"http://grandwashington.hyatt.com/","id":"a62d4dkp4q7w","ADDRESS":"1000 H STREET NW"},"type":"Feature","geometry":{"type":"Point","coordinates":[-77.0264877382422,38.8993402753192]}},{"properties":{"NUMROOMS":228,"NAME":"HAMPTON INN","ZIP":"20001","GIS_ID":"Htl_126","PHONE":"202-842-2500","WEB_URL":"http://hamptoninn.hilton.com/","id":"a62d4dsu0j2h","ADDRESS":"901 6TH STREET NW"},"type":"Feature","geometry":{"type":"Point","coordinates":[-77.019649949247,38.901779737598]}},{"properties":{"NUMROOMS":343,"NAME":"HOLIDAY INN ON THE HILL","ZIP":"20001","GIS_ID":"Htl_54","PHONE":"202-638-1616","WEB_URL":"http://holidayinnwashingtondc.com/hotels/wasch.html","id":"a62d4dm9d4o7","ADDRESS":"415 NEW JERSEY AVENUE NW"},"type":"Feature","geometry":{"type":"Point","coordinates":[-77.0106837539387,38.8953896497989]}},{"properties":{"NUMROOMS":212,"NAME":"HOLIDAY INN CENTRAL","ZIP":"20005","GIS_ID":"Htl_52","PHONE":"202-483-2000","WEB_URL":"http://holidayinnwashingtondc.com/hotels/wasct.html","id":"a62d4dsit8ai","ADDRESS":"1501 RHODE ISLAND AVENUE NW"},"type":"Feature","geometry":{"type":"Point","coordinates":[-77.0349708328529,38.9081156930713]}},{"properties":{"NUMROOMS":296,"NAME":"HOLIDAY INN GEORGETOWN","ZIP":"20007","GIS_ID":"Htl_53","PHONE":"202-338-4600","WEB_URL":"http://holidayinnwashingtondc.com/hotels/wasgt.html","id":"a62d4djjfhom","ADDRESS":"2101 WISCONSIN AVENUE NW"},"type":"Feature","geometry":{"type":"Point","coordinates":[-77.0683956470252,38.9174605729359]}},{"properties":{"NUMROOMS":529,"NAME":"HOLIDAY INN CAPITOL AT SMITHSONIAN","ZIP":"20024","GIS_ID":"Htl_51","PHONE":"202-479-4000","WEB_URL":"http://holidayinnwashingtondc.com/hotels/wassm.html","id":"a62d4dsotj4e","ADDRESS":"550 C STREET SW"},"type":"Feature","geometry":{"type":"Point","coordinates":[-77.0196264846685,38.8856330513261]}},{"properties":{"NUMROOMS":0,"NAME":"HOLIDAY INN - DOWNTOWN","ZIP":"20005","GIS_ID":"Htl_36","PHONE":"202-737-1200","WEB_URL":"http://holidayinnwashingtondc.com/hotels/wassm.html","id":"a62d4dmsljn0","ADDRESS":"1155 14TH STREET NW"},"type":"Feature","geometry":{"type":"Point","coordinates":[-77.0315681743352,38.9050899470392]}},{"properties":{"NUMROOMS":341,"NAME":"WILLARD INTER-CONTINENTAL","ZIP":"20004","GIS_ID":"Htl_91","PHONE":"202-628-9100","WEB_URL":"http://hotels.washington.interconti.com/","id":"a62d4dnm40ee","ADDRESS":"1401 PENNSYLVANIA AVENUE NW"},"type":"Feature","geometry":{"type":"Point","coordinates":[-77.0323447900544,38.8964922480691]}},{"properties":{"NUMROOMS":223,"NAME":"RESIDENCE INN CAPITOL","ZIP":"20024","GIS_ID":"Htl_133","PHONE":"202-484-8280","WEB_URL":"http://marriott.com/property/propertypage/WASCP","id":"a62d4dpyoe2s","ADDRESS":"333 E STREET SW"},"type":"Feature","geometry":{"type":"Point","coordinates":[-77.0159303782832,38.8836136641808]}},{"properties":{"NUMROOMS":1334,"NAME":"MARRIOTT WARDMAN PARK HOTEL","ZIP":"20008","GIS_ID":"Htl_146","PHONE":"202-234-0015","WEB_URL":"http://marriotthotels.com/WASDT/\r\nhttp://marriotthotels.com/WASDT/\r\nhttp://marriotthotels.com/WASDT/","id":"a62d4dnayhbq","ADDRESS":"2600 WOODLEY ROAD NW"},"type":"Feature","geometry":{"type":"Point","coordinates":[-77.0532991907232,38.9249569645514]}},{"properties":{"NUMROOMS":223,"NAME":"PARK HYATT WASHINGTON","ZIP":"20037","GIS_ID":"Htl_70","PHONE":"202-789-1234","WEB_URL":"http://parkwashington.hyatt.com/","id":"a62d4distqfg","ADDRESS":"1201 24TH STREET NW"},"type":"Feature","geometry":{"type":"Point","coordinates":[-77.0510652406887,38.9058956954169]}},{"properties":{"NUMROOMS":99,"NAME":"TOPAZ HOTEL","ZIP":"20036","GIS_ID":"Htl_98","PHONE":"202-393-3000","WEB_URL":"http://topazhotel.com/","id":"a62d4de28ccy","ADDRESS":"1733 N STREET NW"},"type":"Feature","geometry":{"type":"Point","coordinates":[-77.0397089564603,38.9074190047055]}},{"properties":{"NUMROOMS":834,"NAME":"HYATT REGENCY WASHINGTON","ZIP":"20001","GIS_ID":"Htl_59","PHONE":"202-737-1234","WEB_URL":"http://washingtonregency.hyatt.com/","id":"a62d4di160nb","ADDRESS":"400 NEW JERSEY AVENUE NW"},"type":"Feature","geometry":{"type":"Point","coordinates":[-77.0117033530989,38.8953676617696]}},{"properties":{"NUMROOMS":318,"NAME":"CROWNE PLAZA WASHINGTON","ZIP":"20005","GIS_ID":"Htl_40","PHONE":"202-682-0111","WEB_URL":"http://www. crowneplaza.com/","id":"a62d4dpk5h0u","ADDRESS":"1001 14TH STREET NW"},"type":"Feature","geometry":{"type":"Point","coordinates":[-77.0315875042708,38.9029195594423]}},{"properties":{"NUMROOMS":26,"NAME":"ADAMS INN","ZIP":"20009","GIS_ID":"Htl_96","PHONE":"202-745-3600","WEB_URL":"http://www.adamsinn.com/","id":"a62d4dnpc950","ADDRESS":"1744 LANIER PLACE NW"},"type":"Feature","geometry":{"type":"Point","coordinates":[-77.0415920020218,38.9245345430288]}},{"properties":{"NUMROOMS":87,"NAME":"ALLEN LEE HOTEL","ZIP":"20037","GIS_ID":"Htl_33","PHONE":"202-331-1224","WEB_URL":"http://www.allenleehotel.com/","id":"a62d4doxq5mf","ADDRESS":"2224 F STREET NW"},"type":"Feature","geometry":{"type":"Point","coordinates":[-77.0496630942474,38.8971604453385]}},{"properties":{"NUMROOMS":0,"NAME":"AMERICAN GUEST HOUSE","ZIP":"20009","GIS_ID":"Htl_152","PHONE":"703-768-0335","WEB_URL":"http://www.americanguesthouse.com","id":"a62d4dmeke0o","ADDRESS":"2005 COLUMBIA ROAD NW"},"type":"Feature","geometry":{"type":"Point","coordinates":[-77.0459777371115,38.9176566449242]}},{"properties":{"NUMROOMS":203,"NAME":"BEST WESTERN CAPITOL SKYLINE","ZIP":"20024","GIS_ID":"Htl_34","PHONE":"202-488-7500","WEB_URL":"http://www.bestwestern.com/","id":"a62d4dnk4pmj","ADDRESS":"10 I STREET SW"},"type":"Feature","geometry":{"type":"Point","coordinates":[-77.010015382408,38.8788957273939]}},{"properties":{"NUMROOMS":0,"NAME":"BEST WESTERN DOWNTOWN","ZIP":"20001","GIS_ID":"Htl_97","PHONE":"202-842-4466","WEB_URL":"http://www.bestwestern.com/","id":"a62d4duai8pc","ADDRESS":"724 3RD STREET NW"},"type":"Feature","geometry":{"type":"Point","coordinates":[-77.01548397791,38.8989801921526]}},{"properties":{"NUMROOMS":76,"NAME":"BEST WESTERN NEW HAMPSHIRE SUITES HOTEL","ZIP":"20037","GIS_ID":"Htl_35","PHONE":"202-457-0565","WEB_URL":"http://www.bestwesternwashingtondc.com/","id":"a62d4dqn44yj","ADDRESS":"1121 NEW HAMPSHIRE AVENUE NW"},"type":"Feature","geometry":{"type":"Point","coordinates":[-77.0479517613347,38.9043029869725]}},{"properties":{"NUMROOMS":0,"NAME":"BOCA RESORTS","ZIP":"20006","GIS_ID":"Htl_115","PHONE":"202-530-4400","WEB_URL":"http://www.bocaresort.com/","id":"a62d4dtqibj7","ADDRESS":"1000 CONNECTICUT AVENUE NW"},"type":"Feature","geometry":{"type":"Point","coordinates":[-77.0400047704954,38.902853021087]}},{"properties":{"NUMROOMS":58,"NAME":"BRAXTON HOTEL","ZIP":"20005","GIS_ID":"Htl_22","PHONE":"202-232-7800","WEB_URL":"http://www.braxtonhotel.com/","id":"a62d4dlk8qbr","ADDRESS":"1440 RHODE ISLAND AVENUE NW"},"type":"Feature","geometry":{"type":"Point","coordinates":[-77.0332401940083,38.9079867483233]}},{"properties":{"NUMROOMS":199,"NAME":"GOVERNORS HOUSE HOTEL","ZIP":"20036","GIS_ID":"Htl_48","PHONE":"202-296-2100","WEB_URL":"http://www.capitalhotelswdc.com/GovernorsHouseWDC_com/","id":"a62d4dfumts3","ADDRESS":"1615 RHODE ISLAND AVENUE NW"},"type":"Feature","geometry":{"type":"Point","coordinates":[-77.0380496794064,38.9070489534432]}},{"properties":{"NUMROOMS":154,"NAME":"SAINT GREGORY","ZIP":"20036","GIS_ID":"Htl_18","PHONE":"202-530-3600","WEB_URL":"http://www.capitalhotelswdc.com/StGregoryHotelWDC_com/","id":"a62d4dl11evp","ADDRESS":"2033 M STREET NW"},"type":"Feature","geometry":{"type":"Point","coordinates":[-77.0462819187163,38.9059048948566]}},{"properties":{"NUMROOMS":152,"NAME":"CAPITOL HILL SUITES","ZIP":"20003","GIS_ID":"Htl_99","PHONE":"202-543-6000","WEB_URL":"http://www.capitolhillsuites.com/","id":"a62d4dfb9vp8","ADDRESS":"200 C STREET SE"},"type":"Feature","geometry":{"type":"Point","coordinates":[-77.0030743214881,38.8862313749834]}},{"properties":{"NUMROOMS":170,"NAME":"CARLYLE SUITES HOTEL","ZIP":"20009","GIS_ID":"Htl_100","PHONE":"202-234-3200","WEB_URL":"http://www.carlylesuites.com/","id":"a62d4djls48u","ADDRESS":"1731 NEW HAMPSHIRE AVENUE NW"},"type":"Feature","geometry":{"type":"Point","coordinates":[-77.0394710379232,38.9133396382049]}},{"properties":{"NUMROOMS":100,"NAME":"CHANNEL INN HOTEL","ZIP":"20024","GIS_ID":"Htl_101","PHONE":"202-554-2400","WEB_URL":"http://www.channelinn.com/","id":"a62d4djojz6l","ADDRESS":"650 WATER STREET SW"},"type":"Feature","geometry":{"type":"Point","coordinates":[-77.0228277713203,38.8776318499733]}},{"properties":{"NUMROOMS":160,"NAME":"CLUB QUARTERS","ZIP":"20006","GIS_ID":"Htl_28","PHONE":"202-463-6400","WEB_URL":"http://www.clubquarters.com/","id":"a62d4dph1onx","ADDRESS":"839 17TH STREET NW"},"type":"Feature","geometry":{"type":"Point","coordinates":[-77.039164860136,38.901075596676]}},{"properties":{"NUMROOMS":147,"NAME":"COURTYARD NORTHWEST","ZIP":"20009","GIS_ID":"Htl_120","PHONE":"202-293-8000","WEB_URL":"http://www.courtyard.com/","id":"a62d4dssuod4","ADDRESS":"1900 CONNECTICUT AVENUE NW"},"type":"Feature","geometry":{"type":"Point","coordinates":[-77.0468725229134,38.9160288644816]}},{"properties":{"NUMROOMS":188,"NAME":"COURTYARD CONVENTION CENTER","ZIP":"20004","GIS_ID":"Htl_39","PHONE":"202-638-4600","WEB_URL":"http://www.courtyard.com/","id":"a62d4di27b9a","ADDRESS":"900 F STREET NW"},"type":"Feature","geometry":{"type":"Point","coordinates":[-77.0243262533853,38.8970659539152]}},{"properties":{"NUMROOMS":156,"NAME":"COURTYARD EMBASSY ROW","ZIP":"20036","GIS_ID":"Htl_121","PHONE":"202-293-8000","WEB_URL":"http://www.courtyard.com/","id":"a62d4djj2dv5","ADDRESS":"1600 RHODE ISLAND AVENUE NW"},"type":"Feature","geometry":{"type":"Point","coordinates":[-77.0369713730628,38.9066661745942]}},{"properties":{"NUMROOMS":0,"NAME":"GEORGETOWN HILL INN","ZIP":"20007","GIS_ID":"Htl_149","PHONE":"202-298-6020","WEB_URL":"http://www.crshotels-georgetownhillinn.com/","id":"a62d4dhlmfm0","ADDRESS":"1832 WISCONSIN AVENUE NW"},"type":"Feature","geometry":{"type":"Point","coordinates":[-77.067800778225,38.9154407507284]}},{"properties":{"NUMROOMS":155,"NAME":"DAYS INN CONNECTICUT AVE","ZIP":"20008","GIS_ID":"Htl_103","PHONE":"202-244-5600","WEB_URL":"http://www.daysinn.com/","id":"a62d4dqp7nn6","ADDRESS":"4400 CONNECTICUT AVENUE NW"},"type":"Feature","geometry":{"type":"Point","coordinates":[-77.0656065539737,38.9469492446163]}},{"properties":{"NUMROOMS":193,"NAME":"DAYS INN GATEWAY","ZIP":"20002","GIS_ID":"Htl_31","PHONE":"202-832-5800","WEB_URL":"http://www.daysinn.com/","id":"a62d4def8zqf","ADDRESS":"2700 NEW YORK AVENUE NE"},"type":"Feature","geometry":{"type":"Point","coordinates":[-76.9705995029069,38.9179768530971]}},{"properties":{"NUMROOMS":3,"NAME":"DOOLITTLE GUEST HOUSE","ZIP":"20003","GIS_ID":"Htl_7","PHONE":"202-546-0552","WEB_URL":"http://www.doolittlehouse.com/","id":"a62d4dt9dlue","ADDRESS":"506 EAST CAPITOL STREET NE"},"type":"Feature","geometry":{"type":"Point","coordinates":[-76.9990135537638,38.890128525399]}},{"properties":{"NUMROOMS":220,"NAME":"DOUBLETREE HOTLEL WASHINGTON","ZIP":"20005","GIS_ID":"Htl_105","PHONE":"202-232-7000","WEB_URL":"http://www.doubletree.com/","id":"a62d4dspfag4","ADDRESS":"1515 RHODE ISLAND AVENUE NW"},"type":"Feature","geometry":{"type":"Point","coordinates":[-77.0355073263538,38.9079355445053]}},{"properties":{"NUMROOMS":105,"NAME":"DOUBLETREE GUEST SUITES","ZIP":"20037","GIS_ID":"Htl_104","PHONE":"202-785-2000","WEB_URL":"http://www.doubletree.com/","id":"a62d4dm35msw","ADDRESS":"801 NEW HAMPSHIRE AVENUE NW"},"type":"Feature","geometry":{"type":"Point","coordinates":[-77.0522464680098,38.8998474138344]}},{"properties":{"NUMROOMS":8,"NAME":"THE DUPONT AT THE CIRCLE","ZIP":"20009","GIS_ID":"Htl_2","PHONE":"202-332-5251","WEB_URL":"http://www.dupontatthecircle.com/","id":"a62d4ds16116","ADDRESS":"1604 19TH STREET NW"},"type":"Feature","geometry":{"type":"Point","coordinates":[-77.043725213863,38.9113576402744]}},{"properties":{"NUMROOMS":0,"NAME":"SUMMERFIELD SUITES","ZIP":"20036","GIS_ID":"Htl_106","PHONE":"202-659-9000","WEB_URL":"http://www.embassysuites.com/","id":"a62d4dn3jryu","ADDRESS":"2000 N STREET NW"},"type":"Feature","geometry":{"type":"Point","coordinates":[-77.045354077868,38.9068508651413]}},{"properties":{"NUMROOMS":198,"NAME":"EMBASSY SUITES CHEVY CHASE PAVILLION","ZIP":"20015","GIS_ID":"Htl_107","PHONE":"202-363-9300","WEB_URL":"http://www.embassysuitesdcmetro.com/chevychase/","id":"a62d4djrtamu","ADDRESS":"4300 MILITARY ROAD NW"},"type":"Feature","geometry":{"type":"Point","coordinates":[-77.0848196170753,38.9603775333995]}},{"properties":{"NUMROOMS":318,"NAME":"EMBASSY SUITES DOWNTOWN","ZIP":"20037","GIS_ID":"Htl_43","PHONE":"202-857-3388","WEB_URL":"http://www.embassysuitesdcmetro.com/downtown/","id":"a62d4dlhdp4e","ADDRESS":"1250 22ND STREET NW"},"type":"Feature","geometry":{"type":"Point","coordinates":[-77.0494453647005,38.906849205318]}},{"properties":{"NUMROOMS":415,"NAME":"THE FAIRMONT","ZIP":"20037","GIS_ID":"Htl_124","PHONE":"800-257-7544","WEB_URL":"http://www.fairmont.com/washington/","id":"a62d4dkcm5sz","ADDRESS":"2401 M STREET NW"},"type":"Feature","geometry":{"type":"Point","coordinates":[-77.0517741472393,38.9055494627555]}},{"properties":{"NUMROOMS":196,"NAME":"FOUR SEASONS HOTEL","ZIP":"20007","GIS_ID":"Htl_44","PHONE":"202-342-0444","WEB_URL":"http://www.fourseasons.com/","id":"a62d4ds6z1i9","ADDRESS":"2800 PENNSYLVANIA AVENUE NW"},"type":"Feature","geometry":{"type":"Point","coordinates":[-77.0572436665771,38.9046911174966]}},{"properties":{"NUMROOMS":0,"NAME":"FOUR SEASONS HOTELS &amp; RESORTS-WASHINGTON","ZIP":"20007","GIS_ID":"Htl_15","PHONE":"202-333-7141","WEB_URL":"http://www.fourseasons.com/","id":"a62d4dprkf5b","ADDRESS":"1025 THOMAS JEFFERSON STREET NW"},"type":"Feature","geometry":{"type":"Point","coordinates":[-77.0595985346055,38.9031302335354]}},{"properties":{"NUMROOMS":96,"NAME":"GEORGETOWN INN","ZIP":"20007","GIS_ID":"Htl_109","PHONE":"202-333-8900","WEB_URL":"http://www.georgetowninn.com/","id":"a62d4dok43q7","ADDRESS":"1310 WISCONSIN AVENUE NW"},"type":"Feature","geometry":{"type":"Point","coordinates":[-77.0635626208079,38.9072055044718]}},{"properties":{"NUMROOMS":0,"NAME":"GEORGETOWN SUITES","ZIP":"20007","GIS_ID":"Htl_47","PHONE":"202-298-7800","WEB_URL":"http://www.georgetownsuites.com/","id":"a62d4dltz8hh","ADDRESS":"1111 30TH STREET NW"},"type":"Feature","geometry":{"type":"Point","coordinates":[-77.058945759335,38.90436137616]}},{"properties":{"NUMROOMS":200,"NAME":"GEORGETOWN SUITES HARBOR BUILDING","ZIP":"20007","GIS_ID":"Htl_16","PHONE":"800-348-7203","WEB_URL":"http://www.georgetownsuites.com/","id":"a62d4dtn9r24","ADDRESS":"1000 29TH STREET NW"},"type":"Feature","geometry":{"type":"Point","coordinates":[-77.0583576453937,38.9029219562039]}},{"properties":{"NUMROOMS":93,"NAME":"GALLAUDET UNIVERSITY KELLOGG CONFERENCE","ZIP":"20002","GIS_ID":"Htl_45","PHONE":"202-651-6000","WEB_URL":"http://www.gukcc.com/","id":"a62d4dtnfzio","ADDRESS":"800 FLORIDA AVENUE NE"},"type":"Feature","geometry":{"type":"Point","coordinates":[-76.9949297208314,38.9057756736263]}},{"properties":{"NUMROOMS":95,"NAME":"GEORGE WASHINGTON UNIVERSITY INN","ZIP":"20037","GIS_ID":"Htl_108","PHONE":"202-337-6620","WEB_URL":"http://www.gwuinn.com/","id":"a62d4doeavqf","ADDRESS":"824 NEW HAMPSHIRE AVENUE NW"},"type":"Feature","geometry":{"type":"Point","coordinates":[-77.0526784769703,38.9002252106119]}},{"properties":{"NUMROOMS":145,"NAME":"HAY-ADAMS HOTEL","ZIP":"20006","GIS_ID":"Htl_50","PHONE":"202-638-6600","WEB_URL":"http://www.hayadams.com/","id":"a62d4djuqwr5","ADDRESS":"800 16TH STREET NW"},"type":"Feature","geometry":{"type":"Point","coordinates":[-77.0369567773311,38.9005252747975]}},{"properties":{"NUMROOMS":96,"NAME":"HENLEY PARK HOTEL","ZIP":"20001","GIS_ID":"Htl_111","PHONE":"202-638-5200","WEB_URL":"http://www.henleypark.com/","id":"a62d4dmmtdwa","ADDRESS":"926 MASSACHUSETTS AVENUE NW"},"type":"Feature","geometry":{"type":"Point","coordinates":[-77.0257081975127,38.9031469306373]}},{"properties":{"NUMROOMS":38,"NAME":"HOSTELLING INTERNATIONAL","ZIP":"20001","GIS_ID":"Htl_20","PHONE":"202-737-2333","WEB_URL":"http://www.hiayh.org/","id":"a62d4dmsfcyu","ADDRESS":"1009 11TH STREET NW"},"type":"Feature","geometry":{"type":"Point","coordinates":[-77.0267553760092,38.9029102262217]}},{"properties":{"NUMROOMS":544,"NAME":"CAPITAL HILTON","ZIP":"20036","GIS_ID":"Htl_37","PHONE":"202-543-6000","WEB_URL":"http://www.hilton.com/","id":"a62d4dsmah6v","ADDRESS":"1001 16TH STREET NW"},"type":"Feature","geometry":{"type":"Point","coordinates":[-77.0359327602095,38.9031218925952]}},{"properties":{"NUMROOMS":1118,"NAME":"HILTON - WASHINGTON DC","ZIP":"20009","GIS_ID":"Htl_143","PHONE":"202-483-3000","WEB_URL":"http://www.hilton.com/","id":"a62d4dgdalhg","ADDRESS":"1919 CONNECTICUT AVENUE NW"},"type":"Feature","geometry":{"type":"Point","coordinates":[-77.0452368110909,38.9164639810704]}},{"properties":{"NUMROOMS":193,"NAME":"HILTON WASHINGTON EMBASSY ROW","ZIP":"20036","GIS_ID":"Htl_112","PHONE":"202-265-1600","WEB_URL":"http://www.hilton.com/","id":"a62d4dkm6smt","ADDRESS":"2015 MASSACHUSETTS AVENUE NW"},"type":"Feature","geometry":{"type":"Point","coordinates":[-77.0456563783673,38.910816941638]}},{"properties":{"NUMROOMS":300,"NAME":"HILTON GARDEN INN","ZIP":"20005","GIS_ID":"Htl_113","PHONE":"202-783-7800","WEB_URL":"http://www.hiltongardeninn.com/","id":"a62d4di0xrzf","ADDRESS":"815 14TH STREET NW"},"type":"Feature","geometry":{"type":"Point","coordinates":[-77.031594310315,38.9005863032703]}},{"properties":{"NUMROOMS":192,"NAME":"PREMIER HOTEL","ZIP":"20037","GIS_ID":"Htl_72","PHONE":"202-965-2700","WEB_URL":"http://www.hojo.com/","id":"a62d4dsz5b2p","ADDRESS":"2601 VIRGINIA AVENUE NW"},"type":"Feature","geometry":{"type":"Point","coordinates":[-77.0553494979032,38.9002832506655]}},{"properties":{"NUMROOMS":49,"NAME":"HOWARD JOHNSON EXPRESS INN","ZIP":"20002","GIS_ID":"Htl_29","PHONE":"800-406-1411","WEB_URL":"http://www.hojo.com/","id":"a62d4dr9dr98","ADDRESS":"600 NEW YORK AVENUE NE"},"type":"Feature","geometry":{"type":"Point","coordinates":[-76.9956064230378,38.9123244966935]}},{"properties":{"NUMROOMS":175,"NAME":"HOMEWOOD SUITES - THOMAS CIRCLE","ZIP":"20005","GIS_ID":"Htl_26","PHONE":"202-265-8000","WEB_URL":"http://www.homewood-suites.com/","id":"a62d4deyvgnb","ADDRESS":"1475 MASSACHUSETTS AVENUE NW"},"type":"Feature","geometry":{"type":"Point","coordinates":[-77.0335786430771,38.9066741971747]}},{"properties":{"NUMROOMS":260,"NAME":"HOTEL HARRINGTON","ZIP":"20004","GIS_ID":"Htl_56","PHONE":"202-628-8140","WEB_URL":"http://www.hotel-harrington.com/","id":"a62d4dnlqg9q","ADDRESS":"436 11TH STREET NW"},"type":"Feature","geometry":{"type":"Point","coordinates":[-77.0273017123298,38.8959639337752]}},{"properties":{"NUMROOMS":139,"NAME":"HOTEL GEORGE","ZIP":"20001","GIS_ID":"Htl_55","PHONE":"202-347-4200","WEB_URL":"http://www.hotelgeorge.com/","id":"a62d4dk1qwau","ADDRESS":"15 E STREET NW"},"type":"Feature","geometry":{"type":"Point","coordinates":[-77.0099075200272,38.8963955922618]}},{"properties":{"NUMROOMS":178,"NAME":"HOTEL HELIX","ZIP":"20005","GIS_ID":"Htl_127","PHONE":"202-462-9001","WEB_URL":"http://www.hotelhelix.com/","id":"a62d4dmayqfl","ADDRESS":"1430 RHODE ISLAND AVENUE NW"},"type":"Feature","geometry":{"type":"Point","coordinates":[-77.0330050359081,38.9080805017876]}},{"properties":{"NUMROOMS":132,"NAME":"HOTEL LOMBARDY","ZIP":"20006","GIS_ID":"Htl_57","PHONE":"202-828-2600","WEB_URL":"http://www.hotellombardy.com/hl/Default.htm","id":"a62d4dhny3il","ADDRESS":"2019 PENNSYLVANIA AVENUE NW"},"type":"Feature","geometry":{"type":"Point","coordinates":[-77.0459437113063,38.9015239358102]}},{"properties":{"NUMROOMS":54,"NAME":"MORRISON-CLARK INN","ZIP":"20001","GIS_ID":"Htl_66","PHONE":"202-898-1200","WEB_URL":"http://www.hotellombardy.com/mci/index.htm","id":"a62d4dk512mz","ADDRESS":"1015 L STREET NW"},"type":"Feature","geometry":{"type":"Point","coordinates":[-77.0267216931009,38.9043976931674]}},{"properties":{"NUMROOMS":225,"NAME":"STATE PLAZA HOTEL","ZIP":"20037","GIS_ID":"Htl_83","PHONE":"202-861-8200","WEB_URL":"http://www.hotellombardy.com/sp/index.htm","id":"a62d4dhhjeu0","ADDRESS":"2117 E STREET NW"},"type":"Feature","geometry":{"type":"Point","coordinates":[-77.0475008947723,38.8963817606434]}},{"properties":{"NUMROOMS":340,"NAME":"WASHINGTON PLAZA","ZIP":"20005","GIS_ID":"Htl_88","PHONE":"202-842-1300","WEB_URL":"http://www.hotellombardy.com/wp/index.htm","id":"a62d4de8nqmb","ADDRESS":"10 THOMAS CIRCLE NW"},"type":"Feature","geometry":{"type":"Point","coordinates":[-77.0309738969999,38.9062520030576]}},{"properties":{"NUMROOMS":82,"NAME":"HOTEL MADERA","ZIP":"20036","GIS_ID":"Htl_102","PHONE":"202-296-7600","WEB_URL":"http://www.hotelmadera.com","id":"a62d4dhhyq0q","ADDRESS":"1310 NEW HAMPSHIRE AVENUE NW"},"type":"Feature","geometry":{"type":"Point","coordinates":[-77.0456950407067,38.9075945775522]}},{"properties":{"NUMROOMS":341,"NAME":"HOTEL WASHINGTON","ZIP":"20004","GIS_ID":"Htl_58","PHONE":"202-638-5900","WEB_URL":"http://www.hotelwashington.com/","id":"a62d4deokovz","ADDRESS":"515 15TH STREET NW"},"type":"Feature","geometry":{"type":"Point","coordinates":[-77.0333907929413,38.896954983694]}},{"properties":{"NUMROOMS":75,"NAME":"JURYS NORMANDY INN","ZIP":"20008","GIS_ID":"Htl_67","PHONE":"202-483-1350","WEB_URL":"http://www.jurysdoyle.com/frusa_index.htm","id":"a62d4dn6ho1h","ADDRESS":"2118 WYOMING AVENUE NW"},"type":"Feature","geometry":{"type":"Point","coordinates":[-77.0475356917677,38.9172899432873]}},{"properties":{"NUMROOMS":314,"NAME":"JURYS WASHINGTON HOTEL","ZIP":"20036","GIS_ID":"Htl_42","PHONE":"202-332-9300","WEB_URL":"http://www.jurysdoyle.com/frusa_index.htm","id":"a62d4dlxxg8e","ADDRESS":"1500 NEW HAMPSHIRE AVENUE NW"},"type":"Feature","geometry":{"type":"Point","coordinates":[-77.0430926012206,38.9104698329756]}},{"properties":{"NUMROOMS":0,"NAME":"KIMPTON HOTEL","ZIP":"20004","GIS_ID":"Htl_132","PHONE":"202-756-3604","WEB_URL":"http://www.kimptonhotels.com/","id":"a62d4dprbcke","ADDRESS":"1101 PENNSYLVANIA AVENUE NW"},"type":"Feature","geometry":{"type":"Point","coordinates":[-77.0274048038824,38.8951556790378]}},{"properties":{"NUMROOMS":99,"NAME":"LINCOLN SUITES DOWNTOWN","ZIP":"20036","GIS_ID":"Htl_62","PHONE":"202-223-4320","WEB_URL":"http://www.lincolnhotels.com/","id":"a62d4ddz8rq0","ADDRESS":"1823 L STREET NW"},"type":"Feature","geometry":{"type":"Point","coordinates":[-77.013150913373,38.9037956582543]}},{"properties":{"NUMROOMS":370,"NAME":"LOEWS L'ENFANT PLAZA HOTEL","ZIP":"20024","GIS_ID":"Htl_63","PHONE":"202-484-1000","WEB_URL":"http://www.loewshotels.com/hotels/washington_lenfant/default.asp","id":"a62d4dqv9jjb","ADDRESS":"470 LENFANT PLAZA SW"},"type":"Feature","geometry":{"type":"Point","coordinates":[-77.0239717436463,38.8838985121001]}},{"properties":{"NUMROOMS":400,"NAME":"MANDARIN ORIENTAL","ZIP":"20024","GIS_ID":"Htl_128","PHONE":"202-554-8588","WEB_URL":"http://www.mandarinoriental.com/washington/","id":"a62d4dqnqcs6","ADDRESS":"1330 MARYLAND AVENUE SW"},"type":"Feature","geometry":{"type":"Point","coordinates":[-77.0304488725956,38.8836017731937]}},{"properties":{"NUMROOMS":417,"NAME":"WASHINGTON MARRIOTT","ZIP":"20037","GIS_ID":"Htl_87","PHONE":"202-872-1500","WEB_URL":"http://www.marriott.com/","id":"a62d4deunrjg","ADDRESS":"1221 22ND STREET NW"},"type":"Feature","geometry":{"type":"Point","coordinates":[-77.0484899815552,38.9060748877]}},{"properties":{"NUMROOMS":772,"NAME":"JW MARRIOTT","ZIP":"20004","GIS_ID":"Htl_60","PHONE":"202-393-2000","WEB_URL":"http://www.marriott.com/","id":"a62d4dt55lvh","ADDRESS":"1331 PENNSYLVANIA AVENUE NW"},"type":"Feature","geometry":{"type":"Point","coordinates":[-77.0313718034527,38.8963673872331]}},{"properties":{"NUMROOMS":453,"NAME":"MARRIOTT AT METRO CENTER","ZIP":"20005","GIS_ID":"Htl_64","PHONE":"202-737-2200","WEB_URL":"http://www.marriotthotels.com/","id":"a62d4dmirtgp","ADDRESS":"775 12TH STREET NW"},"type":"Feature","geometry":{"type":"Point","coordinates":[-77.0277856934101,38.8993605128784]}},{"properties":{"NUMROOMS":239,"NAME":"MELROSE HOTEL","ZIP":"20037","GIS_ID":"Htl_140","PHONE":"202-955-6400","WEB_URL":"http://www.melrosehotel.com/","id":"a62d4drco6t8","ADDRESS":"2430 PENNSYLVANIA AVENUE NW"},"type":"Feature","geometry":{"type":"Point","coordinates":[-77.052677998668,38.9030119461731]}},{"properties":{"NUMROOMS":184,"NAME":"HOTEL MONACO","ZIP":"20436","GIS_ID":"Htl_23","PHONE":"202-628-7177","WEB_URL":"http://www.monaco-dc.com/","id":"a62d4dlfsxjp","ADDRESS":"700 F STREET NW"},"type":"Feature","geometry":{"type":"Point","coordinates":[-77.0224633495922,38.8969884947295]}},{"properties":{"NUMROOMS":47,"NAME":"MONTICELLO HOTEL","ZIP":"20007","GIS_ID":"Htl_46","PHONE":"202-337-0900","WEB_URL":"http://www.monticellohotel.com/home.htm","id":"a62d4dtll9vh","ADDRESS":"1075 THOMAS JEFFERSON STREET NW"},"type":"Feature","geometry":{"type":"Point","coordinates":[-77.0599211172329,38.9047885064999]}},{"properties":{"NUMROOMS":73,"NAME":"MOTEL 6 WASHINGTON DC","ZIP":"20012","GIS_ID":"Htl_32","PHONE":"202-722-1600","WEB_URL":"http://www.motel6.com","id":"a62d4di5pnk9","ADDRESS":"6711 GEORGIA AVENUE NW"},"type":"Feature","geometry":{"type":"Point","coordinates":[-77.0267911493124,38.9720656444211]}},{"properties":{"NUMROOMS":836,"NAME":"OMNI SHOREHAM","ZIP":"20008","GIS_ID":"Htl_68","PHONE":"202-234-0700","WEB_URL":"http://www.omnihotels.com/","id":"a62d4dee357j","ADDRESS":"2500 CALVERT STREET NW"},"type":"Feature","geometry":{"type":"Point","coordinates":[-77.0536643917295,38.9226255340674]}},{"properties":{"NUMROOMS":150,"NAME":"PHOENIX PARK HOTEL","ZIP":"20001","GIS_ID":"Htl_71","PHONE":"202-638-6900","WEB_URL":"http://www.phoenixparkhotel.com/","id":"a62d4dqk6tos","ADDRESS":"520 NORTH CAPITOL STREET NW"},"type":"Feature","geometry":{"type":"Point","coordinates":[-77.0094780928032,38.8970845875531]}},{"properties":{"NUMROOMS":0,"NAME":"RESIDENCE AT POTOMAC PLACE","ZIP":"20024","GIS_ID":"Htl_141","PHONE":"202-484-1270","WEB_URL":"http://www.potomacplacecondo.com/","id":"a62d4dqswheh","ADDRESS":"350 G STREET SW"},"type":"Feature","geometry":{"type":"Point","coordinates":[-77.0165676045103,38.8810406001205]}},{"properties":{"NUMROOMS":301,"NAME":"HOTEL PALOMAR WASHINGTON DC","ZIP":"20037","GIS_ID":"Htl_74","PHONE":"202-293-3100","WEB_URL":"http://www.radisson.com/washingtondc","id":"a62d4dlfrwdt","ADDRESS":"2121 P STREET NW"},"type":"Feature","geometry":{"type":"Point","coordinates":[-77.0474131050218,38.9098132530868]}},{"properties":{"NUMROOMS":0,"NAME":"RAMADA LIMITED","ZIP":"20002","GIS_ID":"Htl_75","PHONE":"202-832-3200","WEB_URL":"http://www.ramada.com/","id":"a62d4diaqs4m","ADDRESS":"1600 NEW YORK AVENUE NE"},"type":"Feature","geometry":{"type":"Point","coordinates":[-76.9799715588063,38.9174248230036]}},{"properties":{"NUMROOMS":197,"NAME":"RED ROOF INN DOWNTOWN DC","ZIP":"20001","GIS_ID":"Htl_76","PHONE":"202-289-5959","WEB_URL":"http://www.redroof.com/","id":"a62d4die2562","ADDRESS":"500 H STREET NW"},"type":"Feature","geometry":{"type":"Point","coordinates":[-77.0192507212694,38.8996560837833]}},{"properties":{"NUMROOMS":807,"NAME":"RENAISSANCE WASHINGTON DC","ZIP":"20001","GIS_ID":"Htl_78","PHONE":"202-898-9000","WEB_URL":"http://www.renaissancehotels.com/","id":"a62d4du0m7mg","ADDRESS":"999 9TH STREET NW"},"type":"Feature","geometry":{"type":"Point","coordinates":[-77.0234392107045,38.9016735509542]}},{"properties":{"NUMROOMS":660,"NAME":"RENAISSANCE MAYFLOWER HOTEL","ZIP":"20036","GIS_ID":"Htl_77","PHONE":"202-347-3000","WEB_URL":"http://www.renaissancehotels.com/","id":"a62d4dpqinsx","ADDRESS":"1127 CONNECTICUT AVENUE NW"},"type":"Feature","geometry":{"type":"Point","coordinates":[-77.039466575459,38.9044419173435]}},{"properties":{"NUMROOMS":107,"NAME":"RESIDENCE INN - DUPONT CIRCLE","ZIP":"20037","GIS_ID":"Htl_27","PHONE":"202-466-6800","WEB_URL":"http://www.residenceinn.com/","id":"a62d4dtipxxf","ADDRESS":"2120 P STREET NW"},"type":"Feature","geometry":{"type":"Point","coordinates":[-77.047321636844,38.9094098965222]}},{"properties":{"NUMROOMS":202,"NAME":"RESIDENCE INN - THOMAS CIRCLE","ZIP":"20005","GIS_ID":"Htl_79","PHONE":"202-898-1100","WEB_URL":"http://www.residenceinn.com/","id":"a62d4dpaaz86","ADDRESS":"1199 VERMONT AVENUE NW"},"type":"Feature","geometry":{"type":"Point","coordinates":[-77.0323006114855,38.9043234063845]}},{"properties":{"NUMROOMS":0,"NAME":"RITZ CARLTON","ZIP":"20037","GIS_ID":"Htl_134","PHONE":"202-835-0500","WEB_URL":"http://www.ritz-carlton.com/","id":"a62d4dr9i67r","ADDRESS":"2200 M STREET NW"},"type":"Feature","geometry":{"type":"Point","coordinates":[-77.0492284764954,38.9049809552438]}},{"properties":{"NUMROOMS":300,"NAME":"RITZ-CARLTON","ZIP":"20037","GIS_ID":"Htl_21","PHONE":"202-835-0500","WEB_URL":"http://www.ritz-carlton.com/","id":"a62d4drtzfqu","ADDRESS":"1150 22ND STREET NW"},"type":"Feature","geometry":{"type":"Point","coordinates":[-77.0491021469929,38.9045184393605]}},{"properties":{"NUMROOMS":86,"NAME":"RITZ CARLTON GEORGETOWN","ZIP":"20007","GIS_ID":"Htl_145","PHONE":"202-912-4100","WEB_URL":"http://www.ritzcarlton.com/hotels/georgetown/","id":"a62d4deup4td","ADDRESS":"3100 SOUTH STREET NW"},"type":"Feature","geometry":{"type":"Point","coordinates":[-77.0613716269514,38.9032387670824]}},{"properties":{"NUMROOMS":137,"NAME":"HOTEL ROUGE","ZIP":"20036","GIS_ID":"Htl_73","PHONE":"202-232-8000","WEB_URL":"http://www.rougehotel.com/","id":"a62d4delu209","ADDRESS":"1315 16TH STREET NW"},"type":"Feature","geometry":{"type":"Point","coordinates":[-77.0361302007855,38.9082660499326]}},{"properties":{"NUMROOMS":0,"NAME":"SAMARITAN INN","ZIP":"20009","GIS_ID":"Htl_135","PHONE":"202-667-8831","WEB_URL":"http://www.samaritaninns.org/home.html","id":"a62d4dolci7p","ADDRESS":"2523 14TH STREET NW"},"type":"Feature","geometry":{"type":"Point","coordinates":[-77.0316289220795,38.9232671307832]}},{"properties":{"NUMROOMS":0,"NAME":"SAMARITAN INN","ZIP":"20009","GIS_ID":"Htl_136","PHONE":"202-745-9698","WEB_URL":"http://www.samaritaninns.org/home.html","id":"a62d4df3s0fb","ADDRESS":"2600 MOTZART PLACE NW"},"type":"Feature","geometry":{"type":"Point","coordinates":[-77.0380801593825,38.9248260782322]}},{"properties":{"NUMROOMS":150,"NAME":"SAVOY SUITES GEORGETOWN","ZIP":"20007","GIS_ID":"Htl_81","PHONE":"202-337-9700","WEB_URL":"http://www.savoysuites.com/","id":"a62d4dow4t5j","ADDRESS":"2505 WISCONSIN AVENUE NW"},"type":"Feature","geometry":{"type":"Point","coordinates":[-77.0727546864336,38.9233072276726]}},{"properties":{"NUMROOMS":237,"NAME":"HOTEL SOFITEL","ZIP":"20005","GIS_ID":"Htl_129","PHONE":"202-737-8800","WEB_URL":"http://www.sofitel.com/","id":"a62d4dq07gzl","ADDRESS":"806 15TH STREET NW"},"type":"Feature","geometry":{"type":"Point","coordinates":[-77.0339878903874,38.900505637205]}},{"properties":{"NUMROOMS":256,"NAME":"FOUR POINTS SHERATON","ZIP":"20005","GIS_ID":"Htl_41","PHONE":"202-289-7600","WEB_URL":"http://www.starwood.com/sheraton/index.html","id":"a62d4dfv6kqm","ADDRESS":"1201 K STREET NW"},"type":"Feature","geometry":{"type":"Point","coordinates":[-77.0284632344249,38.9029156780458]}},{"properties":{"NUMROOMS":193,"NAME":"ST REGIS","ZIP":"20006","GIS_ID":"Htl_82","PHONE":"202-638-2626","WEB_URL":"http://www.stregis.com/","id":"a62d4dkkirii","ADDRESS":"923 16TH STREET NW"},"type":"Feature","geometry":{"type":"Point","coordinates":[-77.0360964139118,38.9021042583718]}},{"properties":{"NUMROOMS":78,"NAME":"WASHINGTON SUPER 8 MOTEL","ZIP":"20002","GIS_ID":"Htl_30","PHONE":"800-800-8000","WEB_URL":"http://www.super8.com","id":"a62d4dlnl3sf","ADDRESS":"501 NEW YORK AVENUE NE"},"type":"Feature","geometry":{"type":"Point","coordinates":[-76.9969122759876,38.9109499559736]}},{"properties":{"NUMROOMS":12,"NAME":"SWANN HOUSE LLC","ZIP":"20009","GIS_ID":"Htl_84","PHONE":"202-265-4414","WEB_URL":"http://www.swannhouse.com/","id":"a62d4dkorpoj","ADDRESS":"1808 NEW HAMPSHIRE AVENUE NW"},"type":"Feature","geometry":{"type":"Point","coordinates":[-77.039280420626,38.9145583502058]}},{"properties":{"NUMROOMS":40,"NAME":"TABARD INN","ZIP":"20036","GIS_ID":"Htl_19","PHONE":"202-785-1277","WEB_URL":"http://www.tabardinn.com/","id":"a62d4dfmessn","ADDRESS":"1739 N STREET NW"},"type":"Feature","geometry":{"type":"Point","coordinates":[-77.0399909852596,38.9074544014006]}},{"properties":{"NUMROOMS":41,"NAME":"BRICKSKELLER INN","ZIP":"20037","GIS_ID":"Htl_114","PHONE":"202-293-1885","WEB_URL":"http://www.thebrickskeller.com/","id":"a62d4dsvue0p","ADDRESS":"1523 22ND STREET NW"},"type":"Feature","geometry":{"type":"Point","coordinates":[-77.0484777467017,38.9102953030816]}},{"properties":{"NUMROOMS":145,"NAME":"THE CHURCHILL HOTEL","ZIP":"20009","GIS_ID":"Htl_17","PHONE":"202-797-2000","WEB_URL":"http://www.thechurchillhotel.com/","id":"a62d4dqovdm7","ADDRESS":"1914 CONNECTICUT AVENUE NW"},"type":"Feature","geometry":{"type":"Point","coordinates":[-77.0469604995267,38.916374118568]}},{"properties":{"NUMROOMS":151,"NAME":"ONE WASHINGTON CIRCLE","ZIP":"20037","GIS_ID":"Htl_69","PHONE":"202-872-1680","WEB_URL":"http://www.thecirclehotel.com/","id":"a62d4dqp30y2","ADDRESS":"1 WASHINGTON CIRCLE NW"},"type":"Feature","geometry":{"type":"Point","coordinates":[-77.0497257537531,38.9033711419651]}},{"properties":{"NUMROOMS":132,"NAME":"JEFFERSON HOTEL","ZIP":"20036","GIS_ID":"Htl_130","PHONE":"202-347-2200","WEB_URL":"http://www.thejeffersonwashingtondc.com/","id":"a62d4doi9t5r","ADDRESS":"1200 16TH STREET NW"},"type":"Feature","geometry":{"type":"Point","coordinates":[-77.0369557771207,38.9059379445969]}},{"properties":{"NUMROOMS":143,"NAME":"LATHAM HOTEL","ZIP":"20007","GIS_ID":"Htl_61","PHONE":"202-726-5000","WEB_URL":"http://www.thelatham.com/","id":"a62d4dqtlh6z","ADDRESS":"3000 M STREET NW"},"type":"Feature","geometry":{"type":"Point","coordinates":[-77.0595536763733,38.9050495762623]}},{"properties":{"NUMROOMS":126,"NAME":"RIVER INN","ZIP":"20037","GIS_ID":"Htl_80","PHONE":"202-337-7600","WEB_URL":"http://www.theriverinn.com/","id":"a62d4dgvy6ut","ADDRESS":"924 25TH STREET NW"},"type":"Feature","geometry":{"type":"Point","coordinates":[-77.0537118476725,38.9014235724481]}},{"properties":{"NUMROOMS":8,"NAME":"SWISS INN","ZIP":"20005","GIS_ID":"Htl_138","PHONE":"202-371-1816","WEB_URL":"http://www.theswissinn.com/","id":"a62d4du1hsxg","ADDRESS":"1204 MASSACHUSETTS AVENUE NW"},"type":"Feature","geometry":{"type":"Point","coordinates":[-77.0284278619298,38.9041242473242]}},{"properties":{"NUMROOMS":0,"NAME":"CENTER CITY TRAVELODGE HOTEL","ZIP":"20005","GIS_ID":"Htl_38","PHONE":"202-682-5300","WEB_URL":"http://www.travelodge.com/","id":"a62d4dqcxcwx","ADDRESS":"1201 13TH STREET NW"},"type":"Feature","geometry":{"type":"Point","coordinates":[-77.0293494045545,38.9059047001585]}},{"properties":{"NUMROOMS":150,"NAME":"TRAVEL LODGE GATEWAY","ZIP":"20002","GIS_ID":"Htl_142","PHONE":"202-832-8600","WEB_URL":"http://www.travelodge.com/","id":"a62d4di71bbe","ADDRESS":"1917 BLADENSBURG ROAD NE"},"type":"Feature","geometry":{"type":"Point","coordinates":[-76.9727679189776,38.91648568908]}},{"properties":{"NUMROOMS":19,"NAME":"KALORaMA GUEST HOUSE","ZIP":"20009","GIS_ID":"Htl_131","PHONE":"202-667-6369","WEB_URL":"http://www.virtualcities.com/","id":"a62d4dpdwe1m","ADDRESS":"1854 MINTWOOD PLACE NW"},"type":"Feature","geometry":{"type":"Point","coordinates":[-77.0451252920037,38.9211864603455]}},{"properties":{"NUMROOMS":264,"NAME":"WASHINGTON COURT HOTEL","ZIP":"20001","GIS_ID":"Htl_86","PHONE":"202-628-2100","WEB_URL":"http://www.washingtoncourthotel.com/","id":"a62d4de111fq","ADDRESS":"525 NEW JERSEY AVENUE NW"},"type":"Feature","geometry":{"type":"Point","coordinates":[-77.0110985018157,38.8968092393399]}},{"properties":{"NUMROOMS":250,"NAME":"THE WATERGATE HOTEL","ZIP":"20037","GIS_ID":"Htl_147","PHONE":"800-289-1555","WEB_URL":"http://www.watergatehotel.com/","id":"a62d4drpgn4x","ADDRESS":"2650 VIRGINIA AVENUE NW"},"type":"Feature","geometry":{"type":"Point","coordinates":[-77.0558193385308,38.8993348070962]}},{"properties":{"NUMROOMS":263,"NAME":"WESTIN GRAND","ZIP":"20037","GIS_ID":"Htl_90","PHONE":"202-429-0100","WEB_URL":"http://www.westin.com/","id":"a62d4dnv5bfq","ADDRESS":"2350 M STREET NW"},"type":"Feature","geometry":{"type":"Point","coordinates":[-77.0510946698777,38.9049716959814]}},{"properties":{"NUMROOMS":206,"NAME":"WESTIN EMBASSY ROW","ZIP":"20008","GIS_ID":"Htl_89","PHONE":"202-293-2100","WEB_URL":"http://www.westin.com/","id":"a62d4dsmen5y","ADDRESS":"2100 MASSACHUSETTS AVENUE NW"},"type":"Feature","geometry":{"type":"Point","coordinates":[-77.0470224606905,38.9104894871077]}},{"properties":{"NUMROOMS":36,"NAME":"WINDSOR INN","ZIP":"20009","GIS_ID":"Htl_148","PHONE":"202-667-0300","WEB_URL":"http://www.windsorembassyinns.com/","id":"a62d4du6nlxc","ADDRESS":"1842 16TH STREET NW"},"type":"Feature","geometry":{"type":"Point","coordinates":[-77.0369458621146,38.915286624805]}},{"properties":{"NUMROOMS":38,"NAME":"EMBASSY INN","ZIP":"20009","GIS_ID":"Htl_123","PHONE":"202-234-7800","WEB_URL":"http://www.windsorembassyinns.com/","id":"a62d4dkygc1c","ADDRESS":"1627 16TH STREET NW"},"type":"Feature","geometry":{"type":"Point","coordinates":[-77.036049999405,38.912231366901]}},{"properties":{"NUMROOMS":43,"NAME":"WINDSOR PARK HOTEL","ZIP":"20008","GIS_ID":"Htl_92","PHONE":"202-483-7700","WEB_URL":"http://www.windsorparkhotel.com/","id":"a62d4dk2552g","ADDRESS":"2116 KALORAMA ROAD NW"},"type":"Feature","geometry":{"type":"Point","coordinates":[-77.0485489296504,38.9181513537083]}},{"properties":{"NUMROOMS":17,"NAME":"WOODLEY PARK GUEST HOUSE","ZIP":"20008","GIS_ID":"Htl_93","PHONE":"202-667-0218","WEB_URL":"http://www.woodleyparkguesthouse.com/","id":"a62d4do58e29","ADDRESS":"2647 WOODLEY ROAD NW"},"type":"Feature","geometry":{"type":"Point","coordinates":[-77.0537349886239,38.9258684968615]}},{"properties":{"NUMROOMS":0,"NAME":"WALTER REED INN","ZIP":"20012","GIS_ID":"Htl_85","PHONE":"202-782-7096","WEB_URL":"http://www.wramc.amedd.army.mil/welcome/housing.htm","id":"a62d4dn4a0p6","ADDRESS":"6825 GEORGIA AVENUE NW"},"type":"Feature","geometry":{"type":"Point","coordinates":[-77.026498751774,38.9733669504813]}},{"properties":{"NUMROOMS":352,"NAME":"M STREET HOTEL","ZIP":"20037","GIS_ID":"Htl_94","PHONE":"202-775-0800","WEB_URL":"http://www.wyndham.com/","id":"a62d4dopo1f3","ADDRESS":"1143 NEW HAMPSHIRE AVENUE NW"},"type":"Feature","geometry":{"type":"Point","coordinates":[-77.0475620248933,38.9047317636904]}},{"properties":{"NUMROOMS":400,"NAME":"WYNDHAM WASHINGTON DC","ZIP":"20005","GIS_ID":"Htl_95","PHONE":"202-429-1700","WEB_URL":"http://www.wyndham.com/","id":"a62d4dh1jhhu","ADDRESS":"1400 M STREET NW"},"type":"Feature","geometry":{"type":"Point","coordinates":[-77.033436096123,38.9053158072448]}},{"properties":{"NUMROOMS":2,"NAME":"COTTAGE ON 16TH","ZIP":"20012","GIS_ID":"Htl_13","PHONE":"202-623-1909","WEB_URL":"http:/www.cottageon16th.com/","id":"a62d4ds19s5p","ADDRESS":"7129 16TH STREET NW"},"type":"Feature","geometry":{"type":"Point","coordinates":[-77.0355957503951,38.9769980950608]}},{"properties":{"NUMROOMS":6,"NAME":"INN AT DUPONT CIRCLE","ZIP":"20036","GIS_ID":"Htl_3","PHONE":"202-467-6777","WEB_URL":"www.bbonline.com/dc/innatdupontcircle/","id":"a62d4dqayh7d","ADDRESS":"1312 19TH STREET NW"},"type":"Feature","geometry":{"type":"Point","coordinates":[-77.0436942890985,38.9077420629109]}},{"properties":{"NUMROOMS":0,"NAME":"DOWNTOWN MOTEL","ZIP":"20002","GIS_ID":"Htl_122","PHONE":"202-544-2000","WEB_URL":"www.downtownmotel.net/","id":"a62d4dhrmm0f","ADDRESS":"1345 4TH STREET NE"},"type":"Feature","geometry":{"type":"Point","coordinates":[-76.9978979955087,38.9101692249264]}},{"properties":{"NUMROOMS":0,"NAME":"REMINGTON EXECUTIVE SUITES","ZIP":"20037","GIS_ID":"Htl_5","PHONE":"202-223-4512","WEB_URL":"www.remington-dc.com/","id":"a62d4djpeu9u","ADDRESS":"601 24TH STREET NW"},"type":"Feature","geometry":{"type":"Point","coordinates":[-77.0511368770224,38.8980719964054]}},{"properties":{"NUMROOMS":353,"NAME":"MADISON HOTEL","ZIP":"20005","GIS_ID":"Htl_139","PHONE":"202-785-1255","WEB_URL":"www.themadisondc.com","id":"a62d4dieo1o3","ADDRESS":"1177 15TH STREET NW"},"type":"Feature","geometry":{"type":"Point","coordinates":[-77.0340599585469,38.9053689564718]}}],"is_temporal":false,"author":{"url":"http://data.octo.dc.gov","metadata":"http://data.octo.dc.gov/Metadata.aspx?id=325","contact_name":"","contact_address":"","source":"D.C. Office of the Chief Technology Officer (OCTO)","contact_phone":""},"source":"http://data.octo.dc.gov","pagination":{"sort":null,"start":0,"total":152,"limit":1000000},"state":"complete","tags":"economy,hospitality,hotel,infrastructure,lodging,structure,travel,vacation","published":"2006-06-22T12:00:00Z","id":8652}