{"type":"FeatureCollection","data_type":"Dataset","url_type":null,"permissions":[{"permissions":{"download":true,"view":true},"group_id":"everyone"}],"classification":null,"title":"western fertlizer plant data7","count":150,"stream_id":87549,"contributor":{"url":"http://geocommons.com/users/14766","name":"dpkennedy"},"data_attributes":null,"calculation_params":null,"icon_link":null,"link":"http://geocommons.com/overlays/87549.json","extent":[-98.9783,40.1136,-95.6731,42.6524],"geometry_types":["point"],"unique_name":null,"name":"western fertlizer plant data7","feature_count":150,"description":"","next_feature":null,"is_raster":false,"short_classification":"Y","stats":{"id":{"max":3065,"mean":2990.5,"variance":1887.5,"stdev":43.4453679924569,"min":2916,"median":2991}},"features":[{"properties":{"ship_phone":"402-868-3195","city":"JOHNSON","name":"CLARK GRAIN CO","zip":"68378","st":"NE","comments":null,"geo_score":0.714,"id":"a66vds09xn4f","geo_precision":"street","address":"1 ST &amp; MAIN"},"type":"Feature","geometry":{"type":"Point","coordinates":[-95.997932,40.408498]}},{"properties":{"ship_phone":"402-724-2206","city":"MC COOL JUNCTION","name":"MC COOL FERTILIZER CO INC","zip":"68401","st":"NE","comments":null,"geo_score":0.66,"id":"a66vdryy2cll","geo_precision":"street","address":"723 EAST K"},"type":"Feature","geometry":{"type":"Point","coordinates":[-97.591127,40.746314]}},{"properties":{"ship_phone":null,"city":"MANLEY","name":"GREENWOOD FARMERS COOPERATIVE","zip":"68403","st":"NE","comments":null,"geo_score":0.857,"id":"a66vdrwchdq1","geo_precision":"street","address":"MAIN"},"type":"Feature","geometry":{"type":"Point","coordinates":[-96.165009,40.919756]}},{"properties":{"ship_phone":"402-234-2515","city":"MANLEY","name":"GREENWOOD FARMERS COOP","zip":"68403","st":"NE","comments":"PER SALES REP","geo_score":0.707,"id":"a66vdrmqlne5","geo_precision":"street","address":"MANLEY DIVISION-HWY 50"},"type":"Feature","geometry":{"type":"Point","coordinates":[-96.174202,40.921493]}},{"properties":{"ship_phone":"402-761-2126","city":"MILFORD","name":"COUNTRYSIDE COOP","zip":"68405","st":"NE","comments":"CLEAN WAS FARMLAND COOP","geo_score":0.829,"id":"a66vdrs39rb1","geo_precision":"range","address":"101 N WALNUT"},"type":"Feature","geometry":{"type":"Point","coordinates":[-97.049037,40.774184]}},{"properties":{"ship_phone":null,"city":"MURDOCK","name":"GREENWOOD FARMERS COOPERATIVE","zip":"68407","st":"NE","comments":null,"geo_score":0.571,"id":"a66vdrsns0vx","geo_precision":"street","address":"MAIN"},"type":"Feature","geometry":{"type":"Point","coordinates":[-95.682839,40.235112]}},{"properties":{"ship_phone":"402-867-2331","city":"MURDOCK","name":"GREENWOOD FARMERS COOP","zip":"68407","st":"NE","comments":"PER SALES REP","geo_score":0.857,"id":"a66vdrypdfqy","geo_precision":"zip","address":"MURDOCK DIVISION-MAIN ST."},"type":"Feature","geometry":{"type":"Point","coordinates":[-96.254456,40.886389]}},{"properties":{"ship_phone":"402-873-5597","city":"NEBRASKA CITY","name":"FARMERS COOP OIL COMPANY","zip":"68410","st":"NE","comments":"WAS BILLING TO 1491","geo_score":0.837,"id":"a66vds0raa7q","geo_precision":"range","address":"1301 8TH CORSO"},"type":"Feature","geometry":{"type":"Point","coordinates":[-95.861765,40.669546]}},{"properties":{"ship_phone":"402-227-2715","city":"NEHAWKA","name":"FARMLAND COOP","zip":"68413","st":"NE","comments":null,"geo_score":0.357,"id":"a66vdrvom705","geo_precision":"street","address":"BOX 157"},"type":"Feature","geometry":{"type":"Point","coordinates":[-96.14608,40.11356]}},{"properties":{"ship_phone":"402-227-2715","city":"NEHAWKA","name":"NEHAWKA FARMERS COOPERATIVE","zip":"68413","st":"NE","comments":null,"geo_score":1.0,"id":"a66vdrs7cet1","geo_precision":"street","address":"MAIN ST"},"type":"Feature","geometry":{"type":"Point","coordinates":[-95.991537,40.831375]}},{"properties":{"ship_phone":"402-824-6215","city":"NEMAHA","name":"ANDREW FERTILIZER CO","zip":"68414","st":"NE","comments":null,"geo_score":0.883,"id":"a66vdrpgc65c","geo_precision":"range","address":"514 1ST STREET"},"type":"Feature","geometry":{"type":"Point","coordinates":[-95.673146,40.338119]}},{"properties":{"ship_phone":"402-780-5820","city":"PALMYRA","name":"FARMERS COOPERATIVE COMPANY","zip":"68418","st":"NE","comments":"BULK LOC","geo_score":0.683,"id":"a66vdrseb3a2","geo_precision":"zip","address":"125 FRONT STREET"},"type":"Feature","geometry":{"type":"Point","coordinates":[-96.397545,40.705559]}},{"properties":{"ship_phone":"402-673-3280","city":"PICKRELL","name":"PICKRELL COOP ELEVATOR ASSOCIATION","zip":"68422","st":"NE","comments":null,"geo_score":0.714,"id":"a66vds1k5bpg","geo_precision":"street","address":"MAIN STREET"},"type":"Feature","geometry":{"type":"Point","coordinates":[-95.682839,40.235112]}},{"properties":{"ship_phone":null,"city":"PLYMOUTH","name":"FARMERS COOP ELEVATOR CO","zip":"68424","st":"NE","comments":null,"geo_score":0.68,"id":"a66vdrtjz0i5","geo_precision":"street","address":"501 EAST MAIN"},"type":"Feature","geometry":{"type":"Point","coordinates":[-96.99288,40.303011]}},{"properties":{"ship_phone":"402-656-3615","city":"PLYMOUTH","name":"FARMERS COOPERATIVE ELEVATOR COMPANY","zip":"68424","st":"NE","comments":"CLEAN","geo_score":0.68,"id":"a66vdrv86dhw","geo_precision":"street","address":"501 EAST MAIN"},"type":"Feature","geometry":{"type":"Point","coordinates":[-96.99288,40.303011]}},{"properties":{"ship_phone":"402-656-3053","city":"PLYMOUTH","name":"WILFARM L.L.C. C/O FARMERS CO-OP ELEVATOR","zip":"68424","st":"NE","comments":"WAS 3204 FARMLAND  CLEAN","geo_score":0.636,"id":"a66vdrv485d2","geo_precision":"street","address":"OPI WAREHOUSE 501 EAST MAIN"},"type":"Feature","geometry":{"type":"Point","coordinates":[-96.991706,40.303014]}},{"properties":{"ship_phone":"402-420-2362","city":"ROCA","name":"CORNBELT CHEMICAL CO","zip":"68430","st":"NE","comments":null,"geo_score":0.75,"id":"a66vds05ikmx","geo_precision":"street","address":"LOCUST &amp; A BOX 67"},"type":"Feature","geometry":{"type":"Point","coordinates":[-96.661192,40.656752]}},{"properties":{"ship_phone":"913-544-6512","city":"RULO","name":"ROBINSON FARMERS UNION COOPERATIVE ASSN","zip":"68431","st":"NE","comments":"SOLD TO BROWN COUNTY COOP","geo_score":0.714,"id":"a66vdrwb8wvw","geo_precision":"street","address":"NORTH MAIN STREET"},"type":"Feature","geometry":{"type":"Point","coordinates":[-96.960554,40.484204]}},{"properties":{"ship_phone":"402-523-4225","city":"TAMORA","name":"BLUE VALLEY COOP","zip":"68434","st":"NE","comments":null,"geo_score":0.619,"id":"a66vdrsn6f7r","geo_precision":"street","address":"RR 2"},"type":"Feature","geometry":{"type":"Point","coordinates":[-97.090408,40.905822]}},{"properties":{"ship_phone":"402-883-2148","city":"STELLA","name":"SUR-GRO FINANCE INC","zip":"68442","st":"NE","comments":"PER REP","geo_score":0.631,"id":"a66vds0zq07e","geo_precision":"street","address":"201 NORTH ELM"},"type":"Feature","geometry":{"type":"Point","coordinates":[-95.774745,40.231041]}},{"properties":{"ship_phone":"402-883-2148","city":"STELLA","name":"SUR-GRO FINANCE CO","zip":"68442","st":"NE","comments":"CLEAN PER WELLS UNDELETE","geo_score":0.758,"id":"a66vdrsiwvsp","geo_precision":"street","address":"201 NORTH ELM STREET"},"type":"Feature","geometry":{"type":"Point","coordinates":[-95.774745,40.231041]}},{"properties":{"ship_phone":"402-448-2040","city":"SWANTON","name":"COUNTY LINE COOPERATIVE","zip":"68445","st":"NE","comments":"WAS SWANTON COOP ELEV","geo_score":0.805,"id":"a66vdrnr2b1h","geo_precision":"street","address":"MAIN STREET BOX 67"},"type":"Feature","geometry":{"type":"Point","coordinates":[-97.079662,40.377767]}},{"properties":{"ship_phone":"402-448-2040","city":"SWANTON","name":"FARMERS ELEVATOR COOPERATIVE COMPANY","zip":"68445","st":"NE","comments":null,"geo_score":0.469,"id":"a66vdro3qcn2","geo_precision":"street","address":"PO BOX 67"},"type":"Feature","geometry":{"type":"Point","coordinates":[-95.830233,40.640625]}},{"properties":{"ship_phone":"402-269-2313","city":"SYRACUSE","name":"SYRACUSE GRAIN INC","zip":"68446","st":"NE","comments":"WAS BILLING TO WILES BROS","geo_score":0.883,"id":"a66vdrr846xa","geo_precision":"range","address":"501 1ST STREET"},"type":"Feature","geometry":{"type":"Point","coordinates":[-96.183928,40.653486]}},{"properties":{"ship_phone":"402-284-2284","city":"ONG","name":"FARMERS COOPERATIVE ASSOCIATION","zip":"68452","st":"NE","comments":null,"geo_score":0.806,"id":"a66vdrzpk1e2","geo_precision":"street","address":"107 MAIN STREET"},"type":"Feature","geometry":{"type":"Point","coordinates":[-97.83616,40.398773]}},{"properties":{"ship_phone":"402-263-3180","city":"UNION","name":"HAVEMAN GRAIN CO INC","zip":"68455","st":"NE","comments":null,"geo_score":1.0,"id":"a66vds13chhd","geo_precision":"range","address":"110 UNION DRIVE"},"type":"Feature","geometry":{"type":"Point","coordinates":[-95.911643,40.806008]}},{"properties":{"ship_phone":"402-534-2411","city":"UTICA","name":"UTICA COOPERATIVE GRAIN COMPANY","zip":"68456","st":"NE","comments":null,"geo_score":0.883,"id":"a66vds0yyqft","geo_precision":"range","address":"555 1ST STREET"},"type":"Feature","geometry":{"type":"Point","coordinates":[-97.344318,40.89497]}},{"properties":{"ship_phone":"402-786-2665","city":"WAVERLY","name":"FARMERS COOPERATIVE COMPANY","zip":"68462","st":"NE","comments":"OWN BILL TO","geo_score":1.0,"id":"a66vdrv7x5y4","geo_precision":"range","address":"10741 NORTH 142ND STREET"},"type":"Feature","geometry":{"type":"Point","coordinates":[-96.528313,40.917255]}},{"properties":{"ship_phone":"402-786-2665","city":"WAVERLY","name":"FARMERS COOPERATIVE COMPANY","zip":"68462","st":"NE","comments":null,"geo_score":1.0,"id":"a66vdrruhfvk","geo_precision":"range","address":"10741 NORTH 142ND STREET"},"type":"Feature","geometry":{"type":"Point","coordinates":[-96.528313,40.917255]}},{"properties":{"ship_phone":"402-786-2665","city":"WAVERLY","name":"FARMERS COOP COMPANY","zip":"68462","st":"NE","comments":"DUP S/T","geo_score":1.0,"id":"a66vdrz8jrzo","geo_precision":"range","address":"10741 N 142ND STREET"},"type":"Feature","geometry":{"type":"Point","coordinates":[-96.528313,40.917255]}},{"properties":{"ship_phone":"402-267-3155","city":"WEEPING WATER","name":"NIELSEN FERTILIZER","zip":"68463","st":"NE","comments":null,"geo_score":1.0,"id":"a66vdrqnopuu","geo_precision":"range","address":"15910 HOBSCHEIDT ROAD"},"type":"Feature","geometry":{"type":"Point","coordinates":[-96.165793,40.885262]}},{"properties":{"ship_phone":"402-821-2351","city":"WILBER","name":"LAND O LAKES AG CENTER","zip":"68465","st":"NE","comments":"WAS FARMERS ELEV COOP 3005","geo_score":0.648,"id":"a66vdrt4nt3v","geo_precision":"street","address":"232 SOUTH RAILROAD STREET"},"type":"Feature","geometry":{"type":"Point","coordinates":[-96.959645,40.481338]}},{"properties":{"ship_phone":"402-645-3958","city":"WYMORE","name":"WYMORE FERTILIZER CO","zip":"68466","st":"NE","comments":null,"geo_score":0.714,"id":"a66vdrq5p7q9","geo_precision":"street","address":"MAIN ST"},"type":"Feature","geometry":{"type":"Point","coordinates":[-95.682839,40.235112]}},{"properties":{"ship_phone":"402-362-6691","city":"YORK","name":"FARMERS COOPERATIVE ASSOCIATION","zip":"68467","st":"NE","comments":"CLEAN","geo_score":0.633,"id":"a66vdrv00w1s","geo_precision":"street","address":"RR 2 BOX 3"},"type":"Feature","geometry":{"type":"Point","coordinates":[-97.592402,40.862854]}},{"properties":{"ship_phone":"402-362-6691","city":"WACO","name":"FARMERS COOPERATIVE ASSOCIATION","zip":"68467","st":"NE","comments":"PER BARB MCGINN","geo_score":0.5,"id":"a66vdrq7fdfh","geo_precision":"street","address":"ROUTE 1"},"type":"Feature","geometry":{"type":"Point","coordinates":[-97.592396,40.861869]}},{"properties":{"ship_phone":"402-362-5516","city":"YORK","name":"MILLER SEED &amp; SUPPLY COMPANY INC","zip":"68467","st":"NE","comments":null,"geo_score":0.633,"id":"a66vdrzxzykm","geo_precision":"street","address":"327 YORK AVE., BOX 587"},"type":"Feature","geometry":{"type":"Point","coordinates":[-97.596491,40.863828]}},{"properties":{"ship_phone":"402-362-5808","city":"YORK","name":"HELENA CHEMICAL CO","zip":"68467","st":"NE","comments":null,"geo_score":1.0,"id":"a66vdrn1n0yb","geo_precision":"range","address":"2415 LINCOLN AVENUE"},"type":"Feature","geometry":{"type":"Point","coordinates":[-97.593109,40.885489]}},{"properties":{"ship_phone":"402-362-6728","city":"YORK","name":"MIDWEST VALLEY CHEMICAL CO","zip":"68467","st":"NE","comments":null,"geo_score":1.0,"id":"a66vdro1dyev","geo_precision":"range","address":"327 YORK AVENUE"},"type":"Feature","geometry":{"type":"Point","coordinates":[-97.596488,40.864091]}},{"properties":{"ship_phone":"402-470-3566","city":"LINCOLN","name":"ROSEN'S INC","zip":"68524","st":"NE","comments":null,"geo_score":0.927,"id":"a66vdro9umzm","geo_precision":"range","address":"4120 NW 44TH STREET"},"type":"Feature","geometry":{"type":"Point","coordinates":[-96.782209,40.852746]}},{"properties":{"ship_phone":"402-476-6900","city":"EMERALD","name":"CENEX/LAND O'LAKES","zip":"68528","st":"NE","comments":"WAS LINCOLN","geo_score":0.806,"id":"a66vdrmwjmeo","geo_precision":"street","address":"8801 WEST HAVEN ROAD"},"type":"Feature","geometry":{"type":"Point","coordinates":[-96.834904,40.818239]}},{"properties":{"ship_phone":"402-747-2941","city":"OSCEOLA","name":"FARMERS COOPERATIVE GRAIN COMPANY","zip":"68561","st":"NE","comments":"PER GARY HUSK","geo_score":0.339,"id":"a66vdrppaual","geo_precision":"street","address":"EAST HWY 92"},"type":"Feature","geometry":{"type":"Point","coordinates":[-96.845892,40.813883]}},{"properties":{"ship_phone":"402-563-3636","city":"COLUMBUS","name":"HUSKER COOPERATIVE","zip":"68601","st":"NE","comments":null,"geo_score":0.805,"id":"a66vdrt9pj20","geo_precision":"range","address":"2276 14TH ST"},"type":"Feature","geometry":{"type":"Point","coordinates":[-97.355109,41.430208]}},{"properties":{"ship_phone":"402-564-2831","city":"COLUMBUS","name":"PLATTE CENTER COOPERATIVE","zip":"68601","st":"NE","comments":"PER REP","geo_score":0.626,"id":"a66vdrxzdicb","geo_precision":"street","address":"1362 3RD AVE."},"type":"Feature","geometry":{"type":"Point","coordinates":[-97.329796,41.429699]}},{"properties":{"ship_phone":"402-564-5149","city":"RICHLAND","name":"SCHUYLER COOPERATIVE ASSOCIATION","zip":"68601","st":"NE","comments":"WAS RICHLAND GRAIN","geo_score":0.55,"id":"a66vdrnmr44x","geo_precision":"street","address":"RURAL ROUTE 5"},"type":"Feature","geometry":{"type":"Point","coordinates":[-97.332597,41.422368]}},{"properties":{"ship_phone":"402-564-2831","city":"COLUMBUS","name":"FARM &amp; HOME COOPERATIVE CO","zip":"68602","st":"NE","comments":"PER GARY HUSK","geo_score":0.528,"id":"a66vdrzq8y26","geo_precision":"street","address":"1362 3RD AVENUE"},"type":"Feature","geometry":{"type":"Point","coordinates":[-97.329796,41.429699]}},{"properties":{"ship_phone":"402-564-2831","city":"COLUMBUS","name":"FARM &amp; HOME COOPERATIVE CO","zip":"68602","st":"NE","comments":"BULK ONLY","geo_score":0.528,"id":"a66vdrtypele","geo_precision":"street","address":"1362 3RD AVENUE"},"type":"Feature","geometry":{"type":"Point","coordinates":[-97.329796,41.429699]}},{"properties":{"ship_phone":null,"city":"ALBION","name":"ALBION SKELGAS","zip":"68620","st":"NE","comments":null,"geo_score":0.5,"id":"a66vdrr70ud6","geo_precision":"street","address":"P O BOX 126"},"type":"Feature","geometry":{"type":"Point","coordinates":[-97.616557,41.119451]}},{"properties":{"ship_phone":"402-395-2143","city":"ALBION","name":"ALBION SKELGAS","zip":"68620","st":"NE","comments":"PER T BOSSHART","geo_score":0.643,"id":"a66vds1f0gzs","geo_precision":"street","address":"NORTHWEST HIGHWAY 14"},"type":"Feature","geometry":{"type":"Point","coordinates":[-98.003915,41.692347]}},{"properties":{"ship_phone":"402-395-5051","city":"ALBION","name":"COASH INC","zip":"68620","st":"NE","comments":null,"geo_score":0.643,"id":"a66vdrznw652","geo_precision":"street","address":"NORTH HIGHWAY 14"},"type":"Feature","geometry":{"type":"Point","coordinates":[-98.003915,41.692347]}},{"properties":{"ship_phone":"402-395-2139","city":"ALBION","name":"CEDAR VALLEY COOPERATIVE CO","zip":"68620","st":"NE","comments":null,"geo_score":0.707,"id":"a66vdrreww5j","geo_precision":"range","address":"119 SOUTH 5TH"},"type":"Feature","geometry":{"type":"Point","coordinates":[-98.002537,41.692678]}},{"properties":{"ship_phone":"402-395-5002","city":"ALBION","name":"CASCO","zip":"68620","st":"NE","comments":"MOVED TO NORFOLK NE","geo_score":0.471,"id":"a66vdrtautd9","geo_precision":"street","address":"W.HWY 14"},"type":"Feature","geometry":{"type":"Point","coordinates":[-98.003915,41.692347]}},{"properties":{"ship_phone":null,"city":"BARTLETT","name":"COASH INC","zip":"68622","st":"NE","comments":"DELETE CLEAN","geo_score":0.393,"id":"a66vds11rc6q","geo_precision":"street","address":"RR 1 BOX 67"},"type":"Feature","geometry":{"type":"Point","coordinates":[-97.252473,41.431281]}},{"properties":{"ship_phone":"308-654-3265","city":"BARTLETT","name":"COASH INCORPORATED","zip":"68622","st":"NE","comments":"CLOSING LOCATION","geo_score":1.0,"id":"a66vdrq3nvcx","geo_precision":"zip","address":"SOUTH HIGHWAY 281"},"type":"Feature","geometry":{"type":"Point","coordinates":[-98.528373,41.914601]}},{"properties":{"ship_phone":"308-357-1060","city":"BELGRADE","name":"BELGRADE GRAIN CO INC","zip":"68623","st":"NE","comments":null,"geo_score":0.415,"id":"a66vdrt0m2g1","geo_precision":"street","address":"1/2 MILE SOUTH MAIN"},"type":"Feature","geometry":{"type":"Point","coordinates":[-97.783778,41.073674]}},{"properties":{"ship_phone":"402-538-4095","city":"BELLWOOD","name":"BELLWOOD COOP","zip":"68624","st":"NE","comments":null,"geo_score":0.714,"id":"a66vdrq8fg0k","geo_precision":"street","address":"MAIN STREET"},"type":"Feature","geometry":{"type":"Point","coordinates":[-97.546914,41.176367]}},{"properties":{"ship_phone":"308-358-0251","city":"CEDAR RAPIDS","name":"CEDAR VALLEY COOP CO","zip":"68627","st":"NE","comments":null,"geo_score":0.916,"id":"a66vdrlimh1w","geo_precision":"range","address":"605 WEST MAIN"},"type":"Feature","geometry":{"type":"Point","coordinates":[-98.151343,41.55998]}},{"properties":{"ship_phone":"308-548-2600","city":"CLARKS","name":"KOCH INC.","zip":"68628","st":"NE","comments":"CLEAN","geo_score":0.827,"id":"a66vdruol1dz","geo_precision":"street","address":"W US HWY 30"},"type":"Feature","geometry":{"type":"Point","coordinates":[-97.755432,41.263458]}},{"properties":{"ship_phone":"308-548-2201","city":"CLARKS","name":"CLARKS AGRI SERVICES","zip":"68628","st":"NE","comments":"WAS FARMERS COOP ASSN","geo_score":0.595,"id":"a66vdrm4illl","geo_precision":"street","address":"U.S.HWY 30"},"type":"Feature","geometry":{"type":"Point","coordinates":[-97.84454,41.220172]}},{"properties":{"ship_phone":"402-892-3422","city":"CLARKSON","name":"FARMERS UNION COOPERATIVE SUPPLY COMPANY","zip":"68629","st":"NE","comments":null,"geo_score":0.587,"id":"a66vdrms4xg8","geo_precision":"street","address":"214 EAST 1ST STREET"},"type":"Feature","geometry":{"type":"Point","coordinates":[-97.119425,41.726305]}},{"properties":{"ship_phone":"402-285-0460","city":"CRESTON","name":"CRESTON FERTILIZER COMPANY INC","zip":"68631","st":"NE","comments":null,"geo_score":0.805,"id":"a66vdrtrem42","geo_precision":"range","address":"101 WEST MAIN STREET"},"type":"Feature","geometry":{"type":"Point","coordinates":[-98.14293,41.560002]}},{"properties":{"ship_phone":"402-367-3019","city":"DAVID CITY","name":"FRONTIER COOPERATIVE COMPANY","zip":"68632","st":"NE","comments":null,"geo_score":0.913,"id":"a66vdrzot6og","geo_precision":"range","address":"211 D STREET"},"type":"Feature","geometry":{"type":"Point","coordinates":[-97.133131,41.252833]}},{"properties":{"ship_phone":"402-693-2261","city":"DODGE","name":"COOPERATIVE SUPPLY INC","zip":"68633","st":"NE","comments":"CLEAN","geo_score":0.714,"id":"a66vdrlywrmk","geo_precision":"street","address":"FRONT STREET"},"type":"Feature","geometry":{"type":"Point","coordinates":[-96.884408,41.720315]}},{"properties":{"ship_phone":null,"city":"DUNCAN","name":"HUSKER COOP","zip":"68634","st":"NE","comments":null,"geo_score":0.878,"id":"a66vdrruhkic","geo_precision":"street","address":"HWY 30"},"type":"Feature","geometry":{"type":"Point","coordinates":[-97.488317,41.390437]}},{"properties":{"ship_phone":"402-897-2615","city":"DUNCAN","name":"FARMERS COOPERATIVE GRAIN COMPANY","zip":"68634","st":"NE","comments":"PER REP","geo_score":0.878,"id":"a66vdrmoactg","geo_precision":"street","address":"HWY 30"},"type":"Feature","geometry":{"type":"Point","coordinates":[-97.488317,41.390437]}},{"properties":{"ship_phone":null,"city":"ELGIN","name":"CENTRAL VALLEY COOPERATIVE","zip":"68636","st":"NE","comments":null,"geo_score":0.571,"id":"a66vds17jwgp","geo_precision":"street","address":"PO BOX 280"},"type":"Feature","geometry":{"type":"Point","coordinates":[-98.088539,41.98533]}},{"properties":{"ship_phone":"402-485-2445","city":"ELGIN","name":"FARMERS COOP EXCHANGE","zip":"68636","st":"NE","comments":null,"geo_score":0.786,"id":"a66vdrr8fglp","geo_precision":"street","address":"NORTH HIGHWAY 14"},"type":"Feature","geometry":{"type":"Point","coordinates":[-98.08456,41.981645]}},{"properties":{"ship_phone":"308-536-2454","city":"FULLERTON","name":"CARGILL, INC.","zip":"68638","st":"NE","comments":null,"geo_score":0.786,"id":"a66vdrqqorh8","geo_precision":"street","address":"NORTH HIGHWAY 14"},"type":"Feature","geometry":{"type":"Point","coordinates":[-97.976722,41.364919]}},{"properties":{"ship_phone":"308-536-2424","city":"FULLERTON","name":"TRI VALLEY COOPERATIVE","zip":"68638","st":"NE","comments":"WAS FARMERS COOP ASSOC","geo_score":0.849,"id":"a66vdrlrdjs3","geo_precision":"street","address":"NORTH MCCLELLAND BOX 160"},"type":"Feature","geometry":{"type":"Point","coordinates":[-97.963895,41.36562]}},{"properties":{"ship_phone":"308-536-2454","city":"FULLERTON","name":"CARGILL","zip":"68638","st":"NE","comments":null,"geo_score":0.786,"id":"a66vdrv17szk","geo_precision":"street","address":"NORTH HIGHWAY 14"},"type":"Feature","geometry":{"type":"Point","coordinates":[-97.976722,41.364919]}},{"properties":{"ship_phone":"308-536-2454","city":"FULLERTON","name":"CARGILL INC","zip":"68638","st":"NE","comments":"DUP OF 144330001","geo_score":0.786,"id":"a66vdro84ejh","geo_precision":"street","address":"NORTH HWY 14"},"type":"Feature","geometry":{"type":"Point","coordinates":[-97.976722,41.364919]}},{"properties":{"ship_phone":null,"city":"GENOA","name":"HUSKER COOP","zip":"68640","st":"NE","comments":"TERR CHG CLEAN","geo_score":0.339,"id":"a66vdrrr1tgm","geo_precision":"street","address":"PO BOX 487"},"type":"Feature","geometry":{"type":"Point","coordinates":[-96.890501,41.524825]}},{"properties":{"ship_phone":"402-993-2236","city":"GENOA","name":"FARMERS COOPERATIVE GRAIN COMPANY","zip":"68640","st":"NE","comments":"PER REP","geo_score":0.805,"id":"a66vdrmc4inz","geo_precision":"range","address":"100 MAIN STREET"},"type":"Feature","geometry":{"type":"Point","coordinates":[-97.546923,41.176846]}},{"properties":{"ship_phone":"402-993-2245","city":"GENOA","name":"TRI VALLEY COOPERATIVE","zip":"68640","st":"NE","comments":"WAS GENOA COOP CO/BOUGHT OUT","geo_score":0.879,"id":"a66vdrlczzuw","geo_precision":"range","address":"321 WILLARD AVENUE PO BOX 69"},"type":"Feature","geometry":{"type":"Point","coordinates":[-97.728286,41.448511]}},{"properties":{"ship_phone":"402-372-3058","city":"HOWELLS","name":"TERRA INTERNATIONAL INC","zip":"68641","st":"NE","comments":"PER REG COORD","geo_score":0.642,"id":"a66vdrx9bgb2","geo_precision":"street","address":"110 WEST WASHINGTON STREET"},"type":"Feature","geometry":{"type":"Point","coordinates":[-97.003715,41.184005]}},{"properties":{"ship_phone":"402-986-1555","city":"HOWELLS","name":"PEKAREK FARM SUPPLY INC","zip":"68641","st":"NE","comments":null,"geo_score":0.562,"id":"a66vdrsubb65","geo_precision":"street","address":"211 NORTH 3RD"},"type":"Feature","geometry":{"type":"Point","coordinates":[-97.002906,41.720793]}},{"properties":{"ship_phone":"402-246-3115","city":"TARNOV","name":"FARMERS COOPERATIVE GRAIN COMPANY","zip":"68642","st":"NE","comments":"PER REP","geo_score":0.806,"id":"a66vdro9o5cv","geo_precision":"street","address":"11 MAIN STREET"},"type":"Feature","geometry":{"type":"Point","coordinates":[-97.484512,41.691753]}},{"properties":{"ship_phone":"402-923-1440","city":"HUMPHREY","name":"FARMERS COOP GRAIN &amp; LUMBER CO","zip":"68642","st":"NE","comments":null,"geo_score":0.902,"id":"a66vdrxedned","geo_precision":"range","address":"111 OAK STREET"},"type":"Feature","geometry":{"type":"Point","coordinates":[-97.48312,41.69209]}},{"properties":{"ship_phone":"402-487-2295","city":"LEIGH","name":"MAPLE VALLEY COOPERATIVE","zip":"68643","st":"NE","comments":null,"geo_score":0.66,"id":"a66vdro6zmhk","geo_precision":"street","address":"107 SOUTH MAIN"},"type":"Feature","geometry":{"type":"Point","coordinates":[-97.238124,41.705217]}},{"properties":{"ship_phone":"402-428-2305","city":"LINDSAY","name":"FARMERS COOPERATIVE ASSOCIATION","zip":"68644","st":"NE","comments":"INSUFFICIENT BUSINESS","geo_score":0.885,"id":"a66vdrvpeo5q","geo_precision":"range","address":"120 SOUTH PINE STREET"},"type":"Feature","geometry":{"type":"Point","coordinates":[-97.693758,41.698855]}},{"properties":{"ship_phone":"402-495-3115","city":"MONROE","name":"FARMERS COOPERATIVE GRAIN COMPANY","zip":"68647","st":"NE","comments":"PER REP","geo_score":0.829,"id":"a66vdrumy0hh","geo_precision":"street","address":"EAST HWY 22"},"type":"Feature","geometry":{"type":"Point","coordinates":[-97.595193,41.475137]}},{"properties":{"ship_phone":"402-495-3705","city":"MONROE","name":"PREISTER FARMS INC","zip":"68647","st":"NE","comments":null,"geo_score":0.381,"id":"a66vds0h1dbk","geo_precision":"street","address":"RURAL ROUTE 1"},"type":"Feature","geometry":{"type":"Point","coordinates":[-97.252511,41.453078]}},{"properties":{"ship_phone":"402-652-8533","city":"NORTH BEND","name":"TERRA INTERNATIONAL INC","zip":"68649","st":"NE","comments":"WAS 3565","geo_score":0.902,"id":"a66vdrwha39h","geo_precision":"range","address":"641 WEST 6TH STREET"},"type":"Feature","geometry":{"type":"Point","coordinates":[-96.786809,41.461682]}},{"properties":{"ship_phone":"402-652-3214","city":"NORTH BEND","name":"HOOPS AGRI SALES COMPANY","zip":"68649","st":"NE","comments":"PER CUSTOMER","geo_score":0.878,"id":"a66vdrmsmb3s","geo_precision":"street","address":"HIGHWAY 30"},"type":"Feature","geometry":{"type":"Point","coordinates":[-96.780084,41.461794]}},{"properties":{"ship_phone":"402-652-8384","city":"NORTH BEND","name":"NORTH BEND TRANSFER DBA KRUGER FEED &amp; SEED","zip":"68649","st":"NE","comments":null,"geo_score":0.902,"id":"a66vdrpj99kb","geo_precision":"range","address":"131 EAST 7TH STREET"},"type":"Feature","geometry":{"type":"Point","coordinates":[-96.779843,41.462785]}},{"properties":{"ship_phone":"402-386-5388","city":"PETERSBURG","name":"HELENA CHEMICAL INC","zip":"68652","st":"NE","comments":"WAS AG SUPPLY 391","geo_score":0.429,"id":"a66vds0c9f1t","geo_precision":"street","address":"1ST &amp; MAIN STREET"},"type":"Feature","geometry":{"type":"Point","coordinates":[-97.25254,41.414618]}},{"properties":{"ship_phone":"402-246-3750","city":"PLATTE CENTER","name":"GAYLE GOERING SEED &amp; CHEMICAL","zip":"68653","st":"NE","comments":null,"geo_score":0.625,"id":"a66vdrxa0l54","geo_precision":"street","address":"RR 1 BOX 62"},"type":"Feature","geometry":{"type":"Point","coordinates":[-97.484388,41.540537]}},{"properties":{"ship_phone":"402-246-3215","city":"PLATTE CENTER","name":"FARM &amp; HOME COOPERATIVE","zip":"68653","st":"NE","comments":null,"geo_score":0.805,"id":"a66vdrlowmta","geo_precision":"range","address":"101 MAIN STREET"},"type":"Feature","geometry":{"type":"Point","coordinates":[-97.315834,41.104893]}},{"properties":{"ship_phone":"402-765-2571","city":"POLK","name":"HARLESS OIL COMPANY","zip":"68654","st":"NE","comments":null,"geo_score":0.679,"id":"a66vdrq2q735","geo_precision":"range","address":"320 POLK AVENUE"},"type":"Feature","geometry":{"type":"Point","coordinates":[-97.549389,41.17505]}},{"properties":{"ship_phone":"402-765-2201","city":"POLK","name":"UNITED COOPERATIVES INC","zip":"68654","st":"NE","comments":null,"geo_score":0.492,"id":"a66vdrq650ff","geo_precision":"street","address":"450 POLK AVENUE"},"type":"Feature","geometry":{"type":"Point","coordinates":[-97.549379,41.173128]}},{"properties":{"ship_phone":"308-396-1650","city":"PRIMROSE","name":"CEDAR VALLEY COOPERATIVE BRANCH","zip":"68655","st":"NE","comments":null,"geo_score":0.5,"id":"a66vdrplqr4g","geo_precision":"street","address":"HIGHWAY 52"},"type":"Feature","geometry":{"type":"Point","coordinates":[-98.068018,41.470805]}},{"properties":{"ship_phone":"402-542-2364","city":"RISING CITY","name":"WMB AG SALES","zip":"68658","st":"NE","comments":null,"geo_score":0.571,"id":"a66vdrmbr23i","geo_precision":"street","address":"R R 1"},"type":"Feature","geometry":{"type":"Point","coordinates":[-97.252473,41.431281]}},{"properties":{"ship_phone":"402-542-2131","city":"RISING CITY","name":"SHELBY COOPERATIVE","zip":"68658","st":"NE","comments":"PER REP","geo_score":0.765,"id":"a66vds1o87oj","geo_precision":"street","address":"110 SOUTH MAIN STREET"},"type":"Feature","geometry":{"type":"Point","coordinates":[-97.296504,41.193323]}},{"properties":{"ship_phone":"402-678-2457","city":"SAINT EDWARD","name":"B V - 82 INC","zip":"68660","st":"NE","comments":null,"geo_score":0.649,"id":"a66vdryt3y39","geo_precision":"street","address":"WEST HIGHWAY 56 AND 39"},"type":"Feature","geometry":{"type":"Point","coordinates":[-97.865749,41.56986]}},{"properties":{"ship_phone":"402-678-2242","city":"SAINT EDWARD","name":"COASH INCORPORATED","zip":"68660","st":"NE","comments":null,"geo_score":0.786,"id":"a66vdrsylioa","geo_precision":"street","address":"3RD STREET"},"type":"Feature","geometry":{"type":"Point","coordinates":[-97.865738,41.569398]}},{"properties":{"ship_phone":"402-678-2251","city":"SAINT EDWARD","name":"TRI VALLEY COOPERATIVE","zip":"68660","st":"NE","comments":"WAS FARMERS COOP ASSOC","geo_score":0.643,"id":"a66vdrnfdrxf","geo_precision":"street","address":"3RD &amp; WATER STREET"},"type":"Feature","geometry":{"type":"Point","coordinates":[-97.865738,41.569398]}},{"properties":{"ship_phone":"402-352-2471","city":"SCHUYLER","name":"HUSKER COOPERATIVE","zip":"68661","st":"NE","comments":"WAS WAGNER MILLS   CLEAN","geo_score":0.343,"id":"a66vdrszxa30","geo_precision":"street","address":"RURAL ROUTE 1 BOX 100"},"type":"Feature","geometry":{"type":"Point","coordinates":[-97.121254,41.728018]}},{"properties":{"ship_phone":"402-352-2554","city":"SCHUYLER","name":"SCHUYLER COOPERATIVE ASSOCIATION","zip":"68661","st":"NE","comments":"BILLING TO OWNSELF","geo_score":1.0,"id":"a66vdrri00zx","geo_precision":"range","address":"1303 G STREET"},"type":"Feature","geometry":{"type":"Point","coordinates":[-97.05094,41.45]}},{"properties":{"ship_phone":"402-352-2554","city":"SCHUYLER","name":"SCHUYLER COOPERATIVE ASSOCIATION","zip":"68661","st":"NE","comments":null,"geo_score":1.0,"id":"a66vdrw8i8rg","geo_precision":"range","address":"1303 G STREET"},"type":"Feature","geometry":{"type":"Point","coordinates":[-97.05094,41.45]}},{"properties":{"ship_phone":"402-527-5511","city":"SHELBY","name":"SHELBY COOPERATIVE","zip":"68662","st":"NE","comments":null,"geo_score":0.806,"id":"a66vdrvyqka7","geo_precision":"street","address":"200 PINE STREET"},"type":"Feature","geometry":{"type":"Point","coordinates":[-97.435589,41.194856]}},{"properties":{"ship_phone":"402-527-5321","city":"SHELBY","name":"SHELBY FERTILIZER FEED AND SEED","zip":"68662","st":"NE","comments":null,"geo_score":0.939,"id":"a66vdryps8i1","geo_precision":"street","address":"EAST PINE STREET"},"type":"Feature","geometry":{"type":"Point","coordinates":[-97.435589,41.194856]}},{"properties":{"ship_phone":"308-773-2216","city":"SILVER CREEK","name":"FARMERS COOPERATIVE GRAIN COMPANY","zip":"68663","st":"NE","comments":"PER GARY HUSK","geo_score":0.878,"id":"a66vdrw9rdob","geo_precision":"street","address":"HWY 30"},"type":"Feature","geometry":{"type":"Point","coordinates":[-97.668054,41.313631]}},{"properties":{"ship_phone":"308-773-2211","city":"SILVER CREEK","name":"AGRO SERVICE INC","zip":"68663","st":"NE","comments":null,"geo_score":0.878,"id":"a66vdrxpy97u","geo_precision":"street","address":"HIGHWAY 30 &amp; CHESTNUT STREET"},"type":"Feature","geometry":{"type":"Point","coordinates":[-97.668054,41.313631]}},{"properties":{"ship_phone":"308-497-2166","city":"SPALDING","name":"COASH INCORPORATED","zip":"68665","st":"NE","comments":"DELETE CLEAN","geo_score":0.321,"id":"a66vdrpmbgiw","geo_precision":"street","address":"SOUTH WEST SIDE TOWN"},"type":"Feature","geometry":{"type":"Point","coordinates":[-97.023788,41.081401]}},{"properties":{"ship_phone":"308-497-2266","city":"SPALDING","name":"SPALDING COOPERATIVE-BRANCH","zip":"68665","st":"NE","comments":"PER T BOSSHART","geo_score":0.714,"id":"a66vdrqhcs6b","geo_precision":"street","address":"MAIN STREET"},"type":"Feature","geometry":{"type":"Point","coordinates":[-97.546914,41.176367]}},{"properties":{"ship_phone":"308-497-2266","city":"SPALDING","name":"SPALDING CO-OP ELEVATOR CO","zip":"68665","st":"NE","comments":null,"geo_score":0.621,"id":"a66vdrvtyben","geo_precision":"street","address":"310 EAST RAILROAD AVENUE"},"type":"Feature","geometry":{"type":"Point","coordinates":[-98.35852,41.683214]}},{"properties":{"ship_phone":"402-764-2571","city":"STROMSBURG","name":"UNITED COOPERATIVES INC","zip":"68666","st":"NE","comments":"WAS CUST 151","geo_score":0.611,"id":"a66vdrt7i0f7","geo_precision":"street","address":"11 EXCHANGE STREET"},"type":"Feature","geometry":{"type":"Point","coordinates":[-97.595534,41.111993]}},{"properties":{"ship_phone":"402-549-2115","city":"ULYSSES","name":"FARMERS COOPERATIVE GRAIN &amp; SUPPLY","zip":"68669","st":"NE","comments":null,"geo_score":0.657,"id":"a66vdrwe0owu","geo_precision":"street","address":"4TH &amp; B STREET"},"type":"Feature","geometry":{"type":"Point","coordinates":[-97.202001,41.07185]}},{"properties":{"ship_phone":"402-371-1320","city":"NORFOLK","name":"KAISER ESTECH DBA VIGORO INDUSTRIES","zip":"68701","st":"NE","comments":"AG S/T SURVEY","geo_score":0.93,"id":"a66vds16vlwq","geo_precision":"range","address":"600 MONROE AVENUE"},"type":"Feature","geometry":{"type":"Point","coordinates":[-97.41718,42.010922]}},{"properties":{"ship_phone":"402-371-1320","city":"NORFOLK","name":"AG SERVICES INC","zip":"68701","st":"NE","comments":"D LOCKEN","geo_score":0.93,"id":"a66vdrpb1ypc","geo_precision":"range","address":"600 MONROE AVENUE"},"type":"Feature","geometry":{"type":"Point","coordinates":[-97.41718,42.010922]}},{"properties":{"ship_phone":null,"city":"NORFOLK","name":"SOUTH BRANCH FERTILIZER","zip":"68701","st":"NE","comments":null,"geo_score":0.898,"id":"a66vdrzwnc2x","geo_precision":"zip","address":"RURAL ROUTE"},"type":"Feature","geometry":{"type":"Point","coordinates":[-97.462828,41.903895]}},{"properties":{"ship_phone":"402-379-2910","city":"NORFOLK","name":"FARM AND GARDEN SOUTH","zip":"68701","st":"NE","comments":null,"geo_score":0.737,"id":"a66vdrzjv9vb","geo_precision":"street","address":"84624 US HWY 81"},"type":"Feature","geometry":{"type":"Point","coordinates":[-97.426307,42.119631]}},{"properties":{"ship_phone":"402-371-2800","city":"NORFOLK","name":"CORNBELT CHEMICAL CO","zip":"68702","st":"NE","comments":"WAS CASCO","geo_score":0.707,"id":"a66vdrpiv2zu","geo_precision":"range","address":"1500 NORTH FIRST STREET"},"type":"Feature","geometry":{"type":"Point","coordinates":[-98.652705,42.470105]}},{"properties":{"ship_phone":"402-635-2312","city":"ALLEN","name":"FARMERS ELEVATOR COMPANY","zip":"68710","st":"NE","comments":null,"geo_score":0.688,"id":"a66vdrlu39zm","geo_precision":"range","address":"215 1ST STREET"},"type":"Feature","geometry":{"type":"Point","coordinates":[-97.732942,42.031121]}},{"properties":{"ship_phone":"402-925-2552","city":"ATKINSON","name":"C O ENTERPRISES","zip":"68713","st":"NE","comments":null,"geo_score":0.543,"id":"a66vdrq4p09s","geo_precision":"street","address":"HIGHWAY 11 (7 MILES NO &amp; 1 1/2 WEST)"},"type":"Feature","geometry":{"type":"Point","coordinates":[-98.970945,42.531273]}},{"properties":{"ship_phone":"402-925-2114","city":"ATKINSON","name":"SHANE FERTILIZER COMPANY","zip":"68713","st":"NE","comments":null,"geo_score":1.0,"id":"a66vdrzcyjt7","geo_precision":"range","address":"302 NORTH MAIN STREET"},"type":"Feature","geometry":{"type":"Point","coordinates":[-98.978284,42.533554]}},{"properties":{"ship_phone":"402-684-2311","city":"BASSETT","name":"COASH INCORPORATED","zip":"68714","st":"NE","comments":null,"geo_score":0.571,"id":"a66vds1azn2k","geo_precision":"street","address":"WEST 1ST ST"},"type":"Feature","geometry":{"type":"Point","coordinates":[-96.726653,42.278413]}},{"properties":{"ship_phone":"402-675-2020","city":"BATTLE CREEK","name":"BATTLE CREEK FARMERS COOPERATIVE","zip":"68715","st":"NE","comments":null,"geo_score":0.685,"id":"a66vdrmzcia5","geo_precision":"street","address":"400 WEST FRONT STREET"},"type":"Feature","geometry":{"type":"Point","coordinates":[-97.601134,42.001433]}},{"properties":{"ship_phone":"402-675-9735","city":"BATTLE CREEK","name":"WILFARM L.L.C. C/O BATTLE CREEK FARMERS COOP","zip":"68715","st":"NE","comments":"WAS FARMLAND 3204","geo_score":0.844,"id":"a66vdrnlrlst","geo_precision":"street","address":"SOUTH HIGHWAY 121"},"type":"Feature","geometry":{"type":"Point","coordinates":[-97.60111,41.999461]}},{"properties":{"ship_phone":"402-528-3215","city":"BEEMER","name":"KAZAAN FERTILIZER COMPANY","zip":"68716","st":"NE","comments":null,"geo_score":0.893,"id":"a66vdronnls1","geo_precision":"street","address":"EAST HIGHWAY 275"},"type":"Feature","geometry":{"type":"Point","coordinates":[-96.844302,41.945904]}},{"properties":{"ship_phone":"402-373-4755","city":"BLOOMFIELD","name":"TERRA INTERNATIONAL INC","zip":"68718","st":"NE","comments":"WAS B/T 3565","geo_score":0.714,"id":"a66vdrs4loa2","geo_precision":"street","address":"EAST HIGHWAY 84"},"type":"Feature","geometry":{"type":"Point","coordinates":[-97.637993,42.597881]}},{"properties":{"ship_phone":"402-373-4343","city":"BLOOMFIELD","name":"BATTLE CREEK FARMERS COOPERATIVE","zip":"68718","st":"NE","comments":"WAS FARMERS COOP ELEV","geo_score":0.922,"id":"a66vdru8dvwd","geo_precision":"range","address":"229 NORTH BROADWAY"},"type":"Feature","geometry":{"type":"Point","coordinates":[-97.645134,42.60094]}},{"properties":{"ship_phone":"402-842-4295","city":"BRUNSWICK","name":"KOCH AGRI SERVICES INC","zip":"68720","st":"NE","comments":"WAS ANSON FERT","geo_score":0.714,"id":"a66vdruza8w5","geo_precision":"street","address":"MAIN STREET"},"type":"Feature","geometry":{"type":"Point","coordinates":[-96.865065,42.269126]}},{"properties":{"ship_phone":"402-482-5211","city":"CHAMBERS","name":"COASH INCORPORATED","zip":"68725","st":"NE","comments":"CLOSING LOC","geo_score":0.786,"id":"a66vdrmfmn4v","geo_precision":"street","address":"HIGHWAY 95"},"type":"Feature","geometry":{"type":"Point","coordinates":[-98.750081,42.204727]}},{"properties":{"ship_phone":"402-485-2445","city":"CLEARWATER","name":"FARMERS COOP EXCHANGE","zip":"68726","st":"NE","comments":"CLEAN","geo_score":1.0,"id":"a66vdrlasniz","geo_precision":"street","address":"MAIN STREET"},"type":"Feature","geometry":{"type":"Point","coordinates":[-98.188407,42.174816]}},{"properties":{"ship_phone":"402-283-4247","city":"COLERIDGE","name":"COLERIDGE ELEVATOR COMPANY","zip":"68727","st":"NE","comments":null,"geo_score":0.939,"id":"a66vdrpfkor3","geo_precision":"street","address":"MAIN STREET"},"type":"Feature","geometry":{"type":"Point","coordinates":[-97.203696,42.505714]}},{"properties":{"ship_phone":"402-358-3661","city":"CREIGHTON","name":"OSMOND COOP","zip":"68729","st":"NE","comments":"PER T BOSSHART","geo_score":0.699,"id":"a66vdrlbz6xj","geo_precision":"street","address":"SOUTH HIGHWAY 13"},"type":"Feature","geometry":{"type":"Point","coordinates":[-97.89663,42.45559]}},{"properties":{"ship_phone":"402-695-2380","city":"EMERSON","name":"EMERSON FERTILIZER INC","zip":"68733","st":"NE","comments":null,"geo_score":0.679,"id":"a66vdrspk65y","geo_precision":"street","address":"RAILROAD STREET"},"type":"Feature","geometry":{"type":"Point","coordinates":[-96.68737,42.402153]}},{"properties":{"ship_phone":"402-695-2671","city":"EMERSON","name":"ROSEN'S INC","zip":"68733","st":"NE","comments":"PER AGENT MGR","geo_score":0.625,"id":"a66vdru7i5y0","geo_precision":"street","address":"PUBLIC WAREHOUSE RAILROAD STREET"},"type":"Feature","geometry":{"type":"Point","coordinates":[-96.68737,42.402153]}},{"properties":{"ship_phone":"402-336-3650","city":"EMMET","name":"AGRICULTURAL SERVICES","zip":"68734","st":"NE","comments":null,"geo_score":0.714,"id":"a66vds0lthf7","geo_precision":"street","address":"MAIN STREET"},"type":"Feature","geometry":{"type":"Point","coordinates":[-96.865065,42.269126]}},{"properties":{"ship_phone":"402-336-3650","city":"EMMET","name":"AGRICULTURAL SERVICES INC","zip":"68734","st":"NE","comments":null,"geo_score":0.714,"id":"a66vdrzu5u1s","geo_precision":"street","address":"MAIN STREET"},"type":"Feature","geometry":{"type":"Point","coordinates":[-96.865065,42.269126]}},{"properties":{"ship_phone":"402-626-7921","city":"EWING","name":"KNIEVELS INC","zip":"68735","st":"NE","comments":"WAS 3565","geo_score":0.824,"id":"a66vdrzr224l","geo_precision":"street","address":"S HWY 275"},"type":"Feature","geometry":{"type":"Point","coordinates":[-98.34661,42.257968]}},{"properties":{"ship_phone":"402-485-2599","city":"EWING","name":"KNIEVELS INC","zip":"68735","st":"NE","comments":null,"geo_score":0.393,"id":"a66vdrxaaqc5","geo_precision":"street","address":"RURAL ROUTE 1 10 MILES SOUTH OF EWING"},"type":"Feature","geometry":{"type":"Point","coordinates":[-98.184395,42.170423]}},{"properties":{"ship_phone":"402-254-3354","city":"HARTINGTON","name":"TERRA INTERNATIONAL INC","zip":"68739","st":"NE","comments":"WAS 3565","geo_score":0.643,"id":"a66vds0y3aga","geo_precision":"street","address":"NORTH HWY 15"},"type":"Feature","geometry":{"type":"Point","coordinates":[-97.269354,42.619861]}},{"properties":{"ship_phone":null,"city":"LAUREL","name":"DOUBLE CIRCLE FARM SUPPLY","zip":"68745","st":"NE","comments":"PER BARB MCGINN","geo_score":0.878,"id":"a66vdrq6xwlw","geo_precision":"street","address":"NORTH HIGHWAY 20"},"type":"Feature","geometry":{"type":"Point","coordinates":[-97.096021,42.428484]}},{"properties":{"ship_phone":"402-256-3177","city":"LAUREL","name":"URWILER OIL AND FERTILIZER INC","zip":"68745","st":"NE","comments":null,"geo_score":0.743,"id":"a66vdrucmvf5","geo_precision":"street","address":"HIGHWAY 15 W"},"type":"Feature","geometry":{"type":"Point","coordinates":[-97.096021,42.428484]}},{"properties":{"ship_phone":"402-256-3422","city":"LAUREL","name":"URWILER OIL AND FERTILIZER INC","zip":"68745","st":"NE","comments":"NO CHEM BUSINESS PER REP","geo_score":0.878,"id":"a66vdrqxgel3","geo_precision":"street","address":"NORTH HIGHWAY 20"},"type":"Feature","geometry":{"type":"Point","coordinates":[-97.096021,42.428484]}},{"properties":{"ship_phone":"402-256-3422","city":"LAUREL","name":"DOUBLE CIRCLE FARM SUPPLY","zip":"68745","st":"NE","comments":"DUP S/T","geo_score":0.878,"id":"a66vdrsbiwch","geo_precision":"street","address":"NORTH HWY 20"},"type":"Feature","geometry":{"type":"Point","coordinates":[-97.096021,42.428484]}},{"properties":{"ship_phone":"402-395-5051","city":"MADISON","name":"COASH, INC.","zip":"68748","st":"NE","comments":null,"geo_score":0.614,"id":"a66vdrpmajn7","geo_precision":"street","address":"W. HWY 32"},"type":"Feature","geometry":{"type":"Point","coordinates":[-97.454999,41.828865]}},{"properties":{"ship_phone":"402-586-2991","city":"MAGNET","name":"TERRA INTERNATIONAL INC","zip":"68749","st":"NE","comments":"PER REP/ORDERS THRU RANDOLPH","geo_score":0.429,"id":"a66vdrwd6hk5","geo_precision":"street","address":"C/O DENNIS ELEVATOR"},"type":"Feature","geometry":{"type":"Point","coordinates":[-98.752828,42.204721]}},{"properties":{"ship_phone":"402-634-2456","city":"MEADOW GROVE","name":"CEDAR VALLEY COOP","zip":"68752","st":"NE","comments":"PER T BOSSHART","geo_score":0.939,"id":"a66vdrluj87f","geo_precision":"street","address":"MAIN STREET"},"type":"Feature","geometry":{"type":"Point","coordinates":[-97.455004,41.829284]}},{"properties":{"ship_phone":"402-887-4103","city":"NELIGH","name":"CENTRAL VALLEY COOPERATIVE","zip":"68756","st":"NE","comments":null,"geo_score":0.893,"id":"a66vdrw49k4j","geo_precision":"street","address":"EAST HIGHWAY 275"},"type":"Feature","geometry":{"type":"Point","coordinates":[-98.029761,42.135231]}},{"properties":{"ship_phone":"402-355-2275","city":"NEWCASTLE","name":"TERRA INTERNATIONAL INC","zip":"68757","st":"NE","comments":"WAS 3565","geo_score":0.61,"id":"a66vdrq8prmi","geo_precision":"street","address":"HIGHWAY 12 BOX 217"},"type":"Feature","geometry":{"type":"Point","coordinates":[-96.874257,42.652381]}},{"properties":{"ship_phone":"402-447-6292","city":"NEWMAN GROVE","name":"FARMERS COOPERATIVE OIL COMPANY","zip":"68758","st":"NE","comments":null,"geo_score":0.643,"id":"a66vdrxmnikk","geo_precision":"street","address":"6TH &amp; LOGAN STREET"},"type":"Feature","geometry":{"type":"Point","coordinates":[-97.776572,41.748039]}},{"properties":{"ship_phone":"402-776-2453","city":"OAKDALE","name":"KNIEVELS INC","zip":"68761","st":"NE","comments":null,"geo_score":0.607,"id":"a66vdroq8hh3","geo_precision":"street","address":"WEST HIGHWAY 275"},"type":"Feature","geometry":{"type":"Point","coordinates":[-96.907699,41.983087]}},{"properties":{"ship_phone":"402-336-4177","city":"ONEILL","name":"CENTRAL VALLEY COOPERATIVE","zip":"68763","st":"NE","comments":null,"geo_score":0.878,"id":"a66vdrmshg7l","geo_precision":"street","address":"EAST HIGHWAY 20"},"type":"Feature","geometry":{"type":"Point","coordinates":[-98.633738,42.455946]}},{"properties":{"ship_phone":"402-893-3003","city":"ORCHARD","name":"ORCHARD FERTILIZER CO INC","zip":"68764","st":"NE","comments":null,"geo_score":0.571,"id":"a66vdrrp0h2l","geo_precision":"street","address":"1ST &amp; RUSK STREET"},"type":"Feature","geometry":{"type":"Point","coordinates":[-98.238089,42.333514]}},{"properties":{"ship_phone":"402-893-3905","city":"ORCHARD","name":"ORCHARD FERTILIZER COMPANY","zip":"68764","st":"NE","comments":"PER L.D. LOCKEN","geo_score":0.707,"id":"a66vds0zzhxv","geo_precision":"range","address":"410 EAST FIRST STREET"},"type":"Feature","geometry":{"type":"Point","coordinates":[-97.451267,41.829783]}},{"properties":{"ship_phone":"402-665-2501","city":"OSMOND","name":"OSMOND FARM SUPPLY","zip":"68765","st":"NE","comments":"PER BARB MCGINN","geo_score":0.592,"id":"a66vdrrzyr9h","geo_precision":"street","address":"HIGHWAY 20"},"type":"Feature","geometry":{"type":"Point","coordinates":[-98.633738,42.455946]}},{"properties":{"ship_phone":"402-748-3794","city":"OSMOND","name":"FARMLAND INDUSTRIES INC","zip":"68765","st":"NE","comments":"PER T BOSSHART","geo_score":0.393,"id":"a66vdrrwrwx9","geo_precision":"street","address":"HIGHWAY 20 EAST BOX 160"},"type":"Feature","geometry":{"type":"Point","coordinates":[-98.633738,42.455946]}},{"properties":{"ship_phone":"402-748-3121","city":"OSMOND","name":"HELENA CHEMICAL COMPANY","zip":"68765","st":"NE","comments":"PREV PETERSEN &amp; SON CUST# 207","geo_score":0.592,"id":"a66vdrufbg79","geo_precision":"street","address":"EAST HIGHWAY 20"},"type":"Feature","geometry":{"type":"Point","coordinates":[-98.633738,42.455946]}}],"is_temporal":false,"author":{"url":"","metadata":"","contact_name":"","contact_address":"","source":"","contact_phone":""},"source":"","pagination":{"sort":null,"start":0,"total":150,"limit":1000000},"state":"complete","tags":"","published":"2014-08-10T21:40:15-04:00","id":87549}