{"type":"FeatureCollection","data_type":"Dataset","url_type":null,"permissions":[{"permissions":{"download":true,"view":true},"group_id":"everyone"}],"classification":null,"title":"publiclibraries.com, Arkansas Public Libraries, Arkansas, 1.2008","count":211,"stream_id":876,"contributor":{"url":"http://geocommons.com/users/2","name":"data"},"data_attributes":null,"calculation_params":null,"icon_link":null,"link":"http://geocommons.com/overlays/876.json","extent":[-94.4235,33.0151,-89.908,36.4957],"geometry_types":["point"],"unique_name":null,"name":"publiclibraries.com, Arkansas Public Libraries, Arkansas, 1.2008","feature_count":211,"description":"This dataset displays the locations of all the public libraries in the state of Arkansas. The data included is the name of the library, name of the library system, library's address, phone, and lat/lon coordinates. The data came from publiclibraries.com which is a updated directory of all the public libraries throughout the United States.\n","next_feature":null,"is_raster":false,"short_classification":"Y","stats":{"lon":{"max":-89.908002,"mean":-92.3548639668247,"variance":1.70802078555572,"stdev":1.30691269239981,"min":-94.423467,"median":-92.269613},"lat":{"max":36.49565,"mean":34.9630202559242,"variance":0.898646627658154,"stdev":0.947969739843078,"min":33.01515,"median":35.10295}},"features":[{"properties":{"city":"Little Rock","lon":-92.411032,"zip":"","librarysystem":"Central Arkansas Library System","id":"a63c2jyjgb4l","address":"2015 Napa Valley Drive","lat":34.77174,"libraryname":"Adolphine F. Terry Branch Library","state":"AR"},"type":"Feature","geometry":{"type":"Point","coordinates":[-92.411032,34.77174]}},{"properties":{"city":"Little Rock","lon":-92.239408,"zip":"","librarysystem":"Central Arkansas Library System","id":"a63c2k7mick9","address":"3301 East Roosevelt Road","lat":34.719809,"libraryname":"Aerospace Library","state":"AR"},"type":"Feature","geometry":{"type":"Point","coordinates":[-92.239408,34.719809]}},{"properties":{"city":"Alma","lon":-94.221582,"zip":"","librarysystem":"Crawford County Library System","id":"a63c2k2qgurl","address":"811 Fayetteville","lat":35.477195,"libraryname":"Alma Public Library","state":"AR"},"type":"Feature","geometry":{"type":"Point","coordinates":[-94.221582,35.477195]}},{"properties":{"city":"Altheimer","lon":-91.845691,"zip":"","librarysystem":"Pine Bluff / Jefferson County Library System","id":"a63c2jxivv0g","address":"222 South Edline","lat":34.319041,"libraryname":"Altheimer Public Library","state":"AR"},"type":"Feature","geometry":{"type":"Point","coordinates":[-91.845691,34.319041]}},{"properties":{"city":"Sherwood","lon":-92.20661,"zip":"","librarysystem":"Central Arkansas Library System","id":"a63c2k02h0oq","address":"31 Shelby Drive","lat":34.833442,"libraryname":"Amy Sanders Branch Library","state":"AR"},"type":"Feature","geometry":{"type":"Point","coordinates":[-92.20661,34.833442]}},{"properties":{"city":"Arkansas City","lon":-91.206018,"zip":"","librarysystem":"Southeast Arkansas Regional Library","id":"a63c2jwmpqbz","address":"DeSoto Avenue","lat":33.603956,"libraryname":"Arkansas City Branch Library","state":"AR"},"type":"Feature","geometry":{"type":"Point","coordinates":[-91.206018,33.603956]}},{"properties":{"city":"Stuttgart","lon":-91.558518,"zip":"","librarysystem":"Arkansas County Library","id":"a63c2jxefxks","address":"2002 S. Buerkle Street","lat":34.483044,"libraryname":"Arkansas County Library","state":"AR"},"type":"Feature","geometry":{"type":"Point","coordinates":[-91.558518,34.483044]}},{"properties":{"city":"Dardanelle","lon":-93.155056,"zip":"","librarysystem":"Arkansas River Valley Regional Library System","id":"a63c2jydipss","address":"501 North Front Street","lat":35.224124,"libraryname":"Arkansas River Valley Regional Library","state":"AR"},"type":"Feature","geometry":{"type":"Point","coordinates":[-93.155056,35.224124]}},{"properties":{"city":"Cabot","lon":-92.011774,"zip":"","librarysystem":"Lonoke/Prairie County Regional Library","id":"a63c2ju518tm","address":"506 North Grant Street","lat":34.976054,"libraryname":"Arlene Cherry Memorial Library","state":"AR"},"type":"Feature","geometry":{"type":"Point","coordinates":[-92.011774,34.976054]}},{"properties":{"city":"Ashdown","lon":-94.129454,"zip":"","librarysystem":"Southwest Arkansas Regional Library","id":"a63c2js8vtoi","address":"160 East Commerce Street","lat":33.674592,"libraryname":"Ashdown Community Library","state":"AR"},"type":"Feature","geometry":{"type":"Point","coordinates":[-94.129454,33.674592]}},{"properties":{"city":"Hamburg","lon":-91.79657,"zip":"","librarysystem":"Ashley County Library","id":"a63c2k0ferjz","address":"211 East Lincoln Street","lat":33.22582,"libraryname":"Ashley County Library","state":"AR"},"type":"Feature","geometry":{"type":"Point","coordinates":[-91.79657,33.22582]}},{"properties":{"city":"Atkins","lon":-92.936013,"zip":"","librarysystem":"Pope County Library System","id":"a63c2k4jhyed","address":"216 North East First Street","lat":35.242875,"libraryname":"Atkins Public Library","state":"AR"},"type":"Feature","geometry":{"type":"Point","coordinates":[-92.936013,35.242875]}},{"properties":{"city":"Bald Knob","lon":-91.588339,"zip":"","librarysystem":"White County Regional Library System","id":"a63c2jzsnzrp","address":"367 Hwy Avenue","lat":35.30076,"libraryname":"Bald Knob Public Library","state":"AR"},"type":"Feature","geometry":{"type":"Point","coordinates":[-91.588339,35.30076]}},{"properties":{"city":"Judsonia","lon":-91.63942,"zip":"","librarysystem":"White County Regional Library System","id":"a63c2k4u78yb","address":"612 Van Buren","lat":35.272443,"libraryname":"Baldwin Memorial Library","state":"AR"},"type":"Feature","geometry":{"type":"Point","coordinates":[-91.63942,35.272443]}},{"properties":{"city":"El Dorado","lon":-92.662869,"zip":"","librarysystem":"Barton Library","id":"a63c2js6hi0t","address":"200 East 5th Street","lat":33.221845,"libraryname":"Barton Library","state":"AR"},"type":"Feature","geometry":{"type":"Point","coordinates":[-92.662869,33.221845]}},{"properties":{"city":"Mountain Home","lon":-92.388451,"zip":"","librarysystem":"Baxter County Library","id":"a63c2jrzzjv5","address":"424 West Seventh","lat":36.334934,"libraryname":"Baxter County Library","state":"AR"},"type":"Feature","geometry":{"type":"Point","coordinates":[-92.388451,36.334934]}},{"properties":{"city":"Bearden","lon":-92.615606,"zip":"","librarysystem":"Public Library Of Camden &amp;  Ouachita County","id":"a63c2k4o134l","address":"111 N. Cedar","lat":33.72485,"libraryname":"Bearden Public Library","state":"AR"},"type":"Feature","geometry":{"type":"Point","coordinates":[-92.615606,33.72485]}},{"properties":{"city":"Beebe","lon":-91.880746,"zip":"","librarysystem":"White County Regional Library System","id":"a63c2k4ydf01","address":"115 West Illinois Street","lat":35.070948,"libraryname":"Beebe Public Library","state":"AR"},"type":"Feature","geometry":{"type":"Point","coordinates":[-91.880746,35.070948]}},{"properties":{"city":"Bella Vista","lon":-94.241658,"zip":"","librarysystem":"Bella Vista Public Library","id":"a63c2k7eftt9","address":"11 Dickens Place","lat":36.475126,"libraryname":"Bella Vista Public Library","state":"AR"},"type":"Feature","geometry":{"type":"Point","coordinates":[-94.241658,36.475126]}},{"properties":{"city":"Bentonville","lon":-94.209226,"zip":"","librarysystem":"Bentonville Public Library","id":"a63c2jv38eo2","address":"125 West Central","lat":36.372198,"libraryname":"Bentonville Public Library","state":"AR"},"type":"Feature","geometry":{"type":"Point","coordinates":[-94.209226,36.372198]}},{"properties":{"city":"Berryville","lon":-93.568623,"zip":"","librarysystem":"Carroll And Madison Library System","id":"a63c2k6c27gz","address":"104 S. Spring Street","lat":36.364787,"libraryname":"Berryville Public Library","state":"AR"},"type":"Feature","geometry":{"type":"Point","coordinates":[-93.568623,36.364787]}},{"properties":{"city":"Harrison","lon":-93.10896,"zip":"","librarysystem":"Boone County Library","id":"a63c2k6b3s4o","address":"221 West Stephenson Avenue","lat":36.229967,"libraryname":"Boone County Library","state":"AR"},"type":"Feature","geometry":{"type":"Point","coordinates":[-93.10896,36.229967]}},{"properties":{"city":"Paris","lon":-93.729531,"zip":"","librarysystem":"Arkansas River Valley Regional Library System","id":"a63c2k7dte0y","address":"100 East Academy","lat":35.28991,"libraryname":"Boyd T. &amp;  Mollie Gattis Logan County Library","state":"AR"},"type":"Feature","geometry":{"type":"Point","coordinates":[-93.729531,35.28991]}},{"properties":{"city":"Bradford","lon":-91.456146,"zip":"","librarysystem":"White County Regional Library System","id":"a63c2jw54qwy","address":"219 West Main Street","lat":35.423313,"libraryname":"Bradford Public Library","state":"AR"},"type":"Feature","geometry":{"type":"Point","coordinates":[-91.456146,35.423313]}},{"properties":{"city":"Bryant","lon":-92.494938,"zip":"","librarysystem":"Saline County Library","id":"a63c2jujjfpy","address":"201 Prickett Road","lat":34.609724,"libraryname":"Bryant Public Library","state":"AR"},"type":"Feature","geometry":{"type":"Point","coordinates":[-92.494938,34.609724]}},{"properties":{"city":"Gurdon","lon":-93.150984,"zip":"","librarysystem":"Clark County Library","id":"a63c2jxarp69","address":"204 East Walnut","lat":33.919825,"libraryname":"Cabe Public Library","state":"AR"},"type":"Feature","geometry":{"type":"Point","coordinates":[-93.150984,33.919825]}},{"properties":{"city":"Hampton","lon":-92.471739,"zip":"","librarysystem":"Calhoun County Public Library","id":"a63c2k2a3zg2","address":"109 2nd Street","lat":33.53808,"libraryname":"Calhoun County Public Library","state":"AR"},"type":"Feature","geometry":{"type":"Point","coordinates":[-92.471739,33.53808]}},{"properties":{"city":"Calico Rock","lon":-92.137054,"zip":"","librarysystem":"White River Regional Library","id":"a63c2jv6eabg","address":"1214 Second Street","lat":36.11865,"libraryname":"Calico Rock Branch","state":"AR"},"type":"Feature","geometry":{"type":"Point","coordinates":[-92.137054,36.11865]}},{"properties":{"city":"Camden","lon":-92.831373,"zip":"","librarysystem":"Public Library Of Camden &amp;  Ouachita County","id":"a63c2k3324p8","address":"120 Harrison Ave., S.W.","lat":33.585092,"libraryname":"Camden/Ouachita County Library","state":"AR"},"type":"Feature","geometry":{"type":"Point","coordinates":[-92.831373,33.585092]}},{"properties":{"city":"Caraway","lon":-90.304759,"zip":"","librarysystem":"Crowley Ridge Regional Library System","id":"a63c2jzch2nz","address":"102 E. State Street","lat":35.75766,"libraryname":"Caraway Public Library","state":"AR"},"type":"Feature","geometry":{"type":"Point","coordinates":[-90.304759,35.75766]}},{"properties":{"city":"Carlisle","lon":-91.740354,"zip":"","librarysystem":"Lonoke/Prairie County Regional Library","id":"a63c2k1gbl8r","address":"City Park &amp;  5th Street","lat":34.7864,"libraryname":"Carlisle Public Library","state":"AR"},"type":"Feature","geometry":{"type":"Point","coordinates":[-91.740354,34.7864]}},{"properties":{"city":"Cedarville","lon":-94.365609,"zip":"","librarysystem":"Crawford County Library System","id":"a63c2jz2oequ","address":"6398 Pirates Way","lat":35.57333,"libraryname":"Cedarville Public Library","state":"AR"},"type":"Feature","geometry":{"type":"Point","coordinates":[-94.365609,35.57333]}},{"properties":{"city":"Little Rock","lon":-92.266728,"zip":"","librarysystem":"Central Arkansas Library System","id":"a63c2jt50lzz","address":"100 Rock Street","lat":34.748038,"libraryname":"Central Arkansas Library System","state":"AR"},"type":"Feature","geometry":{"type":"Point","coordinates":[-92.266728,34.748038]}},{"properties":{"city":"Charleston","lon":-94.043586,"zip":"","librarysystem":"Arkansas River Valley Regional Library System","id":"a63c2k1we96h","address":"15 South School Street","lat":35.300187,"libraryname":"Charleston Public Library","state":"AR"},"type":"Feature","geometry":{"type":"Point","coordinates":[-94.043586,35.300187]}},{"properties":{"city":"Arkadelphia","lon":-93.053719,"zip":"","librarysystem":"Clark County Library","id":"a63c2k0dik6k","address":"609 Caddo Street","lat":34.121088,"libraryname":"Clark County Library","state":"AR"},"type":"Feature","geometry":{"type":"Point","coordinates":[-93.053719,34.121088]}},{"properties":{"city":"Heber Springs","lon":-92.038075,"zip":"","librarysystem":"White River Regional Library","id":"a63c2jze9hh5","address":"1010 West Searcy Street","lat":35.491119,"libraryname":"Cleburne County Library","state":"AR"},"type":"Feature","geometry":{"type":"Point","coordinates":[-92.038075,35.491119]}},{"properties":{"city":"Gillett","lon":-91.377339,"zip":"","librarysystem":"Arkansas County Library","id":"a63c2k2uzcv9","address":"211 Main Street","lat":34.11747,"libraryname":"Cleon Collier Memorial Library","state":"AR"},"type":"Feature","geometry":{"type":"Point","coordinates":[-91.377339,34.11747]}},{"properties":{"city":"Rison","lon":-92.193749,"zip":"","librarysystem":"Mid Arkansas Regional Library","id":"a63c2jukqlkk","address":"203 West Magnolia","lat":33.95658,"libraryname":"Cleveland County Public Library","state":"AR"},"type":"Feature","geometry":{"type":"Point","coordinates":[-92.193749,33.95658]}},{"properties":{"city":"Magnolia","lon":-93.239055,"zip":"","librarysystem":"Columbia County Library","id":"a63c2k3lmqo3","address":"220 East Main Street","lat":33.267176,"libraryname":"Columbia County Library","state":"AR"},"type":"Feature","geometry":{"type":"Point","coordinates":[-93.239055,33.267176]}},{"properties":{"city":"Morrilton","lon":-92.746015,"zip":"","librarysystem":"Conway County Library","id":"a63c2k53rrm3","address":"101 West Church Street","lat":35.151525,"libraryname":"Conway County Library","state":"AR"},"type":"Feature","geometry":{"type":"Point","coordinates":[-92.746015,35.151525]}},{"properties":{"city":"Corning","lon":-90.583957,"zip":"","librarysystem":"Northeast Arkansas Regional Library","id":"a63c2ju6oaq5","address":"613 Pine Street","lat":36.406781,"libraryname":"Corning Public Library","state":"AR"},"type":"Feature","geometry":{"type":"Point","coordinates":[-90.583957,36.406781]}},{"properties":{"city":"Cotton Plant","lon":-91.243729,"zip":"","librarysystem":"East Central Arkansas Regional Library","id":"a63c2julhbkv","address":"Main Street","lat":35.00441,"libraryname":"Cotton Plant Public Library","state":"AR"},"type":"Feature","geometry":{"type":"Point","coordinates":[-91.243729,35.00441]}},{"properties":{"city":"Jonesboro","lon":-90.70715,"zip":"","librarysystem":"Crowley Ridge Regional Library System","id":"a63c2k0wat37","address":"315 West Oak Street","lat":35.833674,"libraryname":"Craighead County Jonesboro Public Library","state":"AR"},"type":"Feature","geometry":{"type":"Point","coordinates":[-90.70715,35.833674]}},{"properties":{"city":"Crawfordsville","lon":-90.326791,"zip":"","librarysystem":"Mississippi/Crittenden Regional Library","id":"a63c2k2wacp0","address":"5444 N. Main Street","lat":35.220857,"libraryname":"Crawfordsville Branch Library","state":"AR"},"type":"Feature","geometry":{"type":"Point","coordinates":[-90.326791,35.220857]}},{"properties":{"city":"Marion","lon":-90.202577,"zip":"","librarysystem":"Mississippi/Crittenden Regional Library","id":"a63c2k0om4m3","address":"116 Center Street","lat":35.210378,"libraryname":"Crittenden County Library","state":"AR"},"type":"Feature","geometry":{"type":"Point","coordinates":[-90.202577,35.210378]}},{"properties":{"city":"Crossett","lon":-91.961742,"zip":"","librarysystem":"Ashley County Library","id":"a63c2k0bsaq3","address":"125 Main Street","lat":33.135013,"libraryname":"Crossett Public Library","state":"AR"},"type":"Feature","geometry":{"type":"Point","coordinates":[-91.961742,33.135013]}},{"properties":{"city":"Fordyce","lon":-92.408625,"zip":"","librarysystem":"Mid Arkansas Regional Library","id":"a63c2jzvhs7e","address":"501 East 4th Street","lat":33.815819,"libraryname":"Dallas County Library","state":"AR"},"type":"Feature","geometry":{"type":"Point","coordinates":[-92.408625,33.815819]}},{"properties":{"city":"Fort Smith","lon":-94.343844,"zip":"","librarysystem":"Fort Smith Public Library","id":"a63c2k41c9zn","address":"8100 Dallas Street","lat":35.354016,"libraryname":"Dallas Street Branch Library","state":"AR"},"type":"Feature","geometry":{"type":"Point","coordinates":[-94.343844,35.354016]}},{"properties":{"city":"DeQueen","lon":-94.339184,"zip":"","librarysystem":"Southwest Arkansas Regional Library","id":"a63c2jsggxnq","address":"200 West Stillwell","lat":34.03683,"libraryname":"DeQueen Public Library","state":"AR"},"type":"Feature","geometry":{"type":"Point","coordinates":[-94.339184,34.03683]}},{"properties":{"city":"DeValls Bluff","lon":-91.462936,"zip":"","librarysystem":"Lonoke/Prairie County Regional Library","id":"a63c2js6dsoz","address":"173 Market Street","lat":34.784794,"libraryname":"DeValls Bluff Branch Library","state":"AR"},"type":"Feature","geometry":{"type":"Point","coordinates":[-91.462936,34.784794]}},{"properties":{"city":"Little Rock","lon":-92.347498,"zip":"","librarysystem":"Central Arkansas Library System","id":"a63c2jtaehud","address":"6325 Baseline","lat":34.669122,"libraryname":"Dee Brown Branch Library","state":"AR"},"type":"Feature","geometry":{"type":"Point","coordinates":[-92.347498,34.669122]}},{"properties":{"city":"Delight","lon":-93.505716,"zip":"","librarysystem":"Southwest Arkansas Regional Library","id":"a63c2k5izs91","address":"Antioch Street","lat":34.031637,"libraryname":"Delight Branch Library","state":"AR"},"type":"Feature","geometry":{"type":"Point","coordinates":[-93.505716,34.031637]}},{"properties":{"city":"Des Arc","lon":-91.496655,"zip":"","librarysystem":"Lonoke/Prairie County Regional Library","id":"a63c2jwup37s","address":"408 Curran Street","lat":34.975124,"libraryname":"Des Arc Public Library","state":"AR"},"type":"Feature","geometry":{"type":"Point","coordinates":[-91.496655,34.975124]}},{"properties":{"city":"Dewitt","lon":-91.336508,"zip":"","librarysystem":"Arkansas County Library","id":"a63c2k4dog7z","address":"205 West Maxwell","lat":34.297316,"libraryname":"Dewitt Public Library","state":"AR"},"type":"Feature","geometry":{"type":"Point","coordinates":[-91.336508,34.297316]}},{"properties":{"city":"Dierks","lon":-94.018307,"zip":"","librarysystem":"Southwest Arkansas Regional Library","id":"a63c2jzruvbv","address":"202 West Third Street","lat":34.1194,"libraryname":"Dierks Branch Library","state":"AR"},"type":"Feature","geometry":{"type":"Point","coordinates":[-94.018307,34.1194]}},{"properties":{"city":"Dover","lon":-93.109537,"zip":"","librarysystem":"Pope County Library System","id":"a63c2jycj20f","address":"80 Library Road","lat":35.390954,"libraryname":"Dover Public Library","state":"AR"},"type":"Feature","geometry":{"type":"Point","coordinates":[-93.109537,35.390954]}},{"properties":{"city":"Lynn","lon":-91.254329,"zip":"","librarysystem":"Lawrence County Library","id":"a63c2jw5qeqo","address":"28 S. Hwy 25","lat":36.005053,"libraryname":"Driftwood Public Library","state":"AR"},"type":"Feature","geometry":{"type":"Point","coordinates":[-91.254329,36.005053]}},{"properties":{"city":"Dumas","lon":-91.491692,"zip":"","librarysystem":"Southeast Arkansas Regional Library","id":"a63c2jvgyw5b","address":"120 East Choctaw","lat":33.888532,"libraryname":"Dumas Branch Library","state":"AR"},"type":"Feature","geometry":{"type":"Point","coordinates":[-91.491692,33.888532]}},{"properties":{"city":"Dyess","lon":-90.213978,"zip":"","librarysystem":"Mississippi/Crittenden Regional Library","id":"a63c2jz88ver","address":"101 West 4th Street","lat":35.591957,"libraryname":"Dyess Public Library","state":"AR"},"type":"Feature","geometry":{"type":"Point","coordinates":[-90.213978,35.591957]}},{"properties":{"city":"Earle","lon":-90.465649,"zip":"","librarysystem":"Mississippi/Crittenden Regional Library","id":"a63c2jx6cnm2","address":"703 Commerce Street","lat":35.270927,"libraryname":"Earle Public Library","state":"AR"},"type":"Feature","geometry":{"type":"Point","coordinates":[-90.465649,35.270927]}},{"properties":{"city":"Wynne","lon":-90.788787,"zip":"","librarysystem":"East Central Arkansas Regional Library","id":"a63c2k3bqfr5","address":"410 East Merriman","lat":35.223997,"libraryname":"East Central Arkansas Regional","state":"AR"},"type":"Feature","geometry":{"type":"Point","coordinates":[-90.788787,35.223997]}},{"properties":{"city":"Edmondson","lon":-90.307968,"zip":"","librarysystem":"Mississippi/Crittenden Regional Library","id":"a63c2jtso9xy","address":"61 Waterford","lat":35.102468,"libraryname":"Edmondson Public Library","state":"AR"},"type":"Feature","geometry":{"type":"Point","coordinates":[-90.307968,35.102468]}},{"properties":{"city":"Elaine","lon":-90.851274,"zip":"","librarysystem":"Phillips-Lee-Monroe Regional Library System","id":"a63c2jw3gtj1","address":"126 Main Street","lat":34.308055,"libraryname":"Elaine Public Library","state":"AR"},"type":"Feature","geometry":{"type":"Point","coordinates":[-90.851274,34.308055]}},{"properties":{"city":"Elkins","lon":-94.007595,"zip":"","librarysystem":"Washington County Library System","id":"a63c2k1noh2r","address":"162 Doolin Drive","lat":36.00283,"libraryname":"Elkins Public Library","state":"AR"},"type":"Feature","geometry":{"type":"Point","coordinates":[-94.007595,36.00283]}},{"properties":{"city":"Jacksonville","lon":-92.112366,"zip":"","librarysystem":"Central Arkansas Library System","id":"a63c2jya5zpn","address":"308 West Main St","lat":34.867185,"libraryname":"Esther Dewitt Nixon Branch Library","state":"AR"},"type":"Feature","geometry":{"type":"Point","coordinates":[-92.112366,34.867185]}},{"properties":{"city":"Eureka Springs","lon":-93.736817,"zip":"","librarysystem":"Carroll And Madison Library System","id":"a63c2jvez16q","address":"194 Spring Street","lat":36.406538,"libraryname":"Eureka Springs Carnegie Library","state":"AR"},"type":"Feature","geometry":{"type":"Point","coordinates":[-93.736817,36.406538]}},{"properties":{"city":"Fairfield Bay","lon":-92.261115,"zip":"","librarysystem":"Faulkner-Van Buren Regional Library","id":"a63c2k2kw8fg","address":"369 Dave Creek Pky.","lat":35.614161,"libraryname":"Fairfield Bay Library","state":"AR"},"type":"Feature","geometry":{"type":"Point","coordinates":[-92.261115,35.614161]}},{"properties":{"city":"Conway","lon":-92.450036,"zip":"","librarysystem":"Faulkner-Van Buren Regional Library","id":"a63c2jsetqqv","address":"1900 Tyler Street","lat":35.10295,"libraryname":"Faulkner-Van Buren Regional Library","state":"AR"},"type":"Feature","geometry":{"type":"Point","coordinates":[-92.450036,35.10295]}},{"properties":{"city":"Fayetteville","lon":-94.164489,"zip":"","librarysystem":"Fayetteville Public Library","id":"a63c2k0ll97p","address":"401 W. Mountain Street","lat":36.0619,"libraryname":"Fayetteville Public Library","state":"AR"},"type":"Feature","geometry":{"type":"Point","coordinates":[-94.164489,36.0619]}},{"properties":{"city":"Foreman","lon":-94.396855,"zip":"","librarysystem":"Southwest Arkansas Regional Library","id":"a63c2js6smpy","address":"216 Schuman St.","lat":33.7221,"libraryname":"Foreman Public Library","state":"AR"},"type":"Feature","geometry":{"type":"Point","coordinates":[-94.396855,33.7221]}},{"properties":{"city":"Forrest City","lon":-90.783988,"zip":"","librarysystem":"Forrest City Public Library","id":"a63c2jtl7hyi","address":"421 South Washington Street","lat":35.006648,"libraryname":"Forrest City Public Library","state":"AR"},"type":"Feature","geometry":{"type":"Point","coordinates":[-90.783988,35.006648]}},{"properties":{"city":"Fort Smith","lon":-94.39741,"zip":"","librarysystem":"Fort Smith Public Library","id":"a63c2k3tsjn5","address":"3201 Rogers Avenue","lat":35.374152,"libraryname":"Fort Smith Public Library","state":"AR"},"type":"Feature","geometry":{"type":"Point","coordinates":[-94.39741,35.374152]}},{"properties":{"city":"Ozark","lon":-93.828118,"zip":"","librarysystem":"Arkansas River Valley Regional Library System","id":"a63c2jt8563g","address":"407 West Market St.","lat":35.488481,"libraryname":"Franklin County Library","state":"AR"},"type":"Feature","geometry":{"type":"Point","coordinates":[-93.828118,35.488481]}},{"properties":{"city":"Fulton","lon":-93.814429,"zip":"","librarysystem":"Southwest Arkansas Regional Library","id":"a63c2jzsxg5x","address":"West Columbus","lat":33.615435,"libraryname":"Fulton Public Library","state":"AR"},"type":"Feature","geometry":{"type":"Point","coordinates":[-93.814429,33.615435]}},{"properties":{"city":"Hot Springs","lon":-93.039623,"zip":"","librarysystem":"Garland County Library","id":"a63c2jsv4m14","address":"1427 Malvern Avenue","lat":34.497702,"libraryname":"Garland County Library","state":"AR"},"type":"Feature","geometry":{"type":"Point","coordinates":[-93.039623,34.497702]}},{"properties":{"city":"Gassville","lon":-92.464522,"zip":"","librarysystem":"Baxter County Library","id":"a63c2jzcxfm8","address":"6469 Hwy. 62 West","lat":36.293222,"libraryname":"Gassville Branch Library","state":"AR"},"type":"Feature","geometry":{"type":"Point","coordinates":[-92.464522,36.293222]}},{"properties":{"city":"Gillham","lon":-94.314073,"zip":"","librarysystem":"Southwest Arkansas Regional Library","id":"a63c2jyd0d0j","address":"102 N. 2nd Street","lat":34.167039,"libraryname":"Gillham Branch Library","state":"AR"},"type":"Feature","geometry":{"type":"Point","coordinates":[-94.314073,34.167039]}},{"properties":{"city":"Gilmore","lon":-90.278264,"zip":"","librarysystem":"Mississippi/Crittenden Regional Library","id":"a63c2k3h3ct6","address":"87 Front Street","lat":35.409425,"libraryname":"Gilmore Branch Library","state":"AR"},"type":"Feature","geometry":{"type":"Point","coordinates":[-90.278264,35.409425]}},{"properties":{"city":"Glenwood","lon":-93.551138,"zip":"","librarysystem":"Southwest Arkansas Regional Library","id":"a63c2jzp2m8d","address":"201 North 2nd","lat":34.327114,"libraryname":"Glenwood Branch Library","state":"AR"},"type":"Feature","geometry":{"type":"Point","coordinates":[-93.551138,34.327114]}},{"properties":{"city":"Gould","lon":-91.560842,"zip":"","librarysystem":"Southeast Arkansas Regional Library","id":"a63c2k69omn1","address":"320 South Main","lat":33.982711,"libraryname":"Gould Public Library","state":"AR"},"type":"Feature","geometry":{"type":"Point","coordinates":[-91.560842,33.982711]}},{"properties":{"city":"Sheridan","lon":-92.401331,"zip":"","librarysystem":"Mid Arkansas Regional Library","id":"a63c2k5n4u8b","address":"216 North Oak Street","lat":34.308071,"libraryname":"Grant County Library","state":"AR"},"type":"Feature","geometry":{"type":"Point","coordinates":[-92.401331,34.308071]}},{"properties":{"city":"Green Forest","lon":-93.434419,"zip":"","librarysystem":"Carroll And Madison Library System","id":"a63c2k7myomn","address":"206 East Main","lat":36.335455,"libraryname":"Green Forest Public Library","state":"AR"},"type":"Feature","geometry":{"type":"Point","coordinates":[-93.434419,36.335455]}},{"properties":{"city":"Greenbriar","lon":-92.387871,"zip":"","librarysystem":"Faulkner-Van Buren Regional Library","id":"a63c2jzlsih3","address":"#13 Wilson Farm Road","lat":35.23494,"libraryname":"Greenbrier Public Library","state":"AR"},"type":"Feature","geometry":{"type":"Point","coordinates":[-92.387871,35.23494]}},{"properties":{"city":"Paragould","lon":-90.500741,"zip":"","librarysystem":"Northeast Arkansas Regional Library","id":"a63c2jwismg9","address":"120 North 12th Street","lat":36.056563,"libraryname":"Greene County Library","state":"AR"},"type":"Feature","geometry":{"type":"Point","coordinates":[-90.500741,36.056563]}},{"properties":{"city":"Greenland","lon":-94.173689,"zip":"","librarysystem":"Washington County Library System","id":"a63c2k5szl4f","address":"8 East Ross Street","lat":35.996672,"libraryname":"Greenland Public Library","state":"AR"},"type":"Feature","geometry":{"type":"Point","coordinates":[-94.173689,35.996672]}},{"properties":{"city":"Greers Ferry","lon":-92.17702,"zip":"","librarysystem":"White River Regional Library","id":"a63c2k43nfum","address":"8739 Edgemont Road","lat":35.578773,"libraryname":"Greers Ferry Public Library","state":"AR"},"type":"Feature","geometry":{"type":"Point","coordinates":[-92.17702,35.578773]}},{"properties":{"city":"Junction City","lon":-92.724789,"zip":"","librarysystem":"Barton Library","id":"a63c2jv6399z","address":"301 North Myrtle / Po Box 730","lat":33.01515,"libraryname":"Harper Memorial Library","state":"AR"},"type":"Feature","geometry":{"type":"Point","coordinates":[-92.724789,33.01515]}},{"properties":{"city":"Hartford","lon":-94.381424,"zip":"","librarysystem":"Scott Sebastian Regional Library","id":"a63c2k4yvm4v","address":"26 S. Broadway City Complex","lat":35.0224,"libraryname":"Hartford Branch Library","state":"AR"},"type":"Feature","geometry":{"type":"Point","coordinates":[-94.381424,35.0224]}},{"properties":{"city":"Hazen","lon":-91.587794,"zip":"","librarysystem":"Lonoke/Prairie County Regional Library","id":"a63c2jyljje9","address":"Corner Of Livermore &amp;  Hwy. 70 East","lat":34.78051,"libraryname":"Hazen Public Library","state":"AR"},"type":"Feature","geometry":{"type":"Point","coordinates":[-91.587794,34.78051]}},{"properties":{"city":"Hector","lon":-92.974701,"zip":"","librarysystem":"Pope County Library System","id":"a63c2k3qb330","address":"11600 Hwy 27","lat":35.469874,"libraryname":"Hector Branch Library","state":"AR"},"type":"Feature","geometry":{"type":"Point","coordinates":[-92.974701,35.469874]}},{"properties":{"city":"Hope","lon":-93.592101,"zip":"","librarysystem":"Southwest Arkansas Regional Library","id":"a63c2k5zz8ws","address":"500 South Elm Street","lat":33.664738,"libraryname":"Hempstead County Library","state":"AR"},"type":"Feature","geometry":{"type":"Point","coordinates":[-93.592101,33.664738]}},{"properties":{"city":"Hermitage","lon":-92.174229,"zip":"","librarysystem":"Southeast Arkansas Regional Library","id":"a63c2k77ihy4","address":"112 South Main","lat":33.44755,"libraryname":"Hermitage Branch Library","state":"AR"},"type":"Feature","geometry":{"type":"Point","coordinates":[-92.174229,33.44755]}},{"properties":{"city":"Horatio","lon":-94.353894,"zip":"","librarysystem":"Southwest Arkansas Regional Library","id":"a63c2k53dmsd","address":"Main Street","lat":33.938372,"libraryname":"Horatio Branch Library","state":"AR"},"type":"Feature","geometry":{"type":"Point","coordinates":[-94.353894,33.938372]}},{"properties":{"city":"Horseshoe Bend","lon":-91.765587,"zip":"","librarysystem":"White River Regional Library","id":"a63c2k4q8vyc","address":"704 West Commerce","lat":36.2223,"libraryname":"Horseshoe Bend Branch Library","state":"AR"},"type":"Feature","geometry":{"type":"Point","coordinates":[-91.765587,36.2223]}},{"properties":{"city":"Hughes","lon":-90.306398,"zip":"","librarysystem":"Mississippi/Crittenden Regional Library","id":"a63c2jyg1ivc","address":"3181 Horseshoe Circle","lat":34.914516,"libraryname":"Horseshoe Lake Branch","state":"AR"},"type":"Feature","geometry":{"type":"Point","coordinates":[-90.306398,34.914516]}},{"properties":{"city":"Nashville","lon":-93.846894,"zip":"","librarysystem":"Southwest Arkansas Regional Library","id":"a63c2jwrffbj","address":"426 North Main, Suite 500","lat":33.947153,"libraryname":"Howard County Library","state":"AR"},"type":"Feature","geometry":{"type":"Point","coordinates":[-93.846894,33.947153]}},{"properties":{"city":"Huttig","lon":-92.190207,"zip":"","librarysystem":"Barton Library","id":"a63c2k0brhsd","address":"Frost Street","lat":33.037813,"libraryname":"Huttig Public Library","state":"AR"},"type":"Feature","geometry":{"type":"Point","coordinates":[-92.190207,33.037813]}},{"properties":{"city":"Imboden","lon":-91.173388,"zip":"","librarysystem":"Lawrence County Library","id":"a63c2k6f6x9p","address":"110 West Main Street","lat":36.202034,"libraryname":"Imboden Branch Library","state":"AR"},"type":"Feature","geometry":{"type":"Point","coordinates":[-91.173388,36.202034]}},{"properties":{"city":"Batesville","lon":-91.651453,"zip":"","librarysystem":"White River Regional Library","id":"a63c2jtbjerl","address":"368 E. Main Street","lat":35.771461,"libraryname":"Independence County Library","state":"AR"},"type":"Feature","geometry":{"type":"Point","coordinates":[-91.651453,35.771461]}},{"properties":{"city":"Newport","lon":-91.282717,"zip":"","librarysystem":"Jackson County Library","id":"a63c2k3lbrv5","address":"213 Walnut Street","lat":35.605205,"libraryname":"Jackson County Library","state":"AR"},"type":"Feature","geometry":{"type":"Point","coordinates":[-91.282717,35.605205]}},{"properties":{"city":"Little Rock","lon":-92.338991,"zip":"","librarysystem":"Central Arkansas Library System","id":"a63c2k7u31q7","address":"823 North Buchanan","lat":34.758733,"libraryname":"John Gould Fletcher Branch Library","state":"AR"},"type":"Feature","geometry":{"type":"Point","coordinates":[-92.338991,34.758733]}},{"properties":{"city":"Clarksville","lon":-93.466344,"zip":"","librarysystem":"Arkansas River Valley Regional Library System","id":"a63c2k0pp9j6","address":"No. 2 Taylor Circle","lat":35.4717,"libraryname":"Johnson County Library","state":"AR"},"type":"Feature","geometry":{"type":"Point","coordinates":[-93.466344,35.4717]}},{"properties":{"city":"Keiser","lon":-90.098327,"zip":"","librarysystem":"Mississippi/Crittenden Regional Library","id":"a63c2jx3jah2","address":"112 East Main","lat":35.674979,"libraryname":"Keiser Public Library","state":"AR"},"type":"Feature","geometry":{"type":"Point","coordinates":[-90.098327,35.674979]}},{"properties":{"city":"Kingston","lon":-93.518504,"zip":"","librarysystem":"Carroll And Madison Library System","id":"a63c2jzh43wq","address":"Kingston Fire Department","lat":36.05059,"libraryname":"Kingston Public Library","state":"AR"},"type":"Feature","geometry":{"type":"Point","coordinates":[-93.518504,36.05059]}},{"properties":{"city":"Monette","lon":-90.342529,"zip":"","librarysystem":"Crowley Ridge Regional Library System","id":"a63c2k1m8p0t","address":"103 S. Edmund Street","lat":35.891335,"libraryname":"Kohn Memorial Library","state":"AR"},"type":"Feature","geometry":{"type":"Point","coordinates":[-90.342529,35.891335]}},{"properties":{"city":"Lake Village","lon":-91.282207,"zip":"","librarysystem":"Southeast Arkansas Regional Library","id":"a63c2k1s57rl","address":"108 Church Street","lat":33.330546,"libraryname":"Lake Village Branch Library","state":"AR"},"type":"Feature","geometry":{"type":"Point","coordinates":[-91.282207,33.330546]}},{"properties":{"city":"Lavaca","lon":-94.178429,"zip":"","librarysystem":"Scott Sebastian Regional Library","id":"a63c2ju4ksc8","address":"100 S. Davis Lavaca Fire Station","lat":35.3363,"libraryname":"Lavaca Branch Library","state":"AR"},"type":"Feature","geometry":{"type":"Point","coordinates":[-94.178429,35.3363]}},{"properties":{"city":"Walnut Ridge","lon":-90.967284,"zip":"","librarysystem":"Lawrence County Library","id":"a63c2jwl92dm","address":"1315 West Main","lat":36.074564,"libraryname":"Lawrence County Library","state":"AR"},"type":"Feature","geometry":{"type":"Point","coordinates":[-90.967284,36.074564]}},{"properties":{"city":"Leachville","lon":-90.258158,"zip":"","librarysystem":"Mississippi/Crittenden Regional Library","id":"a63c2k5apybn","address":"105 S. Main St.","lat":35.937932,"libraryname":"Leachville Public Library","state":"AR"},"type":"Feature","geometry":{"type":"Point","coordinates":[-90.258158,35.937932]}},{"properties":{"city":"Marianna","lon":-90.758748,"zip":"","librarysystem":"Phillips-Lee-Monroe Regional Library System","id":"a63c2jwq1jv8","address":"77 West Main Street","lat":34.773401,"libraryname":"Lee County Public Library","state":"AR"},"type":"Feature","geometry":{"type":"Point","coordinates":[-90.758748,34.773401]}},{"properties":{"city":"Dermott","lon":-91.434672,"zip":"","librarysystem":"Southeast Arkansas Regional Library","id":"a63c2jwsxi3j","address":"117 South Freeman Street","lat":33.526016,"libraryname":"Leonard Evan Memorial Library","state":"AR"},"type":"Feature","geometry":{"type":"Point","coordinates":[-91.434672,33.526016]}},{"properties":{"city":"Lepanto","lon":-90.330354,"zip":"","librarysystem":"Crowley Ridge Regional Library System","id":"a63c2k2ocdlk","address":"207 Greenwood Street","lat":35.61238,"libraryname":"Lepanto Public Library","state":"AR"},"type":"Feature","geometry":{"type":"Point","coordinates":[-90.330354,35.61238]}},{"properties":{"city":"Lewisville","lon":-93.575536,"zip":"","librarysystem":"Lafayette County Library","id":"a63c2js2ouuj","address":"219 East 3rd Street","lat":33.357337,"libraryname":"Lewisville Public Library","state":"AR"},"type":"Feature","geometry":{"type":"Point","coordinates":[-93.575536,33.357337]}},{"properties":{"city":"Lincoln","lon":-94.423467,"zip":"","librarysystem":"Washington County Library System","id":"a63c2jtyvx10","address":"107 West Bean","lat":35.949897,"libraryname":"Lincoln Public Library","state":"AR"},"type":"Feature","geometry":{"type":"Point","coordinates":[-94.423467,35.949897]}},{"properties":{"city":"Lockesburg","lon":-94.178686,"zip":"","librarysystem":"Southwest Arkansas Regional Library","id":"a63c2jy82vqz","address":"203 Shady Lane","lat":33.979268,"libraryname":"Lockesburg Branch Library","state":"AR"},"type":"Feature","geometry":{"type":"Point","coordinates":[-94.178686,33.979268]}},{"properties":{"city":"Booneville","lon":-93.924463,"zip":"","librarysystem":"Arkansas River Valley Regional Library System","id":"a63c2jtm7sph","address":"419 North Kennedy","lat":35.141673,"libraryname":"Logan County Library","state":"AR"},"type":"Feature","geometry":{"type":"Point","coordinates":[-93.924463,35.141673]}},{"properties":{"city":"Luxora","lon":-89.933659,"zip":"","librarysystem":"Mississippi/Crittenden Regional Library","id":"a63c2jwa2sk0","address":"215 Washington","lat":35.75734,"libraryname":"Luxora Public Library","state":"AR"},"type":"Feature","geometry":{"type":"Point","coordinates":[-89.933659,35.75734]}},{"properties":{"city":"Huntsville","lon":-93.744719,"zip":"","librarysystem":"Carroll And Madison Library System","id":"a63c2jwxuu31","address":"Hwy 412 &amp;  Gaskill","lat":36.09848,"libraryname":"Madison County Library","state":"AR"},"type":"Feature","geometry":{"type":"Point","coordinates":[-93.744719,36.09848]}},{"properties":{"city":"Malvern","lon":-92.812017,"zip":"","librarysystem":"Malvern - Hot Spring County Library","id":"a63c2jvxbz48","address":"202 East Third Street","lat":34.363924,"libraryname":"Malvern - Hot Spring County Library","state":"AR"},"type":"Feature","geometry":{"type":"Point","coordinates":[-92.812017,34.363924]}},{"properties":{"city":"Mammoth Spring","lon":-91.540419,"zip":"","librarysystem":"White River Regional Library","id":"a63c2jvvazq3","address":"101 Main Street","lat":36.49565,"libraryname":"Mammoth Spring Library","state":"AR"},"type":"Feature","geometry":{"type":"Point","coordinates":[-91.540419,36.49565]}},{"properties":{"city":"Manila","lon":-90.166563,"zip":"","librarysystem":"Mississippi/Crittenden Regional Library","id":"a63c2k697pgi","address":"103 N. Dewey Street","lat":35.879186,"libraryname":"Manila Public Library","state":"AR"},"type":"Feature","geometry":{"type":"Point","coordinates":[-90.166563,35.879186]}},{"properties":{"city":"Mansfield","lon":-94.249994,"zip":"","librarysystem":"Scott Sebastian Regional Library","id":"a63c2k6n8yt0","address":"200 N. Sebascott Ave City Hall","lat":35.063365,"libraryname":"Mansfield Branch Library","state":"AR"},"type":"Feature","geometry":{"type":"Point","coordinates":[-94.249994,35.063365]}},{"properties":{"city":"Eudora","lon":-91.264107,"zip":"","librarysystem":"Southeast Arkansas Regional Library","id":"a63c2jy1uoyr","address":"161 North Cherry Street","lat":33.110743,"libraryname":"Margaret Tiebel Memorial Library","state":"AR"},"type":"Feature","geometry":{"type":"Point","coordinates":[-91.264107,33.110743]}},{"properties":{"city":"Yellville","lon":-92.681192,"zip":"","librarysystem":"North Arkansas Regional Library","id":"a63c2jx4v4e4","address":"308 Old Main","lat":36.225399,"libraryname":"Marion County Library","state":"AR"},"type":"Feature","geometry":{"type":"Point","coordinates":[-92.681192,36.225399]}},{"properties":{"city":"Lonoke","lon":-91.898945,"zip":"","librarysystem":"Lonoke/Prairie County Regional Library","id":"a63c2jztd9b7","address":"204 East 2nd Street","lat":34.785133,"libraryname":"Marjorie Walker McCrary Public Library","state":"AR"},"type":"Feature","geometry":{"type":"Point","coordinates":[-91.898945,34.785133]}},{"properties":{"city":"Marked Tree","lon":-90.418404,"zip":"","librarysystem":"Crowley Ridge Regional Library System","id":"a63c2k25atw5","address":"102 Locust","lat":35.530295,"libraryname":"Marked Tree Public Library","state":"AR"},"type":"Feature","geometry":{"type":"Point","coordinates":[-90.418404,35.530295]}},{"properties":{"city":"Marvell","lon":-90.90406,"zip":"","librarysystem":"Phillips-Lee-Monroe Regional Library System","id":"a63c2jsiwjy4","address":"806 Carruth Street","lat":34.556284,"libraryname":"Marvell Public Library","state":"AR"},"type":"Feature","geometry":{"type":"Point","coordinates":[-90.90406,34.556284]}},{"properties":{"city":"Maumelle","lon":-92.404694,"zip":"","librarysystem":"Central Arkansas Library System","id":"a63c2k1yzbkb","address":"10 Lakepoint Drive","lat":34.86417,"libraryname":"Maumelle Public Library","state":"AR"},"type":"Feature","geometry":{"type":"Point","coordinates":[-92.404694,34.86417]}},{"properties":{"city":"Mayflower","lon":-92.426509,"zip":"","librarysystem":"Faulkner-Van Buren Regional Library","id":"a63c2js43657","address":"#6 Ashmore Drive","lat":34.956905,"libraryname":"Mayflower Public Library","state":"AR"},"type":"Feature","geometry":{"type":"Point","coordinates":[-92.426509,34.956905]}},{"properties":{"city":"Lake City","lon":-90.443885,"zip":"","librarysystem":"Crowley Ridge Regional Library System","id":"a63c2jsr1hli","address":"106 Cobean Blvd","lat":35.820505,"libraryname":"McAdams Public Library","state":"AR"},"type":"Feature","geometry":{"type":"Point","coordinates":[-90.443885,35.820505]}},{"properties":{"city":"McGehee","lon":-91.399451,"zip":"","librarysystem":"Southeast Arkansas Regional Library","id":"a63c2k5ctop5","address":"211 North 4th Street","lat":33.62813,"libraryname":"Mcgehee Branch Library","state":"AR"},"type":"Feature","geometry":{"type":"Point","coordinates":[-91.399451,33.62813]}},{"properties":{"city":"Melbourne","lon":-91.891582,"zip":"","librarysystem":"White River Regional Library","id":"a63c2jx8rd93","address":"915 East Main Street","lat":36.058737,"libraryname":"Melbourne Public Library","state":"AR"},"type":"Feature","geometry":{"type":"Point","coordinates":[-91.891582,36.058737]}},{"properties":{"city":"Perryville","lon":-92.802776,"zip":"","librarysystem":"Central Arkansas Library System","id":"a63c2jufanku","address":"609 Aplin Avenue","lat":35.005372,"libraryname":"Milam Library","state":"AR"},"type":"Feature","geometry":{"type":"Point","coordinates":[-92.802776,35.005372]}},{"properties":{"city":"Fort Smith","lon":-94.405226,"zip":"","librarysystem":"Fort Smith Public Library","id":"a63c2jv2j0qp","address":"8701 South 28th Street","lat":35.301111,"libraryname":"Miller Branch Library","state":"AR"},"type":"Feature","geometry":{"type":"Point","coordinates":[-94.405226,35.301111]}},{"properties":{"city":"Mineral Springs","lon":-93.914642,"zip":"","librarysystem":"Southwest Arkansas Regional Library","id":"a63c2k2rbt5h","address":"310 East Rummels","lat":33.875355,"libraryname":"Mineral Springs Public Library","state":"AR"},"type":"Feature","geometry":{"type":"Point","coordinates":[-93.914642,33.875355]}},{"properties":{"city":"Blytheville","lon":-89.908002,"zip":"","librarysystem":"Mississippi/Crittenden Regional Library","id":"a63c2jryr2in","address":"200 North 5th Street","lat":35.928544,"libraryname":"Mississippi County Library System","state":"AR"},"type":"Feature","geometry":{"type":"Point","coordinates":[-89.908002,35.928544]}},{"properties":{"city":"Clarendon","lon":-91.31327,"zip":"","librarysystem":"Phillips-Lee-Monroe Regional Library System","id":"a63c2k0mb4i3","address":"270 Madison Street","lat":34.693003,"libraryname":"Monroe County Library","state":"AR"},"type":"Feature","geometry":{"type":"Point","coordinates":[-91.31327,34.693003]}},{"properties":{"city":"Mount Ida","lon":-91.928684,"zip":"","librarysystem":"Montgomery County Library","id":"a63c2k72fur7","address":"145a Whittingdon Street","lat":35.588775,"libraryname":"Montgomery County Library","state":"AR"},"type":"Feature","geometry":{"type":"Point","coordinates":[-91.928684,35.588775]}},{"properties":{"city":"Monticello","lon":-91.79098,"zip":"","librarysystem":"Southeast Arkansas Regional Library","id":"a63c2k7d4h0u","address":"107 East Jackson","lat":33.626007,"libraryname":"Monticello Branch Library","state":"AR"},"type":"Feature","geometry":{"type":"Point","coordinates":[-91.79098,33.626007]}},{"properties":{"city":"Mountainburg","lon":-94.161892,"zip":"","librarysystem":"Crawford County Library System","id":"a63c2k4rfmua","address":"1300 Hwy 71 NE","lat":35.646013,"libraryname":"Mountainburg Public Library","state":"AR"},"type":"Feature","geometry":{"type":"Point","coordinates":[-94.161892,35.646013]}},{"properties":{"city":"Mulberry","lon":-94.052148,"zip":"","librarysystem":"Crawford County Library System","id":"a63c2jv5o7uf","address":"207 North Main St","lat":35.497272,"libraryname":"Mulberry Public Library","state":"AR"},"type":"Feature","geometry":{"type":"Point","coordinates":[-94.052148,35.497272]}},{"properties":{"city":"Little Rock","lon":-92.315868,"zip":"","librarysystem":"Central Arkansas Library System","id":"a63c2jyul7zk","address":"3805 West 12th","lat":34.740307,"libraryname":"Neighborhood Resource Center","state":"AR"},"type":"Feature","geometry":{"type":"Point","coordinates":[-92.315868,34.740307]}},{"properties":{"city":"Prescott","lon":-93.381623,"zip":"","librarysystem":"Southwest Arkansas Regional Library","id":"a63c2k1c8qxu","address":"129 West 2nd Street","lat":33.803509,"libraryname":"Nevada County Library","state":"AR"},"type":"Feature","geometry":{"type":"Point","coordinates":[-93.381623,33.803509]}},{"properties":{"city":"Jasper","lon":-93.125952,"zip":"","librarysystem":"Newton County Library","id":"a63c2k2uu0kh","address":"Hwy. 7 South","lat":36.11493,"libraryname":"Newton County Library","state":"AR"},"type":"Feature","geometry":{"type":"Point","coordinates":[-93.125952,36.11493]}},{"properties":{"city":"Norphlet","lon":-92.665745,"zip":"","librarysystem":"Barton Library","id":"a63c2k41myes","address":"101 E.Padgett Street","lat":33.306321,"libraryname":"Norphlet Public Library","state":"AR"},"type":"Feature","geometry":{"type":"Point","coordinates":[-92.665745,33.306321]}},{"properties":{"city":"Osceola","lon":-89.970444,"zip":"","librarysystem":"Mississippi/Crittenden Regional Library","id":"a63c2jz3he2p","address":"320 West Hale","lat":35.702727,"libraryname":"Osceola Public Library","state":"AR"},"type":"Feature","geometry":{"type":"Point","coordinates":[-89.970444,35.702727]}},{"properties":{"city":"Pangburn","lon":-91.844648,"zip":"","librarysystem":"White County Regional Library System","id":"a63c2k636qt9","address":"242 Main Street","lat":35.422896,"libraryname":"Pangburn Public Library","state":"AR"},"type":"Feature","geometry":{"type":"Point","coordinates":[-91.844648,35.422896]}},{"properties":{"city":"Helena","lon":-90.588679,"zip":"","librarysystem":"Phillips-Lee-Monroe Regional Library System","id":"a63c2jv7gweg","address":"623 Pecan Street","lat":34.528401,"libraryname":"Phillips County Library","state":"AR"},"type":"Feature","geometry":{"type":"Point","coordinates":[-90.588679,34.528401]}},{"properties":{"city":"Piggott","lon":-90.193257,"zip":"","librarysystem":"Northeast Arkansas Regional Library","id":"a63c2juyvosx","address":"361 West Main Street","lat":36.383445,"libraryname":"Piggott Public Library","state":"AR"},"type":"Feature","geometry":{"type":"Point","coordinates":[-90.193257,36.383445]}},{"properties":{"city":"Murfreesboro","lon":-93.6876,"zip":"","librarysystem":"Southwest Arkansas Regional Library","id":"a63c2k5vchqm","address":"204 East Main","lat":34.062032,"libraryname":"Pike County Library","state":"AR"},"type":"Feature","geometry":{"type":"Point","coordinates":[-93.6876,34.062032]}},{"properties":{"city":"Pine Bluff","lon":-92.001843,"zip":"","librarysystem":"Pine Bluff / Jefferson County Library System","id":"a63c2k3sh9td","address":"200 E. 8th Avenue","lat":34.221549,"libraryname":"Pine Bluff / Jefferson County Main Library","state":"AR"},"type":"Feature","geometry":{"type":"Point","coordinates":[-92.001843,34.221549]}},{"properties":{"city":"Harrisburg","lon":-90.716451,"zip":"","librarysystem":"Crowley Ridge Regional Library System","id":"a63c2jwqze7r","address":"200 N. East Street","lat":35.563591,"libraryname":"Poinsett County Library","state":"AR"},"type":"Feature","geometry":{"type":"Point","coordinates":[-90.716451,35.563591]}},{"properties":{"city":"Mena","lon":-94.241017,"zip":"","librarysystem":"Southwest Arkansas Regional Library","id":"a63c2k0y6gmy","address":"410 Eighth Street","lat":34.584951,"libraryname":"Polk County Library","state":"AR"},"type":"Feature","geometry":{"type":"Point","coordinates":[-94.241017,34.584951]}},{"properties":{"city":"Russellville","lon":-93.133354,"zip":"","librarysystem":"Pope County Library System","id":"a63c2k1pozjx","address":"116 East 3rd Street","lat":35.275878,"libraryname":"Pope County Library System","state":"AR"},"type":"Feature","geometry":{"type":"Point","coordinates":[-93.133354,35.275878]}},{"properties":{"city":"Prairie Grove","lon":-94.315243,"zip":"","librarysystem":"Washington County Library System","id":"a63c2juyeg5s","address":"123 South Neal Street","lat":35.975127,"libraryname":"Prairie Grove Public Library","state":"AR"},"type":"Feature","geometry":{"type":"Point","coordinates":[-94.315243,35.975127]}},{"properties":{"city":"Pocahontas","lon":-90.970429,"zip":"","librarysystem":"Northeast Arkansas Regional Library","id":"a63c2jylhs48","address":"111 West Everett Street","lat":36.261749,"libraryname":"Randolph County Library","state":"AR"},"type":"Feature","geometry":{"type":"Point","coordinates":[-90.970429,36.261749]}},{"properties":{"city":"Rector","lon":-90.293067,"zip":"","librarysystem":"Northeast Arkansas Regional Library","id":"a63c2k37ocyg","address":"121 West 4th Street","lat":36.263513,"libraryname":"Rector Public Library","state":"AR"},"type":"Feature","geometry":{"type":"Point","coordinates":[-90.293067,36.263513]}},{"properties":{"city":"Redfield","lon":-92.18453,"zip":"","librarysystem":"Pine Bluff / Jefferson County Library System","id":"a63c2k6om22i","address":"310 Brodie Street","lat":34.44746,"libraryname":"Redfield Public Library","state":"AR"},"type":"Feature","geometry":{"type":"Point","coordinates":[-92.18453,34.44746]}},{"properties":{"city":"Rogers","lon":-94.143588,"zip":"","librarysystem":"Rogers Public Library","id":"a63c2jxd7srl","address":"711 S. Dixieland Rd.","lat":36.328367,"libraryname":"Rogers Public Library","state":"AR"},"type":"Feature","geometry":{"type":"Point","coordinates":[-94.143588,36.328367]}},{"properties":{"city":"Salem","lon":-91.823226,"zip":"","librarysystem":"White River Regional Library","id":"a63c2jrvr4cf","address":"207 Pickren Street","lat":36.375566,"libraryname":"Salem Public Library","state":"AR"},"type":"Feature","geometry":{"type":"Point","coordinates":[-91.823226,36.375566]}},{"properties":{"city":"Benton","lon":-92.588657,"zip":"","librarysystem":"Saline County Library","id":"a63c2k7p0t2n","address":"224 West South","lat":34.56364,"libraryname":"Saline County Library","state":"AR"},"type":"Feature","geometry":{"type":"Point","coordinates":[-92.588657,34.56364]}},{"properties":{"city":"Waldron","lon":-94.093649,"zip":"","librarysystem":"Scott Sebastian Regional Library","id":"a63c2jssaunj","address":"115 West 2nd","lat":34.899386,"libraryname":"Scott County Library","state":"AR"},"type":"Feature","geometry":{"type":"Point","coordinates":[-94.093649,34.899386]}},{"properties":{"city":"Marshall","lon":-92.619764,"zip":"","librarysystem":"North Arkansas Regional Library","id":"a63c2jwseyei","address":"202 East Main Street","lat":35.907215,"libraryname":"Searcy County Library","state":"AR"},"type":"Feature","geometry":{"type":"Point","coordinates":[-92.619764,35.907215]}},{"properties":{"city":"Greenwood","lon":-94.257179,"zip":"","librarysystem":"Scott Sebastian Regional Library","id":"a63c2jwlzs3g","address":"18 South Adair","lat":35.212263,"libraryname":"Sebastian County Library","state":"AR"},"type":"Feature","geometry":{"type":"Point","coordinates":[-94.257179,35.212263]}},{"properties":{"city":"Ben Lomond","lon":-94.129927,"zip":"","librarysystem":"Southwest Arkansas Regional Library","id":"a63c2jz2stev","address":"448 Willson Creek Road","lat":33.840851,"libraryname":"Sevier County Library-Ben Lomond Branch","state":"AR"},"type":"Feature","geometry":{"type":"Point","coordinates":[-94.129927,33.840851]}},{"properties":{"city":"Hardy","lon":-91.485827,"zip":"","librarysystem":"White River Regional Library","id":"a63c2k7x26m7","address":"201 Church Street","lat":36.316129,"libraryname":"Sharp County Library","state":"AR"},"type":"Feature","geometry":{"type":"Point","coordinates":[-91.485827,36.316129]}},{"properties":{"city":"Cave City","lon":-91.545169,"zip":"","librarysystem":"White River Regional Library","id":"a63c2k6hw4ov","address":"120 Spring Street","lat":35.93925,"libraryname":"Sharp County Library / Cave City Branch","state":"AR"},"type":"Feature","geometry":{"type":"Point","coordinates":[-91.545169,35.93925]}},{"properties":{"city":"Evening Shade","lon":-91.617829,"zip":"","librarysystem":"White River Regional Library","id":"a63c2k3637y0","address":"222 Main Street","lat":36.072025,"libraryname":"Sharp County Library Branch","state":"AR"},"type":"Feature","geometry":{"type":"Point","coordinates":[-91.617829,36.072025]}},{"properties":{"city":"Joiner","lon":-90.155973,"zip":"","librarysystem":"Mississippi/Crittenden Regional Library","id":"a63c2k17lyo2","address":"151 South U.S. Hwy. 61","lat":35.499479,"libraryname":"Shawnee Public Library","state":"AR"},"type":"Feature","geometry":{"type":"Point","coordinates":[-90.155973,35.499479]}},{"properties":{"city":"Smackover","lon":-92.725194,"zip":"","librarysystem":"Barton Library","id":"a63c2k0xoa6i","address":"700 North Broadway","lat":33.364761,"libraryname":"Smackover Public Library","state":"AR"},"type":"Feature","geometry":{"type":"Point","coordinates":[-92.725194,33.364761]}},{"properties":{"city":"Springdale","lon":-94.142899,"zip":"","librarysystem":"Washington County Library System","id":"a63c2k5gnb48","address":"405 South Pleasant Street","lat":36.181305,"libraryname":"Springdale Public Library","state":"AR"},"type":"Feature","geometry":{"type":"Point","coordinates":[-94.142899,36.181305]}},{"properties":{"city":"St. Paul","lon":-93.764205,"zip":"","librarysystem":"Carroll And Madison Library System","id":"a63c2jw9orwf","address":"147 5th Street","lat":35.824259,"libraryname":"St. Paul Public Library","state":"AR"},"type":"Feature","geometry":{"type":"Point","coordinates":[-93.764205,35.824259]}},{"properties":{"city":"Stamps","lon":-93.497861,"zip":"","librarysystem":"Lafayette County Library","id":"a63c2k2hivz6","address":"312 Main Street","lat":33.361384,"libraryname":"Stamps Public Library","state":"AR"},"type":"Feature","geometry":{"type":"Point","coordinates":[-93.497861,33.361384]}},{"properties":{"city":"Star City","lon":-91.84369,"zip":"","librarysystem":"Southeast Arkansas Regional Library","id":"a63c2k62gosv","address":"206 South Lincoln","lat":33.937473,"libraryname":"Star City Public Library","state":"AR"},"type":"Feature","geometry":{"type":"Point","coordinates":[-91.84369,33.937473]}},{"properties":{"city":"Stephens","lon":-93.070114,"zip":"","librarysystem":"Public Library Of Camden &amp;  Ouachita County","id":"a63c2jxwt59d","address":"108 W. Ruby","lat":33.41144,"libraryname":"Stephens Public Library","state":"AR"},"type":"Feature","geometry":{"type":"Point","coordinates":[-93.070114,33.41144]}},{"properties":{"city":"Mountain View","lon":-92.120352,"zip":"","librarysystem":"White River Regional Library","id":"a63c2k7k955t","address":"326 W. Washington","lat":35.869371,"libraryname":"Stone County Library","state":"AR"},"type":"Feature","geometry":{"type":"Point","coordinates":[-92.120352,35.869371]}},{"properties":{"city":"Strong","lon":-92.358352,"zip":"","librarysystem":"Barton Library","id":"a63c2k3qixtb","address":"246 West 2nd Street","lat":33.109429,"libraryname":"Strong Public Library","state":"AR"},"type":"Feature","geometry":{"type":"Point","coordinates":[-92.358352,33.109429]}},{"properties":{"city":"Little Rock","lon":-92.284419,"zip":"","librarysystem":"Central Arkansas Library System","id":"a63c2jvcbumb","address":"1800 Chester Avenue","lat":34.732828,"libraryname":"Sue Cowan Williams Library","state":"AR"},"type":"Feature","geometry":{"type":"Point","coordinates":[-92.284419,34.732828]}},{"properties":{"city":"Taylor","lon":-93.462939,"zip":"","librarysystem":"Columbia County Library","id":"a63c2jxwp2up","address":"101 West Pope","lat":33.10132,"libraryname":"Taylor Public Library","state":"AR"},"type":"Feature","geometry":{"type":"Point","coordinates":[-93.462939,33.10132]}},{"properties":{"city":"Texarkana","lon":-94.048134,"zip":"","librarysystem":"Texarkana Public Library","id":"a63c2jsvr3kc","address":"600 West 3rd Street","lat":33.420499,"libraryname":"Texarkana Public Library","state":"AR"},"type":"Feature","geometry":{"type":"Point","coordinates":[-94.048134,33.420499]}},{"properties":{"city":"Thornton","lon":-92.490704,"zip":"","librarysystem":"Calhoun County Public Library","id":"a63c2jte7zuv","address":"South 2nd Street","lat":33.77623,"libraryname":"Thornton Public Library","state":"AR"},"type":"Feature","geometry":{"type":"Point","coordinates":[-92.490704,33.77623]}},{"properties":{"city":"Tillar","lon":-91.453909,"zip":"","librarysystem":"Southeast Arkansas Regional Library","id":"a63c2jwk88jn","address":"B Street","lat":33.712345,"libraryname":"Tillar Branch Library","state":"AR"},"type":"Feature","geometry":{"type":"Point","coordinates":[-91.453909,33.712345]}},{"properties":{"city":"Tollette","lon":-93.896693,"zip":"","librarysystem":"Southwest Arkansas Regional Library","id":"a63c2jsp26wc","address":"506 Plum Street","lat":33.819444,"libraryname":"Tollette Branch Library","state":"AR"},"type":"Feature","geometry":{"type":"Point","coordinates":[-93.896693,33.819444]}},{"properties":{"city":"Trumann","lon":-90.524011,"zip":"","librarysystem":"Trumann Public Library","id":"a63c2k643i3j","address":"1300 West Main","lat":35.671394,"libraryname":"Trumann Public Library","state":"AR"},"type":"Feature","geometry":{"type":"Point","coordinates":[-90.524011,35.671394]}},{"properties":{"city":"Tuckerman","lon":-91.202024,"zip":"","librarysystem":"Jackson County Library","id":"a63c2k5fjt9t","address":"200 West Main (City Hall)","lat":35.731935,"libraryname":"Tuckerman Branch Library","state":"AR"},"type":"Feature","geometry":{"type":"Point","coordinates":[-91.202024,35.731935]}},{"properties":{"city":"Twin Groves","lon":-92.411262,"zip":"","librarysystem":"Faulkner-Van Buren Regional Library","id":"a63c2k52byzy","address":"#10 Twin Groves","lat":35.33121,"libraryname":"Twin Groves Branch Library","state":"AR"},"type":"Feature","geometry":{"type":"Point","coordinates":[-92.411262,35.33121]}},{"properties":{"city":"Clinton","lon":-92.452743,"zip":"","librarysystem":"Faulkner-Van Buren Regional Library","id":"a63c2jv8jlcs","address":"110 Page Street","lat":35.574525,"libraryname":"Van Buren County Library","state":"AR"},"type":"Feature","geometry":{"type":"Point","coordinates":[-92.452743,35.574525]}},{"properties":{"city":"Van Buren","lon":-94.347157,"zip":"","librarysystem":"Crawford County Library System","id":"a63c2jrvjfnl","address":"111 North Twelfth Street","lat":35.437934,"libraryname":"Van Buren Public Library","state":"AR"},"type":"Feature","geometry":{"type":"Point","coordinates":[-94.347157,35.437934]}},{"properties":{"city":"Conway","lon":-92.440269,"zip":"","librarysystem":"Faulkner-Van Buren Regional Library","id":"a63c2jwpecb1","address":"#3 Bise Drive","lat":35.090835,"libraryname":"Vilonia Branch Library","state":"AR"},"type":"Feature","geometry":{"type":"Point","coordinates":[-92.440269,35.090835]}},{"properties":{"city":"Viola","lon":-91.98336,"zip":"","librarysystem":"White River Regional Library","id":"a63c2k332vgw","address":"Hwy 223 South","lat":36.402538,"libraryname":"Viola Public Library","state":"AR"},"type":"Feature","geometry":{"type":"Point","coordinates":[-91.98336,36.402538]}},{"properties":{"city":"Ward","lon":-91.94907,"zip":"","librarysystem":"Lonoke/Prairie County Regional Library","id":"a63c2k670d5w","address":"100 Owen Street","lat":35.029024,"libraryname":"Ward Public Library","state":"AR"},"type":"Feature","geometry":{"type":"Point","coordinates":[-91.94907,35.029024]}},{"properties":{"city":"Warren","lon":-92.064068,"zip":"","librarysystem":"Southeast Arkansas Regional Library","id":"a63c2jt60k7d","address":"115 Cypress","lat":33.613772,"libraryname":"Warren Branch Library","state":"AR"},"type":"Feature","geometry":{"type":"Point","coordinates":[-92.064068,33.613772]}},{"properties":{"city":"Fayetteville","lon":-94.174675,"zip":"","librarysystem":"Washington County Library System","id":"a63c2k2husth","address":"1080 W. Clydesdale Dr.","lat":36.034007,"libraryname":"Washington County Library System","state":"AR"},"type":"Feature","geometry":{"type":"Point","coordinates":[-94.174675,36.034007]}},{"properties":{"city":"Watson","lon":-91.259932,"zip":"","librarysystem":"Southeast Arkansas Regional Library","id":"a63c2jud5amm","address":"Clayton Street","lat":33.891259,"libraryname":"Watson Branch Library","state":"AR"},"type":"Feature","geometry":{"type":"Point","coordinates":[-91.259932,33.891259]}},{"properties":{"city":"Pine Bluff","lon":-92.066936,"zip":"","librarysystem":"Pine Bluff / Jefferson County Library System","id":"a63c2jyi7koo","address":"4120 Camden Road","lat":34.188432,"libraryname":"Watson Chapel Branch Library","state":"AR"},"type":"Feature","geometry":{"type":"Point","coordinates":[-92.066936,34.188432]}},{"properties":{"city":"West Fork","lon":-94.190485,"zip":"","librarysystem":"Washington County Library System","id":"a63c2k06q80r","address":"266 West Main","lat":35.923942,"libraryname":"West Fork Public Library","state":"AR"},"type":"Feature","geometry":{"type":"Point","coordinates":[-94.190485,35.923942]}},{"properties":{"city":"West Helena","lon":-90.637537,"zip":"","librarysystem":"Phillips-Lee-Monroe Regional Library System","id":"a63c2k5cpmzl","address":"721 Plaza Street","lat":34.543763,"libraryname":"West Helena Public Library","state":"AR"},"type":"Feature","geometry":{"type":"Point","coordinates":[-90.637537,34.543763]}},{"properties":{"city":"West Memphis","lon":-90.19343,"zip":"","librarysystem":"West Memphis Public Library","id":"a63c2jy4nnsh","address":"213 North Avalon","lat":35.148199,"libraryname":"West Memphis Public Library","state":"AR"},"type":"Feature","geometry":{"type":"Point","coordinates":[-90.19343,35.148199]}},{"properties":{"city":"Weiner","lon":-90.900829,"zip":"","librarysystem":"Crowley Ridge Regional Library System","id":"a63c2k0c44qh","address":"West 2nd &amp;  Washington Street","lat":35.62002,"libraryname":"West Poinsett County Library","state":"AR"},"type":"Feature","geometry":{"type":"Point","coordinates":[-90.900829,35.62002]}},{"properties":{"city":"Searcy","lon":-91.736152,"zip":"","librarysystem":"White County Regional Library System","id":"a63c2k0e4pfb","address":"113 East Pleasure Avenue","lat":35.247563,"libraryname":"White County Public/Searcy City Library","state":"AR"},"type":"Feature","geometry":{"type":"Point","coordinates":[-91.736152,35.247563]}},{"properties":{"city":"White Hall","lon":-92.093398,"zip":"","librarysystem":"Pine Bluff / Jefferson County Library System","id":"a63c2k5wt6u4","address":"300 Anderson Street","lat":34.276294,"libraryname":"White Hall Public Library","state":"AR"},"type":"Feature","geometry":{"type":"Point","coordinates":[-92.093398,34.276294]}},{"properties":{"city":"England","lon":-91.967104,"zip":"","librarysystem":"Lonoke/Prairie County Regional Library","id":"a63c2k0wr9qg","address":"100 E. Taylor","lat":34.540292,"libraryname":"William F. Foster Public Library","state":"AR"},"type":"Feature","geometry":{"type":"Point","coordinates":[-91.967104,34.540292]}},{"properties":{"city":"North Little Rock","lon":-92.269613,"zip":"","librarysystem":"William F. Laman Public Library","id":"a63c2jvtvlti","address":"2801 Orange Street","lat":34.77989,"libraryname":"William F. Laman Public Library","state":"AR"},"type":"Feature","geometry":{"type":"Point","coordinates":[-92.269613,34.77989]}},{"properties":{"city":"Williford","lon":-91.357649,"zip":"","librarysystem":"White River Regional Library","id":"a63c2jvjz7r1","address":"Main &amp;  Haile Streets","lat":36.25112,"libraryname":"Williford Public Library","state":"AR"},"type":"Feature","geometry":{"type":"Point","coordinates":[-91.357649,36.25112]}},{"properties":{"city":"Wilmar","lon":-91.926679,"zip":"","librarysystem":"Southeast Arkansas Regional Library","id":"a63c2jweqtd1","address":"North 5th Street","lat":33.630795,"libraryname":"Wilmar Branch Library","state":"AR"},"type":"Feature","geometry":{"type":"Point","coordinates":[-91.926679,33.630795]}},{"properties":{"city":"Wilson","lon":-90.042751,"zip":"","librarysystem":"Mississippi/Crittenden Regional Library","id":"a63c2k60k1xx","address":"1 Park Street","lat":35.569451,"libraryname":"Wilson Public Library","state":"AR"},"type":"Feature","geometry":{"type":"Point","coordinates":[-90.042751,35.569451]}},{"properties":{"city":"Fort Smith","lon":-94.378962,"zip":"","librarysystem":"Fort Smith Public Library","id":"a63c2jvvz9zp","address":"4701 Windsor Drive","lat":35.400839,"libraryname":"Windsor Drive Branch Library","state":"AR"},"type":"Feature","geometry":{"type":"Point","coordinates":[-94.378962,35.400839]}},{"properties":{"city":"Winslow","lon":-94.134511,"zip":"","librarysystem":"Washington County Library System","id":"a63c2k7rjatp","address":"124 Main Street","lat":35.80013,"libraryname":"Winslow Public Library","state":"AR"},"type":"Feature","geometry":{"type":"Point","coordinates":[-94.134511,35.80013]}},{"properties":{"city":"Winthrop","lon":-94.353508,"zip":"","librarysystem":"Southwest Arkansas Regional Library","id":"a63c2k58t0u5","address":"720 High Street","lat":33.831896,"libraryname":"Winthrop Public Library","state":"AR"},"type":"Feature","geometry":{"type":"Point","coordinates":[-94.353508,33.831896]}},{"properties":{"city":"Augusta","lon":-91.366619,"zip":"","librarysystem":"East Central Arkansas Regional Library","id":"a63c2k0s8rmj","address":"201 Mulberry Street","lat":35.281732,"libraryname":"Woodruff County Library","state":"AR"},"type":"Feature","geometry":{"type":"Point","coordinates":[-91.366619,35.281732]}},{"properties":{"city":"Danville","lon":-93.393904,"zip":"","librarysystem":"Arkansas River Valley Regional Library System","id":"a63c2k2spke4","address":"904 Atlanta Street","lat":35.056515,"libraryname":"Yell County Library","state":"AR"},"type":"Feature","geometry":{"type":"Point","coordinates":[-93.393904,35.056515]}}],"is_temporal":false,"author":{"url":"http://www.publiclibraries.com/arkansas.htm","metadata":"","contact_name":"","contact_address":"","source":"publiclibrairies.com","contact_phone":""},"source":"http://www.publiclibraries.com/arkansas.htm","pagination":{"sort":null,"start":0,"total":211,"limit":1000000},"state":"complete","tags":"arkansas,books,education,libraries,library,public","published":"2008-05-09T12:00:00Z","id":876}