{"type":"FeatureCollection","data_type":"Dataset","url_type":null,"permissions":[{"permissions":{"download":true,"view":true},"group_id":"everyone"}],"classification":null,"title":"publiclibraries.com, Delaware Public Libraries, Delaware, 1.2008","count":33,"stream_id":881,"contributor":{"url":"http://geocommons.com/users/2","name":"data"},"data_attributes":null,"calculation_params":null,"icon_link":null,"link":"http://geocommons.com/overlays/881.json","extent":[-75.7365,38.4571,-75.0624,39.8029],"geometry_types":["point"],"unique_name":null,"name":"publiclibraries.com, Delaware Public Libraries, Delaware, 1.2008","feature_count":33,"description":"This dataset displays the locations of all the public libraries in the state of Delaware. The data included is the name of the library, name of the library system, library's address, phone, and lat/lon coordinates. The data came from publiclibraries.com which is a updated directory of all the public libraries throughout the United States.\n","next_feature":null,"is_raster":false,"short_classification":"Y","stats":{"lon":{"max":-75.062444,"mean":-75.4999096969697,"variance":0.0332817260164054,"stdev":0.182432798631182,"min":-75.736518,"median":-75.565262},"zip":{"max":19977,"mean":19861.5757575758,"variance":11193.4393939394,"stdev":105.799051951988,"min":19701,"median":19901},"phone":{"max":3029957663,"mean":3026175908.42424,"variance":4661606132377.75,"stdev":2159075.29567122,"min":3022278044,"median":3026452733},"lat":{"max":39.802853,"mean":39.1811265151515,"variance":0.256812531981882,"stdev":0.50676674316877,"min":38.457081,"median":39.160847}},"features":[{"properties":{"city":"Middletown","lon":-75.717311,"zip":19709,"librarysystem":"Department of Community Services","phone":3023789133,"id":"a62s03jh0i11","address":"218 North Broad St.","lat":39.451236,"libraryname":"Appoquinimink Public Library","state":"DE"},"type":"Feature","geometry":{"type":"Point","coordinates":[-75.717311,39.451236]}},{"properties":{"city":"Bear","lon":-75.662672,"zip":19701,"librarysystem":"Department of Community Services","phone":3028383300,"id":"a62s03ixounf","address":"101 Governors Place","lat":39.631673,"libraryname":"Bear Public Library","state":"DE"},"type":"Feature","geometry":{"type":"Point","coordinates":[-75.662672,39.631673]}},{"properties":{"city":"Wilmington","lon":-75.548329,"zip":19803,"librarysystem":"Department of Community Services","phone":3024787961,"id":"a62s03hgez67","address":"3406 Concord Pike","lat":39.801669,"libraryname":"Brandywine Hundred Branch","state":"DE"},"type":"Feature","geometry":{"type":"Point","coordinates":[-75.548329,39.801669]}},{"properties":{"city":"Bridgeville","lon":-75.601607,"zip":19933,"librarysystem":"Bridgeville Public Library","phone":3023377401,"id":"a62s03myuehf","address":"210 Market St.","lat":38.743591,"libraryname":"Bridgeville Public Library","state":"DE"},"type":"Feature","geometry":{"type":"Point","coordinates":[-75.601607,38.743591]}},{"properties":{"city":"Claymont","lon":-75.464141,"zip":19703,"librarysystem":"Department of Community Services","phone":3027984164,"id":"a62s03bcjg0l","address":"3303 Green St.","lat":39.802853,"libraryname":"Claymont Public Library","state":"DE"},"type":"Feature","geometry":{"type":"Point","coordinates":[-75.464141,39.802853]}},{"properties":{"city":"Odessa","lon":-75.654879,"zip":19971,"librarysystem":"Corbit-Calloway Memorial Library","phone":3023788838,"id":"a62s03dimyro","address":"115 High St.","lat":39.454376,"libraryname":"Corbit Calloway Memorial Library","state":"DE"},"type":"Feature","geometry":{"type":"Point","coordinates":[-75.654879,39.454376]}},{"properties":{"city":"Delaware City","lon":-75.592075,"zip":19706,"librarysystem":"Delaware City Public Library","phone":3028344148,"id":"a62s03b1p60b","address":"250 Fifth St.","lat":39.571426,"libraryname":"Delaware City Public Library","state":"DE"},"type":"Feature","geometry":{"type":"Point","coordinates":[-75.592075,39.571426]}},{"properties":{"city":"Delmar","lon":-75.574301,"zip":19940,"librarysystem":"Delmar Public Library","phone":3028469894,"id":"a62s037k8xtt","address":"101 North Bi-State Blvd.","lat":38.457081,"libraryname":"Delmar Public Library","state":"DE"},"type":"Feature","geometry":{"type":"Point","coordinates":[-75.574301,38.457081]}},{"properties":{"city":"Dover","lon":-75.525286,"zip":19901,"librarysystem":"Dover Public Library","phone":3027367030,"id":"a62s03geuk10","address":"45 South State St.","lat":39.160847,"libraryname":"Dover Public Library","state":"DE"},"type":"Feature","geometry":{"type":"Point","coordinates":[-75.525286,39.160847]}},{"properties":{"city":"Wilmington","lon":-75.602855,"zip":19805,"librarysystem":"Department of Community Services","phone":3028929414,"id":"a62s03jnwvdw","address":"30 Spruce Ave.","lat":39.739771,"libraryname":"Elsmere Public Library","state":"DE"},"type":"Feature","geometry":{"type":"Point","coordinates":[-75.602855,39.739771]}},{"properties":{"city":"Frankford","lon":-75.234196,"zip":19945,"librarysystem":"Frankford Public Library","phone":3027329351,"id":"a62s03b75e3m","address":"8 Main St.","lat":38.517099,"libraryname":"Frankford Public Library","state":"DE"},"type":"Feature","geometry":{"type":"Point","coordinates":[-75.234196,38.517099]}},{"properties":{"city":"Georgetown","lon":-75.385076,"zip":19947,"librarysystem":"Georgetown Public Library","phone":3028567958,"id":"a62s03f54ueq","address":"10 West Pine St.","lat":38.689156,"libraryname":"Georgetown Public Library","state":"DE"},"type":"Feature","geometry":{"type":"Point","coordinates":[-75.385076,38.689156]}},{"properties":{"city":"Greenwood","lon":-75.592054,"zip":19950,"librarysystem":"Sussex County Department of Libraries","phone":3023495309,"id":"a62s038dy5qt","address":"Mill St.","lat":38.80629,"libraryname":"Greenwood Public Library","state":"DE"},"type":"Feature","geometry":{"type":"Point","coordinates":[-75.592054,38.80629]}},{"properties":{"city":"Harrington","lon":-75.576539,"zip":19952,"librarysystem":"Harrington Public Library","phone":3023984647,"id":"a62s03bo1412","address":"110 Center St.","lat":38.928538,"libraryname":"Harrington Public Library","state":"DE"},"type":"Feature","geometry":{"type":"Point","coordinates":[-75.576539,38.928538]}},{"properties":{"city":"Hockessin","lon":-75.700722,"zip":19707,"librarysystem":"Department of Community Services","phone":3022395160,"id":"a62s039wbsx8","address":"1041 Valley Rd.","lat":39.789059,"libraryname":"Hockessin Public Library","state":"DE"},"type":"Feature","geometry":{"type":"Point","coordinates":[-75.700722,39.789059]}},{"properties":{"city":"Dover","lon":-75.535994,"zip":19901,"librarysystem":"Kent County Library/Division of Libraries","phone":3026986440,"id":"a62s03i4x60q","address":"2319 South Dupont Highway","lat":39.115449,"libraryname":"Kent County Library","state":"DE"},"type":"Feature","geometry":{"type":"Point","coordinates":[-75.535994,39.115449]}},{"properties":{"city":"Wilmington","lon":-75.678318,"zip":19808,"librarysystem":"Department of Community Services","phone":3029957663,"id":"a62s03cxs8pe","address":"6000 Kirkwood Highway","lat":39.711548,"libraryname":"Kirkwood Highway Public Library","state":"DE"},"type":"Feature","geometry":{"type":"Point","coordinates":[-75.678318,39.711548]}},{"properties":{"city":"Wilmington","lon":-75.561593,"zip":19805,"librarysystem":"Wilmington Public Library","phone":3025717422,"id":"a62s03gfbfa3","address":"403 North Van Buren St.","lat":39.745157,"libraryname":"Labiblioteca Del Pueblo Library","state":"DE"},"type":"Feature","geometry":{"type":"Point","coordinates":[-75.561593,39.745157]}},{"properties":{"city":"Laurel","lon":-75.571029,"zip":19956,"librarysystem":"Laurel Public Library","phone":3028753184,"id":"a62s03kfa7vp","address":"101 East 4th St.","lat":38.556196,"libraryname":"Laurel Public Library","state":"DE"},"type":"Feature","geometry":{"type":"Point","coordinates":[-75.571029,38.556196]}},{"properties":{"city":"Lewes","lon":-75.141701,"zip":19958,"librarysystem":"Lewes Public Library","phone":3026452733,"id":"a62s03mvs8jb","address":"111 Adams Ave.","lat":38.767733,"libraryname":"Lewes Public Library","state":"DE"},"type":"Feature","geometry":{"type":"Point","coordinates":[-75.141701,38.767733]}},{"properties":{"city":"Milford","lon":-75.428352,"zip":19966,"librarysystem":"Milford District Free Library","phone":3024228996,"id":"a62s03djow8a","address":"11 SE Front St.","lat":38.912616,"libraryname":"Milford Public Library","state":"DE"},"type":"Feature","geometry":{"type":"Point","coordinates":[-75.428352,38.912616]}},{"properties":{"city":"Millsboro","lon":-75.296013,"zip":19968,"librarysystem":"Millsboro Public Library","phone":3029348743,"id":"a62s03hoyzcf","address":"217 W. State St.","lat":38.593292,"libraryname":"Millsboro Public Library","state":"DE"},"type":"Feature","geometry":{"type":"Point","coordinates":[-75.296013,38.593292]}},{"properties":{"city":"Milton","lon":-75.310662,"zip":19720,"librarysystem":"Sussex County Department of Libraries","phone":3026848856,"id":"a62s03b48jtb","address":"121 Union St.","lat":38.778374,"libraryname":"Milton Public Library","state":"DE"},"type":"Feature","geometry":{"type":"Point","coordinates":[-75.310662,38.778374]}},{"properties":{"city":"New Castle","lon":-75.565262,"zip":19711,"librarysystem":"New Castle Public Library","phone":3023281995,"id":"a62s03n46n5k","address":"424 Delaware St.","lat":39.660616,"libraryname":"New Castle Public Library","state":"DE"},"type":"Feature","geometry":{"type":"Point","coordinates":[-75.565262,39.660616]}},{"properties":{"city":"Newark","lon":-75.736518,"zip":19730,"librarysystem":"Department of  Community Services","phone":3027317550,"id":"a62s03jybu6s","address":"750 Library Ave.","lat":39.682026,"libraryname":"Newark Free Library","state":"DE"},"type":"Feature","geometry":{"type":"Point","coordinates":[-75.736518,39.682026]}},{"properties":{"city":"Wilmington","lon":-75.527495,"zip":19802,"librarysystem":"Wilmington Public Library","phone":3027614290,"id":"a62s03leunz2","address":"3400 North Market St.","lat":39.758209,"libraryname":"North Wilmington Library","state":"DE"},"type":"Feature","geometry":{"type":"Point","coordinates":[-75.527495,39.758209]}},{"properties":{"city":"Rehoboth Beach","lon":-75.082576,"zip":19973,"librarysystem":"Rehoboth Beach Public Library","phone":3022278044,"id":"a62s03kkzuow","address":"226 Rehoboth Ave.","lat":38.715689,"libraryname":"Rehoboth Beach Public Library","state":"DE"},"type":"Feature","geometry":{"type":"Point","coordinates":[-75.082576,38.715689]}},{"properties":{"city":"Seaford","lon":-75.619595,"zip":19973,"librarysystem":"Seaford District Library","phone":3026292524,"id":"a62s03h8y1or","address":"402 North Porter St.","lat":38.642634,"libraryname":"Seaford District Library","state":"DE"},"type":"Feature","geometry":{"type":"Point","coordinates":[-75.619595,38.642634]}},{"properties":{"city":"Selbyville","lon":-75.222012,"zip":19975,"librarysystem":"Selbyville Public Library","phone":3024368195,"id":"a62s03dqrkju","address":"11 Main &amp; McCabe St.","lat":38.461294,"libraryname":"Selbyville Public Library","state":"DE"},"type":"Feature","geometry":{"type":"Point","coordinates":[-75.222012,38.461294]}},{"properties":{"city":"Smyrna","lon":-75.604622,"zip":19977,"librarysystem":"Smyrna Public Library","phone":3026534579,"id":"a62s03l2p4ah","address":"107 South Main St.","lat":39.299467,"libraryname":"Smyrna Public Library","state":"DE"},"type":"Feature","geometry":{"type":"Point","coordinates":[-75.604622,39.299467]}},{"properties":{"city":"Bethany Beach","lon":-75.062444,"zip":19930,"librarysystem":"Sussex County Department of Libraries","phone":3025395231,"id":"a62s03monsm3","address":"43 Kent Ave.","lat":38.535345,"libraryname":"South Coastal Library","state":"DE"},"type":"Feature","geometry":{"type":"Point","coordinates":[-75.062444,38.535345]}},{"properties":{"city":"Wilmington","lon":-75.547739,"zip":19801,"librarysystem":"Wilmington Public Library","phone":3025717400,"id":"a62s03hvxcc9","address":"10th &amp; Market St.","lat":39.74554,"libraryname":"Wilmington Public Library","state":"DE"},"type":"Feature","geometry":{"type":"Point","coordinates":[-75.547739,39.74554]}},{"properties":{"city":"Wilmington","lon":-75.573052,"zip":19805,"librarysystem":"Wilmington Public Library","phone":3025717425,"id":"a62s03mu1dtf","address":"2101 West Sixth St.","lat":39.751325,"libraryname":"Woodlawn Library","state":"DE"},"type":"Feature","geometry":{"type":"Point","coordinates":[-75.573052,39.751325]}}],"is_temporal":false,"author":{"url":"http://www.publiclibraries.com/delaware.htm","metadata":"","contact_name":"","contact_address":"","source":"publiclibrairies.com","contact_phone":""},"source":"http://www.publiclibraries.com/delaware.htm","pagination":{"sort":null,"start":0,"total":33,"limit":1000000},"state":"complete","tags":"books,delaware,education,libraries,library,public","published":"2008-05-09T12:00:00Z","id":881}