{"type":"FeatureCollection","data_type":"Dataset","url_type":null,"permissions":[{"permissions":{"download":true,"view":true},"group_id":"everyone"}],"classification":null,"title":"try again","count":30,"stream_id":88533,"contributor":{"url":"http://geocommons.com/users/15886","name":"BBWart"},"data_attributes":null,"calculation_params":null,"icon_link":null,"link":"http://geocommons.com/overlays/88533.json","extent":[-122.676,25.7743,-71.0598,47.6062],"geometry_types":["point"],"unique_name":null,"name":"try again","feature_count":30,"description":"","next_feature":null,"is_raster":false,"short_classification":"Y","stats":{"median sale":{"max":399500,"mean":164713.466666667,"variance":4475842659.84368,"stdev":66901.7388402101,"min":87000,"median":150000}},"features":[{"properties":{"city":"Phoenix","geo_score":0.857,"median sale":110000,"id":"a62pj1ck06uq","geo_precision":"city","state":"AZ"},"type":"Feature","geometry":{"type":"Point","coordinates":[-112.074037,33.448377]}},{"properties":{"city":"Los Angeles","geo_score":0.857,"median sale":130000,"id":"a62pj18168vs","geo_precision":"city","state":"CA"},"type":"Feature","geometry":{"type":"Point","coordinates":[-118.243685,34.052234]}},{"properties":{"city":"San Francisco","geo_score":0.857,"median sale":200000,"id":"a62pj1akypfp","geo_precision":"city","state":"CA"},"type":"Feature","geometry":{"type":"Point","coordinates":[-122.419416,37.77493]}},{"properties":{"city":"Riverside","geo_score":0.857,"median sale":111480,"id":"a62pj1cn8po4","geo_precision":"city","state":"CA"},"type":"Feature","geometry":{"type":"Point","coordinates":[-117.396156,33.953349]}},{"properties":{"city":"San Diego","geo_score":0.857,"median sale":140000,"id":"a62pj1gw793x","geo_precision":"city","state":"CA"},"type":"Feature","geometry":{"type":"Point","coordinates":[-117.157255,32.715329]}},{"properties":{"city":"Sacramento","geo_score":0.857,"median sale":130000,"id":"a62pj13ijmgf","geo_precision":"city","state":"CA"},"type":"Feature","geometry":{"type":"Point","coordinates":[-121.4944,38.581572]}},{"properties":{"city":"Denver","geo_score":0.857,"median sale":150000,"id":"a62pj1hjomto","geo_precision":"city","state":"CO"},"type":"Feature","geometry":{"type":"Point","coordinates":[-104.984703,39.739154]}},{"properties":{"city":"Washington","geo_score":0.857,"median sale":214500,"id":"a62pj17s8mgt","geo_precision":"city","state":"DC"},"type":"Feature","geometry":{"type":"Point","coordinates":[-77.036366,38.895112]}},{"properties":{"city":"Miami","geo_score":0.857,"median sale":110000,"id":"a62pj14azqi1","geo_precision":"city","state":"FL"},"type":"Feature","geometry":{"type":"Point","coordinates":[-80.193659,25.774266]}},{"properties":{"city":"Tampa","geo_score":0.857,"median sale":87000,"id":"a62pj13afc5v","geo_precision":"city","state":"FL"},"type":"Feature","geometry":{"type":"Point","coordinates":[-82.458428,27.947522]}},{"properties":{"city":"Orlando","geo_score":0.857,"median sale":125000,"id":"a62pj1eth7gi","geo_precision":"city","state":"FL"},"type":"Feature","geometry":{"type":"Point","coordinates":[-81.379237,28.538336]}},{"properties":{"city":"Atlanta","geo_score":0.857,"median sale":139000,"id":"a62pj17k0ona","geo_precision":"city","state":"GA"},"type":"Feature","geometry":{"type":"Point","coordinates":[-84.387982,33.748995]}},{"properties":{"city":"Chicago","geo_score":0.857,"median sale":150000,"id":"a62pj1ekltlh","geo_precision":"city","state":"IL"},"type":"Feature","geometry":{"type":"Point","coordinates":[-87.650052,41.850033]}},{"properties":{"city":"Boston","geo_score":0.857,"median sale":137500,"id":"a62pj1f01zyf","geo_precision":"city","state":"MA"},"type":"Feature","geometry":{"type":"Point","coordinates":[-71.059773,42.358431]}},{"properties":{"city":"Baltimore","geo_score":0.857,"median sale":165000,"id":"a62pj14zaut0","geo_precision":"city","state":"MD"},"type":"Feature","geometry":{"type":"Point","coordinates":[-76.612189,39.290385]}},{"properties":{"city":"Detroit","geo_score":0.857,"median sale":399500,"id":"a62pj18n5f2x","geo_precision":"city","state":"MI"},"type":"Feature","geometry":{"type":"Point","coordinates":[-83.045754,42.331427]}},{"properties":{"city":"Minneapolis","geo_score":0.857,"median sale":147500,"id":"a62pj138odoj","geo_precision":"city","state":"MN"},"type":"Feature","geometry":{"type":"Point","coordinates":[-93.263836,44.979965]}},{"properties":{"city":"St Louis","geo_score":0.0,"median sale":150000,"id":"a62pj1co5cnn","geo_precision":"unmatched","state":"MO"},"type":"Feature","geometry":null},{"properties":{"city":"Kansas City","geo_score":0.857,"median sale":175000,"id":"a62pj1h9okpj","geo_precision":"city","state":"MO"},"type":"Feature","geometry":{"type":"Point","coordinates":[-94.598583,39.102404]}},{"properties":{"city":"Philadelphia","geo_score":0.857,"median sale":200000,"id":"a62pj133usem","geo_precision":"city","state":"PA"},"type":"Feature","geometry":{"type":"Point","coordinates":[-75.163789,39.952335]}},{"properties":{"city":"Las Vegas","geo_score":0.857,"median sale":100000,"id":"a62pj1ajgfmz","geo_precision":"city","state":"NV"},"type":"Feature","geometry":{"type":"Point","coordinates":[-115.137223,36.174971]}},{"properties":{"city":"New York","geo_score":0.857,"median sale":210000,"id":"a62pj1dvggmp","geo_precision":"city","state":"NY"},"type":"Feature","geometry":{"type":"Point","coordinates":[-74.005973,40.714269]}},{"properties":{"city":"CincinnatI","geo_score":0.857,"median sale":197000,"id":"a62pj1a84xti","geo_precision":"city","state":"OH"},"type":"Feature","geometry":{"type":"Point","coordinates":[-84.456886,39.162004]}},{"properties":{"city":"Cleveland","geo_score":0.857,"median sale":100000,"id":"a62pj1feq3hk","geo_precision":"city","state":"OH"},"type":"Feature","geometry":{"type":"Point","coordinates":[-81.695409,41.499495]}},{"properties":{"city":"Portland","geo_score":0.857,"median sale":187924,"id":"a62pj17uqo1n","geo_precision":"city","state":"OR"},"type":"Feature","geometry":{"type":"Point","coordinates":[-122.676207,45.523452]}},{"properties":{"city":"Pittsburgh","geo_score":0.857,"median sale":350000,"id":"a62pj17bwplo","geo_precision":"city","state":"PA"},"type":"Feature","geometry":{"type":"Point","coordinates":[-79.995886,40.440625]}},{"properties":{"city":"Dallas","geo_score":0.857,"median sale":185000,"id":"a62pj134lt60","geo_precision":"city","state":"TX"},"type":"Feature","geometry":{"type":"Point","coordinates":[-96.806667,32.783056]}},{"properties":{"city":"Houston","geo_score":0.816,"median sale":140000,"id":"a62pj1dzmuwc","geo_precision":"city","state":"TX"},"type":"Feature","geometry":{"type":"Point","coordinates":[-96.919704,29.845783]}},{"properties":{"city":"San Antonio","geo_score":0.857,"median sale":150000,"id":"a62pj1atkgtu","geo_precision":"city","state":"TX"},"type":"Feature","geometry":{"type":"Point","coordinates":[-98.493628,29.424122]}},{"properties":{"city":"Seattle","geo_score":0.857,"median sale":150000,"id":"a62pj1h2zcml","geo_precision":"city","state":"WA"},"type":"Feature","geometry":{"type":"Point","coordinates":[-122.332071,47.60621]}}],"is_temporal":false,"author":{"url":"","metadata":"","contact_name":"","contact_address":"","source":"","contact_phone":""},"source":"","pagination":{"sort":null,"start":0,"total":30,"limit":1000000},"state":"complete","tags":"","published":"2014-08-10T22:41:29-04:00","id":88533}