{"type":"FeatureCollection","data_type":"Dataset","url_type":null,"permissions":[{"permissions":{"download":true,"view":true},"group_id":"everyone"}],"classification":null,"title":"publiclibraries.com, Hawaii Public Libraries, Hawaii, 1.2008","count":51,"stream_id":886,"contributor":{"url":"http://geocommons.com/users/2","name":"data"},"data_attributes":null,"calculation_params":null,"icon_link":null,"link":"http://geocommons.com/overlays/886.json","extent":[-159.669,19.0451,-154.941,22.2147],"geometry_types":["point"],"unique_name":null,"name":"publiclibraries.com, Hawaii Public Libraries, Hawaii, 1.2008","feature_count":51,"description":"This dataset displays the locations of all the public libraries in the state of Hawaii5. The data included is the name of the library, name of the library system, library's address, phone, and lat/lon coordinates. The data came from publiclibraries.com which is a updated directory of all the public libraries throughout the United States.\n","next_feature":null,"is_raster":false,"short_classification":"Y","stats":{"lon":{"max":-154.941489,"mean":-157.257209843137,"variance":1.74451656142678,"stdev":1.32080148448841,"min":-159.669058,"median":-157.798705},"zip":{"max":96826,"mean":96767.9607843137,"variance":1351.55843137255,"stdev":36.7635475895968,"min":96701,"median":96766},"lat":{"max":22.214663,"mean":20.9313759803922,"variance":0.683674338278939,"stdev":0.826846018481639,"min":19.045148,"median":21.279887}},"features":[{"properties":{"city":"","lon":-157.930984,"zip":96701,"librarysystem":"Hawaii State Public Library System","phone":"808483-7333","id":"a65zu7tip5yb","address":"99-143 Moanalua Rd.","lat":21.379995,"libraryname":"Aiea Public Library","state":"HI"},"type":"Feature","geometry":{"type":"Point","coordinates":[-157.930984,21.379995]}},{"properties":{"city":"","lon":-157.754254,"zip":96821,"librarysystem":"Hawaii State Public Library System","phone":"808377-2456","id":"a65zu7s7r3kh","address":"5246 Kalanianaole Hwy.","lat":21.278674,"libraryname":"Aina Haina Public Library","state":"HI"},"type":"Feature","geometry":{"type":"Point","coordinates":[-157.754254,21.278674]}},{"properties":{"city":"Kapaau","lon":-155.793369,"zip":96755,"librarysystem":"Hawaii State Public Library System","phone":"808889-6655","id":"a65zu7k9w89p","address":"P.O. Box 248","lat":20.230461,"libraryname":"Bond Memorial Public Library","state":"HI"},"type":"Feature","geometry":{"type":"Point","coordinates":[-155.793369,20.230461]}},{"properties":{"city":"","lon":-158.008448,"zip":96706,"librarysystem":"Hawaii State Public Library System","phone":"808689-1204","id":"a65zu7yjr54d","address":"91-950 North Road","lat":21.314313,"libraryname":"Ewa Beach Public and School Library","state":"HI"},"type":"Feature","geometry":{"type":"Point","coordinates":[-158.008448,21.314313]}},{"properties":{"city":"Hana","lon":-155.992991,"zip":96713,"librarysystem":"Hawaii State Public Library System","phone":"808248-4848","id":"a65zu7kuthwf","address":"P.O. Box 490","lat":20.727289,"libraryname":"Hana Public and School Library","state":"HI"},"type":"Feature","geometry":{"type":"Point","coordinates":[-155.992991,20.727289]}},{"properties":{"city":"Hanapepe","lon":-159.590981,"zip":96716,"librarysystem":"Hawaii State Public Library System","phone":"808335-8418","id":"a65zu7qfo5xb","address":"P.O. Box B","lat":21.915634,"libraryname":"Hanapepe Public Library","state":"HI"},"type":"Feature","geometry":{"type":"Point","coordinates":[-159.590981,21.915634]}},{"properties":{"city":"","lon":-157.70353,"zip":96825,"librarysystem":"Hawaii State Public Library System","phone":"808397-5833","id":"a65zu7pwfiyr","address":"249 Lunalilo Home Road","lat":21.277515,"libraryname":"Hawaii Kai Public Library","state":"HI"},"type":"Feature","geometry":{"type":"Point","coordinates":[-157.70353,21.277515]}},{"properties":{"city":"","lon":-157.858286,"zip":96813,"librarysystem":"Hawaii State Public Library System","phone":"808586-3500","id":"a65zu7jes8x7","address":"478 S. King St.","lat":21.305294,"libraryname":"Hawaii State Library","state":"HI"},"type":"Feature","geometry":{"type":"Point","coordinates":[-157.858286,21.305294]}},{"properties":{"city":"Hilo","lon":-155.090808,"zip":96720,"librarysystem":"Hawaii State Public Library System","phone":"808933-8888","id":"a65zu7w1wxd6","address":"300 Waianuenue Ave","lat":19.724286,"libraryname":"Hilo Public Library","state":"HI"},"type":"Feature","geometry":{"type":"Point","coordinates":[-155.090808,19.724286]}},{"properties":{"city":"Holualoa","lon":-155.942049,"zip":96725,"librarysystem":"Hawaii State Public Library System","phone":"808322-1914","id":"a65zu7xm2l2s","address":"P.O. Box 214","lat":19.61995,"libraryname":"Holualoa Public Library","state":"HI"},"type":"Feature","geometry":{"type":"Point","coordinates":[-155.942049,19.61995]}},{"properties":{"city":"Honokaa","lon":-155.463069,"zip":96727,"librarysystem":"Hawaii State Public Library System","phone":"808775-8881","id":"a65zu7qvrgy0","address":"45-3380 Mamane Street","lat":20.077266,"libraryname":"Honokaa Public Library","state":"HI"},"type":"Feature","geometry":{"type":"Point","coordinates":[-155.463069,20.077266]}},{"properties":{"city":"","lon":-157.947127,"zip":96731,"librarysystem":"Hawaii State Public Library System","phone":"808293-8935","id":"a65zu7xqc8vi","address":"56-490 Kamehameha Hwy.","lat":21.676099,"libraryname":"Kahuku Public and School Library","state":"HI"},"type":"Feature","geometry":{"type":"Point","coordinates":[-157.947127,21.676099]}},{"properties":{"city":"Kahului","lon":-156.470449,"zip":96732,"librarysystem":"Hawaii State Public Library System","phone":"808873-3097","id":"a65zu7yatk46","address":"90 School St.","lat":20.887101,"libraryname":"Kahului Public Library","state":"HI"},"type":"Feature","geometry":{"type":"Point","coordinates":[-156.470449,20.887101]}},{"properties":{"city":"","lon":-157.73986,"zip":96734,"librarysystem":"Hawaii State Public Library System","phone":"808266-9911","id":"a65zu7lgtvxt","address":"239 Kuulei Road","lat":21.396576,"libraryname":"Kailua Public Library","state":"HI"},"type":"Feature","geometry":{"type":"Point","coordinates":[-157.73986,21.396576]}},{"properties":{"city":"Kailua Kona","lon":-155.991051,"zip":96740,"librarysystem":"Hawaii State Public Library System","phone":"808327-4327","id":"a65zu7ye8uey","address":"75-138 Hualalai Rd.","lat":19.638097,"libraryname":"Kailua-Kona Public Library","state":"HI"},"type":"Feature","geometry":{"type":"Point","coordinates":[-155.991051,19.638097]}},{"properties":{"city":"","lon":-157.798705,"zip":96816,"librarysystem":"Hawaii State Public Library System","phone":"808733-8422","id":"a65zu7xq9l7b","address":"1041 Koko Head Ave.","lat":21.279887,"libraryname":"Kaimuki Public Library","state":"HI"},"type":"Feature","geometry":{"type":"Point","coordinates":[-157.798705,21.279887]}},{"properties":{"city":"","lon":-157.871859,"zip":96819,"librarysystem":"Hawaii State Public Library System","phone":"808832-3466","id":"a65zu7uq0ed1","address":"1325 Kalihi Street","lat":21.333731,"libraryname":"Kalihi-Palama Public Library","state":"HI"},"type":"Feature","geometry":{"type":"Point","coordinates":[-157.871859,21.333731]}},{"properties":{"city":"","lon":-157.799371,"zip":96744,"librarysystem":"Hawaii State Public Library System","phone":"808233-5676","id":"a65zu7uzkmzg","address":"45-829 Kamehameha Hwy.","lat":21.412194,"libraryname":"Kaneohe Public Library","state":"HI"},"type":"Feature","geometry":{"type":"Point","coordinates":[-157.799371,21.412194]}},{"properties":{"city":"Kapaa","lon":-159.315917,"zip":96746,"librarysystem":"Hawaii State Public Library System","phone":"808821-4422","id":"a65zu7yegtox","address":"1464 Kuhio Highway","lat":22.077865,"libraryname":"Kapaa Public Library","state":"HI"},"type":"Feature","geometry":{"type":"Point","coordinates":[-159.315917,22.077865]}},{"properties":{"city":"","lon":-158.079638,"zip":96707,"librarysystem":"Hawaii State Public Library System","phone":"808 693-7050","id":"a65zu7l5a184","address":"1020 Manawai Street","lat":21.334373,"libraryname":"Kapolei Public Library","state":"HI"},"type":"Feature","geometry":{"type":"Point","coordinates":[-158.079638,21.334373]}},{"properties":{"city":"Keaau","lon":-155.03814,"zip":96749,"librarysystem":"Hawaii State Public Library System","phone":"808982-4281","id":"a65zu7l430ny","address":"16-571 Keaau-Pahoa Rd.","lat":19.620877,"libraryname":"Keaau Public and School Library","state":"HI"},"type":"Feature","geometry":{"type":"Point","coordinates":[-155.03814,19.620877]}},{"properties":{"city":"Kealakekua","lon":-155.936907,"zip":96750,"librarysystem":"Hawaii State Public Library System","phone":"808323-7585","id":"a65zu7teoewu","address":"P.O. Box 768","lat":19.512277,"libraryname":"Kealakekua Public Library","state":"HI"},"type":"Feature","geometry":{"type":"Point","coordinates":[-155.936907,19.512277]}},{"properties":{"city":"Kihei","lon":-156.454015,"zip":96753,"librarysystem":"Hawaii State Public Library System","phone":"808875-6833","id":"a65zu7zghqnn","address":"35 Waimahaihai St.","lat":20.734881,"libraryname":"Kihei Public Library","state":"HI"},"type":"Feature","geometry":{"type":"Point","coordinates":[-156.454015,20.734881]}},{"properties":{"city":"Koloa","lon":-159.466107,"zip":96756,"librarysystem":"Hawaii State Public Library System","phone":"808742-8455","id":"a65zu7vnxi27","address":"P.O. Box 9","lat":21.89888,"libraryname":"Koloa Public and School Library","state":"HI"},"type":"Feature","geometry":{"type":"Point","coordinates":[-159.466107,21.89888]}},{"properties":{"city":"Lahaina","lon":-156.678256,"zip":96761,"librarysystem":"Hawaii State Public Library System","phone":"808662-3950","id":"a65zu7olb0bm","address":"680 Wharf St.","lat":20.872246,"libraryname":"Lahaina Public Library","state":"HI"},"type":"Feature","geometry":{"type":"Point","coordinates":[-156.678256,20.872246]}},{"properties":{"city":"Lanai City","lon":-156.919579,"zip":96763,"librarysystem":"Hawaii State Public Library System","phone":"808565-7920","id":"a65zu7m3i4pe","address":"P.O.Box 630550","lat":20.827965,"libraryname":"Lanai Public and School Library","state":"HI"},"type":"Feature","geometry":{"type":"Point","coordinates":[-156.919579,20.827965]}},{"properties":{"city":"Laupahoehoe","lon":-155.235227,"zip":96764,"librarysystem":"Hawaii State Public Library System","phone":"808962-2229","id":"a65zu7yq93nc","address":"P.O. Box 249","lat":19.979308,"libraryname":"Laupahoehoe Public and School Library","state":"HI"},"type":"Feature","geometry":{"type":"Point","coordinates":[-155.235227,19.979308]}},{"properties":{"city":"","lon":-157.816294,"zip":96815,"librarysystem":"Hawaii State Public Library System","phone":"808733-8444","id":"a65zu7p5v983","address":"402 Kapahulu Ave.","lat":21.274215,"libraryname":"Library for the Blind and Physically Handicapped","state":"HI"},"type":"Feature","geometry":{"type":"Point","coordinates":[-157.816294,21.274215]}},{"properties":{"city":"Lihue","lon":-159.364602,"zip":96766,"librarysystem":"Hawaii State Public Library System","phone":"808241-3222","id":"a65zu7ntdd72","address":"4344 Hardy St.","lat":21.976571,"libraryname":"Lihue Public Library","state":"HI"},"type":"Feature","geometry":{"type":"Point","coordinates":[-159.364602,21.976571]}},{"properties":{"city":"","lon":-157.86071,"zip":96817,"librarysystem":"Hawaii State Public Library System","phone":"808587-7577","id":"a65zu7ricnqc","address":"1515 Liliha St.","lat":21.320921,"libraryname":"Liliha Public Library","state":"HI"},"type":"Feature","geometry":{"type":"Point","coordinates":[-157.86071,21.320921]}},{"properties":{"city":"Makawao","lon":-156.311062,"zip":96768,"librarysystem":"Hawaii State Public Library System","phone":"808573-8785","id":"a65zu7uimr1o","address":"1159 Makawao Ave.","lat":20.85338,"libraryname":"Makawao Public Library","state":"HI"},"type":"Feature","geometry":{"type":"Point","coordinates":[-156.311062,20.85338]}},{"properties":{"city":"","lon":-157.810276,"zip":96822,"librarysystem":"Hawaii State Public Library System","phone":"808988-0459","id":"a65zu7z3r91x","address":"2716 Woodlawn Drive","lat":21.30736,"libraryname":"Manoa Public Library","state":"HI"},"type":"Feature","geometry":{"type":"Point","coordinates":[-157.810276,21.30736]}},{"properties":{"city":"","lon":-157.827447,"zip":96826,"librarysystem":"Hawaii State Public Library System","phone":"808973-1099","id":"a65zu7r11syo","address":"2211 S. King St.","lat":21.293848,"libraryname":"McCully-Moiliili Public Library","state":"HI"},"type":"Feature","geometry":{"type":"Point","coordinates":[-157.827447,21.293848]}},{"properties":{"city":"","lon":-158.007293,"zip":96789,"librarysystem":"Hawaii State Public Library System","phone":"808627-7470","id":"a65zu7n9fegs","address":"95-450 Makaimoimo St.","lat":21.450841,"libraryname":"Mililani Public Library","state":"HI"},"type":"Feature","geometry":{"type":"Point","coordinates":[-158.007293,21.450841]}},{"properties":{"city":"Kaunakakai","lon":-156.997072,"zip":96748,"librarysystem":"Hawaii State Public Library System","phone":"808553-1765","id":"a65zu7t4oo13","address":"P.O. Box 395","lat":21.08636,"libraryname":"Molokai Public Library","state":"HI"},"type":"Feature","geometry":{"type":"Point","coordinates":[-156.997072,21.08636]}},{"properties":{"city":"Mountain View","lon":-155.126509,"zip":96771,"librarysystem":"Hawaii State Public Library System","phone":"808968-2322","id":"a65zu7r5dtg3","address":"P.O. Box 380","lat":19.52513,"libraryname":"Mountain View Public and School Library","state":"HI"},"type":"Feature","geometry":{"type":"Point","coordinates":[-155.126509,19.52513]}},{"properties":{"city":"Naalehu","lon":-155.627424,"zip":96772,"librarysystem":"Hawaii State Public Library System","phone":"808939-2442","id":"a65zu7omfghg","address":"P.O. Box 653","lat":19.045148,"libraryname":"Naalehu Public Library","state":"HI"},"type":"Feature","geometry":{"type":"Point","coordinates":[-155.627424,19.045148]}},{"properties":{"city":"Pahala","lon":-155.481744,"zip":96777,"librarysystem":"Hawaii State Public Library System","phone":"808928-2015","id":"a65zu7yla5p6","address":"P.O. Box 400","lat":19.194096,"libraryname":"Pahala Public and School Library","state":"HI"},"type":"Feature","geometry":{"type":"Point","coordinates":[-155.481744,19.194096]}},{"properties":{"city":"Pahoa","lon":-154.941489,"zip":96778,"librarysystem":"Hawaii State Public Library System","phone":"808965-2171","id":"a65zu7uaq0na","address":"15-3070 Pahoa-Kalapana Rd.","lat":19.49135,"libraryname":"Pahoa Public and School Library","state":"HI"},"type":"Feature","geometry":{"type":"Point","coordinates":[-154.941489,19.49135]}},{"properties":{"city":"","lon":-157.969343,"zip":96782,"librarysystem":"Hawaii State Public Library System","phone":"808453-6566","id":"a65zu7tp5ybn","address":"1138 Waimano Home Rd.","lat":21.396241,"libraryname":"Pearl City Public Library","state":"HI"},"type":"Feature","geometry":{"type":"Point","coordinates":[-157.969343,21.396241]}},{"properties":{"city":"Princeville","lon":-159.472187,"zip":96722,"librarysystem":"Hawaii State Public Library System","phone":"808826-4310","id":"a65zu7uclmye","address":"4343 Emmalani Drive","lat":22.214663,"libraryname":"Princeville Public Library","state":"HI"},"type":"Feature","geometry":{"type":"Point","coordinates":[-159.472187,22.214663]}},{"properties":{"city":"","lon":-157.913659,"zip":96818,"librarysystem":"Hawaii State Public Library System","phone":"808831-6831","id":"a65zu7llhdvi","address":"3225 Salt Lake Blvd.","lat":21.343517,"libraryname":"Salt Lake/Moanalua Public Library","state":"HI"},"type":"Feature","geometry":{"type":"Point","coordinates":[-157.913659,21.343517]}},{"properties":{"city":"Kamuela","lon":-155.669311,"zip":96743,"librarysystem":"Hawaii State Public Library System","phone":"808887-6067","id":"a65zu7p2o0bw","address":"67-1209 Mamalahoa Hwy.","lat":20.019965,"libraryname":"Thelma Parker Memorial Public and School Library","state":"HI"},"type":"Feature","geometry":{"type":"Point","coordinates":[-155.669311,20.019965]}},{"properties":{"city":"","lon":-158.026317,"zip":96786,"librarysystem":"Hawaii State Public Library System","phone":"808622-6345","id":"a65zu7qphyew","address":"820 California Ave.","lat":21.497469,"libraryname":"Wahiawa Public Library","state":"HI"},"type":"Feature","geometry":{"type":"Point","coordinates":[-158.026317,21.497469]}},{"properties":{"city":"","lon":-158.125162,"zip":96791,"librarysystem":"Hawaii State Public Library System","phone":"808637-8286","id":"a65zu7miinz3","address":"67-068 Kealohanui St.","lat":21.574196,"libraryname":"Waialua Public Library","state":"HI"},"type":"Feature","geometry":{"type":"Point","coordinates":[-158.125162,21.574196]}},{"properties":{"city":"","lon":-158.192356,"zip":96792,"librarysystem":"Hawaii State Public Library System","phone":"808697-7868","id":"a65zu7qvsr4p","address":"85-625 Farrington Hwy.","lat":21.450666,"libraryname":"Waianae Public Library","state":"HI"},"type":"Feature","geometry":{"type":"Point","coordinates":[-158.192356,21.450666]}},{"properties":{"city":"","lon":-157.816288,"zip":96815,"librarysystem":"Hawaii State Public Library System","phone":"808733-8488","id":"a65zu7iytp5a","address":"400 Kapahulu Ave.","lat":21.274175,"libraryname":"Waikiki-Kapahulu Public Library","state":"HI"},"type":"Feature","geometry":{"type":"Point","coordinates":[-157.816288,21.274175]}},{"properties":{"city":"Wailuku","lon":-156.504787,"zip":96793,"librarysystem":"Hawaii State Public Library System","phone":"808243-5766","id":"a65zu7tnh4op","address":"251 High St.","lat":20.885156,"libraryname":"Wailuku Public Library","state":"HI"},"type":"Feature","geometry":{"type":"Point","coordinates":[-156.504787,20.885156]}},{"properties":{"city":"","lon":-157.713209,"zip":96795,"librarysystem":"Hawaii State Public Library System","phone":"808259-2610","id":"a65zu7ygjyto","address":"41-1320 Kalanianaole Hwy.","lat":21.34667,"libraryname":"Waimanalo Public &amp; School Library","state":"HI"},"type":"Feature","geometry":{"type":"Point","coordinates":[-157.713209,21.34667]}},{"properties":{"city":"Waimea","lon":-159.669058,"zip":96796,"librarysystem":"Hawaii State Public Library System","phone":"808338-6848","id":"a65zu7o53o61","address":"P.O. Box 397","lat":21.959508,"libraryname":"Waimea Public Library","state":"HI"},"type":"Feature","geometry":{"type":"Point","coordinates":[-159.669058,21.959508]}},{"properties":{"city":"","lon":-158.003126,"zip":96797,"librarysystem":"Hawaii State Public Library System","phone":"808675-0358","id":"a65zu7ql02vh","address":"94-275 Mokuola St.","lat":21.385695,"libraryname":"Waipahu Public Library","state":"HI"},"type":"Feature","geometry":{"type":"Point","coordinates":[-158.003126,21.385695]}}],"is_temporal":false,"author":{"url":"http://www.publiclibraries.com/hawaii.htm","metadata":"","contact_name":"","contact_address":"","source":"publiclibrairies.comh","contact_phone":""},"source":"http://www.publiclibraries.com/hawaii.htm","pagination":{"sort":null,"start":0,"total":51,"limit":1000000},"state":"complete","tags":"books,education,hawaii,libraries,library,public","published":"2008-05-09T12:00:00Z","id":886}