{"type":"FeatureCollection","data_type":"Dataset","url_type":null,"permissions":[{"permissions":{"download":true,"view":true},"group_id":"everyone"}],"classification":null,"title":"publiclibraries.com, Idaho Public Libraries, Idaho, 1.2008","count":142,"stream_id":888,"contributor":{"url":"http://geocommons.com/users/2","name":"data"},"data_attributes":null,"calculation_params":null,"icon_link":null,"link":"http://geocommons.com/overlays/888.json","extent":[-117.027,39.8068,-85.3525,48.6962],"geometry_types":["point"],"unique_name":null,"name":"publiclibraries.com, Idaho Public Libraries, Idaho, 1.2008","feature_count":142,"description":"This dataset displays the locations of all the public libraries in the state of Idaho. The data included is the name of the library, name of the library system, library's address, phone, and lat/lon coordinates. The data came from publiclibraries.com which is a updated directory of all the public libraries throughout the United States.\n","next_feature":null,"is_raster":false,"short_classification":"Y","stats":{"lon":{"max":-85.352471,"mean":-114.753378661972,"variance":9.78031888888426,"stdev":3.12735013851731,"min":-117.02712,"median":-115.970735},"phone":{"max":8086845102,"mean":2128397692.47887,"variance":2.53585661467648e+17,"stdev":503572895.88266,"min":2082262335,"median":2086634834},"lat":{"max":48.696173,"mean":44.5437991971831,"variance":3.43463623370375,"stdev":1.85327716051964,"min":39.806782,"median":43.827532}},"features":[{"properties":{"city":"Aberdeen","lon":-112.8398,"zip":"","librarysystem":"Aberdeen District Library","phone":2083974427,"id":"a65roy3nyude","address":"76 E Central Ave","lat":42.944219,"libraryname":"Aberdeen District Library","state":"ID"},"type":"Feature","geometry":{"type":"Point","coordinates":[-112.8398,42.944219]}},{"properties":{"city":"Boise","lon":-116.314928,"zip":"","librarysystem":"Ada Community Library","phone":2083620181,"id":"a65roy57zwo6","address":"10664 W Victory Rd","lat":43.575896,"libraryname":"Ada Community Library","state":"ID"},"type":"Feature","geometry":{"type":"Point","coordinates":[-116.314928,43.575896]}},{"properties":{"city":"American Falls","lon":-112.85259,"zip":"","librarysystem":"American Falls Library","phone":2082262335,"id":"a65roxypxig1","address":"308 Roosevelt St","lat":42.782654,"libraryname":"American Falls Library","state":"ID"},"type":"Feature","geometry":{"type":"Point","coordinates":[-112.85259,42.782654]}},{"properties":{"city":"New Plymouth","lon":-116.819874,"zip":"","librarysystem":"Armoral Tuttle Public Library","phone":2082785338,"id":"a65roxt3dr20","address":"301 N Plymouth Ave","lat":43.973001,"libraryname":"Armoral Tuttle Public Library","state":"ID"},"type":"Feature","geometry":{"type":"Point","coordinates":[-116.819874,43.973001]}},{"properties":{"city":"Athol","lon":-116.706749,"zip":"","librarysystem":"Kootenai-Shoshone Library District","phone":2086832979,"id":"a65roy4riybc","address":"330399 3rd Street","lat":47.94439,"libraryname":"Athol Branch","state":"ID"},"type":"Feature","geometry":{"type":"Point","coordinates":[-116.706749,47.94439]}},{"properties":{"city":"Montpelier","lon":-111.302252,"zip":"","librarysystem":"Bear Lake County Library District","phone":2088471664,"id":"a65roy3kwa9x","address":"138 N 6th St","lat":42.318291,"libraryname":"Bear Lake County Library","state":"ID"},"type":"Feature","geometry":{"type":"Point","coordinates":[-111.302252,42.318291]}},{"properties":{"city":"Bellevue","lon":-114.259943,"zip":"","librarysystem":"Bellevue Public Library","phone":2087882128,"id":"a65roxu34hsf","address":"115 E Pine","lat":43.46298,"libraryname":"Bellevue Public Library","state":"ID"},"type":"Feature","geometry":{"type":"Point","coordinates":[-114.259943,43.46298]}},{"properties":{"city":"Fernwood","lon":-116.394915,"zip":"","librarysystem":"Benewah District Library","phone":2082454883,"id":"a65roy6kp39s","address":"46 Isaacson","lat":47.114155,"libraryname":"Benewah District Library","state":"ID"},"type":"Feature","geometry":{"type":"Point","coordinates":[-116.394915,47.114155]}},{"properties":{"city":"Blackfoot","lon":-112.345103,"zip":"","librarysystem":"Blackfoot Public/Blackfoot Rural District Library","phone":2087858628,"id":"a65roy3xktqc","address":"129 N Broadway","lat":43.190388,"libraryname":"Blackfoot Public Library","state":"ID"},"type":"Feature","geometry":{"type":"Point","coordinates":[-112.345103,43.190388]}},{"properties":{"city":"Idaho City","lon":-115.833765,"zip":"","librarysystem":"Boise Basin Library District","phone":2083924558,"id":"a65roxxrl2wq","address":"404 Montgomery St","lat":43.827796,"libraryname":"Boise Basin Library","state":"ID"},"type":"Feature","geometry":{"type":"Point","coordinates":[-115.833765,43.827796]}},{"properties":{"city":"Boise","lon":-116.207053,"zip":"","librarysystem":"Boise Public Library","phone":2083844076,"id":"a65roy5hhfqx","address":"715 S. Capitol Blvd","lat":43.610327,"libraryname":"Boise Public Library","state":"ID"},"type":"Feature","geometry":{"type":"Point","coordinates":[-116.207053,43.610327]}},{"properties":{"city":"Bonners Ferry","lon":-116.311325,"zip":"","librarysystem":"Boundary County District Library","phone":2082673750,"id":"a65roxz25d4l","address":"6370 Kootenai","lat":48.696173,"libraryname":"Boundary County District Library","state":"ID"},"type":"Feature","geometry":{"type":"Point","coordinates":[-116.311325,48.696173]}},{"properties":{"city":"Bovill","lon":-116.396384,"zip":"","librarysystem":"Latah County Library District","phone":2088263603,"id":"a65roy30tx0f","address":"310 First Ave","lat":46.85804,"libraryname":"Bovill Public Library","state":"ID"},"type":"Feature","geometry":{"type":"Point","coordinates":[-116.396384,46.85804]}},{"properties":{"city":"Bruneau","lon":-115.796209,"zip":"","librarysystem":"Bruneau Valley District","phone":2088452131,"id":"a65roy1owpif","address":"#2 Ruth St","lat":42.880445,"libraryname":"Bruneau Valley District","state":"ID"},"type":"Feature","geometry":{"type":"Point","coordinates":[-115.796209,42.880445]}},{"properties":{"city":"Buhl","lon":-114.761286,"zip":"","librarysystem":"Buhl Public Library","phone":2085436500,"id":"a65roy0ju8af","address":"215 Broadway N","lat":42.599984,"libraryname":"Buhl Public Library","state":"ID"},"type":"Feature","geometry":{"type":"Point","coordinates":[-114.761286,42.599984]}},{"properties":{"city":"Burley","lon":-113.796028,"zip":"","librarysystem":"Burley Public Library","phone":2088787708,"id":"a65roxr0dcwt","address":"1300 Miller Ave","lat":42.536651,"libraryname":"Burley Public Library","state":"ID"},"type":"Feature","geometry":{"type":"Point","coordinates":[-113.796028,42.536651]}},{"properties":{"city":"Caldwell","lon":-116.688494,"zip":"","librarysystem":"Caldwell Public Library","phone":2084593242,"id":"a65roxs9qzn7","address":"1010 Dearborn St","lat":43.661949,"libraryname":"Caldwell Public Library","state":"ID"},"type":"Feature","geometry":{"type":"Point","coordinates":[-116.688494,43.661949]}},{"properties":{"city":"Fairfield","lon":-114.793834,"zip":"","librarysystem":"Camas County District Library","phone":2087642553,"id":"a65roy62mtmg","address":"519 1st St W","lat":43.344275,"libraryname":"Camas County District Library","state":"ID"},"type":"Feature","geometry":{"type":"Point","coordinates":[-114.793834,43.344275]}},{"properties":{"city":"Cambridge","lon":-116.674217,"zip":"","librarysystem":"Cambridge District Library","phone":2082573434,"id":"a65roxz0rhia","address":"120 N Superior St","lat":44.573459,"libraryname":"Cambridge Community District Library","state":"ID"},"type":"Feature","geometry":{"type":"Point","coordinates":[-116.674217,44.573459]}},{"properties":{"city":"Cascade","lon":-116.041223,"zip":"","librarysystem":"Cascade Public Library","phone":2083824757,"id":"a65roy0oirkn","address":"105 N Front St","lat":44.51648,"libraryname":"Cascade Public Library","state":"ID"},"type":"Feature","geometry":{"type":"Point","coordinates":[-116.041223,44.51648]}},{"properties":{"city":"Challis","lon":-114.233339,"zip":"","librarysystem":"Challis Public Library","phone":2088794267,"id":"a65roy5w03gc","address":"Sixth And Main St","lat":44.50508,"libraryname":"Challis Public Library","state":"ID"},"type":"Feature","geometry":{"type":"Point","coordinates":[-114.233339,44.50508]}},{"properties":{"city":"Dubois","lon":-112.22829,"zip":"","librarysystem":"Clark County District Library","phone":2083745267,"id":"a65roy59gd42","address":"160 W Main St","lat":44.176418,"libraryname":"Clark County District Library","state":"ID"},"type":"Feature","geometry":{"type":"Point","coordinates":[-112.22829,44.176418]}},{"properties":{"city":"Clarkia","lon":-116.253065,"zip":"","librarysystem":"Clarkia District Library","phone":2082452908,"id":"a65roxy06nab","address":"377 Poplar St","lat":47.010974,"libraryname":"Clarkia District Library","state":"ID"},"type":"Feature","geometry":{"type":"Point","coordinates":[-116.253065,47.010974]}},{"properties":{"city":"Orofino","lon":-116.25168,"zip":"","librarysystem":"Clearwater Library District","phone":2084763411,"id":"a65roxrq9bhp","address":"402 Michigan Ave","lat":46.480577,"libraryname":"Clearwater Memorial Public Library","state":"ID"},"type":"Feature","geometry":{"type":"Point","coordinates":[-116.25168,46.480577]}},{"properties":{"city":"Coeur d'Alene","lon":-116.784255,"zip":"","librarysystem":"Coeur d'Alene Public Library","phone":2087692315,"id":"a65roy10sjdu","address":"201 E Harrison Ave","lat":47.686353,"libraryname":"Coeur d'Alene Public Library","state":"ID"},"type":"Feature","geometry":{"type":"Point","coordinates":[-116.784255,47.686353]}},{"properties":{"city":"Council","lon":-116.436843,"zip":"","librarysystem":"Council Valley Free Library","phone":2082536004,"id":"a65roxsc8bpj","address":"104 California Ave","lat":44.728208,"libraryname":"Council Valley Free Library","state":"ID"},"type":"Feature","geometry":{"type":"Point","coordinates":[-116.436843,44.728208]}},{"properties":{"city":"Rupert","lon":-113.671213,"zip":"","librarysystem":"DeMary Memorial Library","phone":2084363874,"id":"a65roxug9xzf","address":"417 7th St","lat":42.618407,"libraryname":"DeMary Memorial Library","state":"ID"},"type":"Feature","geometry":{"type":"Point","coordinates":[-113.671213,42.618407]}},{"properties":{"city":"Deary","lon":-116.557869,"zip":"","librarysystem":"Latah County Library District","phone":2088771664,"id":"a65roxs7pqae","address":"304 2nd Ave","lat":46.79949,"libraryname":"Deary Public Library","state":"ID"},"type":"Feature","geometry":{"type":"Point","coordinates":[-116.557869,46.79949]}},{"properties":{"city":"Eagle","lon":-116.34702,"zip":"","librarysystem":"Eagle Public Library","phone":2089396814,"id":"a65roy1heboa","address":"100 N Stierman Way","lat":43.695728,"libraryname":"Eagle Public Library","state":"ID"},"type":"Feature","geometry":{"type":"Point","coordinates":[-116.34702,43.695728]}},{"properties":{"city":"Clark Fork","lon":-116.178411,"zip":"","librarysystem":"East Bonner County District Library","phone":2082661321,"id":"a65roy2gnedc","address":"110.5 3rd St","lat":48.145654,"libraryname":"East Bonner County Dist - Clark Fork Branch","state":"ID"},"type":"Feature","geometry":{"type":"Point","coordinates":[-116.178411,48.145654]}},{"properties":{"city":"Sandpoint","lon":-116.548995,"zip":"","librarysystem":"East Bonner County Library District","phone":2082636930,"id":"a65roy2yk2x7","address":"419 North 2nd Ave","lat":48.27639,"libraryname":"East Bonner County Library","state":"ID"},"type":"Feature","geometry":{"type":"Point","coordinates":[-116.548995,48.27639]}},{"properties":{"city":"Grand View","lon":-116.093639,"zip":"","librarysystem":"Eastern Owyhee County District Library","phone":2088342785,"id":"a65roxxv3r9w","address":"520 Boise Ave","lat":42.98677,"libraryname":"Eastern Owyhee County District Library","state":"ID"},"type":"Feature","geometry":{"type":"Point","coordinates":[-116.093639,42.98677]}},{"properties":{"city":"Elk River","lon":-116.180507,"zip":"","librarysystem":"Elk River Free Public Library","phone":2088263539,"id":"a65roy0be85n","address":"203 Main St","lat":46.782221,"libraryname":"Elk River Free Public Library","state":"ID"},"type":"Feature","geometry":{"type":"Point","coordinates":[-116.180507,46.782221]}},{"properties":{"city":"Emmett","lon":-116.498814,"zip":"","librarysystem":"Emmett Public Library","phone":2083656057,"id":"a65roy6rrtyz","address":"275 S Hayes Ave","lat":43.873926,"libraryname":"Emmett Public Library","state":"ID"},"type":"Feature","geometry":{"type":"Point","coordinates":[-116.498814,43.873926]}},{"properties":{"city":"Filer","lon":-114.606446,"zip":"","librarysystem":"Filer Public Library","phone":2083264143,"id":"a65roxxgs488","address":"219 Main St","lat":42.570078,"libraryname":"Filer Public Library","state":"ID"},"type":"Feature","geometry":{"type":"Point","coordinates":[-114.606446,42.570078]}},{"properties":{"city":"Ashton","lon":-111.444339,"zip":"","librarysystem":"Fremont County District Library","phone":2086527280,"id":"a65roxwacr8u","address":"925 Main","lat":44.07135,"libraryname":"Fremont County District - Ashton","state":"ID"},"type":"Feature","geometry":{"type":"Point","coordinates":[-111.444339,44.07135]}},{"properties":{"city":"St. Anthony","lon":-111.684112,"zip":"","librarysystem":"Fremont County District Library","phone":2086243192,"id":"a65roy1ufc6z","address":"110 W Main","lat":43.966233,"libraryname":"Fremont County District - St Anthony","state":"ID"},"type":"Feature","geometry":{"type":"Point","coordinates":[-111.684112,43.966233]}},{"properties":{"city":"Garden City","lon":-116.279874,"zip":"","librarysystem":"Garden City Library","phone":2084722940,"id":"a65roxtj2g4c","address":"6015 Glenwood Street","lat":43.659721,"libraryname":"Garden City Library","state":"ID"},"type":"Feature","geometry":{"type":"Point","coordinates":[-116.279874,43.659721]}},{"properties":{"city":"Garden Valley","lon":-115.970735,"zip":"","librarysystem":"Garden Valley District Library","phone":2084623317,"id":"a65roxrvrnps","address":"342 Village Circle","lat":44.116646,"libraryname":"Garden Valley District Library","state":"ID"},"type":"Feature","geometry":{"type":"Point","coordinates":[-115.970735,44.116646]}},{"properties":{"city":"Genesee","lon":-116.924625,"zip":"","librarysystem":"Latah County Library District","phone":2082851398,"id":"a65roy06bfov","address":"140 E Walnut Street","lat":46.550666,"libraryname":"Genesee Public Library","state":"ID"},"type":"Feature","geometry":{"type":"Point","coordinates":[-116.924625,46.550666]}},{"properties":{"city":"Glenns Ferry","lon":-115.297839,"zip":"","librarysystem":"Glenns Ferry Public Library","phone":2083662045,"id":"a65roxzrw5mh","address":"218 S Lincoln","lat":42.95136,"libraryname":"Glenns Ferry Public Library","state":"ID"},"type":"Feature","geometry":{"type":"Point","coordinates":[-115.297839,42.95136]}},{"properties":{"city":"Gooding","lon":-114.715624,"zip":"","librarysystem":"Gooding Public Library","phone":2089344089,"id":"a65roy1nh3vc","address":"306 5th Ave W","lat":42.940792,"libraryname":"Gooding Public Library","state":"ID"},"type":"Feature","geometry":{"type":"Point","coordinates":[-114.715624,42.940792]}},{"properties":{"city":"Grace","lon":-111.730449,"zip":"","librarysystem":"Grace District Library","phone":2084253695,"id":"a65roy1xwbo9","address":"204 S Main St","lat":42.56892,"libraryname":"Grace District Library","state":"ID"},"type":"Feature","geometry":{"type":"Point","coordinates":[-111.730449,42.56892]}},{"properties":{"city":"Grangeville","lon":-116.121077,"zip":"","librarysystem":"Grangeville Centennial Library","phone":2089830951,"id":"a65roxtxl4c2","address":"215 W North St","lat":45.926947,"libraryname":"Grangeville Centennial Library","state":"ID"},"type":"Feature","geometry":{"type":"Point","coordinates":[-116.121077,45.926947]}},{"properties":{"city":"Hagerman","lon":-114.898674,"zip":"","librarysystem":"Hagerman Public Library","phone":2088376520,"id":"a65roy4lxyks","address":"290 S State St","lat":42.814807,"libraryname":"Hagerman Public Library","state":"ID"},"type":"Feature","geometry":{"type":"Point","coordinates":[-114.898674,42.814807]}},{"properties":{"city":"Hailey","lon":-114.31491,"zip":"","librarysystem":"Hailey Public Library","phone":2087882036,"id":"a65roy04ofa1","address":"7 West Croy","lat":43.518695,"libraryname":"Hailey Public Library","state":"ID"},"type":"Feature","geometry":{"type":"Point","coordinates":[-114.31491,43.518695]}},{"properties":{"city":"Hamer","lon":-112.194955,"zip":"","librarysystem":"Jefferson County District Library","phone":2086625275,"id":"a65roy46c4pa","address":"2450 E 2100 North","lat":43.927729,"libraryname":"Hamer Public Library","state":"ID"},"type":"Feature","geometry":{"type":"Point","coordinates":[-112.194955,43.927729]}},{"properties":{"city":"Hansen","lon":-114.30134,"zip":"","librarysystem":"Hansen District Library","phone":2084234122,"id":"a65roy0e1ama","address":"120 W Maple Ave","lat":42.530558,"libraryname":"Hansen District Library","state":"ID"},"type":"Feature","geometry":{"type":"Point","coordinates":[-114.30134,42.530558]}},{"properties":{"city":"Harrison","lon":-116.785861,"zip":"","librarysystem":"Kootenai-Shoshone Library District","phone":2086893976,"id":"a65roy3bdmf3","address":"111 Coeur D'Alene Avenue","lat":47.454086,"libraryname":"Harrison Branch","state":"ID"},"type":"Feature","geometry":{"type":"Point","coordinates":[-116.785861,47.454086]}},{"properties":{"city":"Hayden","lon":-116.786865,"zip":"","librarysystem":"Kootenai-Shoshone Library District","phone":2087725612,"id":"a65roy6bcdtj","address":"8385 N. Government Way","lat":47.747673,"libraryname":"Hayden Branch","state":"ID"},"type":"Feature","geometry":{"type":"Point","coordinates":[-116.786865,47.747673]}},{"properties":{"city":"Terreton","lon":-112.445402,"zip":"","librarysystem":"Jefferson County District Library","phone":2086634834,"id":"a65roy17noyv","address":"1252 E 1500 N","lat":43.841241,"libraryname":"Heart of the Valley Public Library","state":"ID"},"type":"Feature","geometry":{"type":"Point","coordinates":[-112.445402,43.841241]}},{"properties":{"city":"Hidden Springs","lon":-116.262561,"zip":"","librarysystem":"Ada Community Library","phone":2082292665,"id":"a65roxuegcu5","address":"5892 W Hidden Springs Dr","lat":43.724812,"libraryname":"Hidden Springs Branch","state":"ID"},"type":"Feature","geometry":{"type":"Point","coordinates":[-116.262561,43.724812]}},{"properties":{"city":"Homedale","lon":-116.936609,"zip":"","librarysystem":"Homedale Public Library","phone":2083374228,"id":"a65roy3ii5kf","address":"125 W Owyhee Ave","lat":43.618852,"libraryname":"Homedale Public Library","state":"ID"},"type":"Feature","geometry":{"type":"Point","coordinates":[-116.936609,43.618852]}},{"properties":{"city":"Horseshoe Bend","lon":-116.198943,"zip":"","librarysystem":"Horseshoe Bend District Library","phone":2087932460,"id":"a65roxucspx4","address":"392 Hwy 55","lat":43.912307,"libraryname":"Horseshoe Bend District Library","state":"ID"},"type":"Feature","geometry":{"type":"Point","coordinates":[-116.198943,43.912307]}},{"properties":{"city":"Idaho Falls","lon":-112.042148,"zip":"","librarysystem":"Idaho Falls Public / Bonneville District Library","phone":2086128450,"id":"a65roxxje8ve","address":"457 W. Broadway","lat":43.491908,"libraryname":"Idaho Falls Public Library","state":"ID"},"type":"Feature","geometry":{"type":"Point","coordinates":[-112.042148,43.491908]}},{"properties":{"city":"Macks Inn","lon":-111.338774,"zip":"","librarysystem":"Fremont County District Library","phone":2085580991,"id":"a65roy0dq5pl","address":"4377 County Circle Drive","lat":44.497405,"libraryname":"Island Park Branch","state":"ID"},"type":"Feature","geometry":{"type":"Point","coordinates":[-111.338774,44.497405]}},{"properties":{"city":"Jerome","lon":-114.518278,"zip":"","librarysystem":"Jerome Public Library","phone":2083245427,"id":"a65roxw9oqxv","address":"100 1st Ave E","lat":42.725224,"libraryname":"Jerome Public Library","state":"ID"},"type":"Feature","geometry":{"type":"Point","coordinates":[-114.518278,42.725224]}},{"properties":{"city":"Juliaetta","lon":-116.655459,"zip":"","librarysystem":"Latah County Library District","phone":2082767071,"id":"a65roy0f2qvm","address":"205 Main Street","lat":46.61382,"libraryname":"Juliaetta Public Library","state":"ID"},"type":"Feature","geometry":{"type":"Point","coordinates":[-116.655459,46.61382]}},{"properties":{"city":"Kellogg","lon":-116.121645,"zip":"","librarysystem":"Kellogg Public Library","phone":2087867231,"id":"a65roxse0vy0","address":"16 W Market Ave","lat":47.533899,"libraryname":"Kellogg Public Library","state":"ID"},"type":"Feature","geometry":{"type":"Point","coordinates":[-116.121645,47.533899]}},{"properties":{"city":"Kimberly","lon":-114.359553,"zip":"","librarysystem":"Kimberly Public Library","phone":2084234556,"id":"a65roxrqbaa2","address":"120 Madison Street W","lat":42.5346,"libraryname":"Kimberly Public Library","state":"ID"},"type":"Feature","geometry":{"type":"Point","coordinates":[-114.359553,42.5346]}},{"properties":{"city":"Kuna","lon":-116.420062,"zip":"","librarysystem":"Kuna Library","phone":2089221025,"id":"a65roy48hn55","address":"457 N Locust Street","lat":43.492433,"libraryname":"Kuna Library","state":"ID"},"type":"Feature","geometry":{"type":"Point","coordinates":[-116.420062,43.492433]}},{"properties":{"city":"Leadore","lon":-113.354829,"zip":"","librarysystem":"Lemhi County District Library","phone":2087682646,"id":"a65roy5dc8j8","address":"Leadore Street","lat":44.67859,"libraryname":"Leadore Community Library","state":"ID"},"type":"Feature","geometry":{"type":"Point","coordinates":[-113.354829,44.67859]}},{"properties":{"city":"Lewiston","lon":-117.02712,"zip":"","librarysystem":"Lewiston City Library","phone":2087461013,"id":"a65roy25nbyj","address":"101 5th St","lat":46.421437,"libraryname":"Lewiston City - Carnegie","state":"ID"},"type":"Feature","geometry":{"type":"Point","coordinates":[-117.02712,46.421437]}},{"properties":{"city":"Lewiston","lon":-116.973631,"zip":"","librarysystem":"Lewiston City Library","phone":2087436519,"id":"a65roy3d26yo","address":"428 Thain Rd","lat":46.378688,"libraryname":"Lewiston City Library","state":"ID"},"type":"Feature","geometry":{"type":"Point","coordinates":[-116.973631,46.378688]}},{"properties":{"city":"Lewisville","lon":-85.352471,"zip":"","librarysystem":"Lewisville Public Library","phone":2087548608,"id":"a65roxxgqhia","address":"117 E Main St","lat":39.806782,"libraryname":"Lewisville Public Library","state":"ID"},"type":"Feature","geometry":{"type":"Point","coordinates":[-85.352471,39.806782]}},{"properties":{"city":"Carey","lon":-113.943717,"zip":"","librarysystem":"Little Wood River District Library","phone":2088234510,"id":"a65roxrsljx6","address":"16 Panther Avenue","lat":43.314467,"libraryname":"Little Wood River District Library","state":"ID"},"type":"Feature","geometry":{"type":"Point","coordinates":[-113.943717,43.314467]}},{"properties":{"city":"Marsing","lon":-116.809554,"zip":"","librarysystem":"Lizard Butte District Library","phone":2088964690,"id":"a65roxznnn30","address":"105 Owyhee Plaza Main St","lat":43.5453,"libraryname":"Lizard Butte District Library","state":"ID"},"type":"Feature","geometry":{"type":"Point","coordinates":[-116.809554,43.5453]}},{"properties":{"city":"Howe","lon":-113.006835,"zip":"","librarysystem":"Lost Rivers District Library","phone":2087673018,"id":"a65roxt4j5kh","address":"Highway 33","lat":43.772056,"libraryname":"Lost Rivers Community District - Howe","state":"ID"},"type":"Feature","geometry":{"type":"Point","coordinates":[-113.006835,43.772056]}},{"properties":{"city":"Arco","lon":-113.299595,"zip":"","librarysystem":"Lost Rivers District Library","phone":2085278511,"id":"a65roy0tbrt4","address":"126 S Front St","lat":43.636003,"libraryname":"Lost Rivers Community District Library","state":"ID"},"type":"Feature","geometry":{"type":"Point","coordinates":[-113.299595,43.636003]}},{"properties":{"city":"Mackay","lon":-113.614857,"zip":"","librarysystem":"Mackay District Library","phone":2085883333,"id":"a65roy55q3iy","address":"320 Capitol Ave","lat":43.91453,"libraryname":"Mackay District Library","state":"ID"},"type":"Feature","geometry":{"type":"Point","coordinates":[-113.614857,43.91453]}},{"properties":{"city":"Rexburg","lon":-111.784009,"zip":"","librarysystem":"Madison District Library","phone":2083563461,"id":"a65roy15z8w1","address":"73 N Center St","lat":43.827532,"libraryname":"Madison District Library","state":"ID"},"type":"Feature","geometry":{"type":"Point","coordinates":[-111.784009,43.827532]}},{"properties":{"city":"Pocatello","lon":-112.452581,"zip":"","librarysystem":"Marshall Public Library","phone":2082321263,"id":"a65roy4nbx7o","address":"113 S Garfield","lat":42.860611,"libraryname":"Marshall Public Library","state":"ID"},"type":"Feature","geometry":{"type":"Point","coordinates":[-112.452581,42.860611]}},{"properties":{"city":"McCall","lon":-116.098795,"zip":"","librarysystem":"McCall Public Library","phone":2086345522,"id":"a65roy498w0k","address":"218 E Park St","lat":44.909092,"libraryname":"McCall Public Library","state":"ID"},"type":"Feature","geometry":{"type":"Point","coordinates":[-116.098795,44.909092]}},{"properties":{"city":"New Meadows","lon":-116.28274,"zip":"","librarysystem":"Meadows Valley Public Library","phone":2083473147,"id":"a65roxwck6h3","address":"400 Virginia St","lat":44.971187,"libraryname":"Meadows Valley Public Library","state":"ID"},"type":"Feature","geometry":{"type":"Point","coordinates":[-116.28274,44.971187]}},{"properties":{"city":"Menan","lon":-112.003497,"zip":"","librarysystem":"Jefferson County District Library","phone":2087540021,"id":"a65roxvsx51k","address":"623 N 3500 E","lat":43.7273,"libraryname":"Menan - Annis - Grant Library","state":"ID"},"type":"Feature","geometry":{"type":"Point","coordinates":[-112.003497,43.7273]}},{"properties":{"city":"Meridian","lon":-116.409496,"zip":"","librarysystem":"Meridian Library District","phone":2088884451,"id":"a65roxt9t7ci","address":"1326 W Cherry Ln","lat":43.619359,"libraryname":"Meridian Library District","state":"ID"},"type":"Feature","geometry":{"type":"Point","coordinates":[-116.409496,43.619359]}},{"properties":{"city":"Middleton","lon":-116.619396,"zip":"","librarysystem":"Middleton Public Library","phone":2085853931,"id":"a65roy4qv43l","address":"307 East Main St","lat":43.706686,"libraryname":"Middleton Public Library","state":"ID"},"type":"Feature","geometry":{"type":"Point","coordinates":[-116.619396,43.706686]}},{"properties":{"city":"Midvale","lon":-116.732603,"zip":"","librarysystem":"Midvale Community Library","phone":2083552213,"id":"a65roy4rv3tf","address":"70 E Bridge St","lat":44.470781,"libraryname":"Midvale Community Library","state":"ID"},"type":"Feature","geometry":{"type":"Point","coordinates":[-116.732603,44.470781]}},{"properties":{"city":"Moscow","lon":-116.998517,"zip":"","librarysystem":"Latah County Library District","phone":2088823925,"id":"a65roxs5lafp","address":"110 S Jefferson St","lat":46.733571,"libraryname":"Moscow Public Library","state":"ID"},"type":"Feature","geometry":{"type":"Point","coordinates":[-116.998517,46.733571]}},{"properties":{"city":"Mountain Home","lon":-115.687323,"zip":"","librarysystem":"Mountain Home Public Library","phone":2085874716,"id":"a65roxyywdul","address":"790 North 10th East","lat":43.137208,"libraryname":"Mountain Home Public Library","state":"ID"},"type":"Feature","geometry":{"type":"Point","coordinates":[-115.687323,43.137208]}},{"properties":{"city":"Mullan","lon":-115.797029,"zip":"","librarysystem":"Mullan Public Library","phone":2087441717,"id":"a65roxt2raa5","address":"117 Hunter Ave","lat":47.47155,"libraryname":"Mullan Public Library","state":"ID"},"type":"Feature","geometry":{"type":"Point","coordinates":[-115.797029,47.47155]}},{"properties":{"city":"Nampa","lon":-116.561039,"zip":"","librarysystem":"Nampa Public Public Library","phone":2084685800,"id":"a65roxydtbto","address":"101 11th Avenue S","lat":43.579501,"libraryname":"Nampa Public Public Library","state":"ID"},"type":"Feature","geometry":{"type":"Point","coordinates":[-116.561039,43.579501]}},{"properties":{"city":"Nezperce","lon":-116.240644,"zip":"","librarysystem":"Prairie-River Library District Library","phone":2089372458,"id":"a65roxvax31w","address":"502 Oak St","lat":46.234093,"libraryname":"Nezperce Community Library","state":"ID"},"type":"Feature","geometry":{"type":"Point","coordinates":[-116.240644,46.234093]}},{"properties":{"city":"Shelley","lon":-112.124777,"zip":"","librarysystem":"North Bingham County District Library","phone":2083577801,"id":"a65roxravyw1","address":"197 W Locust St","lat":43.37804,"libraryname":"North Bingham District Library","state":"ID"},"type":"Feature","geometry":{"type":"Point","coordinates":[-112.124777,43.37804]}},{"properties":{"city":"Notus","lon":-116.800011,"zip":"","librarysystem":"Notus Public Library","phone":2084549097,"id":"a65roxw95yku","address":"352 Elgin","lat":43.725113,"libraryname":"Notus Public Library","state":"ID"},"type":"Feature","geometry":{"type":"Point","coordinates":[-116.800011,43.725113]}},{"properties":{"city":"Oakley","lon":-113.879961,"zip":"","librarysystem":"Oakley District Library","phone":2088623434,"id":"a65roxxz5j9w","address":"185 E Main St","lat":42.243198,"libraryname":"Oakley District Library","state":"ID"},"type":"Feature","geometry":{"type":"Point","coordinates":[-113.879961,42.243198]}},{"properties":{"city":"Ola","lon":-116.292941,"zip":"","librarysystem":"Ola District Library","phone":2085843589,"id":"a65roxsdw514","address":"11475 Ola School Rd","lat":44.182891,"libraryname":"Ola District Library","state":"ID"},"type":"Feature","geometry":{"type":"Point","coordinates":[-116.292941,44.182891]}},{"properties":{"city":"Meridian","lon":-116.393016,"zip":"","librarysystem":"Meridian Library District","phone":2088883828,"id":"a65roy2gwf92","address":"18 E Idaho Ave","lat":43.611162,"libraryname":"Old Town Branch","state":"ID"},"type":"Feature","geometry":{"type":"Point","coordinates":[-116.393016,43.611162]}},{"properties":{"city":"Malad","lon":-112.247962,"zip":"","librarysystem":"Oneida County Library District","phone":2087662229,"id":"a65roy0zi9co","address":"31 N 100 W","lat":42.186253,"libraryname":"Oneida County Library","state":"ID"},"type":"Feature","geometry":{"type":"Point","coordinates":[-112.247962,42.186253]}},{"properties":{"city":"Osburn","lon":-116.002829,"zip":"","librarysystem":"Osburn Public Library","phone":2087529711,"id":"a65roxy79l7k","address":"921 Mullan Ave","lat":47.507065,"libraryname":"Osburn Public Library","state":"ID"},"type":"Feature","geometry":{"type":"Point","coordinates":[-116.002829,47.507065]}},{"properties":{"city":"Paris","lon":-111.401186,"zip":"","librarysystem":"Bear Lake County Library District","phone":2089452253,"id":"a65roxywb4k4","address":"62 S Main","lat":42.225571,"libraryname":"Paris Branch","state":"ID"},"type":"Feature","geometry":{"type":"Point","coordinates":[-111.401186,42.225571]}},{"properties":{"city":"Parma","lon":-116.944758,"zip":"","librarysystem":"Patricia Romanko Public Library","phone":2087226605,"id":"a65roy6exm3b","address":"121 N 3rd St","lat":43.784973,"libraryname":"Parma Public Library","state":"ID"},"type":"Feature","geometry":{"type":"Point","coordinates":[-116.944758,43.784973]}},{"properties":{"city":"Payette","lon":-116.932161,"zip":"","librarysystem":"Payette Public Library","phone":2086426029,"id":"a65roy3olp4j","address":"24 S Tenth St","lat":44.074537,"libraryname":"Payette Public Library","state":"ID"},"type":"Feature","geometry":{"type":"Point","coordinates":[-116.932161,44.074537]}},{"properties":{"city":"Pierce","lon":-115.798989,"zip":"","librarysystem":"Pierce Free Public Library","phone":2084642823,"id":"a65roxzdwcig","address":"208 S Main St","lat":46.491368,"libraryname":"Pierce Free Public Library","state":"ID"},"type":"Feature","geometry":{"type":"Point","coordinates":[-115.798989,46.491368]}},{"properties":{"city":"Pinehurst","lon":-116.237039,"zip":"","librarysystem":"Kootenai-Shoshone Library District","phone":2086823483,"id":"a65roxr32noq","address":"107 Main Avenue","lat":47.53855,"libraryname":"Pinehurst Branch","state":"ID"},"type":"Feature","geometry":{"type":"Point","coordinates":[-116.237039,47.53855]}},{"properties":{"city":"Plummer","lon":-116.880615,"zip":"","librarysystem":"Plummer Public / Benewah District Library","phone":2086861812,"id":"a65roy4c3o03","address":"800 D St","lat":47.334609,"libraryname":"Plummer Public Library","state":"ID"},"type":"Feature","geometry":{"type":"Point","coordinates":[-116.880615,47.334609]}},{"properties":{"city":"Chubbuck","lon":-112.474217,"zip":"","librarysystem":"Portneuf District Library","phone":2082372192,"id":"a65roxuz5u6p","address":"5210 Stuart Avenue","lat":42.928219,"libraryname":"Portneuf District Library","state":"ID"},"type":"Feature","geometry":{"type":"Point","coordinates":[-112.474217,42.928219]}},{"properties":{"city":"Post Falls","lon":-116.948147,"zip":"","librarysystem":"Post Falls Public Library","phone":2087731506,"id":"a65roy1g5ipt","address":"821 N Spokane Street","lat":47.716161,"libraryname":"Post Falls Public Library","state":"ID"},"type":"Feature","geometry":{"type":"Point","coordinates":[-116.948147,47.716161]}},{"properties":{"city":"Potlatch","lon":-116.901609,"zip":"","librarysystem":"Latah County Library District","phone":2088751036,"id":"a65roy2ngfm6","address":"1010 Onaway Rd","lat":46.92765,"libraryname":"Potlatch Public Library","state":"ID"},"type":"Feature","geometry":{"type":"Point","coordinates":[-116.901609,46.92765]}},{"properties":{"city":"Mountain Home","lon":-115.682552,"zip":"","librarysystem":"Prairie District Library","phone":2088683246,"id":"a65roxsliqhp","address":"Hc 84 Box 89","lat":43.152421,"libraryname":"Prairie District Library","state":"ID"},"type":"Feature","geometry":{"type":"Point","coordinates":[-115.682552,43.152421]}},{"properties":{"city":"Craigmont","lon":-116.474961,"zip":"","librarysystem":"Prairie-River District Library","phone":2089245510,"id":"a65roxt2nibf","address":"112 W Main","lat":46.240955,"libraryname":"Prairie-River District - Craigmont","state":"ID"},"type":"Feature","geometry":{"type":"Point","coordinates":[-116.474961,46.240955]}},{"properties":{"city":"Culdesac","lon":-116.671699,"zip":"","librarysystem":"Prairie-River District Library","phone":2088435215,"id":"a65roxydfco9","address":"608 Main","lat":46.373765,"libraryname":"Prairie-River District - Culdesac","state":"ID"},"type":"Feature","geometry":{"type":"Point","coordinates":[-116.671699,46.373765]}},{"properties":{"city":"Kamiah","lon":-116.027884,"zip":"","librarysystem":"Prairie-River District Library","phone":2089350428,"id":"a65roy3sbmy2","address":"507 Main","lat":46.227126,"libraryname":"Prairie-River District - Kamiah","state":"ID"},"type":"Feature","geometry":{"type":"Point","coordinates":[-116.027884,46.227126]}},{"properties":{"city":"Kooskia","lon":-115.979101,"zip":"","librarysystem":"Prairie-River District Library","phone":2089264539,"id":"a65roxyaye4g","address":"26 S Main","lat":46.140831,"libraryname":"Prairie-River District - Kooskia","state":"ID"},"type":"Feature","geometry":{"type":"Point","coordinates":[-115.979101,46.140831]}},{"properties":{"city":"Peck","lon":-116.422382,"zip":"","librarysystem":"Prairie-River District Library","phone":2084866161,"id":"a65roxsl6vim","address":"217 N Main St","lat":46.474453,"libraryname":"Prairie-River District - Peck","state":"ID"},"type":"Feature","geometry":{"type":"Point","coordinates":[-116.422382,46.474453]}},{"properties":{"city":"Winchester","lon":-116.622848,"zip":"","librarysystem":"Prairie-River District Library","phone":2089245164,"id":"a65roy54gaap","address":"413 1/2 Nez Perce","lat":46.240658,"libraryname":"Prairie-River District - Winchester","state":"ID"},"type":"Feature","geometry":{"type":"Point","coordinates":[-116.622848,46.240658]}},{"properties":{"city":"Lapwai","lon":-116.80492,"zip":"","librarysystem":"Prairie-River District Library","phone":2088437254,"id":"a65roy5wf4ed","address":"103 N Main St","lat":46.405157,"libraryname":"Prairie-River District Library","state":"ID"},"type":"Feature","geometry":{"type":"Point","coordinates":[-116.80492,46.405157]}},{"properties":{"city":"Preston","lon":-111.873789,"zip":"","librarysystem":"Larsen-Sant/Franklin District Library","phone":2088520175,"id":"a65roy58l4fp","address":"109 S 1st E","lat":42.093812,"libraryname":"Preston Carnegie Library","state":"ID"},"type":"Feature","geometry":{"type":"Point","coordinates":[-111.873789,42.093812]}},{"properties":{"city":"Priest Lake","lon":-116.934293,"zip":"","librarysystem":"Priest Lake District Library","phone":2084432454,"id":"a65roxwar0m0","address":"28769 Hwy 57","lat":48.52168,"libraryname":"Priest Lake District Library","state":"ID"},"type":"Feature","geometry":{"type":"Point","coordinates":[-116.934293,48.52168]}},{"properties":{"city":"Rathdrum","lon":-116.873569,"zip":"","librarysystem":"Kootenai-Shoshone Library District","phone":2086871029,"id":"a65roxx0qbvj","address":"16780 W Hwy 41","lat":47.82664,"libraryname":"Rathdrum Branch","state":"ID"},"type":"Feature","geometry":{"type":"Point","coordinates":[-116.873569,47.82664]}},{"properties":{"city":"Richfield","lon":-114.153984,"zip":"","librarysystem":"Richfield District Library","phone":2084871242,"id":"a65roxxex6li","address":"205 S Main","lat":43.047068,"libraryname":"Richfield District Library","state":"ID"},"type":"Feature","geometry":{"type":"Point","coordinates":[-114.153984,43.047068]}},{"properties":{"city":"Rigby","lon":-111.91468,"zip":"","librarysystem":"Rigby City Library","phone":2087458231,"id":"a65roxu1wa2r","address":"110 N State Street","lat":43.672474,"libraryname":"Rigby City Library","state":"ID"},"type":"Feature","geometry":{"type":"Point","coordinates":[-111.91468,43.672474]}},{"properties":{"city":"Ririe","lon":-111.773427,"zip":"","librarysystem":"Ririe Public Library","phone":2085387974,"id":"a65roy1ukbxy","address":"464 Main St","lat":43.631384,"libraryname":"Ririe Public Library","state":"ID"},"type":"Feature","geometry":{"type":"Point","coordinates":[-111.773427,43.631384]}},{"properties":{"city":"Roberts","lon":-112.128154,"zip":"","librarysystem":"Roberts Public Library","phone":2082282210,"id":"a65roxwkb8zz","address":"648 N 2872 E","lat":43.721805,"libraryname":"Roberts Public Library","state":"ID"},"type":"Feature","geometry":{"type":"Point","coordinates":[-112.128154,43.721805]}},{"properties":{"city":"Rockland","lon":-112.872462,"zip":"","librarysystem":"Rockland School/Community Library","phone":2085482222,"id":"a65roy69bcun","address":"321 E Center","lat":42.57385,"libraryname":"Rockland School/Community Library","state":"ID"},"type":"Feature","geometry":{"type":"Point","coordinates":[-112.872462,42.57385]}},{"properties":{"city":"Salmon","lon":-113.896879,"zip":"","librarysystem":"Lemhi County District Library","phone":2087562311,"id":"a65roxy43dqa","address":"204 Main St","lat":45.176854,"libraryname":"Salmon Public Library","state":"ID"},"type":"Feature","geometry":{"type":"Point","coordinates":[-113.896879,45.176854]}},{"properties":{"city":"Riggins","lon":-116.314649,"zip":"","librarysystem":"Salmon River Public Library","phone":2086283394,"id":"a65roxuga2rr","address":"126 N Main St","lat":45.422108,"libraryname":"Salmon River Public Library","state":"ID"},"type":"Feature","geometry":{"type":"Point","coordinates":[-116.314649,45.422108]}},{"properties":{"city":"Wendell","lon":-114.699118,"zip":"","librarysystem":"Sherburn Smith Memorial Library","phone":2085366195,"id":"a65roxtwr8ot","address":"375 1st Ave East","lat":42.776278,"libraryname":"Sherburn Smith Memorial Library","state":"ID"},"type":"Feature","geometry":{"type":"Point","coordinates":[-114.699118,42.776278]}},{"properties":{"city":"Shoshone","lon":-114.408354,"zip":"","librarysystem":"Shoshone Public Library","phone":2088862843,"id":"a65roxtxs3dl","address":"211 South Rail West","lat":42.935841,"libraryname":"Shoshone Public Library","state":"ID"},"type":"Feature","geometry":{"type":"Point","coordinates":[-114.408354,42.935841]}},{"properties":{"city":"Blackfoot","lon":-112.478894,"zip":"","librarysystem":"Snake River School/Community Library","phone":2086843018,"id":"a65roy0pbv60","address":"918 E Hwy 39","lat":43.197077,"libraryname":"Snake River - Junior High School Library","state":"ID"},"type":"Feature","geometry":{"type":"Point","coordinates":[-112.478894,43.197077]}},{"properties":{"city":"Blackfoot","lon":-112.507771,"zip":"","librarysystem":"Snake River School/Community Library","phone":2086845171,"id":"a65roy3yprzm","address":"1060 W 110 S","lat":43.18107,"libraryname":"Snake River - Middle School Library","state":"ID"},"type":"Feature","geometry":{"type":"Point","coordinates":[-112.507771,43.18107]}},{"properties":{"city":"Blackfoot","lon":-112.336995,"zip":"","librarysystem":"Snake River School/Community Library","phone":2086845115,"id":"a65roy4n4gne","address":"185 N 750 W","lat":43.30503,"libraryname":"Snake River - Moreland Elementary Library","state":"ID"},"type":"Feature","geometry":{"type":"Point","coordinates":[-112.336995,43.30503]}},{"properties":{"city":"Blackfoot","lon":-112.435448,"zip":"","librarysystem":"Snake River School/Community Library","phone":8086845102,"id":"a65roy3j8ddz","address":"16 S 700 W","lat":43.194081,"libraryname":"Snake River - Riverside Elementary Library","state":"ID"},"type":"Feature","geometry":{"type":"Point","coordinates":[-112.435448,43.194081]}},{"properties":{"city":"Blackfoot","lon":-112.524916,"zip":"","librarysystem":"Snake River School/Community Library","phone":2086844451,"id":"a65roxra9yue","address":"1152 W Hwy 39","lat":43.19728,"libraryname":"Snake River - Rockford Elementary","state":"ID"},"type":"Feature","geometry":{"type":"Point","coordinates":[-112.524916,43.19728]}},{"properties":{"city":"Blackfoot","lon":-112.479952,"zip":"","librarysystem":"Snake River School/Community Library","phone":2086843063,"id":"a65roxxcnt7s","address":"924 W Hwy 39","lat":43.197086,"libraryname":"Snake River School/Community Library","state":"ID"},"type":"Feature","geometry":{"type":"Point","coordinates":[-112.479952,43.197086]}},{"properties":{"city":"Soda Springs","lon":-111.603575,"zip":"","librarysystem":"Soda Springs Public Library","phone":2085472606,"id":"a65roxw43ssl","address":"149 S Main Street","lat":42.655859,"libraryname":"Soda Springs Public Library","state":"ID"},"type":"Feature","geometry":{"type":"Point","coordinates":[-111.603575,42.655859]}},{"properties":{"city":"Lava Hot Springs","lon":-112.011782,"zip":"","librarysystem":"South Bannock District Library","phone":2087765301,"id":"a65roy6qj7oj","address":"33 Main St","lat":42.619093,"libraryname":"South Bannock District - Lava Hot Springs","state":"ID"},"type":"Feature","geometry":{"type":"Point","coordinates":[-112.011782,42.619093]}},{"properties":{"city":"Downey","lon":-112.124329,"zip":"","librarysystem":"South Bannock District Library","phone":2088975270,"id":"a65roy40x1sx","address":"18 N Main","lat":42.43796,"libraryname":"South Bannock District Library","state":"ID"},"type":"Feature","geometry":{"type":"Point","coordinates":[-112.124329,42.43796]}},{"properties":{"city":"Spirit Lake","lon":-116.868766,"zip":"","librarysystem":"Kootenai-Shoshone Library District","phone":2086235353,"id":"a65roy59hy0c","address":"32575 N. 5th Ave","lat":47.96924,"libraryname":"Spirit Lake Branch","state":"ID"},"type":"Feature","geometry":{"type":"Point","coordinates":[-116.868766,47.96924]}},{"properties":{"city":"St. Maries","lon":-116.568067,"zip":"","librarysystem":"St. Maries Public / Benewah District Library","phone":2082453732,"id":"a65roxuo428a","address":"822 College Ave","lat":47.315427,"libraryname":"St. Maries Public Library","state":"ID"},"type":"Feature","geometry":{"type":"Point","coordinates":[-116.568067,47.315427]}},{"properties":{"city":"Stanley","lon":-114.937969,"zip":"","librarysystem":"Stanley District Library","phone":2087743411,"id":"a65roxtbg3rg","address":"Ace Of Diamonds St","lat":44.216175,"libraryname":"Stanley Community Library","state":"ID"},"type":"Feature","geometry":{"type":"Point","coordinates":[-114.937969,44.216175]}},{"properties":{"city":"Star","lon":-116.487312,"zip":"","librarysystem":"Ada Community Library","phone":2082869755,"id":"a65roxrzstxo","address":"10706 W. State St Suite D","lat":43.692101,"libraryname":"Star Branch Library","state":"ID"},"type":"Feature","geometry":{"type":"Point","coordinates":[-116.487312,43.692101]}},{"properties":{"city":"Sugar City","lon":-111.738209,"zip":"","librarysystem":"Sugar Salem School/Community","phone":2083560271,"id":"a65roxtx3eug","address":"3227 N 2000 E","lat":43.874053,"libraryname":"Sugar Salem School/Community","state":"ID"},"type":"Feature","geometry":{"type":"Point","coordinates":[-111.738209,43.874053]}},{"properties":{"city":"Boise","lon":-116.283813,"zip":"","librarysystem":"Boise Public Library","phone":2083755020,"id":"a65roxzsj6e0","address":"350 N. Milwaukee","lat":43.608309,"libraryname":"Towne Square Library","state":"ID"},"type":"Feature","geometry":{"type":"Point","coordinates":[-116.283813,43.608309]}},{"properties":{"city":"Troy","lon":-116.771067,"zip":"","librarysystem":"Latah County Library District","phone":2088354311,"id":"a65roxt9jgmq","address":"402 S Main St","lat":46.738245,"libraryname":"Troy Public Library","state":"ID"},"type":"Feature","geometry":{"type":"Point","coordinates":[-116.771067,46.738245]}},{"properties":{"city":"Twin Falls","lon":-114.465806,"zip":"","librarysystem":"Twin Falls Public Library","phone":2087332964,"id":"a65roxsybvjc","address":"201 4th Avenue East","lat":42.556971,"libraryname":"Twin Falls Public Library","state":"ID"},"type":"Feature","geometry":{"type":"Point","coordinates":[-114.465806,42.556971]}},{"properties":{"city":"Victor","lon":-111.111155,"zip":"","librarysystem":"Valley of the Tetons Library","phone":2087872201,"id":"a65roy3s47bf","address":"56 N Main","lat":43.60385,"libraryname":"Valley of the Tetons Library","state":"ID"},"type":"Feature","geometry":{"type":"Point","coordinates":[-111.111155,43.60385]}},{"properties":{"city":"Wallace","lon":-115.927263,"zip":"","librarysystem":"Wallace Public Library","phone":2087524571,"id":"a65roxv24eew","address":"415 River St","lat":47.47412,"libraryname":"Wallace Public Library","state":"ID"},"type":"Feature","geometry":{"type":"Point","coordinates":[-115.927263,47.47412]}},{"properties":{"city":"Weippe","lon":-115.938129,"zip":"","librarysystem":"Clearwater Library District","phone":2084354058,"id":"a65roy0bttys","address":"204 Wood Street","lat":46.37582,"libraryname":"Weippe Public Library","state":"ID"},"type":"Feature","geometry":{"type":"Point","coordinates":[-115.938129,46.37582]}},{"properties":{"city":"Weiser","lon":-116.968024,"zip":"","librarysystem":"Weiser Public Library","phone":2085491243,"id":"a65roxvtlnvr","address":"628 E 1st St","lat":44.247058,"libraryname":"Weiser Public Library","state":"ID"},"type":"Feature","geometry":{"type":"Point","coordinates":[-116.968024,44.247058]}},{"properties":{"city":"Priest River","lon":-116.907623,"zip":"","librarysystem":"West Bonner District Library","phone":2084482207,"id":"a65roxtzh9wx","address":"219 Main St","lat":48.179323,"libraryname":"West Bonner District Library","state":"ID"},"type":"Feature","geometry":{"type":"Point","coordinates":[-116.907623,48.179323]}},{"properties":{"city":"Wilder","lon":-116.905633,"zip":"","librarysystem":"Wilder District Library","phone":2084827880,"id":"a65roxrg9lds","address":"207 A Ave E","lat":43.676903,"libraryname":"Wilder District Library","state":"ID"},"type":"Feature","geometry":{"type":"Point","coordinates":[-116.905633,43.676903]}}],"is_temporal":false,"author":{"url":"http://www.publiclibraries.com/idaho.htm","metadata":"","contact_name":"","contact_address":"","source":"publiclibrairies.com","contact_phone":""},"source":"http://www.publiclibraries.com/idaho.htm","pagination":{"sort":null,"start":0,"total":142,"limit":1000000},"state":"complete","tags":"books,education,idaho,libraries,library,public","published":"2008-05-09T12:00:00Z","id":888}