{"type":"FeatureCollection","data_type":"Dataset","url_type":null,"permissions":[{"permissions":{"download":true,"view":true},"group_id":"everyone"}],"classification":null,"title":"publiclibraries.com, Indiana Public Libraries, Indiana, 1.2008","count":432,"stream_id":893,"contributor":{"url":"http://geocommons.com/users/2","name":"data"},"data_attributes":null,"calculation_params":null,"icon_link":null,"link":"http://geocommons.com/overlays/893.json","extent":[-87.8963,37.8819,-84.8087,41.7325],"geometry_types":["point"],"unique_name":null,"name":"publiclibraries.com, Indiana Public Libraries, Indiana, 1.2008","feature_count":432,"description":"This dataset displays the locations of all the public libraries in the state of Indiana. The data included is the name of the library, name of the library system, library's address, phone, and lat/lon coordinates. The data came from publiclibraries.com which is a updated directory of all the public libraries throughout the United States.\n","next_feature":null,"is_raster":false,"short_classification":"Y","stats":{"lon":{"max":-84.808722,"mean":-86.3670039398149,"variance":0.667840745151681,"stdev":0.817215237958569,"min":-87.896296,"median":-86.289184},"lat":{"max":41.73252,"mean":40.1692267939815,"variance":1.25696756974861,"stdev":1.12114565055064,"min":37.881872,"median":40.207646}},"features":[{"properties":{"city":"Fort Wayne","lon":-85.260721,"zip":"","librarysystem":"Allen County Public Library","id":"a64kv3vpubox","address":"5630 Coventry Lane","lat":41.033932,"libraryname":"Aboite Branch","state":"IN"},"type":"Feature","geometry":{"type":"Point","coordinates":[-85.260721,41.033932]}},{"properties":{"city":"Akron","lon":-86.02715,"zip":"","librarysystem":"Akron Carnegie Public Library","id":"a64kv3oto4bl","address":"205 E Rochester St","lat":41.038627,"libraryname":"Akron Carnegie Public Library","state":"IN"},"type":"Feature","geometry":{"type":"Point","coordinates":[-86.02715,41.038627]}},{"properties":{"city":"Alexandria","lon":-85.674008,"zip":"","librarysystem":"Alexandria-Monroe Public Library","id":"a64kv3s7kxdk","address":"117 E Church St","lat":40.263756,"libraryname":"Alexandria-Monroe Public Library","state":"IN"},"type":"Feature","geometry":{"type":"Point","coordinates":[-85.674008,40.263756]}},{"properties":{"city":"Mount Vernon","lon":-87.896296,"zip":"","librarysystem":"Alexandrian Public Library","id":"a64kv3o2ltk0","address":"115 West Fifth Street","lat":37.933172,"libraryname":"Alexandrian Public Library","state":"IN"},"type":"Feature","geometry":{"type":"Point","coordinates":[-87.896296,37.933172]}},{"properties":{"city":"Fort Wayne","lon":-85.142537,"zip":"","librarysystem":"Allen County Public Library","id":"a64kv3yd4pul","address":"900 Webster St","lat":41.077651,"libraryname":"Allen County Public Library","state":"IN"},"type":"Feature","geometry":{"type":"Point","coordinates":[-85.142537,41.077651]}},{"properties":{"city":"Anderson","lon":-85.677908,"zip":"","librarysystem":"Anderson Public Library","id":"a64kv3tr0l9p","address":"111 E 12th St","lat":40.104032,"libraryname":"Anderson Public Library","state":"IN"},"type":"Feature","geometry":{"type":"Point","coordinates":[-85.677908,40.104032]}},{"properties":{"city":"Andrews","lon":-85.601092,"zip":"","librarysystem":"Andrews-Dallas Township Public Library","id":"a64kv3qd0c6k","address":"30 E Madison Street","lat":40.857811,"libraryname":"Andrews Dallas Twp Public Library","state":"IN"},"type":"Feature","geometry":{"type":"Point","coordinates":[-85.601092,40.857811]}},{"properties":{"city":"Brazil","lon":-87.12814,"zip":"","librarysystem":"Brazil Public Library","id":"a64kv3kw3hjj","address":"203 North Walnut Street","lat":39.524089,"libraryname":"Annex Building","state":"IN"},"type":"Feature","geometry":{"type":"Point","coordinates":[-87.12814,39.524089]}},{"properties":{"city":"Argos","lon":-86.245537,"zip":"","librarysystem":"Argos Public Library","id":"a64kv3qrmybd","address":"119 West Walnut Street","lat":41.237071,"libraryname":"Argos Public Library","state":"IN"},"type":"Feature","geometry":{"type":"Point","coordinates":[-86.245537,41.237071]}},{"properties":{"city":"Atlanta","lon":-86.027785,"zip":"","librarysystem":"Hamilton North Public Library","id":"a64kv3lpbng8","address":"100 South Walnut Street","lat":40.215944,"libraryname":"Atlanta Branch","state":"IN"},"type":"Feature","geometry":{"type":"Point","coordinates":[-86.027785,40.215944]}},{"properties":{"city":"Attica","lon":-87.249414,"zip":"","librarysystem":"Attica Public Library","id":"a64kv3t5v8ye","address":"305 S Perry","lat":40.29283,"libraryname":"Attica Public Library","state":"IN"},"type":"Feature","geometry":{"type":"Point","coordinates":[-87.249414,40.29283]}},{"properties":{"city":"Leiter's Ford","lon":-87.754386,"zip":"","librarysystem":"Fulton County Public Library","id":"a64kv3ij0uds","address":"4562 N North St","lat":37.97835,"libraryname":"Aubbee Branch Library","state":"IN"},"type":"Feature","geometry":{"type":"Point","coordinates":[-87.754386,37.97835]}},{"properties":{"city":"Aurora","lon":-84.901466,"zip":"","librarysystem":"Aurora Public Library District","id":"a64kv3ndycv1","address":"414 Second St","lat":39.056949,"libraryname":"Aurora Public Library","state":"IN"},"type":"Feature","geometry":{"type":"Point","coordinates":[-84.901466,39.056949]}},{"properties":{"city":"Austin","lon":-85.805388,"zip":"","librarysystem":"Scott County Public Library","id":"a64kv3weul81","address":"26 Union Avenue","lat":38.744805,"libraryname":"Austin Branch Library","state":"IN"},"type":"Feature","geometry":{"type":"Point","coordinates":[-85.805388,38.744805]}},{"properties":{"city":"Avon","lon":-86.399714,"zip":"","librarysystem":"Avon-Washington Township Public Library","id":"a64kv3kkwswp","address":"498 North State Road 267","lat":39.770006,"libraryname":"Avon-Washington Township Public Library","state":"IN"},"type":"Feature","geometry":{"type":"Point","coordinates":[-86.399714,39.770006]}},{"properties":{"city":"Columbus","lon":-85.919251,"zip":"","librarysystem":"Bartholomew County Public Library","id":"a64kv3kdebnk","address":"536 Fifth St","lat":39.203664,"libraryname":"Bartholomew County Public Library","state":"IN"},"type":"Feature","geometry":{"type":"Point","coordinates":[-85.919251,39.203664]}},{"properties":{"city":"Upland","lon":-85.494298,"zip":"","librarysystem":"Barton Rees Pogue Memorial Public Library","id":"a64kv3lff82f","address":"112 E Washington","lat":40.475107,"libraryname":"Barton Rees Pogue Memorial Public Library","state":"IN"},"type":"Feature","geometry":{"type":"Point","coordinates":[-85.494298,40.475107]}},{"properties":{"city":"Batesville","lon":-85.222869,"zip":"","librarysystem":"Batesville Memorial Public Library","id":"a64kv3ufxqly","address":"131 North Walnut Street","lat":39.299751,"libraryname":"Batesville Memorial Public Library","state":"IN"},"type":"Feature","geometry":{"type":"Point","coordinates":[-85.222869,39.299751]}},{"properties":{"city":"Bedford","lon":-86.485855,"zip":"","librarysystem":"Bedford Public Library","id":"a64kv3pndeck","address":"1323 K Street","lat":38.864203,"libraryname":"Bedford Public Library","state":"IN"},"type":"Feature","geometry":{"type":"Point","coordinates":[-86.485855,38.864203]}},{"properties":{"city":"Beech Grove","lon":-86.094864,"zip":"","librarysystem":"Beech Grove Public Library","id":"a64kv3xz3trg","address":"1102 Main Street","lat":39.721761,"libraryname":"Beech Grove Public Library","state":"IN"},"type":"Feature","geometry":{"type":"Point","coordinates":[-86.094864,39.721761]}},{"properties":{"city":"Mentone","lon":-86.036159,"zip":"","librarysystem":"Bell Memorial Public Library","id":"a64kv3m0rdmr","address":"306 N Broadway","lat":41.175433,"libraryname":"Bell Memorial Public Library","state":"IN"},"type":"Feature","geometry":{"type":"Point","coordinates":[-86.036159,41.175433]}},{"properties":{"city":"Fowler","lon":-87.319816,"zip":"","librarysystem":"Benton County Public Library","id":"a64kv3q62t2j","address":"102 N Van Buren Ave","lat":40.617818,"libraryname":"Benton Co Public Library","state":"IN"},"type":"Feature","geometry":{"type":"Point","coordinates":[-87.319816,40.617818]}},{"properties":{"city":"Berne","lon":-84.951683,"zip":"","librarysystem":"Berne Public Library","id":"a64kv3oobviy","address":"166 North Sprunger St","lat":40.658429,"libraryname":"Berne Public Library","state":"IN"},"type":"Feature","geometry":{"type":"Point","coordinates":[-84.951683,40.658429]}},{"properties":{"city":"East Chicago","lon":-87.463954,"zip":"","librarysystem":"East Chicago Public Library","id":"a64kv3ykwgwc","address":"4001 Alexander Avenue","lat":41.640726,"libraryname":"Bessie Owens Community Center Library","state":"IN"},"type":"Feature","geometry":{"type":"Point","coordinates":[-87.463954,41.640726]}},{"properties":{"city":"Bicknell","lon":-87.30812,"zip":"","librarysystem":"Bicknell-Vigo Township Public Library","id":"a64kv3jrret9","address":"201 W 2nd St","lat":38.772845,"libraryname":"Bicknell-Vigo Township Public Library","state":"IN"},"type":"Feature","geometry":{"type":"Point","coordinates":[-87.30812,38.772845]}},{"properties":{"city":"Mishawaka","lon":-86.109283,"zip":"","librarysystem":"Mishawaka-Penn-Harris Public Library","id":"a64kv3myrysz","address":"602 Bittersweet Road","lat":41.669745,"libraryname":"Bittersweet Branch Library","state":"IN"},"type":"Feature","geometry":{"type":"Point","coordinates":[-86.109283,41.669745]}},{"properties":{"city":"Gary","lon":-87.409436,"zip":"","librarysystem":"Lake County Public Library","id":"a64kv3sg4t91","address":"5921 W 25th Avenue","lat":41.57343,"libraryname":"Black Oak Branch","state":"IN"},"type":"Feature","geometry":{"type":"Point","coordinates":[-87.409436,41.57343]}},{"properties":{"city":"Bloomfield","lon":-86.938349,"zip":"","librarysystem":"Bloomfield-Eastern Greene County Public Library","id":"a64kv3oe4hx5","address":"125 S Franklin Street","lat":39.025589,"libraryname":"Bloomfield-Eastern Greene County Public Library","state":"IN"},"type":"Feature","geometry":{"type":"Point","coordinates":[-86.938349,39.025589]}},{"properties":{"city":"Bluffton","lon":-85.172923,"zip":"","librarysystem":"Wells County Public Library","id":"a64kv3xc6jci","address":"200 W Washington St","lat":40.738613,"libraryname":"Bluffton-Wells County Public Library","state":"IN"},"type":"Feature","geometry":{"type":"Point","coordinates":[-85.172923,40.738613]}},{"properties":{"city":"Boonville","lon":-87.280569,"zip":"","librarysystem":"Boonville-Warrick County Public Library","id":"a64kv3ktyow8","address":"611 West Main Street","lat":38.050251,"libraryname":"Boonville-Warrick County Public Library","state":"IN"},"type":"Feature","geometry":{"type":"Point","coordinates":[-87.280569,38.050251]}},{"properties":{"city":"Borden","lon":-85.947305,"zip":"","librarysystem":"Charlestown Clark County Public Library","id":"a64kv3lw7ia9","address":"117 West Main Street","lat":38.468233,"libraryname":"Borden Library","state":"IN"},"type":"Feature","geometry":{"type":"Point","coordinates":[-85.947305,38.468233]}},{"properties":{"city":"Boswell","lon":-87.381953,"zip":"","librarysystem":"Boswell-Grant Township Public Library","id":"a64kv3ycxns8","address":"101 Main St","lat":40.518198,"libraryname":"Boswell-Grant Township Public Library","state":"IN"},"type":"Feature","geometry":{"type":"Point","coordinates":[-87.381953,40.518198]}},{"properties":{"city":"Bourbon","lon":-86.116386,"zip":"","librarysystem":"Bourbon Public Library","id":"a64kv3tdnq3i","address":"307 N Main St","lat":41.297374,"libraryname":"Bourbon Public Library","state":"IN"},"type":"Feature","geometry":{"type":"Point","coordinates":[-86.116386,41.297374]}},{"properties":{"city":"Brazil","lon":-87.128314,"zip":"","librarysystem":"Brazil Public Library","id":"a64kv3i4wfsu","address":"204 N Walnut Street","lat":39.524123,"libraryname":"Brazil Public Library","state":"IN"},"type":"Feature","geometry":{"type":"Point","coordinates":[-87.128314,39.524123]}},{"properties":{"city":"Leavenworth","lon":-86.342722,"zip":"","librarysystem":"Crawford County Public Library","id":"a64kv3pwwitr","address":"529 Old State Road 62","lat":38.1993,"libraryname":"Breeden Memorial Library","state":"IN"},"type":"Feature","geometry":{"type":"Point","coordinates":[-86.342722,38.1993]}},{"properties":{"city":"Bremen","lon":-86.147476,"zip":"","librarysystem":"Bremen Public Library","id":"a64kv3ylwwhf","address":"304 N Jackson St","lat":41.448377,"libraryname":"Bremen Public Library","state":"IN"},"type":"Feature","geometry":{"type":"Point","coordinates":[-86.147476,41.448377]}},{"properties":{"city":"Indianapolis","lon":-86.102299,"zip":"","librarysystem":"Indianapolis-Marion County Public Library","id":"a64kv3q1fpb5","address":"2435 N Sherman Drive","lat":39.802566,"libraryname":"Brightwood Branch Library","state":"IN"},"type":"Feature","geometry":{"type":"Point","coordinates":[-86.102299,39.802566]}},{"properties":{"city":"Bristol","lon":-85.822834,"zip":"","librarysystem":"Bristol-Washington Township Public Library","id":"a64kv3uphu8c","address":"505 W Vistula St","lat":41.720785,"libraryname":"Bristol-Washington Township Public Library","state":"IN"},"type":"Feature","geometry":{"type":"Point","coordinates":[-85.822834,41.720785]}},{"properties":{"city":"Brook","lon":-87.363782,"zip":"","librarysystem":"Brook-Iroquois Township Public Library","id":"a64kv3mxzt8o","address":"100 W Main Street","lat":40.865674,"libraryname":"Brook-Iroquois Township Public Library","state":"IN"},"type":"Feature","geometry":{"type":"Point","coordinates":[-87.363782,40.865674]}},{"properties":{"city":"Brooklyn","lon":-86.370406,"zip":"","librarysystem":"Morgan County Public Library","id":"a64kv3uxd3ct","address":"6 East Mill Street","lat":39.5387,"libraryname":"Brooklyn Branch","state":"IN"},"type":"Feature","geometry":{"type":"Point","coordinates":[-86.370406,39.5387]}},{"properties":{"city":"Brookston","lon":-86.868954,"zip":"","librarysystem":"Brookston-Prairie Township Public Library","id":"a64kv3kq21de","address":"111 West 2nd Street","lat":40.60368,"libraryname":"Brookston-Prairie Township Public Library","state":"IN"},"type":"Feature","geometry":{"type":"Point","coordinates":[-86.868954,40.60368]}},{"properties":{"city":"Brookville","lon":-85.012847,"zip":"","librarysystem":"Whitewater Valley Community Library District","id":"a64kv3mik4bw","address":"919 Main Street","lat":39.424454,"libraryname":"Brookville Public Library","state":"IN"},"type":"Feature","geometry":{"type":"Point","coordinates":[-85.012847,39.424454]}},{"properties":{"city":"Nashville","lon":-86.244929,"zip":"","librarysystem":"Brown County Public Library","id":"a64kv3yacy6t","address":"205 Locust Lane","lat":39.210905,"libraryname":"Brown County Public Library","state":"IN"},"type":"Feature","geometry":{"type":"Point","coordinates":[-86.244929,39.210905]}},{"properties":{"city":"Brownsburg","lon":-86.396053,"zip":"","librarysystem":"Brownsburg Public Library","id":"a64kv3qi91ov","address":"450 S Jefferson Street","lat":39.836572,"libraryname":"Brownsburg Public Library","state":"IN"},"type":"Feature","geometry":{"type":"Point","coordinates":[-86.396053,39.836572]}},{"properties":{"city":"Brownstown","lon":-86.043177,"zip":"","librarysystem":"Brownstown Public Library","id":"a64kv3p9w37a","address":"200 W Walnut","lat":38.879555,"libraryname":"Brownstown Public Library","state":"IN"},"type":"Feature","geometry":{"type":"Point","coordinates":[-86.043177,38.879555]}},{"properties":{"city":"Gary","lon":-87.38766,"zip":"","librarysystem":"Gary Public Library","id":"a64kv3t6eztw","address":"4030 W. 5th Ave","lat":41.602052,"libraryname":"Brunswick Branch","state":"IN"},"type":"Feature","geometry":{"type":"Point","coordinates":[-87.38766,41.602052]}},{"properties":{"city":"Butler","lon":-84.871413,"zip":"","librarysystem":"Butler Public Library","id":"a64kv3j5ookr","address":"340 South Broadway","lat":41.4272,"libraryname":"Butler Public Library","state":"IN"},"type":"Feature","geometry":{"type":"Point","coordinates":[-84.871413,41.4272]}},{"properties":{"city":"Cambridge City","lon":-85.170619,"zip":"","librarysystem":"Cambridge City Public Library","id":"a64kv3kzca08","address":"33 W Main St","lat":39.812693,"libraryname":"Cambridge City Public Library","state":"IN"},"type":"Feature","geometry":{"type":"Point","coordinates":[-85.170619,39.812693]}},{"properties":{"city":"Camden","lon":-86.537216,"zip":"","librarysystem":"Camden-Jackson Township Public Library","id":"a64kv3iir1ar","address":"258 Main St","lat":40.60843,"libraryname":"Camden-Jackson Twp Public Library","state":"IN"},"type":"Feature","geometry":{"type":"Point","coordinates":[-86.537216,40.60843]}},{"properties":{"city":"Cannelton","lon":-86.742982,"zip":"","librarysystem":"Cannelton Public Library","id":"a64kv3jp5ths","address":"W 6th St","lat":37.912756,"libraryname":"Cannelton Public Library","state":"IN"},"type":"Feature","geometry":{"type":"Point","coordinates":[-86.742982,37.912756]}},{"properties":{"city":"Carlisle","lon":-87.402326,"zip":"","librarysystem":"Sullivan County Public Library","id":"a64kv3sl1t70","address":"201 N Ledgerwood St","lat":38.963083,"libraryname":"Carlisle Library","state":"IN"},"type":"Feature","geometry":{"type":"Point","coordinates":[-87.402326,38.963083]}},{"properties":{"city":"Carmel","lon":-86.122449,"zip":"","librarysystem":"Carmel Clay Public Library","id":"a64kv3qc85j0","address":"55 4th Ave S.E.","lat":39.977721,"libraryname":"Carmel Clay Public Library","state":"IN"},"type":"Feature","geometry":{"type":"Point","coordinates":[-86.122449,39.977721]}},{"properties":{"city":"Muncie","lon":-85.384127,"zip":"","librarysystem":"Muncie Public Library","id":"a64kv3lqws72","address":"301 E Jackson Street","lat":40.192658,"libraryname":"Carnegie Library","state":"IN"},"type":"Feature","geometry":{"type":"Point","coordinates":[-85.384127,40.192658]}},{"properties":{"city":"Angola","lon":-84.999358,"zip":"","librarysystem":"Carnegie Public Library Of Steuben County","id":"a64kv3qs6oru","address":"322 S Wayne Street","lat":41.632754,"libraryname":"Carnegie Public Library Of Steuben County","state":"IN"},"type":"Feature","geometry":{"type":"Point","coordinates":[-84.999358,41.632754]}},{"properties":{"city":"Cayuga","lon":-87.473804,"zip":"","librarysystem":"Newport-Vermillion County Library","id":"a64kv3xjged4","address":"273 W Clay St","lat":39.964277,"libraryname":"Cayuga-Eugene Branch Library","state":"IN"},"type":"Feature","geometry":{"type":"Point","coordinates":[-87.473804,39.964277]}},{"properties":{"city":"Cedar Lake","lon":-87.450781,"zip":"","librarysystem":"Lake County Public Library","id":"a64kv3rjk0v5","address":"13330 Parrish Street","lat":41.376441,"libraryname":"Cedar Lake Branch","state":"IN"},"type":"Feature","geometry":{"type":"Point","coordinates":[-87.450781,41.376441]}},{"properties":{"city":"Centerville","lon":-84.995801,"zip":"","librarysystem":"Centerville-Center Township Public Library","id":"a64kv3wslau1","address":"126 East Main Street","lat":39.817854,"libraryname":"Centerville-Center Township Public Library","state":"IN"},"type":"Feature","geometry":{"type":"Point","coordinates":[-84.995801,39.817854]}},{"properties":{"city":"Newburgh","lon":-87.405848,"zip":"","librarysystem":"Ohio Township Public Library System","id":"a64kv3teww28","address":"4111 Lakeshore Dr","lat":37.94461,"libraryname":"Central Library","state":"IN"},"type":"Feature","geometry":{"type":"Point","coordinates":[-87.405848,37.94461]}},{"properties":{"city":"Indianapolis","lon":-86.156878,"zip":"","librarysystem":"Indianapolis-Marion County Public Library","id":"a64kv3urtdip","address":"40 East St Clair Street","lat":39.778076,"libraryname":"Central Library","state":"IN"},"type":"Feature","geometry":{"type":"Point","coordinates":[-86.156878,39.778076]}},{"properties":{"city":"South Bend","lon":-86.23204,"zip":"","librarysystem":"St. Joseph County Public Library","id":"a64kv3jb3532","address":"1150 East Kern Road","lat":41.607529,"libraryname":"Centre Township Branch","state":"IN"},"type":"Feature","geometry":{"type":"Point","coordinates":[-86.23204,41.607529]}},{"properties":{"city":"Chandler","lon":-87.370202,"zip":"","librarysystem":"Ohio Township Public Library System","id":"a64kv3sh3vdg","address":"402 South Jaycee Street","lat":38.036762,"libraryname":"Chandler Branch","state":"IN"},"type":"Feature","geometry":{"type":"Point","coordinates":[-87.370202,38.036762]}},{"properties":{"city":"Charlestown","lon":-85.668077,"zip":"","librarysystem":"Charlestown Clark County Public Library","id":"a64kv3segno8","address":"51 Clark Road","lat":38.448314,"libraryname":"Charlestown Clark County Public Library","state":"IN"},"type":"Feature","geometry":{"type":"Point","coordinates":[-85.668077,38.448314]}},{"properties":{"city":"Churubusco","lon":-85.320415,"zip":"","librarysystem":"Churubusco Public Library","id":"a64kv3sjen4p","address":"116 N Mulberry","lat":41.230355,"libraryname":"Churubusco Public Library","state":"IN"},"type":"Feature","geometry":{"type":"Point","coordinates":[-85.320415,41.230355]}},{"properties":{"city":"New Whiteland","lon":-86.089659,"zip":"","librarysystem":"Johnson County Public Library","id":"a64kv3yjmp90","address":"530 Tracy Rd Ste 250","lat":39.564739,"libraryname":"Clark Pleasant","state":"IN"},"type":"Feature","geometry":{"type":"Point","coordinates":[-86.089659,39.564739]}},{"properties":{"city":"Clarksville","lon":-85.767699,"zip":"","librarysystem":"Jeffersonville Township Public Library","id":"a64kv3n1gryd","address":"1312 Eastern Boulevard","lat":38.306667,"libraryname":"Clarksville Branch Library","state":"IN"},"type":"Feature","geometry":{"type":"Point","coordinates":[-85.767699,38.306667]}},{"properties":{"city":"Clayton","lon":-86.522804,"zip":"","librarysystem":"Clayton-Liberty Township Public Library","id":"a64kv3n6uy6k","address":"5199 Iowa St","lat":39.685437,"libraryname":"Clayton-Liberty Twp Public Library","state":"IN"},"type":"Feature","geometry":{"type":"Point","coordinates":[-86.522804,39.685437]}},{"properties":{"city":"Elkhart","lon":-85.973704,"zip":"","librarysystem":"Elkhart Public Library","id":"a64kv3wrypil","address":"300 S 2nd St","lat":41.684749,"libraryname":"Cleveland Branch","state":"IN"},"type":"Feature","geometry":{"type":"Point","coordinates":[-85.973704,41.684749]}},{"properties":{"city":"Clinton","lon":-87.40126,"zip":"","librarysystem":"Clinton Public Library","id":"a64kv3ph241b","address":"313 South 4th Street","lat":39.65801,"libraryname":"Clinton Public Library","state":"IN"},"type":"Feature","geometry":{"type":"Point","coordinates":[-87.40126,39.65801]}},{"properties":{"city":"Coatesville","lon":-86.669669,"zip":"","librarysystem":"Coatesville Public Library","id":"a64kv3w5gff2","address":"N Milton St","lat":39.681855,"libraryname":"Coatesville Public Library","state":"IN"},"type":"Feature","geometry":{"type":"Point","coordinates":[-86.669669,39.681855]}},{"properties":{"city":"Colfax","lon":-86.670119,"zip":"","librarysystem":"Colfax Public Library","id":"a64kv3yl28i5","address":"613 Main Street","lat":40.19206,"libraryname":"Colfax Public Library","state":"IN"},"type":"Feature","geometry":{"type":"Point","coordinates":[-86.670119,40.19206]}},{"properties":{"city":"Indianapolis","lon":-86.145299,"zip":"","librarysystem":"Indianapolis-Marion County Public Library","id":"a64kv3uvj3pb","address":"4180 N. College Avenue","lat":39.831673,"libraryname":"College Avenue Branch Library","state":"IN"},"type":"Feature","geometry":{"type":"Point","coordinates":[-86.145299,39.831673]}},{"properties":{"city":"Converse","lon":-85.873396,"zip":"","librarysystem":"Converse-Jackson Township Public Library","id":"a64kv3xzmnnf","address":"100 S Jefferson","lat":40.578285,"libraryname":"Converse-Jackson Twp Public Library","state":"IN"},"type":"Feature","geometry":{"type":"Point","coordinates":[-85.873396,40.578285]}},{"properties":{"city":"Michigan City","lon":-86.837728,"zip":"","librarysystem":"La Porte County Public Library","id":"a64kv3qvt6q4","address":"7089 West 400 North","lat":41.665622,"libraryname":"Coolspring Branch","state":"IN"},"type":"Feature","geometry":{"type":"Point","coordinates":[-86.837728,41.665622]}},{"properties":{"city":"Covington","lon":-87.395762,"zip":"","librarysystem":"Covington-Veedersburg Public Library","id":"a64kv3p17hqf","address":"622 5th Street","lat":40.139881,"libraryname":"Covington Public Library","state":"IN"},"type":"Feature","geometry":{"type":"Point","coordinates":[-87.395762,40.139881]}},{"properties":{"city":"English","lon":-86.443277,"zip":"","librarysystem":"Crawford County Public Library","id":"a64kv3yl6ejs","address":"203 Indiana Avenue","lat":38.353115,"libraryname":"Crawford County Public Library","state":"IN"},"type":"Feature","geometry":{"type":"Point","coordinates":[-86.443277,38.353115]}},{"properties":{"city":"Crawfordsville","lon":-86.901546,"zip":"","librarysystem":"Crawfordsville District Public Library","id":"a64kv3ydr9co","address":"205 S. Washington Street","lat":40.040426,"libraryname":"Crawfordsville District Public Library","state":"IN"},"type":"Feature","geometry":{"type":"Point","coordinates":[-86.901546,40.040426]}},{"properties":{"city":"Crothersville","lon":-85.840381,"zip":"","librarysystem":"Jackson County Public Library","id":"a64kv3yd2npq","address":"120 E Main St","lat":38.794819,"libraryname":"Crothersville Library","state":"IN"},"type":"Feature","geometry":{"type":"Point","coordinates":[-85.840381,38.794819]}},{"properties":{"city":"Crown Point","lon":-87.365361,"zip":"","librarysystem":"Crown Point Community Library","id":"a64kv3y0gven","address":"214 S Court Street","lat":41.41614,"libraryname":"Crown Point Community Library","state":"IN"},"type":"Feature","geometry":{"type":"Point","coordinates":[-87.365361,41.41614]}},{"properties":{"city":"Culver","lon":-86.42382,"zip":"","librarysystem":"Culver-Union Township Public Library","id":"a64kv3m07fvq","address":"107 N Main St","lat":41.216814,"libraryname":"Culver-Union Township Public Library","state":"IN"},"type":"Feature","geometry":{"type":"Point","coordinates":[-86.42382,41.216814]}},{"properties":{"city":"Dana","lon":-87.494661,"zip":"","librarysystem":"Newport-Vermillion County Library","id":"a64kv3nyxnw2","address":"104 Maple St","lat":39.804538,"libraryname":"Dana Branch Library","state":"IN"},"type":"Feature","geometry":{"type":"Point","coordinates":[-87.494661,39.804538]}},{"properties":{"city":"Danville","lon":-86.522597,"zip":"","librarysystem":"Danville Public Library","id":"a64kv3luh6q2","address":"101 South Indiana Street","lat":39.759753,"libraryname":"Danville Public Library","state":"IN"},"type":"Feature","geometry":{"type":"Point","coordinates":[-86.522597,39.759753]}},{"properties":{"city":"Darlington","lon":-86.775815,"zip":"","librarysystem":"Darlington Public Library","id":"a64kv3tfjld5","address":"203 W Main St","lat":40.109605,"libraryname":"Darlington Public Library","state":"IN"},"type":"Feature","geometry":{"type":"Point","coordinates":[-86.775815,40.109605]}},{"properties":{"city":"Indianapolis","lon":-86.278735,"zip":"","librarysystem":"Indianapolis-Marion County Public Library","id":"a64kv3iivvhb","address":"5301 Kentucky Avenue","lat":39.687412,"libraryname":"Decatur Branch Library","state":"IN"},"type":"Feature","geometry":{"type":"Point","coordinates":[-86.278735,39.687412]}},{"properties":{"city":"Decatur","lon":-84.925321,"zip":"","librarysystem":"Decatur Public Library","id":"a64kv3l0qbml","address":"128 S 3rd Street","lat":40.829571,"libraryname":"Decatur Public Library","state":"IN"},"type":"Feature","geometry":{"type":"Point","coordinates":[-84.925321,40.829571]}},{"properties":{"city":"Delphi","lon":-86.672603,"zip":"","librarysystem":"Delphi Public Library","id":"a64kv3nkxfu6","address":"222 E Main Street","lat":40.586532,"libraryname":"Delphi Public Library","state":"IN"},"type":"Feature","geometry":{"type":"Point","coordinates":[-86.672603,40.586532]}},{"properties":{"city":"Demotte","lon":-87.201191,"zip":"","librarysystem":"Jasper County Public Library","id":"a64kv3ohl8tm","address":"901 Birch St SW","lat":41.193657,"libraryname":"Demotte Branch Library","state":"IN"},"type":"Feature","geometry":{"type":"Point","coordinates":[-87.201191,41.193657]}},{"properties":{"city":"Dillsboro","lon":-85.055477,"zip":"","librarysystem":"Aurora Public Library District","id":"a64kv3nr3uwv","address":"10151 Library Lane","lat":39.019406,"libraryname":"Dillsboro Public Library","state":"IN"},"type":"Feature","geometry":{"type":"Point","coordinates":[-85.055477,39.019406]}},{"properties":{"city":"Dublin","lon":-85.198979,"zip":"","librarysystem":"Dublin Public Library","id":"a64kv3ww8ohx","address":"P O Box 188","lat":39.812225,"libraryname":"Dublin Public Library","state":"IN"},"type":"Feature","geometry":{"type":"Point","coordinates":[-85.198979,39.812225]}},{"properties":{"city":"Dubois","lon":-86.802921,"zip":"","librarysystem":"Jasper-Dubois County Contractual Public Library","id":"a64kv3xx1lqb","address":"4390 W 4th St","lat":38.445794,"libraryname":"Dubois Branch","state":"IN"},"type":"Feature","geometry":{"type":"Point","coordinates":[-86.802921,38.445794]}},{"properties":{"city":"Gary","lon":-87.336732,"zip":"","librarysystem":"Gary Public Library","id":"a64kv3ngz4wb","address":"1835 Broadway","lat":41.584562,"libraryname":"Dubois Branch","state":"IN"},"type":"Feature","geometry":{"type":"Point","coordinates":[-87.336732,41.584562]}},{"properties":{"city":"Dugger","lon":-87.25939,"zip":"","librarysystem":"Sullivan County Public Library","id":"a64kv3x9s43d","address":"8007 E Main St","lat":39.067852,"libraryname":"Dugger Library","state":"IN"},"type":"Feature","geometry":{"type":"Point","coordinates":[-87.25939,39.067852]}},{"properties":{"city":"Dunkirk","lon":-85.211967,"zip":"","librarysystem":"Dunkirk City Public Library","id":"a64kv3sgbntl","address":"309 S. Franklin St.","lat":40.373788,"libraryname":"Dunkirk City Public Library","state":"IN"},"type":"Feature","geometry":{"type":"Point","coordinates":[-85.211967,40.373788]}},{"properties":{"city":"Elkhart","lon":-85.921738,"zip":"","librarysystem":"Elkhart Public Library","id":"a64kv3jyo2hk","address":"58485 East County Rd 13","lat":41.645473,"libraryname":"Dunlap Branch","state":"IN"},"type":"Feature","geometry":{"type":"Point","coordinates":[-85.921738,41.645473]}},{"properties":{"city":"Fort Wayne","lon":-85.134871,"zip":"","librarysystem":"Allen County Public Library","id":"a64kv3lxx8io","address":"563 East Dupont Road","lat":41.178364,"libraryname":"Dupont Branch","state":"IN"},"type":"Feature","geometry":{"type":"Point","coordinates":[-85.134871,41.178364]}},{"properties":{"city":"Schererville","lon":-87.475097,"zip":"","librarysystem":"Lake County Public Library","id":"a64kv3udsxuc","address":"1001 West Lincoln Highway","lat":41.49057,"libraryname":"Dyer Schererville Branch","state":"IN"},"type":"Feature","geometry":{"type":"Point","coordinates":[-87.475097,41.49057]}},{"properties":{"city":"Hammond","lon":-87.49964,"zip":"","librarysystem":"Hammond Public Library","id":"a64kv3k2fha3","address":"1212 172nd Street","lat":41.582768,"libraryname":"E B Hayward Branch Library","state":"IN"},"type":"Feature","geometry":{"type":"Point","coordinates":[-87.49964,41.582768]}},{"properties":{"city":"Indianapolis","lon":-86.238494,"zip":"","librarysystem":"Indianapolis-Marion County Public Library","id":"a64kv3jkah3b","address":"3325 Lowry Road","lat":39.815484,"libraryname":"Eagle Branch Library","state":"IN"},"type":"Feature","geometry":{"type":"Point","coordinates":[-86.238494,39.815484]}},{"properties":{"city":"Earl Park","lon":-87.410009,"zip":"","librarysystem":"Earl Park Public Library","id":"a64kv3p1fsgl","address":"400 E Fifth St","lat":40.68389,"libraryname":"Earl Park Public Library","state":"IN"},"type":"Feature","geometry":{"type":"Point","coordinates":[-87.410009,40.68389]}},{"properties":{"city":"Indianapolis","lon":-86.076345,"zip":"","librarysystem":"Indianapolis-Marion County Public Library","id":"a64kv3vz5wzk","address":"5420 E. 38th Street","lat":39.825589,"libraryname":"East 38th Street Branch Library","state":"IN"},"type":"Feature","geometry":{"type":"Point","coordinates":[-86.076345,39.825589]}},{"properties":{"city":"Evansville","lon":-87.551523,"zip":"","librarysystem":"Evansville Vanderburgh Public Library","id":"a64kv3jx9ix0","address":"840 E Chandler Avenue","lat":37.965746,"libraryname":"East Branch","state":"IN"},"type":"Feature","geometry":{"type":"Point","coordinates":[-87.551523,37.965746]}},{"properties":{"city":"Avilla","lon":-85.248965,"zip":"","librarysystem":"Noble County Public Library","id":"a64kv3xzllgw","address":"1116 West Albion Street","lat":41.365929,"libraryname":"East Branch Library","state":"IN"},"type":"Feature","geometry":{"type":"Point","coordinates":[-85.248965,41.365929]}},{"properties":{"city":"East Chicago","lon":-87.442303,"zip":"","librarysystem":"East Chicago Public Library","id":"a64kv3otpbno","address":"2401 E Columbus Drive","lat":41.638226,"libraryname":"East Chicago Public Library","state":"IN"},"type":"Feature","geometry":{"type":"Point","coordinates":[-87.442303,41.638226]}},{"properties":{"city":"Indianapolis","lon":-86.115727,"zip":"","librarysystem":"Indianapolis-Marion County Public Library","id":"a64kv3pnis79","address":"2822 East Washington Street","lat":39.768556,"libraryname":"East Washington Branch Library","state":"IN"},"type":"Feature","geometry":{"type":"Point","coordinates":[-86.115727,39.768556]}},{"properties":{"city":"Bloomfield","lon":-86.922728,"zip":"","librarysystem":"Bloomfield-Eastern Greene County Public Library","id":"a64kv3mvvt9b","address":"State Road 54","lat":39.028659,"libraryname":"Eastern Branch","state":"IN"},"type":"Feature","geometry":{"type":"Point","coordinates":[-86.922728,39.028659]}},{"properties":{"city":"Charlottesville","lon":-85.611949,"zip":"","librarysystem":"Hancock County Public Library","id":"a64kv3xsvyz4","address":"10450 E 250 N","lat":39.79142,"libraryname":"Eastern Hancock Branch","state":"IN"},"type":"Feature","geometry":{"type":"Point","coordinates":[-85.611949,39.79142]}},{"properties":{"city":"Auburn","lon":-85.057099,"zip":"","librarysystem":"Eckhart Public Library","id":"a64kv3qo0t4y","address":"603 South Jackson Street","lat":41.364128,"libraryname":"Eckhart Public Library","state":"IN"},"type":"Feature","geometry":{"type":"Point","coordinates":[-85.057099,41.364128]}},{"properties":{"city":"Edinburgh","lon":-85.966883,"zip":"","librarysystem":"Edinburgh Public Library","id":"a64kv3wdwkkn","address":"119 W Main Cross St.","lat":39.354148,"libraryname":"Edinburgh Public Library","state":"IN"},"type":"Feature","geometry":{"type":"Point","coordinates":[-85.966883,39.354148]}},{"properties":{"city":"Elberfeld","lon":-87.444663,"zip":"","librarysystem":"Boonville-Warrick County Public Library","id":"a64kv3i6whgs","address":"175 Sycamore Street","lat":38.159329,"libraryname":"Elberfeld Branch Library","state":"IN"},"type":"Feature","geometry":{"type":"Point","coordinates":[-87.444663,38.159329]}},{"properties":{"city":"Elkhart","lon":-85.973704,"zip":"","librarysystem":"Elkhart Public Library","id":"a64kv3p3s85m","address":"300 South Second Street","lat":41.684749,"libraryname":"Elkhart Public Library","state":"IN"},"type":"Feature","geometry":{"type":"Point","coordinates":[-85.973704,41.684749]}},{"properties":{"city":"Ellettsville","lon":-86.625026,"zip":"","librarysystem":"Monroe County Public Library","id":"a64kv3xu0htn","address":"600 W Temperance","lat":39.234137,"libraryname":"Ellettsville Branch","state":"IN"},"type":"Feature","geometry":{"type":"Point","coordinates":[-86.625026,39.234137]}},{"properties":{"city":"Elwood","lon":-85.839959,"zip":"","librarysystem":"North Madison County Public Library System","id":"a64kv3oguspe","address":"1600 Main Street","lat":40.277094,"libraryname":"Elwood Public Library","state":"IN"},"type":"Feature","geometry":{"type":"Point","coordinates":[-85.839959,40.277094]}},{"properties":{"city":"Eminence","lon":-86.641535,"zip":"","librarysystem":"Morgan County Public Library","id":"a64kv3ps63kk","address":"Walters Road","lat":39.52291,"libraryname":"Eminence Branch","state":"IN"},"type":"Feature","geometry":{"type":"Point","coordinates":[-86.641535,39.52291]}},{"properties":{"city":"Evansville","lon":-87.566262,"zip":"","librarysystem":"Evansville Vanderburgh Public Library","id":"a64kv3qcbs57","address":"200 SE Martin Luther King Jr. Blvd.","lat":37.971475,"libraryname":"Evansville Vanderburgh Public Library","state":"IN"},"type":"Feature","geometry":{"type":"Point","coordinates":[-87.566262,37.971475]}},{"properties":{"city":"Fairmount","lon":-85.650518,"zip":"","librarysystem":"Fairmount Public Library","id":"a64kv3lkyfdg","address":"205 S Main St","lat":40.41465,"libraryname":"Fairmount Public Library","state":"IN"},"type":"Feature","geometry":{"type":"Point","coordinates":[-85.650518,40.41465]}},{"properties":{"city":"Farmersburg","lon":-87.379973,"zip":"","librarysystem":"Sullivan County Public Library","id":"a64kv3ifbeau","address":"116 W Main St","lat":39.254064,"libraryname":"Farmersburg Library","state":"IN"},"type":"Feature","geometry":{"type":"Point","coordinates":[-87.379973,39.254064]}},{"properties":{"city":"Farmland","lon":-85.12752,"zip":"","librarysystem":"Farmland Public Library","id":"a64kv3kqtpmr","address":"106 E Henry St","lat":40.187639,"libraryname":"Farmland Public Library","state":"IN"},"type":"Feature","geometry":{"type":"Point","coordinates":[-85.12752,40.187639]}},{"properties":{"city":"Connersville","lon":-85.137947,"zip":"","librarysystem":"Fayette County Public Library","id":"a64kv3th1jq1","address":"828 Grand Avenue","lat":39.645143,"libraryname":"Fayette County Public Library","state":"IN"},"type":"Feature","geometry":{"type":"Point","coordinates":[-85.137947,39.645143]}},{"properties":{"city":"Ferdinand","lon":-86.962067,"zip":"","librarysystem":"Jasper-Dubois County Contractual Public Library","id":"a64kv3x2ecp5","address":"243 West 10th St","lat":38.30295,"libraryname":"Ferdinand Branch Library","state":"IN"},"type":"Feature","geometry":{"type":"Point","coordinates":[-86.962067,38.30295]}},{"properties":{"city":"Walkerton","lon":-86.544734,"zip":"","librarysystem":"La Porte County Public Library","id":"a64kv3tm16qv","address":"7981 E Sr 4","lat":41.565167,"libraryname":"Fish Lake Branch Library","state":"IN"},"type":"Feature","geometry":{"type":"Point","coordinates":[-86.544734,41.565167]}},{"properties":{"city":"Fishers","lon":-86.016478,"zip":"","librarysystem":"Hamilton East Public Library","id":"a64kv3kieiad","address":"5 Municipal Drive","lat":39.960719,"libraryname":"Fishers Branch","state":"IN"},"type":"Feature","geometry":{"type":"Point","coordinates":[-86.016478,39.960719]}},{"properties":{"city":"Indianapolis","lon":-86.17028,"zip":"","librarysystem":"Indianapolis-Marion County Public Library","id":"a64kv3vkgyjf","address":"2424 Dr. Martin Luther King Jr. Street","lat":39.801515,"libraryname":"Flanner House Branch Library","state":"IN"},"type":"Feature","geometry":{"type":"Point","coordinates":[-86.17028,39.801515]}},{"properties":{"city":"Flora","lon":-86.523609,"zip":"","librarysystem":"Flora-Monroe Township Public Library","id":"a64kv3kj25b4","address":"109 N Center St","lat":40.54874,"libraryname":"Flora-Monroe Township Public Library","state":"IN"},"type":"Feature","geometry":{"type":"Point","coordinates":[-86.523609,40.54874]}},{"properties":{"city":"Fort Branch","lon":-87.57819,"zip":"","librarysystem":"Fort Branch-Johnson Township Public Library","id":"a64kv3pjhkhe","address":"107 E Locust St","lat":38.2473,"libraryname":"Fort Branch Public Library","state":"IN"},"type":"Feature","geometry":{"type":"Point","coordinates":[-87.57819,38.2473]}},{"properties":{"city":"Fortville","lon":-85.841939,"zip":"","librarysystem":"Fortville-Vernon Township Public Library","id":"a64kv3xsqfcd","address":"625 E Broadway","lat":39.93491,"libraryname":"Fortville-Vernon Township Public Library","state":"IN"},"type":"Feature","geometry":{"type":"Point","coordinates":[-85.841939,39.93491]}},{"properties":{"city":"Gary","lon":-87.385572,"zip":"","librarysystem":"Lake County Public Library","id":"a64kv3j7qubk","address":"3941 West 41st Avenue","lat":41.544242,"libraryname":"Forty-First Avenue Branch","state":"IN"},"type":"Feature","geometry":{"type":"Point","coordinates":[-87.385572,41.544242]}},{"properties":{"city":"Indianapolis","lon":-86.140338,"zip":"","librarysystem":"Indianapolis-Marion County Public Library","id":"a64kv3ti73rz","address":"1066 Virginia Avenue","lat":39.752754,"libraryname":"Fountain Square Branch Library","state":"IN"},"type":"Feature","geometry":{"type":"Point","coordinates":[-86.140338,39.752754]}},{"properties":{"city":"Francesville","lon":-86.883084,"zip":"","librarysystem":"Francesville-Salem Township Public Library","id":"a64kv3umcfvy","address":"201 West Montgomery Street","lat":40.985306,"libraryname":"Francesville-Salem Township Public Library","state":"IN"},"type":"Feature","geometry":{"type":"Point","coordinates":[-86.883084,40.985306]}},{"properties":{"city":"Frankfort","lon":-86.512787,"zip":"","librarysystem":"Frankfort Community/Clinton County Contractual Public Library","id":"a64kv3u0ejst","address":"208 W Clinton St.","lat":40.280785,"libraryname":"Frankfort Community/Clinton County Contractual Public Library","state":"IN"},"type":"Feature","geometry":{"type":"Point","coordinates":[-86.512787,40.280785]}},{"properties":{"city":"Indianapolis","lon":-86.01842,"zip":"","librarysystem":"Indianapolis-Marion County Public Library","id":"a64kv3i76yoq","address":"5500 S. Franklin Road","lat":39.689726,"libraryname":"Franklin Road Branch Library","state":"IN"},"type":"Feature","geometry":{"type":"Point","coordinates":[-86.01842,39.689726]}},{"properties":{"city":"Frankton","lon":-85.779419,"zip":"","librarysystem":"North Madison County Public Library System","id":"a64kv3u5bqx3","address":"102 S. Church Street","lat":40.22553,"libraryname":"Frankton Community Library","state":"IN"},"type":"Feature","geometry":{"type":"Point","coordinates":[-85.779419,40.22553]}},{"properties":{"city":"Corydon","lon":-86.126571,"zip":"","librarysystem":"Harrison County Public Library","id":"a64kv3k8wxa2","address":"117 West Beaver Street","lat":38.210903,"libraryname":"Frederick Porter Griffin Center for","state":"IN"},"type":"Feature","geometry":{"type":"Point","coordinates":[-86.126571,38.210903]}},{"properties":{"city":"Fremont","lon":-84.942399,"zip":"","librarysystem":"Fremont Public Library","id":"a64kv3m2z52t","address":"3145 E North St","lat":41.73252,"libraryname":"Fremont Public Library","state":"IN"},"type":"Feature","geometry":{"type":"Point","coordinates":[-84.942399,41.73252]}},{"properties":{"city":"Fulton","lon":-86.265519,"zip":"","librarysystem":"Fulton County Public Library","id":"a64kv3u5h0g7","address":"514 State Road 25","lat":40.94275,"libraryname":"Fulton Library","state":"IN"},"type":"Feature","geometry":{"type":"Point","coordinates":[-86.265519,40.94275]}},{"properties":{"city":"Galveston","lon":-86.187185,"zip":"","librarysystem":"Logansport-Cass County Public Library","id":"a64kv3rwc6bh","address":"304 East Jackson","lat":40.579022,"libraryname":"Galveston Branch Library","state":"IN"},"type":"Feature","geometry":{"type":"Point","coordinates":[-86.187185,40.579022]}},{"properties":{"city":"Garrett","lon":-85.135802,"zip":"","librarysystem":"Garrett Public Library","id":"a64kv3wfzh5w","address":"107 W Houston Street","lat":41.348281,"libraryname":"Garrett Public Library","state":"IN"},"type":"Feature","geometry":{"type":"Point","coordinates":[-85.135802,41.348281]}},{"properties":{"city":"Gary","lon":-87.339991,"zip":"","librarysystem":"Gary Public Library","id":"a64kv3vfsudu","address":"220 W 5th Ave","lat":41.60221,"libraryname":"Gary Public Library","state":"IN"},"type":"Feature","geometry":{"type":"Point","coordinates":[-87.339991,41.60221]}},{"properties":{"city":"Gas City","lon":-85.614397,"zip":"","librarysystem":"Gas City-Mill Township Public Library","id":"a64kv3j9jjqv","address":"135 E Main St","lat":40.488005,"libraryname":"Gas City-Mill Township Public Library","state":"IN"},"type":"Feature","geometry":{"type":"Point","coordinates":[-85.614397,40.488005]}},{"properties":{"city":"Shelbyville","lon":-85.778244,"zip":"","librarysystem":"Shelbyville-Shelby County Public Library","id":"a64kv3qv8gt8","address":"58 West Broadway","lat":39.523114,"libraryname":"Genealogy And History Room","state":"IN"},"type":"Feature","geometry":{"type":"Point","coordinates":[-85.778244,39.523114]}},{"properties":{"city":"Geneva","lon":-84.958783,"zip":"","librarysystem":"Geneva Public Library","id":"a64kv3yjovqx","address":"305 E Line Street","lat":40.592124,"libraryname":"Geneva Public Library","state":"IN"},"type":"Feature","geometry":{"type":"Point","coordinates":[-84.958783,40.592124]}},{"properties":{"city":"Fort Wayne","lon":-85.056607,"zip":"","librarysystem":"Allen County Public Library","id":"a64kv3ixgll8","address":"6600 East State Boulevard","lat":41.102757,"libraryname":"Georgetown Branch","state":"IN"},"type":"Feature","geometry":{"type":"Point","coordinates":[-85.056607,41.102757]}},{"properties":{"city":"Indianapolis","lon":-86.122024,"zip":"","librarysystem":"Indianapolis-Marion County Public Library","id":"a64kv3p6u0w7","address":"6101 N Keystone Avenue","lat":39.865191,"libraryname":"Glendale Branch Library","state":"IN"},"type":"Feature","geometry":{"type":"Point","coordinates":[-86.122024,39.865191]}},{"properties":{"city":"Goodland","lon":-87.293559,"zip":"","librarysystem":"Goodland &amp; Grant Township Public Library","id":"a64kv3wq7fdh","address":"75 N Newton St","lat":40.76558,"libraryname":"Goodland &amp; Grant Twp Public Library","state":"IN"},"type":"Feature","geometry":{"type":"Point","coordinates":[-87.293559,40.76558]}},{"properties":{"city":"Goshen","lon":-85.832992,"zip":"","librarysystem":"Goshen Public Library","id":"a64kv3q2ceok","address":"601 South Fifth St","lat":41.579475,"libraryname":"Goshen Public Library","state":"IN"},"type":"Feature","geometry":{"type":"Point","coordinates":[-85.832992,41.579475]}},{"properties":{"city":"Grandview","lon":-86.980863,"zip":"","librarysystem":"Spencer County Public Library","id":"a64kv3in23qz","address":"403 Main St","lat":37.933822,"libraryname":"Grandview Branch","state":"IN"},"type":"Feature","geometry":{"type":"Point","coordinates":[-86.980863,37.933822]}},{"properties":{"city":"Greensburg","lon":-85.466916,"zip":"","librarysystem":"Greensburg-Decatur County Public Library","id":"a64kv3vlswnl","address":"1110 E Main Street","lat":39.336529,"libraryname":"Greensburg-Decatur County Public Library","state":"IN"},"type":"Feature","geometry":{"type":"Point","coordinates":[-85.466916,39.336529]}},{"properties":{"city":"Greentown","lon":-85.970558,"zip":"","librarysystem":"Greentown &amp; Eastern Howard School Public Library","id":"a64kv3ptdwx7","address":"421 S Harrison St","lat":40.473559,"libraryname":"Greentown &amp; Eastern Howard School Public Library","state":"IN"},"type":"Feature","geometry":{"type":"Point","coordinates":[-85.970558,40.473559]}},{"properties":{"city":"Greentown","lon":-85.966735,"zip":"","librarysystem":"Greentown &amp; Eastern Howard School Public Library","id":"a64kv3i2s4wm","address":"301 South Meridian","lat":40.475663,"libraryname":"Greentown Children's Library","state":"IN"},"type":"Feature","geometry":{"type":"Point","coordinates":[-85.966735,40.475663]}},{"properties":{"city":"Greenwood","lon":-86.106482,"zip":"","librarysystem":"Greenwood Public Library","id":"a64kv3qe02s8","address":"310 S Meridian Street","lat":39.610063,"libraryname":"Greenwood Public Library","state":"IN"},"type":"Feature","geometry":{"type":"Point","coordinates":[-86.106482,39.610063]}},{"properties":{"city":"Griffith","lon":-87.427833,"zip":"","librarysystem":"Lake County Public Library","id":"a64kv3kcn5nd","address":"940 N Broad Street","lat":41.538395,"libraryname":"Griffith Branch","state":"IN"},"type":"Feature","geometry":{"type":"Point","coordinates":[-87.427833,41.538395]}},{"properties":{"city":"Porter","lon":-87.07293,"zip":"","librarysystem":"Westchester Public Library","id":"a64kv3tqx07n","address":"100 Francis Street","lat":41.616388,"libraryname":"Hageman Memorial Library","state":"IN"},"type":"Feature","geometry":{"type":"Point","coordinates":[-87.07293,41.616388]}},{"properties":{"city":"Hagerstown","lon":-85.161353,"zip":"","librarysystem":"Hagerstown-Jefferson Township Public Library","id":"a64kv3ub6ja2","address":"10 W College Street","lat":39.911808,"libraryname":"Hagerstown-Jefferson Township Public Library","state":"IN"},"type":"Feature","geometry":{"type":"Point","coordinates":[-85.161353,39.911808]}},{"properties":{"city":"Noblesville","lon":-85.995653,"zip":"","librarysystem":"Hamilton East Public Library","id":"a64kv3jq8sdt","address":"1 Library Plaza","lat":40.046234,"libraryname":"Hamilton East Public Library","state":"IN"},"type":"Feature","geometry":{"type":"Point","coordinates":[-85.995653,40.046234]}},{"properties":{"city":"Cicero","lon":-86.019179,"zip":"","librarysystem":"Hamilton North Public Library","id":"a64kv3ru9mjt","address":"709 West Brinton Street","lat":40.12386,"libraryname":"Hamilton North Public Library","state":"IN"},"type":"Feature","geometry":{"type":"Point","coordinates":[-86.019179,40.12386]}},{"properties":{"city":"Hamlet","lon":-86.582364,"zip":"","librarysystem":"Starke County Public Library System","id":"a64kv3tymo4q","address":"4 N Starke St","lat":41.37435,"libraryname":"Hamlet Public Library","state":"IN"},"type":"Feature","geometry":{"type":"Point","coordinates":[-86.582364,41.37435]}},{"properties":{"city":"Hammond","lon":-87.515042,"zip":"","librarysystem":"Hammond Public Library","id":"a64kv3qzw9o4","address":"564 State Street","lat":41.617727,"libraryname":"Hammond Public Library","state":"IN"},"type":"Feature","geometry":{"type":"Point","coordinates":[-87.515042,41.617727]}},{"properties":{"city":"Greenfield","lon":-85.779492,"zip":"","librarysystem":"Hancock County Public Library","id":"a64kv3li7lu8","address":"700 N Broadway","lat":39.790283,"libraryname":"Hancock County Public Library","state":"IN"},"type":"Feature","geometry":{"type":"Point","coordinates":[-85.779492,39.790283]}},{"properties":{"city":"Hanna","lon":-86.780253,"zip":"","librarysystem":"La Porte County Public Library","id":"a64kv3m8ih37","address":"202 N Thompson","lat":41.414203,"libraryname":"Hanna Branch","state":"IN"},"type":"Feature","geometry":{"type":"Point","coordinates":[-86.780253,41.414203]}},{"properties":{"city":"Harlan","lon":-84.919838,"zip":"","librarysystem":"Allen County Public Library","id":"a64kv3m9tm6m","address":"17430 State Road 37","lat":41.19591,"libraryname":"Harlan Branch","state":"IN"},"type":"Feature","geometry":{"type":"Point","coordinates":[-84.919838,41.19591]}},{"properties":{"city":"Corydon","lon":-86.126423,"zip":"","librarysystem":"Harrison County Public Library","id":"a64kv3kzjc53","address":"105 North Capitol Avenue","lat":38.210645,"libraryname":"Harrison County Public Library","state":"IN"},"type":"Feature","geometry":{"type":"Point","coordinates":[-86.126423,38.210645]}},{"properties":{"city":"Hartford City","lon":-85.368384,"zip":"","librarysystem":"Hartford City Public Library","id":"a64kv3x374cv","address":"314 N High St","lat":40.453213,"libraryname":"Hartford City Public Library","state":"IN"},"type":"Feature","geometry":{"type":"Point","coordinates":[-85.368384,40.453213]}},{"properties":{"city":"Hatfield","lon":-87.223049,"zip":"","librarysystem":"Spencer County Public Library","id":"a64kv3ivdxwp","address":"900 W State Rd 66","lat":37.90264,"libraryname":"Hatfield Branch","state":"IN"},"type":"Feature","geometry":{"type":"Point","coordinates":[-87.223049,37.90264]}},{"properties":{"city":"Owensburg","lon":-86.726754,"zip":"","librarysystem":"Bloomfield-Eastern Greene County Public Library","id":"a64kv3u1v5av","address":"Main St","lat":38.921124,"libraryname":"Hatfield Museum","state":"IN"},"type":"Feature","geometry":{"type":"Point","coordinates":[-86.726754,38.921124]}},{"properties":{"city":"Haubstadt","lon":-87.574651,"zip":"","librarysystem":"Fort Branch-Johnson Township Public Library","id":"a64kv3pkdk7w","address":"101 S Main","lat":38.205242,"libraryname":"Haubstadt Branch","state":"IN"},"type":"Feature","geometry":{"type":"Point","coordinates":[-87.574651,38.205242]}},{"properties":{"city":"Indianapolis","lon":-86.197292,"zip":"","librarysystem":"Indianapolis-Marion County Public Library","id":"a64kv3nk0eco","address":"2121 W. Michigan Street","lat":39.774543,"libraryname":"Haughville Branch Library","state":"IN"},"type":"Feature","geometry":{"type":"Point","coordinates":[-86.197292,39.774543]}},{"properties":{"city":"Hebron","lon":-87.20159,"zip":"","librarysystem":"Porter County Public Library System","id":"a64kv3rtrusu","address":"201 West Sigler Street","lat":41.318702,"libraryname":"Hebron Library","state":"IN"},"type":"Feature","geometry":{"type":"Point","coordinates":[-87.20159,41.318702]}},{"properties":{"city":"Knox","lon":-86.624951,"zip":"","librarysystem":"Starke County Public Library System","id":"a64kv3rh7fsp","address":"152 W Culver Road","lat":41.288209,"libraryname":"Henry F. Schricker Main Library","state":"IN"},"type":"Feature","geometry":{"type":"Point","coordinates":[-86.624951,41.288209]}},{"properties":{"city":"Carthage","lon":-85.571469,"zip":"","librarysystem":"Henry Henley Public Library","id":"a64kv3owq8kw","address":"103 N Main St","lat":39.739131,"libraryname":"Henry Henley Public Library","state":"IN"},"type":"Feature","geometry":{"type":"Point","coordinates":[-85.571469,39.739131]}},{"properties":{"city":"Henryville","lon":-85.766215,"zip":"","librarysystem":"Charlestown Clark County Public Library","id":"a64kv3wjhpl5","address":"214 East Main Street","lat":38.540281,"libraryname":"Henryville Library","state":"IN"},"type":"Feature","geometry":{"type":"Point","coordinates":[-85.766215,38.540281]}},{"properties":{"city":"East Chicago","lon":-87.478215,"zip":"","librarysystem":"East Chicago Public Library","id":"a64kv3rcckv9","address":"4506 Tod Ave","lat":41.631827,"libraryname":"Heritage Hall","state":"IN"},"type":"Feature","geometry":{"type":"Point","coordinates":[-87.478215,41.631827]}},{"properties":{"city":"Fort Wayne","lon":-85.097836,"zip":"","librarysystem":"Allen County Public Library","id":"a64kv3ucw1xg","address":"3030 East Paulding Road","lat":41.032267,"libraryname":"Hessen Cassel Branch","state":"IN"},"type":"Feature","geometry":{"type":"Point","coordinates":[-85.097836,41.032267]}},{"properties":{"city":"Highland","lon":-87.4606,"zip":"","librarysystem":"Lake County Public Library","id":"a64kv3jqob8a","address":"2841 Jewett Avenue","lat":41.554693,"libraryname":"Highland Branch","state":"IN"},"type":"Feature","geometry":{"type":"Point","coordinates":[-87.4606,41.554693]}},{"properties":{"city":"Hillsdale","lon":-87.386104,"zip":"","librarysystem":"Newport-Vermillion County Library","id":"a64kv3r7fkrq","address":"First &amp; Main St","lat":39.782095,"libraryname":"Hillsdale Branch Library","state":"IN"},"type":"Feature","geometry":{"type":"Point","coordinates":[-87.386104,39.782095]}},{"properties":{"city":"Hobart","lon":-87.256127,"zip":"","librarysystem":"Lake County Public Library","id":"a64kv3k7e2xl","address":"100 N Main Street","lat":41.533901,"libraryname":"Hobart Branch","state":"IN"},"type":"Feature","geometry":{"type":"Point","coordinates":[-87.256127,41.533901]}},{"properties":{"city":"Hope","lon":-85.769981,"zip":"","librarysystem":"Bartholomew County Public Library","id":"a64kv3odb2ga","address":"635 Harrison","lat":39.303339,"libraryname":"Hope Branch Library","state":"IN"},"type":"Feature","geometry":{"type":"Point","coordinates":[-85.769981,39.303339]}},{"properties":{"city":"Hammond","lon":-87.442054,"zip":"","librarysystem":"Hammond Public Library","id":"a64kv3m7z2uf","address":"7047 Grand Avenue","lat":41.585915,"libraryname":"Howard Branch Library","state":"IN"},"type":"Feature","geometry":{"type":"Point","coordinates":[-87.442054,41.585915]}},{"properties":{"city":"Huntingburg","lon":-86.953623,"zip":"","librarysystem":"Huntingburg Public Library","id":"a64kv3o99fjt","address":"419 Jackson St","lat":38.296405,"libraryname":"Huntingburg Public Library","state":"IN"},"type":"Feature","geometry":{"type":"Point","coordinates":[-86.953623,38.296405]}},{"properties":{"city":"Huntington","lon":-85.496116,"zip":"","librarysystem":"Huntington City-Township Public Library","id":"a64kv3tu3l3j","address":"200 W Market Street","lat":40.881336,"libraryname":"Huntington City-Township Public Library","state":"IN"},"type":"Feature","geometry":{"type":"Point","coordinates":[-85.496116,40.881336]}},{"properties":{"city":"Zionsville","lon":-86.265836,"zip":"","librarysystem":"Hussey-Mayfield Memorial Public Library","id":"a64kv3nkartd","address":"250 North Fifth Street","lat":39.953505,"libraryname":"Hussey-Mayfield Memorial Public Library","state":"IN"},"type":"Feature","geometry":{"type":"Point","coordinates":[-86.265836,39.953505]}},{"properties":{"city":"Indianapolis","lon":-86.156897,"zip":"","librarysystem":"Indianapolis-Marion County Public Library","id":"a64kv3rrtzcs","address":"3000 N. Meridian Street","lat":39.810527,"libraryname":"Infozone Branch Library (At The Children's Museum)","state":"IN"},"type":"Feature","geometry":{"type":"Point","coordinates":[-86.156897,39.810527]}},{"properties":{"city":"Indianapolis","lon":-86.071592,"zip":"","librarysystem":"Indianapolis-Marion County Public Library","id":"a64kv3k1z7ey","address":"5625 East Washington Street","lat":39.770609,"libraryname":"Irvington Branch Library","state":"IN"},"type":"Feature","geometry":{"type":"Point","coordinates":[-86.071592,39.770609]}},{"properties":{"city":"Seymour","lon":-85.891942,"zip":"","librarysystem":"Jackson County Public Library","id":"a64kv3xcp1l0","address":"303 W Second Street","lat":38.958701,"libraryname":"Jackson County Public Library","state":"IN"},"type":"Feature","geometry":{"type":"Point","coordinates":[-85.891942,38.958701]}},{"properties":{"city":"Jasonville","lon":-87.195474,"zip":"","librarysystem":"Jasonville Public Library","id":"a64kv3x0tqat","address":"380 E Main St","lat":39.163125,"libraryname":"Jasonville Public Library","state":"IN"},"type":"Feature","geometry":{"type":"Point","coordinates":[-87.195474,39.163125]}},{"properties":{"city":"Rensselaer","lon":-87.154361,"zip":"","librarysystem":"Jasper County Public Library","id":"a64kv3u0w0he","address":"208 W Susan Street","lat":40.938478,"libraryname":"Jasper County Public Library","state":"IN"},"type":"Feature","geometry":{"type":"Point","coordinates":[-87.154361,40.938478]}},{"properties":{"city":"Jasper","lon":-86.93068,"zip":"","librarysystem":"Jasper-Dubois County Contractual Public Library","id":"a64kv3r5kyys","address":"1116 Main St","lat":38.39519,"libraryname":"Jasper Dubois Co Cont Pub Lib","state":"IN"},"type":"Feature","geometry":{"type":"Point","coordinates":[-86.93068,38.39519]}},{"properties":{"city":"Portland","lon":-84.980349,"zip":"","librarysystem":"Jay County Public Library","id":"a64kv3unsux0","address":"315 N. Ship Street","lat":40.435481,"libraryname":"Jay County Public Library","state":"IN"},"type":"Feature","geometry":{"type":"Point","coordinates":[-84.980349,40.435481]}},{"properties":{"city":"Jeffersonville","lon":-85.740869,"zip":"","librarysystem":"Jeffersonville Township Public Library","id":"a64kv3offrl9","address":"211 E Court Avenue","lat":38.275118,"libraryname":"Jeffersonville Township Public Library","state":"IN"},"type":"Feature","geometry":{"type":"Point","coordinates":[-85.740869,38.275118]}},{"properties":{"city":"North Vernon","lon":-85.640147,"zip":"","librarysystem":"Jennings County Public Library","id":"a64kv3ppi4w9","address":"2375 N. State Hwy 3","lat":39.01983,"libraryname":"Jennings County Public Library","state":"IN"},"type":"Feature","geometry":{"type":"Point","coordinates":[-85.640147,39.01983]}},{"properties":{"city":"Muncie","lon":-85.404513,"zip":"","librarysystem":"Muncie Public Library","id":"a64kv3vccr0e","address":"1700 W McGalliard Road","lat":40.219106,"libraryname":"John F. Kennedy Library","state":"IN"},"type":"Feature","geometry":{"type":"Point","coordinates":[-85.404513,40.219106]}},{"properties":{"city":"Franklin","lon":-86.047249,"zip":"","librarysystem":"Johnson County Public Library","id":"a64kv3khmgl2","address":"401 State Street","lat":39.477186,"libraryname":"Johnson County Public Library","state":"IN"},"type":"Feature","geometry":{"type":"Point","coordinates":[-86.047249,39.477186]}},{"properties":{"city":"Jonesboro","lon":-85.62746,"zip":"","librarysystem":"Jonesboro Public Library","id":"a64kv3tqgkxp","address":"124 E 4th St","lat":40.482372,"libraryname":"Jonesboro Public Library","state":"IN"},"type":"Feature","geometry":{"type":"Point","coordinates":[-85.62746,40.482372]}},{"properties":{"city":"Orland","lon":-85.171404,"zip":"","librarysystem":"Joyce Public Library","id":"a64kv3m2o8w4","address":"6035 N State Road 327","lat":41.730113,"libraryname":"Joyce Public Library","state":"IN"},"type":"Feature","geometry":{"type":"Point","coordinates":[-85.171404,41.730113]}},{"properties":{"city":"Kendallville","lon":-85.265639,"zip":"","librarysystem":"Kendallville Public Library","id":"a64kv3xyh6qh","address":"126 W Rush Street","lat":41.441386,"libraryname":"Kendallville Public Library","state":"IN"},"type":"Feature","geometry":{"type":"Point","coordinates":[-85.265639,41.441386]}},{"properties":{"city":"Gary","lon":-87.336228,"zip":"","librarysystem":"Gary Public Library","id":"a64kv3ucdj6i","address":"3953 Broadway","lat":41.546679,"libraryname":"Kennedy Branch","state":"IN"},"type":"Feature","geometry":{"type":"Point","coordinates":[-87.336228,41.546679]}},{"properties":{"city":"Kentland","lon":-87.446836,"zip":"","librarysystem":"Kentland-Jefferson Township Public Library","id":"a64kv3ici4w4","address":"201 E Graham Street","lat":40.769015,"libraryname":"Kentland-Jefferson Township Public Library","state":"IN"},"type":"Feature","geometry":{"type":"Point","coordinates":[-87.446836,40.769015]}},{"properties":{"city":"Kewanna","lon":-86.408529,"zip":"","librarysystem":"Kewanna-Union Township Public Library","id":"a64kv3i861c3","address":"E Main St","lat":41.01854,"libraryname":"Kewanna-Union Twp Public Library","state":"IN"},"type":"Feature","geometry":{"type":"Point","coordinates":[-86.408529,41.01854]}},{"properties":{"city":"Kingman","lon":-87.276369,"zip":"","librarysystem":"Kingman Public Library","id":"a64kv3wi4v35","address":"State St","lat":39.96748,"libraryname":"Kingman Public Library","state":"IN"},"type":"Feature","geometry":{"type":"Point","coordinates":[-87.276369,39.96748]}},{"properties":{"city":"Kingsford Heights","lon":-86.695102,"zip":"","librarysystem":"La Porte County Public Library","id":"a64kv3xv62pg","address":"436 Evanston Street","lat":41.48207,"libraryname":"Kingsford Heights Branch","state":"IN"},"type":"Feature","geometry":{"type":"Point","coordinates":[-86.695102,41.48207]}},{"properties":{"city":"Kirklin","lon":-86.359921,"zip":"","librarysystem":"Kirklin Public Library","id":"a64kv3mt2y10","address":"115 Main St","lat":40.192644,"libraryname":"Kirklin Public Library","state":"IN"},"type":"Feature","geometry":{"type":"Point","coordinates":[-86.359921,40.192644]}},{"properties":{"city":"Knightstown","lon":-85.527297,"zip":"","librarysystem":"Knightstown Public Library","id":"a64kv3wr3r8p","address":"5 E Main St","lat":39.795193,"libraryname":"Knightstown Public Library","state":"IN"},"type":"Feature","geometry":{"type":"Point","coordinates":[-85.527297,39.795193]}},{"properties":{"city":"Vincennes","lon":-87.524293,"zip":"","librarysystem":"Knox County Public Library","id":"a64kv3o67gqc","address":"502 North 7th Street","lat":38.678752,"libraryname":"Knox County Public Library","state":"IN"},"type":"Feature","geometry":{"type":"Point","coordinates":[-87.524293,38.678752]}},{"properties":{"city":"Kokomo","lon":-86.129837,"zip":"","librarysystem":"Kokomo-Howard County Public Library","id":"a64kv3vl9w4v","address":"220 N Union Street","lat":40.487691,"libraryname":"Kokomo-Howard County Public Library","state":"IN"},"type":"Feature","geometry":{"type":"Point","coordinates":[-86.129837,40.487691]}},{"properties":{"city":"Walkerton","lon":-86.490012,"zip":"","librarysystem":"Starke County Public Library System","id":"a64kv3pw2dq5","address":"7954 North Highway 23","lat":41.417505,"libraryname":"Koontz Lake Library","state":"IN"},"type":"Feature","geometry":{"type":"Point","coordinates":[-86.490012,41.417505]}},{"properties":{"city":"Kouts","lon":-87.025648,"zip":"","librarysystem":"Porter County Public Library System","id":"a64kv3w3nsdb","address":"101 E Daumer Road","lat":41.309287,"libraryname":"Kouts Library","state":"IN"},"type":"Feature","geometry":{"type":"Point","coordinates":[-87.025648,41.309287]}},{"properties":{"city":"La Crosse","lon":-86.891121,"zip":"","librarysystem":"La Crosse Public Library","id":"a64kv3l93ufb","address":"16 E Main","lat":41.317188,"libraryname":"La Crosse Public Library","state":"IN"},"type":"Feature","geometry":{"type":"Point","coordinates":[-86.891121,41.317188]}},{"properties":{"city":"La Porte","lon":-86.721084,"zip":"","librarysystem":"La Porte County Public Library","id":"a64kv3xsrw29","address":"904 Indiana Ave","lat":41.609048,"libraryname":"La Porte County Public Library","state":"IN"},"type":"Feature","geometry":{"type":"Point","coordinates":[-86.721084,41.609048]}},{"properties":{"city":"LaGrange","lon":-85.41937,"zip":"","librarysystem":"LaGrange County Public Library","id":"a64kv3p9bmnj","address":"203 W Spring St","lat":41.64383,"libraryname":"LaGrange County Public Library","state":"IN"},"type":"Feature","geometry":{"type":"Point","coordinates":[-85.41937,41.64383]}},{"properties":{"city":"South Bend","lon":-86.294753,"zip":"","librarysystem":"St. Joseph County Public Library","id":"a64kv3ngc21p","address":"3232 West Ardmore Trail","lat":41.689179,"libraryname":"LaSalle Branch","state":"IN"},"type":"Feature","geometry":{"type":"Point","coordinates":[-86.294753,41.689179]}},{"properties":{"city":"Ladoga","lon":-86.800622,"zip":"","librarysystem":"Ladoga-Clark Township Public Library","id":"a64kv3og1xdr","address":"128 E Main Street","lat":39.913765,"libraryname":"Ladoga-Clark Township Public Library","state":"IN"},"type":"Feature","geometry":{"type":"Point","coordinates":[-86.800622,39.913765]}},{"properties":{"city":"Merrillville","lon":-87.359406,"zip":"","librarysystem":"Lake County Public Library","id":"a64kv3srdanb","address":"1919 West 81st Avenue","lat":41.470818,"libraryname":"Lake County Public Library","state":"IN"},"type":"Feature","geometry":{"type":"Point","coordinates":[-87.359406,41.470818]}},{"properties":{"city":"Lake Station","lon":-87.254585,"zip":"","librarysystem":"Lake County Public Library","id":"a64kv3m4qh1r","address":"2400 Central Avenue","lat":41.571989,"libraryname":"Lake Station Branch","state":"IN"},"type":"Feature","geometry":{"type":"Point","coordinates":[-87.254585,41.571989]}},{"properties":{"city":"Lakeville","lon":-86.27306,"zip":"","librarysystem":"St. Joseph County Public Library","id":"a64kv3p95erc","address":"601 North Michigan","lat":41.53099,"libraryname":"Lakeville Branch","state":"IN"},"type":"Feature","geometry":{"type":"Point","coordinates":[-86.27306,41.53099]}},{"properties":{"city":"Lapel","lon":-85.847936,"zip":"","librarysystem":"Anderson Public Library","id":"a64kv3p9eyyi","address":"610 Main St","lat":40.066283,"libraryname":"Lapel Public Library","state":"IN"},"type":"Feature","geometry":{"type":"Point","coordinates":[-85.847936,40.066283]}},{"properties":{"city":"Laurel","lon":-85.188917,"zip":"","librarysystem":"Whitewater Valley Community Library District","id":"a64kv3pzfsz2","address":"200 North Clay St","lat":39.50194,"libraryname":"Laurel Community Library","state":"IN"},"type":"Feature","geometry":{"type":"Point","coordinates":[-85.188917,39.50194]}},{"properties":{"city":"Indianapolis","lon":-86.033176,"zip":"","librarysystem":"Indianapolis-Marion County Public Library","id":"a64kv3r4pjv7","address":"7898 North Hague Road","lat":39.8983,"libraryname":"Lawrence Branch Library","state":"IN"},"type":"Feature","geometry":{"type":"Point","coordinates":[-86.033176,39.8983]}},{"properties":{"city":"Lawrenceburg","lon":-84.84878,"zip":"","librarysystem":"Lawrenceburg Public Library District","id":"a64kv3ifbrvn","address":"123 West High Street","lat":39.091808,"libraryname":"Lawrenceburg Public Library","state":"IN"},"type":"Feature","geometry":{"type":"Point","coordinates":[-84.84878,39.091808]}},{"properties":{"city":"Lebanon","lon":-86.467875,"zip":"","librarysystem":"Lebanon Public Library","id":"a64kv3xs5enl","address":"104 E Washington Street","lat":40.048563,"libraryname":"Lebanon Public Library","state":"IN"},"type":"Feature","geometry":{"type":"Point","coordinates":[-86.467875,40.048563]}},{"properties":{"city":"West Lafayette","lon":-86.90805,"zip":"","librarysystem":"West Lafayette Public Library","id":"a64kv3qxemao","address":"200 Northwestern Ave","lat":40.425796,"libraryname":"Library Annex","state":"IN"},"type":"Feature","geometry":{"type":"Point","coordinates":[-86.90805,40.425796]}},{"properties":{"city":"Ligonier","lon":-85.589229,"zip":"","librarysystem":"Ligonier Public Library","id":"a64kv3wgy73v","address":"300 S Main Street","lat":41.463683,"libraryname":"Ligonier Public Library","state":"IN"},"type":"Feature","geometry":{"type":"Point","coordinates":[-85.589229,41.463683]}},{"properties":{"city":"Rome City","lon":-85.376792,"zip":"","librarysystem":"Kendallville Public Library","id":"a64kv3ii8t69","address":"164 Kelly Street","lat":41.495726,"libraryname":"Limberlost Public Library","state":"IN"},"type":"Feature","geometry":{"type":"Point","coordinates":[-85.376792,41.495726]}},{"properties":{"city":"Dale","lon":-86.98784,"zip":"","librarysystem":"Lincoln Heritage Public Library","id":"a64kv3kjruy9","address":"105 Wallace St","lat":38.169216,"libraryname":"Lincoln Heritage Public Library","state":"IN"},"type":"Feature","geometry":{"type":"Point","coordinates":[-86.98784,38.169216]}},{"properties":{"city":"Linden","lon":-86.904035,"zip":"","librarysystem":"Linden Public Library","id":"a64kv3mqwlc3","address":"102 S Main St","lat":40.188072,"libraryname":"Linden Carnegie Public Library","state":"IN"},"type":"Feature","geometry":{"type":"Point","coordinates":[-86.904035,40.188072]}},{"properties":{"city":"Fort Wayne","lon":-85.153868,"zip":"","librarysystem":"Allen County Public Library","id":"a64kv3ii0kqy","address":"2201 Sherman Boulevard","lat":41.095102,"libraryname":"Little Turtle Branch","state":"IN"},"type":"Feature","geometry":{"type":"Point","coordinates":[-85.153868,41.095102]}},{"properties":{"city":"Muncie","lon":-85.384115,"zip":"","librarysystem":"Muncie Public Library","id":"a64kv3ur1b8l","address":"210 S. Jefferson Street","lat":40.192609,"libraryname":"Local History &amp; Genealogy Center","state":"IN"},"type":"Feature","geometry":{"type":"Point","coordinates":[-85.384115,40.192609]}},{"properties":{"city":"Logansport","lon":-86.32827,"zip":"","librarysystem":"Logansport-Cass County Public Library","id":"a64kv3lebx33","address":"616 E Broadway","lat":40.760512,"libraryname":"Logansport-Cass County Public Library","state":"IN"},"type":"Feature","geometry":{"type":"Point","coordinates":[-86.32827,40.760512]}},{"properties":{"city":"Loogootee","lon":-86.914043,"zip":"","librarysystem":"Loogootee Public Library","id":"a64kv3mk9xav","address":"410 N Line St","lat":38.679717,"libraryname":"Loogootee Public Library","state":"IN"},"type":"Feature","geometry":{"type":"Point","coordinates":[-86.914043,38.679717]}},{"properties":{"city":"Lowell","lon":-87.405715,"zip":"","librarysystem":"Lowell Public Library","id":"a64kv3yhetxt","address":"1505 E Commercial Avenue","lat":41.290014,"libraryname":"Lowell Public Library","state":"IN"},"type":"Feature","geometry":{"type":"Point","coordinates":[-87.405715,41.290014]}},{"properties":{"city":"Lynnville","lon":-87.297702,"zip":"","librarysystem":"Boonville-Warrick County Public Library","id":"a64kv3ns6b1q","address":"211 N Main Street","lat":38.197628,"libraryname":"Lynnville Branch Library","state":"IN"},"type":"Feature","geometry":{"type":"Point","coordinates":[-87.297702,38.197628]}},{"properties":{"city":"Madison","lon":-85.383525,"zip":"","librarysystem":"Madison-Jefferson County Public Library","id":"a64kv3lzzbv6","address":"420 W Main St","lat":38.737054,"libraryname":"Madison-Jefferson County Public Library","state":"IN"},"type":"Feature","geometry":{"type":"Point","coordinates":[-85.383525,38.737054]}},{"properties":{"city":"Linton","lon":-87.165511,"zip":"","librarysystem":"Margaret Cooper Public Library","id":"a64kv3xwvc9f","address":"110 East Vincennes Street","lat":39.034233,"libraryname":"Margaret Cooper Public Library","state":"IN"},"type":"Feature","geometry":{"type":"Point","coordinates":[-87.165511,39.034233]}},{"properties":{"city":"Muncie","lon":-85.387561,"zip":"","librarysystem":"Muncie Public Library","id":"a64kv3s8z55e","address":"2005 S High Street","lat":40.1773,"libraryname":"Maring-Hunt Library","state":"IN"},"type":"Feature","geometry":{"type":"Point","coordinates":[-85.387561,40.1773]}},{"properties":{"city":"Marion","lon":-85.659868,"zip":"","librarysystem":"Marion Public Library","id":"a64kv3p986wy","address":"600 South Washington Street","lat":40.555941,"libraryname":"Marion Public Library","state":"IN"},"type":"Feature","geometry":{"type":"Point","coordinates":[-85.659868,40.555941]}},{"properties":{"city":"Markle","lon":-85.337618,"zip":"","librarysystem":"Huntington City-Township Public Library","id":"a64kv3qxalub","address":"197 E. Morse","lat":40.824104,"libraryname":"Markle Branch","state":"IN"},"type":"Feature","geometry":{"type":"Point","coordinates":[-85.337618,40.824104]}},{"properties":{"city":"East Chicago","lon":-87.463207,"zip":"","librarysystem":"East Chicago Public Library","id":"a64kv3u2211p","address":"4902 Melville Avenue","lat":41.624437,"libraryname":"Martin Luther King Community Center Library","state":"IN"},"type":"Feature","geometry":{"type":"Point","coordinates":[-87.463207,41.624437]}},{"properties":{"city":"Richland","lon":-87.169886,"zip":"","librarysystem":"Spencer County Public Library","id":"a64kv3tvfbx8","address":"6014 W Division","lat":37.94689,"libraryname":"Marylee Vogel","state":"IN"},"type":"Feature","geometry":{"type":"Point","coordinates":[-87.169886,37.94689]}},{"properties":{"city":"Matthews","lon":-85.497258,"zip":"","librarysystem":"Matthews Public Library","id":"a64kv3s2af6z","address":"Massachusetts Ave","lat":40.390415,"libraryname":"Matthews Public Library","state":"IN"},"type":"Feature","geometry":{"type":"Point","coordinates":[-85.497258,40.390415]}},{"properties":{"city":"Evansville","lon":-87.488989,"zip":"","librarysystem":"Evansville Vanderburgh Public Library","id":"a64kv3l817ar","address":"5115 Washington Avenue","lat":37.962221,"libraryname":"McCullough Branch","state":"IN"},"type":"Feature","geometry":{"type":"Point","coordinates":[-87.488989,37.962221]}},{"properties":{"city":"Terre Haute","lon":-87.378859,"zip":"","librarysystem":"Vigo County Public Library","id":"a64kv3qa7e9k","address":"25th And Poplar","lat":39.46293,"libraryname":"Meadows Branch Library","state":"IN"},"type":"Feature","geometry":{"type":"Point","coordinates":[-87.378859,39.46293]}},{"properties":{"city":"Medaryville","lon":-86.887626,"zip":"","librarysystem":"Pulaski County Public Library","id":"a64kv3t35451","address":"510 E Main St","lat":41.080755,"libraryname":"Medaryville Branch","state":"IN"},"type":"Feature","geometry":{"type":"Point","coordinates":[-86.887626,41.080755]}},{"properties":{"city":"Medora","lon":-86.170202,"zip":"","librarysystem":"Jackson County Public Library","id":"a64kv3m6wnus","address":"27 W Main Po Box 400","lat":38.82466,"libraryname":"Medora Library","state":"IN"},"type":"Feature","geometry":{"type":"Point","coordinates":[-86.170202,38.82466]}},{"properties":{"city":"French Lick","lon":-86.613169,"zip":"","librarysystem":"Melton Public Library","id":"a64kv3xmdz50","address":"315 W College St","lat":38.54881,"libraryname":"Melton Public Library","state":"IN"},"type":"Feature","geometry":{"type":"Point","coordinates":[-86.613169,38.54881]}},{"properties":{"city":"Merom","lon":-87.542811,"zip":"","librarysystem":"Sullivan County Public Library","id":"a64kv3t60q3k","address":"8554 W Market St","lat":39.055491,"libraryname":"Merom Library","state":"IN"},"type":"Feature","geometry":{"type":"Point","coordinates":[-87.542811,39.055491]}},{"properties":{"city":"Michigan City","lon":-86.902253,"zip":"","librarysystem":"Michigan City Public Library","id":"a64kv3pz9e62","address":"100 E Fourth St","lat":41.718464,"libraryname":"Michigan City Public Library","state":"IN"},"type":"Feature","geometry":{"type":"Point","coordinates":[-86.902253,41.718464]}},{"properties":{"city":"Michigantown","lon":-86.393119,"zip":"","librarysystem":"Frankfort-Clinton County Contractual Public Library","id":"a64kv3r42eb7","address":"702 N Main Street","lat":40.330438,"libraryname":"Michigantown Community Library","state":"IN"},"type":"Feature","geometry":{"type":"Point","coordinates":[-86.393119,40.330438]}},{"properties":{"city":"Middlebury","lon":-85.706022,"zip":"","librarysystem":"Middlebury Community Library","id":"a64kv3x8l8n1","address":"101 E Winslow Street","lat":41.67668,"libraryname":"Middlebury Community Library","state":"IN"},"type":"Feature","geometry":{"type":"Point","coordinates":[-85.706022,41.67668]}},{"properties":{"city":"Middletown","lon":-85.537064,"zip":"","librarysystem":"Middletown Fall Creek Township Public Library","id":"a64kv3inmdq5","address":"780 High St","lat":40.056196,"libraryname":"Middletown Fall Creek Twp Public Library","state":"IN"},"type":"Feature","geometry":{"type":"Point","coordinates":[-85.537064,40.056196]}},{"properties":{"city":"Milan","lon":-85.132189,"zip":"","librarysystem":"Osgood Public Library","id":"a64kv3njvfra","address":"112 Franklin Street","lat":39.11979,"libraryname":"Milan Public Library","state":"IN"},"type":"Feature","geometry":{"type":"Point","coordinates":[-85.132189,39.11979]}},{"properties":{"city":"Milford","lon":-85.846142,"zip":"","librarysystem":"Milford Public Library","id":"a64kv3x8ctfa","address":"101 Main St","lat":41.409653,"libraryname":"Milford Public Library","state":"IN"},"type":"Feature","geometry":{"type":"Point","coordinates":[-85.846142,41.409653]}},{"properties":{"city":"Mishawaka","lon":-86.179029,"zip":"","librarysystem":"Mishawaka-Penn-Harris Public Library","id":"a64kv3ki0se0","address":"209 Lincoln Way E","lat":41.660934,"libraryname":"Mishawaka-Penn Public Library","state":"IN"},"type":"Feature","geometry":{"type":"Point","coordinates":[-86.179029,41.660934]}},{"properties":{"city":"Mitchell","lon":-86.465615,"zip":"","librarysystem":"Mitchell Community Public Library","id":"a64kv3prx0y6","address":"8o4 Main St","lat":38.734569,"libraryname":"Mitchell Community Public Library","state":"IN"},"type":"Feature","geometry":{"type":"Point","coordinates":[-86.465615,38.734569]}},{"properties":{"city":"Monon","lon":-86.878944,"zip":"","librarysystem":"Monon Town &amp; Township Public Library","id":"a64kv3oi1c50","address":"427 N Market St","lat":40.863301,"libraryname":"Monon Town &amp; Twp Public Library","state":"IN"},"type":"Feature","geometry":{"type":"Point","coordinates":[-86.878944,40.863301]}},{"properties":{"city":"Bloomington","lon":-86.53092,"zip":"","librarysystem":"Monroe County Public Library","id":"a64kv3wyyb1r","address":"303 E Kirkwood Ave","lat":39.166656,"libraryname":"Monroe County Public Library","state":"IN"},"type":"Feature","geometry":{"type":"Point","coordinates":[-86.53092,39.166656]}},{"properties":{"city":"Monroeville","lon":-84.869252,"zip":"","librarysystem":"Allen County Public Library","id":"a64kv3t64enc","address":"104 Allen Street","lat":40.974532,"libraryname":"Monroeville Branch","state":"IN"},"type":"Feature","geometry":{"type":"Point","coordinates":[-84.869252,40.974532]}},{"properties":{"city":"Monrovia","lon":-86.481114,"zip":"","librarysystem":"Morgan County Public Library","id":"a64kv3qiycuu","address":"50 S Walnut Street","lat":39.578335,"libraryname":"Monrovia Branch","state":"IN"},"type":"Feature","geometry":{"type":"Point","coordinates":[-86.481114,39.578335]}},{"properties":{"city":"Monterey","lon":-86.484999,"zip":"","librarysystem":"Monterey-Tippecanoe Township Public Library","id":"a64kv3kp8ob6","address":"6260 East Main Street","lat":41.15691,"libraryname":"Monterey-Tippecanoe Township Public Library","state":"IN"},"type":"Feature","geometry":{"type":"Point","coordinates":[-86.484999,41.15691]}},{"properties":{"city":"Montezuma","lon":-87.371624,"zip":"","librarysystem":"Montezuma Public Library","id":"a64kv3rvdjqo","address":"212 Crawford St","lat":39.792805,"libraryname":"Montezuma Public Library","state":"IN"},"type":"Feature","geometry":{"type":"Point","coordinates":[-87.371624,39.792805]}},{"properties":{"city":"Monticello","lon":-86.765211,"zip":"","librarysystem":"Monticello-Union Township Public Library","id":"a64kv3rxa745","address":"321 W Broadway Street","lat":40.744788,"libraryname":"Monticello-Union Township Public Library","state":"IN"},"type":"Feature","geometry":{"type":"Point","coordinates":[-86.765211,40.744788]}},{"properties":{"city":"Montpelier","lon":-85.278109,"zip":"","librarysystem":"Montpelier-Harrison Township Public Library","id":"a64kv3xrgde7","address":"301 S Main St","lat":40.552925,"libraryname":"Montpelier-Harrison Twp Public Library","state":"IN"},"type":"Feature","geometry":{"type":"Point","coordinates":[-85.278109,40.552925]}},{"properties":{"city":"Mooresville","lon":-86.380232,"zip":"","librarysystem":"Mooresville Public Library","id":"a64kv3pivcj0","address":"220 W Harrison Street","lat":39.611853,"libraryname":"Mooresville Public Library","state":"IN"},"type":"Feature","geometry":{"type":"Point","coordinates":[-86.380232,39.611853]}},{"properties":{"city":"Morgantown","lon":-86.26147,"zip":"","librarysystem":"Morgan County Public Library","id":"a64kv3n6wbme","address":"39 W Washington Street","lat":39.371076,"libraryname":"Morgantown Branch","state":"IN"},"type":"Feature","geometry":{"type":"Point","coordinates":[-86.26147,39.371076]}},{"properties":{"city":"Morocco","lon":-87.453429,"zip":"","librarysystem":"Newton County Public Library","id":"a64kv3qif1s9","address":"120 E State Street","lat":40.94612,"libraryname":"Morocco Branch Library","state":"IN"},"type":"Feature","geometry":{"type":"Point","coordinates":[-87.453429,40.94612]}},{"properties":{"city":"Richmond","lon":-84.89409,"zip":"","librarysystem":"Morrisson-Reeves Library","id":"a64kv3txlalz","address":"80 N Sixth St","lat":39.82978,"libraryname":"Morrisson-Reeves Library","state":"IN"},"type":"Feature","geometry":{"type":"Point","coordinates":[-84.89409,39.82978]}},{"properties":{"city":"Mulberry","lon":-86.666448,"zip":"","librarysystem":"Frankfort-Clinton County Contractual Public Library","id":"a64kv3we6r2t","address":"132 S Glick Street","lat":40.344288,"libraryname":"Mulberry Community Library","state":"IN"},"type":"Feature","geometry":{"type":"Point","coordinates":[-86.666448,40.344288]}},{"properties":{"city":"Munster","lon":-87.508803,"zip":"","librarysystem":"Lake County Public Library","id":"a64kv3rx1wk9","address":"8701 Calumet Avenue","lat":41.554971,"libraryname":"Munster Branch","state":"IN"},"type":"Feature","geometry":{"type":"Point","coordinates":[-87.508803,41.554971]}},{"properties":{"city":"Nappanee","lon":-86.001121,"zip":"","librarysystem":"Nappanee Public Library","id":"a64kv3pqrwi1","address":"157 N Main Street","lat":41.443192,"libraryname":"Nappanee Public Library","state":"IN"},"type":"Feature","geometry":{"type":"Point","coordinates":[-86.001121,41.443192]}},{"properties":{"city":"Cromwell","lon":-85.615225,"zip":"","librarysystem":"Noble County Public Library","id":"a64kv3l5ei2v","address":"120 Jefferson","lat":41.400897,"libraryname":"Ncpl West Branch Library","state":"IN"},"type":"Feature","geometry":{"type":"Point","coordinates":[-85.615225,41.400897]}},{"properties":{"city":"New Albany","lon":-85.826103,"zip":"","librarysystem":"New Albany-Floyd County Public Library","id":"a64kv3oph6u2","address":"180 W Spring Street","lat":38.285172,"libraryname":"New Albany-Floyd County Public Library","state":"IN"},"type":"Feature","geometry":{"type":"Point","coordinates":[-85.826103,38.285172]}},{"properties":{"city":"New Carlisle","lon":-86.512211,"zip":"","librarysystem":"New Carlisle &amp; Olive Township Public Library","id":"a64kv3ondew8","address":"408 S Bray Street","lat":41.702797,"libraryname":"New Carlisle &amp; Olive Township Public Library","state":"IN"},"type":"Feature","geometry":{"type":"Point","coordinates":[-86.512211,41.702797]}},{"properties":{"city":"New Castle","lon":-85.367408,"zip":"","librarysystem":"New Castle-Henry County Public Library","id":"a64kv3ruubfp","address":"376 S 15th Street","lat":39.928969,"libraryname":"New Castle-Henry County Public Library","state":"IN"},"type":"Feature","geometry":{"type":"Point","coordinates":[-85.367408,39.928969]}},{"properties":{"city":"New Chicago","lon":-87.274842,"zip":"","librarysystem":"Lake County Public Library","id":"a64kv3sog3yd","address":"3250 Michigan Avenue","lat":41.558835,"libraryname":"New Chicago Branch","state":"IN"},"type":"Feature","geometry":{"type":"Point","coordinates":[-87.274842,41.558835]}},{"properties":{"city":"New Harmony","lon":-87.073064,"zip":"","librarysystem":"New Harmony Working Men's Institute","id":"a64kv3uqzj00","address":"407 W Tavern Street","lat":39.53603,"libraryname":"New Harmony Working Men's Institute","state":"IN"},"type":"Feature","geometry":{"type":"Point","coordinates":[-87.073064,39.53603]}},{"properties":{"city":"New Haven","lon":-85.016514,"zip":"","librarysystem":"Allen County Public Library","id":"a64kv3lbw914","address":"435 Ann Street","lat":41.074135,"libraryname":"New Haven Branch","state":"IN"},"type":"Feature","geometry":{"type":"Point","coordinates":[-85.016514,41.074135]}},{"properties":{"city":"New Washington","lon":-85.539366,"zip":"","librarysystem":"Charlestown Clark County Public Library","id":"a64kv3msxryh","address":"210 South Poplar Street","lat":38.56251,"libraryname":"New Washington Library","state":"IN"},"type":"Feature","geometry":{"type":"Point","coordinates":[-85.539366,38.56251]}},{"properties":{"city":"Newburgh","lon":-87.404378,"zip":"","librarysystem":"Ohio Township Public Library System","id":"a64kv3s6rt0l","address":"30 W Water St","lat":37.944047,"libraryname":"Newburgh Library","state":"IN"},"type":"Feature","geometry":{"type":"Point","coordinates":[-87.404378,37.944047]}},{"properties":{"city":"Newport","lon":-87.416494,"zip":"","librarysystem":"Newport-Vermillion County Library","id":"a64kv3qx0alg","address":"385 E Market St","lat":39.884382,"libraryname":"Newport-Vermillion County Public Library","state":"IN"},"type":"Feature","geometry":{"type":"Point","coordinates":[-87.416494,39.884382]}},{"properties":{"city":"Lake Village","lon":-87.451719,"zip":"","librarysystem":"Newton County Public Library","id":"a64kv3vgmvx8","address":"9458 North 315 West","lat":41.13702,"libraryname":"Newton County Public Library","state":"IN"},"type":"Feature","geometry":{"type":"Point","coordinates":[-87.451719,41.13702]}},{"properties":{"city":"Albion","lon":-85.425396,"zip":"","librarysystem":"Noble County Public Library","id":"a64kv3k6mob6","address":"109 N York St","lat":41.395752,"libraryname":"Noble County Public Library","state":"IN"},"type":"Feature","geometry":{"type":"Point","coordinates":[-85.425396,41.395752]}},{"properties":{"city":"Indianapolis","lon":-86.141971,"zip":"","librarysystem":"Indianapolis-Marion County Public Library","id":"a64kv3kx7am2","address":"8625 Guilford Avenue","lat":39.913187,"libraryname":"Nora Branch Library","state":"IN"},"type":"Feature","geometry":{"type":"Point","coordinates":[-86.141971,39.913187]}},{"properties":{"city":"Terre Haute","lon":-87.389574,"zip":"","librarysystem":"Vigo County Public Library","id":"a64kv3o6d76a","address":"1800 East Ft Harrison Ave No 5","lat":39.48218,"libraryname":"North Branch Library","state":"IN"},"type":"Feature","geometry":{"type":"Point","coordinates":[-87.389574,39.48218]}},{"properties":{"city":"West Harrison","lon":-84.885458,"zip":"","librarysystem":"Lawrenceburg Public Library District","id":"a64kv3qxi74j","address":"25969 Dole Road","lat":39.246692,"libraryname":"North Dearborn Library","state":"IN"},"type":"Feature","geometry":{"type":"Point","coordinates":[-84.885458,39.246692]}},{"properties":{"city":"Martinsville","lon":-86.252769,"zip":"","librarysystem":"Morgan County Public Library","id":"a64kv3u3324d","address":"9410 State Road 144","lat":39.566592,"libraryname":"North East Branch","state":"IN"},"type":"Feature","geometry":{"type":"Point","coordinates":[-86.252769,39.566592]}},{"properties":{"city":"North Judson","lon":-86.775034,"zip":"","librarysystem":"North Judson-Wayne Township Public Library","id":"a64kv3xp6lmg","address":"208 Keller Ave","lat":41.215872,"libraryname":"North Judson-Wayne Township Public Library","state":"IN"},"type":"Feature","geometry":{"type":"Point","coordinates":[-86.775034,41.215872]}},{"properties":{"city":"North Liberty","lon":-86.427133,"zip":"","librarysystem":"St. Joseph County Public Library","id":"a64kv3uuf4nn","address":"105 West Center St","lat":41.534786,"libraryname":"North Liberty Branch","state":"IN"},"type":"Feature","geometry":{"type":"Point","coordinates":[-86.427133,41.534786]}},{"properties":{"city":"North Manchester","lon":-85.770237,"zip":"","librarysystem":"North Manchester Public Library","id":"a64kv3ie1pv9","address":"405 North Market Street","lat":41.002368,"libraryname":"North Manchester Public Library","state":"IN"},"type":"Feature","geometry":{"type":"Point","coordinates":[-85.770237,41.002368]}},{"properties":{"city":"Evansville","lon":-87.57611,"zip":"","librarysystem":"Evansville Vanderburgh Public Library","id":"a64kv3snabml","address":"960 Koehler Dr.","lat":38.027201,"libraryname":"North Park Branch","state":"IN"},"type":"Feature","geometry":{"type":"Point","coordinates":[-87.57611,38.027201]}},{"properties":{"city":"Yeoman","lon":-86.722705,"zip":"","librarysystem":"Delphi Public Library","id":"a64kv3r7of7d","address":"164 W Forest St","lat":40.668242,"libraryname":"Northwest Branch","state":"IN"},"type":"Feature","geometry":{"type":"Point","coordinates":[-86.722705,40.668242]}},{"properties":{"city":"Oakland City","lon":-87.34607,"zip":"","librarysystem":"Oakland City-Columbia Township Public Library","id":"a64kv3mgc7fl","address":"210 S Main","lat":38.337098,"libraryname":"Oakland City-Columbia Twp Pub Lib","state":"IN"},"type":"Feature","geometry":{"type":"Point","coordinates":[-87.34607,38.337098]}},{"properties":{"city":"Evansville","lon":-87.512065,"zip":"","librarysystem":"Evansville Vanderburgh Public Library","id":"a64kv3j7udp7","address":"3001 Oaklyn Drive","lat":38.011294,"libraryname":"Oaklyn Branch","state":"IN"},"type":"Feature","geometry":{"type":"Point","coordinates":[-87.512065,38.011294]}},{"properties":{"city":"Odon","lon":-86.992099,"zip":"","librarysystem":"Odon Winkelpleck Public Library","id":"a64kv3plaer1","address":"202 W Main St","lat":38.842729,"libraryname":"Odon Winkelpleck Public Library","state":"IN"},"type":"Feature","geometry":{"type":"Point","coordinates":[-86.992099,38.842729]}},{"properties":{"city":"Rising Sun","lon":-84.855034,"zip":"","librarysystem":"Ohio County Public Library","id":"a64kv3rczumc","address":"100 North High Street","lat":38.94991,"libraryname":"Ohio County Public Library","state":"IN"},"type":"Feature","geometry":{"type":"Point","coordinates":[-84.855034,38.94991]}},{"properties":{"city":"Orleans","lon":-86.452745,"zip":"","librarysystem":"Orleans Town &amp; Township Public Library","id":"a64kv3uv79o5","address":"P O Box 142","lat":38.663465,"libraryname":"Orleans Town &amp; Township Public Library","state":"IN"},"type":"Feature","geometry":{"type":"Point","coordinates":[-86.452745,38.663465]}},{"properties":{"city":"Osgood","lon":-85.2919,"zip":"","librarysystem":"Osgood Public Library","id":"a64kv3jhgw6d","address":"136 West Ripley Street","lat":39.12932,"libraryname":"Osgood Public Library","state":"IN"},"type":"Feature","geometry":{"type":"Point","coordinates":[-85.2919,39.12932]}},{"properties":{"city":"Elkhart","lon":-85.923687,"zip":"","librarysystem":"Elkhart Public Library","id":"a64kv3n2u74y","address":"3429 East Bristol Street","lat":41.702091,"libraryname":"Osolo Branch Library","state":"IN"},"type":"Feature","geometry":{"type":"Point","coordinates":[-85.923687,41.702091]}},{"properties":{"city":"Ossian","lon":-85.166585,"zip":"","librarysystem":"Wells County Public Library","id":"a64kv3r7wty9","address":"207 N Jefferson St","lat":40.881199,"libraryname":"Ossian Branch Library","state":"IN"},"type":"Feature","geometry":{"type":"Point","coordinates":[-85.166585,40.881199]}},{"properties":{"city":"Otterbein","lon":-87.096179,"zip":"","librarysystem":"Otterbein Public Library","id":"a64kv3vud05c","address":"29 S Main St","lat":40.48847,"libraryname":"Otterbein Public Library","state":"IN"},"type":"Feature","geometry":{"type":"Point","coordinates":[-87.096179,40.48847]}},{"properties":{"city":"Otwell","lon":-87.091764,"zip":"","librarysystem":"Pike County Public Library","id":"a64kv3iop44h","address":"2301 N Spring St","lat":38.454341,"libraryname":"Otwell Branch","state":"IN"},"type":"Feature","geometry":{"type":"Point","coordinates":[-87.091764,38.454341]}},{"properties":{"city":"Owensville","lon":-87.691574,"zip":"","librarysystem":"Owensville Carnegie Public Library","id":"a64kv3pi8tq1","address":"110 S Main St","lat":38.27221,"libraryname":"Owensville Carnegie Public Library","state":"IN"},"type":"Feature","geometry":{"type":"Point","coordinates":[-87.691574,38.27221]}},{"properties":{"city":"Oxford","lon":-87.248873,"zip":"","librarysystem":"Oxford Public Library","id":"a64kv3tqo6ar","address":"201 East Smith St","lat":40.520073,"libraryname":"Oxford Public Library","state":"IN"},"type":"Feature","geometry":{"type":"Point","coordinates":[-87.248873,40.520073]}},{"properties":{"city":"Paoli","lon":-86.468063,"zip":"","librarysystem":"Paoli Public Library","id":"a64kv3n9jeln","address":"10 N E Court","lat":38.556039,"libraryname":"Paoli Public Library","state":"IN"},"type":"Feature","geometry":{"type":"Point","coordinates":[-86.468063,38.556039]}},{"properties":{"city":"Paragon","lon":-86.569433,"zip":"","librarysystem":"Morgan County Public Library","id":"a64kv3qzgt41","address":"Paragon Elementary School, Old State Road 67","lat":39.395378,"libraryname":"Paragon Branch","state":"IN"},"type":"Feature","geometry":{"type":"Point","coordinates":[-86.569433,39.395378]}},{"properties":{"city":"Columbia City","lon":-85.468331,"zip":"","librarysystem":"Peabody Public Library","id":"a64kv3xwxk5e","address":"1160 E. Hwy 205","lat":41.159314,"libraryname":"Peabody Public Library","state":"IN"},"type":"Feature","geometry":{"type":"Point","coordinates":[-85.468331,41.159314]}},{"properties":{"city":"Pendleton","lon":-85.738297,"zip":"","librarysystem":"Pendleton Community Library","id":"a64kv3snp2yt","address":"595 E Water St","lat":40.003886,"libraryname":"Pendleton Community Library","state":"IN"},"type":"Feature","geometry":{"type":"Point","coordinates":[-85.738297,40.003886]}},{"properties":{"city":"Pennville","lon":-85.148076,"zip":"","librarysystem":"Penn Township Public Library","id":"a64kv3ygl468","address":"195 Union","lat":40.493361,"libraryname":"Penn Twp Public Library","state":"IN"},"type":"Feature","geometry":{"type":"Point","coordinates":[-85.148076,40.493361]}},{"properties":{"city":"East Chicago","lon":-87.441766,"zip":"","librarysystem":"East Chicago Public Library","id":"a64kv3nrxg0c","address":"3550 Pennsylvania Avenue","lat":41.648187,"libraryname":"Pennsylvania Center Library","state":"IN"},"type":"Feature","geometry":{"type":"Point","coordinates":[-87.441766,41.648187]}},{"properties":{"city":"Perrysville","lon":-87.433539,"zip":"","librarysystem":"Newport-Vermillion County Library","id":"a64kv3ltv2id","address":"111 S Jackson St","lat":40.05046,"libraryname":"Perrysville Branch Library","state":"IN"},"type":"Feature","geometry":{"type":"Point","coordinates":[-87.433539,40.05046]}},{"properties":{"city":"Peru","lon":-86.065879,"zip":"","librarysystem":"Peru Public Library","id":"a64kv3x6sk9o","address":"102 E Main Street","lat":40.755271,"libraryname":"Peru Public Library","state":"IN"},"type":"Feature","geometry":{"type":"Point","coordinates":[-86.065879,40.755271]}},{"properties":{"city":"Pierceton","lon":-85.705264,"zip":"","librarysystem":"Pierceton &amp; Washington Township Public Library","id":"a64kv3xd25pa","address":"P O Box 328","lat":41.199475,"libraryname":"Pierceton &amp; Washington Twp Pub Lib","state":"IN"},"type":"Feature","geometry":{"type":"Point","coordinates":[-85.705264,41.199475]}},{"properties":{"city":"Elkhart","lon":-85.970014,"zip":"","librarysystem":"Elkhart Public Library","id":"a64kv3un7l9z","address":"2400 Benham Avenue","lat":41.662455,"libraryname":"Pierre Moran Branch Library","state":"IN"},"type":"Feature","geometry":{"type":"Point","coordinates":[-85.970014,41.662455]}},{"properties":{"city":"Indianapolis","lon":-86.259663,"zip":"","librarysystem":"Indianapolis-Marion County Public Library","id":"a64kv3opta8k","address":"6525 Zionsville Road","lat":39.872873,"libraryname":"Pike Branch Library","state":"IN"},"type":"Feature","geometry":{"type":"Point","coordinates":[-86.259663,39.872873]}},{"properties":{"city":"Petersburg","lon":-87.277297,"zip":"","librarysystem":"Pike County Public Library","id":"a64kv3k7wyen","address":"1104 Main St","lat":38.49314,"libraryname":"Pike County Public Library","state":"IN"},"type":"Feature","geometry":{"type":"Point","coordinates":[-87.277297,38.49314]}},{"properties":{"city":"Plainfield","lon":-86.387152,"zip":"","librarysystem":"Plainfield-Guilford Township Public Library","id":"a64kv3omjsac","address":"1120 Stafford Road","lat":39.69707,"libraryname":"Plainfield Public Library","state":"IN"},"type":"Feature","geometry":{"type":"Point","coordinates":[-86.387152,39.69707]}},{"properties":{"city":"Plainville","lon":-87.111119,"zip":"","librarysystem":"Washington Carnegie Public Library","id":"a64kv3pv5yar","address":"Main Street","lat":38.75827,"libraryname":"Plainville Branch Library","state":"IN"},"type":"Feature","geometry":{"type":"Point","coordinates":[-87.111119,38.75827]}},{"properties":{"city":"Plymouth","lon":-86.310567,"zip":"","librarysystem":"Plymouth Public Library","id":"a64kv3qse3h1","address":"201 N Center St","lat":41.34085,"libraryname":"Plymouth Public Library","state":"IN"},"type":"Feature","geometry":{"type":"Point","coordinates":[-86.310567,41.34085]}},{"properties":{"city":"Fort Wayne","lon":-85.130482,"zip":"","librarysystem":"Allen County Public Library","id":"a64kv3qyst6u","address":"3304 Warsaw Street","lat":41.054672,"libraryname":"Pontiac Branch","state":"IN"},"type":"Feature","geometry":{"type":"Point","coordinates":[-85.130482,41.054672]}},{"properties":{"city":"Portage","lon":-87.180956,"zip":"","librarysystem":"Porter County Public Library System","id":"a64kv3uqnnzq","address":"2665 Irving Street","lat":41.573793,"libraryname":"Portage Public Library","state":"IN"},"type":"Feature","geometry":{"type":"Point","coordinates":[-87.180956,41.573793]}},{"properties":{"city":"Poseyville","lon":-87.783366,"zip":"","librarysystem":"Poseyville Carnegie Public Library","id":"a64kv3nwlk59","address":"55 S Cale St","lat":38.168967,"libraryname":"Poseyville Carnegie Public Library","state":"IN"},"type":"Feature","geometry":{"type":"Point","coordinates":[-87.783366,38.168967]}},{"properties":{"city":"Nineveh","lon":-86.097184,"zip":"","librarysystem":"Johnson County Public Library","id":"a64kv3mwuf14","address":"Post Office Box 155","lat":39.346424,"libraryname":"Prince's Lakes Town Hall","state":"IN"},"type":"Feature","geometry":{"type":"Point","coordinates":[-86.097184,39.346424]}},{"properties":{"city":"Princeton","lon":-87.568623,"zip":"","librarysystem":"Princeton Public Library","id":"a64kv3m96vd0","address":"124 S Hart Street","lat":38.354952,"libraryname":"Princeton Public Library","state":"IN"},"type":"Feature","geometry":{"type":"Point","coordinates":[-87.568623,38.354952]}},{"properties":{"city":"Winamac","lon":-86.60175,"zip":"","librarysystem":"Pulaski County Public Library","id":"a64kv3l0ncrj","address":"121 S. Riverside Drive","lat":41.051454,"libraryname":"Pulaski County Public Library","state":"IN"},"type":"Feature","geometry":{"type":"Point","coordinates":[-86.60175,41.051454]}},{"properties":{"city":"Greencastle","lon":-86.863364,"zip":"","librarysystem":"Putnam County Public Library","id":"a64kv3o7i2dq","address":"103 East Poplar Street","lat":39.642623,"libraryname":"Putnam County Public Library","state":"IN"},"type":"Feature","geometry":{"type":"Point","coordinates":[-86.863364,39.642623]}},{"properties":{"city":"Summitville","lon":-85.646579,"zip":"","librarysystem":"North Madison County Public Library System","id":"a64kv3n1jnm4","address":"1013 West Church Street","lat":40.3367,"libraryname":"Ralph E. Hazelbaker Library","state":"IN"},"type":"Feature","geometry":{"type":"Point","coordinates":[-85.646579,40.3367]}},{"properties":{"city":"Evansville","lon":-87.636772,"zip":"","librarysystem":"Evansville Vanderburgh Public Library","id":"a64kv3mgapah","address":"120 S Red Bank Rd","lat":37.977914,"libraryname":"Red Bank Branch","state":"IN"},"type":"Feature","geometry":{"type":"Point","coordinates":[-87.636772,37.977914]}},{"properties":{"city":"Remington","lon":-87.150846,"zip":"","librarysystem":"Remington Carpenter Township Public Library","id":"a64kv3tyr236","address":"105 North Ohio Street","lat":40.761429,"libraryname":"Remington Carpenter Township Public Library","state":"IN"},"type":"Feature","geometry":{"type":"Point","coordinates":[-87.150846,40.761429]}},{"properties":{"city":"Ridgeville","lon":-85.029159,"zip":"","librarysystem":"Ridgeville Public Library","id":"a64kv3xi56mv","address":"Walnut And Camden Road","lat":40.29113,"libraryname":"Ridgeville Public Library","state":"IN"},"type":"Feature","geometry":{"type":"Point","coordinates":[-85.029159,40.29113]}},{"properties":{"city":"South Bend","lon":-86.217414,"zip":"","librarysystem":"St. Joseph County Public Library","id":"a64kv3k7nq35","address":"2022 Mishawaka Avenue","lat":41.665607,"libraryname":"River Park Branch","state":"IN"},"type":"Feature","geometry":{"type":"Point","coordinates":[-86.217414,41.665607]}},{"properties":{"city":"Roachdale","lon":-86.795689,"zip":"","librarysystem":"Roachdale-Franklin Township Public Library","id":"a64kv3sy8w5t","address":"100 E Washington St","lat":39.85195,"libraryname":"Roachdale-Franklin Township Public Library","state":"IN"},"type":"Feature","geometry":{"type":"Point","coordinates":[-86.795689,39.85195]}},{"properties":{"city":"Roann","lon":-85.924554,"zip":"","librarysystem":"Roann Paw-Paw Township Public Library","id":"a64kv3nwrd3w","address":"240 S Chippewa Road","lat":40.910372,"libraryname":"Roann Paw-Paw Township Public Library","state":"IN"},"type":"Feature","geometry":{"type":"Point","coordinates":[-85.924554,40.910372]}},{"properties":{"city":"Roanoke","lon":-85.373173,"zip":"","librarysystem":"Roanoke Public Library","id":"a64kv3yecwr6","address":"126 N Main St","lat":40.961774,"libraryname":"Roanoke Public Library","state":"IN"},"type":"Feature","geometry":{"type":"Point","coordinates":[-85.373173,40.961774]}},{"properties":{"city":"East Chicago","lon":-87.483816,"zip":"","librarysystem":"East Chicago Public Library","id":"a64kv3v8z5hq","address":"1008 West Chicago Avenue","lat":41.629313,"libraryname":"Robert A Pastrick Library","state":"IN"},"type":"Feature","geometry":{"type":"Point","coordinates":[-87.483816,41.629313]}},{"properties":{"city":"East Chicago","lon":-87.447564,"zip":"","librarysystem":"East Chicago Public Library","id":"a64kv3j1g933","address":"3616 Elm Street","lat":41.645911,"libraryname":"Roberto Clemente Center","state":"IN"},"type":"Feature","geometry":{"type":"Point","coordinates":[-87.447564,41.645911]}},{"properties":{"city":"Rochester","lon":-86.219245,"zip":"","librarysystem":"Fulton County Public Library","id":"a64kv3nv20p7","address":"320 W 7th Street","lat":41.06738,"libraryname":"Rochester Library","state":"IN"},"type":"Feature","geometry":{"type":"Point","coordinates":[-86.219245,41.06738]}},{"properties":{"city":"Rockville","lon":-87.229228,"zip":"","librarysystem":"Rockville Public Library","id":"a64kv3vsp2ui","address":"106 North Market Street","lat":39.762671,"libraryname":"Rockville Public Library","state":"IN"},"type":"Feature","geometry":{"type":"Point","coordinates":[-87.229228,39.762671]}},{"properties":{"city":"South Bend","lon":-86.217218,"zip":"","librarysystem":"St. Joseph County Public Library","id":"a64kv3lmkrx2","address":"52655 North Ironwood Road","lat":41.728921,"libraryname":"Roger B. Francis Branch","state":"IN"},"type":"Feature","geometry":{"type":"Point","coordinates":[-86.217218,41.728921]}},{"properties":{"city":"Rolling Prairie","lon":-86.617062,"zip":"","librarysystem":"La Porte County Public Library","id":"a64kv3u8t1s8","address":"1 E Michigan","lat":41.67406,"libraryname":"Rolling Prairie Branch","state":"IN"},"type":"Feature","geometry":{"type":"Point","coordinates":[-86.617062,41.67406]}},{"properties":{"city":"Roselawn","lon":-87.314194,"zip":"","librarysystem":"Newton County Public Library","id":"a64kv3vxnl1s","address":"4077 Kellar","lat":41.145035,"libraryname":"Roselawn Branch Library","state":"IN"},"type":"Feature","geometry":{"type":"Point","coordinates":[-87.314194,41.145035]}},{"properties":{"city":"Rossville","lon":-86.604442,"zip":"","librarysystem":"Frankfort-Clinton County Contractual Public Library","id":"a64kv3mfra0r","address":"400 West Main Street","lat":40.416991,"libraryname":"Rossville Community Library","state":"IN"},"type":"Feature","geometry":{"type":"Point","coordinates":[-86.604442,40.416991]}},{"properties":{"city":"Royal Center","lon":-86.50049,"zip":"","librarysystem":"Royal Center-Boone Township Public Library","id":"a64kv3rbcs6p","address":"203 N Chicago St","lat":40.865266,"libraryname":"Royal Center-Boone Twp Public Library","state":"IN"},"type":"Feature","geometry":{"type":"Point","coordinates":[-86.50049,40.865266]}},{"properties":{"city":"Rushville","lon":-85.44533,"zip":"","librarysystem":"Rushville Public Library","id":"a64kv3x5oa8h","address":"130 W Third St","lat":39.609458,"libraryname":"Rushville Public Library","state":"IN"},"type":"Feature","geometry":{"type":"Point","coordinates":[-85.44533,39.609458]}},{"properties":{"city":"Russiaville","lon":-86.268089,"zip":"","librarysystem":"Kokomo-Howard County Public Library","id":"a64kv3uqi7xf","address":"315 Mesa Dr","lat":40.419699,"libraryname":"Russiaville Branch Library","state":"IN"},"type":"Feature","geometry":{"type":"Point","coordinates":[-86.268089,40.419699]}},{"properties":{"city":"Salem","lon":-86.100924,"zip":"","librarysystem":"Salem Public Library","id":"a64kv3i7lqoa","address":"212 North Main Street","lat":38.606878,"libraryname":"Salem Public Library","state":"IN"},"type":"Feature","geometry":{"type":"Point","coordinates":[-86.100924,38.606878]}},{"properties":{"city":"San Pierre","lon":-86.891824,"zip":"","librarysystem":"Starke County Public Library System","id":"a64kv3u9xaen","address":"103 S Broadway","lat":41.19716,"libraryname":"San Pierre Library","state":"IN"},"type":"Feature","geometry":{"type":"Point","coordinates":[-86.891824,41.19716]}},{"properties":{"city":"Sandborn","lon":-87.186763,"zip":"","librarysystem":"Bicknell-Vigo Township Public Library","id":"a64kv3oy597s","address":"201 N Anderson St","lat":38.897198,"libraryname":"Sandborn Branch","state":"IN"},"type":"Feature","geometry":{"type":"Point","coordinates":[-87.186763,38.897198]}},{"properties":{"city":"Schneider","lon":-87.448225,"zip":"","librarysystem":"Lowell Public Library","id":"a64kv3krkrrq","address":"24002 Parrish Ave","lat":41.18279,"libraryname":"Schneider Branch","state":"IN"},"type":"Feature","geometry":{"type":"Point","coordinates":[-87.448225,41.18279]}},{"properties":{"city":"Scottsburg","lon":-85.770504,"zip":"","librarysystem":"Scott County Public Library","id":"a64kv3v93df3","address":"108 S Main St","lat":38.684634,"libraryname":"Scott Co Public Library","state":"IN"},"type":"Feature","geometry":{"type":"Point","coordinates":[-85.770504,38.684634]}},{"properties":{"city":"Sellersburg","lon":-85.75387,"zip":"","librarysystem":"Charlestown Clark County Public Library","id":"a64kv3n68xd1","address":"430 North Indiana Ave","lat":38.402331,"libraryname":"Sellersburg Library","state":"IN"},"type":"Feature","geometry":{"type":"Point","coordinates":[-85.75387,38.402331]}},{"properties":{"city":"Fort Wayne","lon":-85.135559,"zip":"","librarysystem":"Allen County Public Library","id":"a64kv3ilul0l","address":"5600 Noll Avenue","lat":41.033184,"libraryname":"Shawnee Branch","state":"IN"},"type":"Feature","geometry":{"type":"Point","coordinates":[-85.135559,41.033184]}},{"properties":{"city":"Shelburn","lon":-87.393926,"zip":"","librarysystem":"Sullivan County Public Library","id":"a64kv3lh0u2p","address":"17 W Griffith","lat":39.178807,"libraryname":"Shelburn Library","state":"IN"},"type":"Feature","geometry":{"type":"Point","coordinates":[-87.393926,39.178807]}},{"properties":{"city":"Shelby","lon":-87.347688,"zip":"","librarysystem":"Lowell Public Library","id":"a64kv3tifuti","address":"23323 Shelby Rd","lat":41.194028,"libraryname":"Shelby Branch","state":"IN"},"type":"Feature","geometry":{"type":"Point","coordinates":[-87.347688,41.194028]}},{"properties":{"city":"Indianapolis","lon":-86.139841,"zip":"","librarysystem":"Indianapolis-Marion County Public Library","id":"a64kv3ph33p7","address":"2502 Shelby Street","lat":39.731931,"libraryname":"Shelby Branch Library","state":"IN"},"type":"Feature","geometry":{"type":"Point","coordinates":[-86.139841,39.731931]}},{"properties":{"city":"Shelbyville","lon":-85.778206,"zip":"","librarysystem":"Shelbyville-Shelby County Public Library","id":"a64kv3qvtb1a","address":"57 West Broadway","lat":39.522766,"libraryname":"Shelbyville-Shelby County Public Library","state":"IN"},"type":"Feature","geometry":{"type":"Point","coordinates":[-85.778206,39.522766]}},{"properties":{"city":"Sheridan","lon":-86.220797,"zip":"","librarysystem":"Sheridan Public Library","id":"a64kv3mc6qs4","address":"214 Main Street","lat":40.136897,"libraryname":"Sheridan Public Library","state":"IN"},"type":"Feature","geometry":{"type":"Point","coordinates":[-86.220797,40.136897]}},{"properties":{"city":"Shipshewana","lon":-85.577912,"zip":"","librarysystem":"LaGrange County Public Library","id":"a64kv3vfgbp8","address":"315 N Morton St","lat":41.678052,"libraryname":"Shipshewana Branch Library","state":"IN"},"type":"Feature","geometry":{"type":"Point","coordinates":[-85.577912,41.678052]}},{"properties":{"city":"Shoals","lon":-86.790449,"zip":"","librarysystem":"Shoals Public Library","id":"a64kv3vqazbp","address":"Fourth And High St","lat":38.66598,"libraryname":"Shoals Public Library","state":"IN"},"type":"Feature","geometry":{"type":"Point","coordinates":[-86.790449,38.66598]}},{"properties":{"city":"Kokomo","lon":-86.103947,"zip":"","librarysystem":"Kokomo-Howard County Public Library","id":"a64kv3y63yc7","address":"1755 East Center Road","lat":40.433518,"libraryname":"South Branch Library","state":"IN"},"type":"Feature","geometry":{"type":"Point","coordinates":[-86.103947,40.433518]}},{"properties":{"city":"Terre Haute","lon":-87.406928,"zip":"","librarysystem":"Vigo County Public Library","id":"a64kv3vfy3ua","address":"3001 South 7th Street","lat":39.433639,"libraryname":"South Branch Library","state":"IN"},"type":"Feature","geometry":{"type":"Point","coordinates":[-87.406928,39.433639]}},{"properties":{"city":"Valparaiso","lon":-87.144801,"zip":"","librarysystem":"Porter County Public Library System","id":"a64kv3v1pik8","address":"403 West 700 North","lat":41.535982,"libraryname":"South Haven Branch Library","state":"IN"},"type":"Feature","geometry":{"type":"Point","coordinates":[-87.144801,41.535982]}},{"properties":{"city":"South Whitley","lon":-85.626416,"zip":"","librarysystem":"South Whitley-Cleveland Township Public Library","id":"a64kv3smp1b9","address":"201 East Front Street","lat":41.084667,"libraryname":"South Whitley-Cleveland Township Public Library","state":"IN"},"type":"Feature","geometry":{"type":"Point","coordinates":[-85.626416,41.084667]}},{"properties":{"city":"Poneto","lon":-85.278451,"zip":"","librarysystem":"Wells County Public Library","id":"a64kv3ju1z1z","address":"9120 South 300 West","lat":40.608718,"libraryname":"Southern Wells Branch","state":"IN"},"type":"Feature","geometry":{"type":"Point","coordinates":[-85.278451,40.608718]}},{"properties":{"city":"Indianapolis","lon":-86.117819,"zip":"","librarysystem":"Indianapolis-Marion County Public Library","id":"a64kv3jpqyed","address":"2630 East Stop 11 Road","lat":39.650393,"libraryname":"Southport Branch Library","state":"IN"},"type":"Feature","geometry":{"type":"Point","coordinates":[-86.117819,39.650393]}},{"properties":{"city":"Indianapolis","lon":-86.128985,"zip":"","librarysystem":"Indianapolis-Marion County Public Library","id":"a64kv3vq6ir9","address":"1801 Nowland Avenue","lat":39.784985,"libraryname":"Spades Park Branch Library","state":"IN"},"type":"Feature","geometry":{"type":"Point","coordinates":[-86.128985,39.784985]}},{"properties":{"city":"Speedway","lon":-86.258957,"zip":"","librarysystem":"Speedway Public Library","id":"a64kv3vatgsi","address":"5633 W 25th Street","lat":39.801638,"libraryname":"Speedway Public Library","state":"IN"},"type":"Feature","geometry":{"type":"Point","coordinates":[-86.258957,39.801638]}},{"properties":{"city":"Rockport","lon":-87.04627,"zip":"","librarysystem":"Spencer County Public Library","id":"a64kv3pm0dkf","address":"210 Walnut Street","lat":37.881872,"libraryname":"Spencer County Public Library","state":"IN"},"type":"Feature","geometry":{"type":"Point","coordinates":[-87.04627,37.881872]}},{"properties":{"city":"Spencer","lon":-86.761101,"zip":"","librarysystem":"Owen County Public Library","id":"a64kv3mhn8tg","address":"110 E Market","lat":39.285001,"libraryname":"Spencer Owen Public Library","state":"IN"},"type":"Feature","geometry":{"type":"Point","coordinates":[-86.761101,39.285001]}},{"properties":{"city":"Spiceland","lon":-85.439146,"zip":"","librarysystem":"Spiceland Town-Township Public Library","id":"a64kv3t7qn1o","address":"106 W Main St","lat":39.83852,"libraryname":"Spiceland Town-Township Public Library","state":"IN"},"type":"Feature","geometry":{"type":"Point","coordinates":[-85.439146,39.83852]}},{"properties":{"city":"East Chicago","lon":-87.448365,"zip":"","librarysystem":"East Chicago Public Library","id":"a64kv3jv8o8t","address":"4321 Fir Street","lat":41.634422,"libraryname":"St Catherine Hospital","state":"IN"},"type":"Feature","geometry":{"type":"Point","coordinates":[-87.448365,41.634422]}},{"properties":{"city":"St. John","lon":-87.470319,"zip":"","librarysystem":"Lake County Public Library","id":"a64kv3oldfzv","address":"9450 Wicker Drive","lat":41.447246,"libraryname":"St. John Branch","state":"IN"},"type":"Feature","geometry":{"type":"Point","coordinates":[-87.470319,41.447246]}},{"properties":{"city":"South Bend","lon":-86.251737,"zip":"","librarysystem":"St. Joseph County Public Library","id":"a64kv3ukvebl","address":"304 South Main Street","lat":41.673506,"libraryname":"St. Joseph County Public Library","state":"IN"},"type":"Feature","geometry":{"type":"Point","coordinates":[-86.251737,41.673506]}},{"properties":{"city":"Evansville","lon":-87.555057,"zip":"","librarysystem":"Evansville Vanderburgh Public Library","id":"a64kv3n93tnr","address":"2100 Stringtown Road","lat":37.996785,"libraryname":"Stringtown Branch","state":"IN"},"type":"Feature","geometry":{"type":"Point","coordinates":[-87.555057,37.996785]}},{"properties":{"city":"New Palestine","lon":-85.889266,"zip":"","librarysystem":"Hancock County Public Library","id":"a64kv3t6v6xr","address":"11 E Main","lat":39.720837,"libraryname":"Sugar Creek Branch","state":"IN"},"type":"Feature","geometry":{"type":"Point","coordinates":[-85.889266,39.720837]}},{"properties":{"city":"Sullivan","lon":-87.411582,"zip":"","librarysystem":"Sullivan County Public Library","id":"a64kv3r3evah","address":"100 South Crowder","lat":39.093624,"libraryname":"Sullivan County Public Library","state":"IN"},"type":"Feature","geometry":{"type":"Point","coordinates":[-87.411582,39.093624]}},{"properties":{"city":"Swayzee","lon":-85.825529,"zip":"","librarysystem":"Swayzee Public Library","id":"a64kv3kry0mm","address":"301 S Washington","lat":40.506413,"libraryname":"Swayzee Public Library","state":"IN"},"type":"Feature","geometry":{"type":"Point","coordinates":[-85.825529,40.506413]}},{"properties":{"city":"Vevay","lon":-85.066378,"zip":"","librarysystem":"Switzerland County Public Library","id":"a64kv3lwgzup","address":"205 Ferry Street","lat":38.746891,"libraryname":"Switzerland County Public Library","state":"IN"},"type":"Feature","geometry":{"type":"Point","coordinates":[-85.066378,38.746891]}},{"properties":{"city":"Syracuse","lon":-85.752395,"zip":"","librarysystem":"Syracuse-Turkey Creek Township Public Library","id":"a64kv3m98xzh","address":"115 E Main St","lat":41.42776,"libraryname":"Syracuse Public Library","state":"IN"},"type":"Feature","geometry":{"type":"Point","coordinates":[-85.752395,41.42776]}},{"properties":{"city":"Fort Wayne","lon":-85.120328,"zip":"","librarysystem":"Allen County Public Library","id":"a64kv3talliu","address":"1411 East State Blvd","lat":41.096919,"libraryname":"Tecumseh Branch","state":"IN"},"type":"Feature","geometry":{"type":"Point","coordinates":[-85.120328,41.096919]}},{"properties":{"city":"Tell City","lon":-86.748763,"zip":"","librarysystem":"Tell City-Perry County Public Library","id":"a64kv3xbtqza","address":"2328 Tell St","lat":37.955371,"libraryname":"Tell City-Perry County Public Library","state":"IN"},"type":"Feature","geometry":{"type":"Point","coordinates":[-86.748763,37.955371]}},{"properties":{"city":"Tennyson","lon":-87.118419,"zip":"","librarysystem":"Boonville-Warrick County Public Library","id":"a64kv3maqexa","address":"114 E Oak St Po Box 58","lat":38.080255,"libraryname":"Tennyson Branch Library","state":"IN"},"type":"Feature","geometry":{"type":"Point","coordinates":[-87.118419,38.080255]}},{"properties":{"city":"Chesterton","lon":-87.05358,"zip":"","librarysystem":"Westchester Public Library","id":"a64kv3j0b8mz","address":"200 West Indiana Avenue","lat":41.609949,"libraryname":"Thomas Library","state":"IN"},"type":"Feature","geometry":{"type":"Point","coordinates":[-87.05358,41.609949]}},{"properties":{"city":"Thorntown","lon":-86.606267,"zip":"","librarysystem":"Thorntown Public Library","id":"a64kv3tm908w","address":"124 N Market St","lat":40.129749,"libraryname":"Thorntown Public Library","state":"IN"},"type":"Feature","geometry":{"type":"Point","coordinates":[-86.606267,40.129749]}},{"properties":{"city":"Lafayette","lon":-86.889983,"zip":"","librarysystem":"Tippecanoe County Public Library","id":"a64kv3xgsjhj","address":"627 South Street","lat":40.417199,"libraryname":"Tippecanoe County Public Library","state":"IN"},"type":"Feature","geometry":{"type":"Point","coordinates":[-86.889983,40.417199]}},{"properties":{"city":"Tipton","lon":-86.04071,"zip":"","librarysystem":"Tipton County Public Library","id":"a64kv3wi8qbz","address":"127 E Madison Street","lat":40.280811,"libraryname":"Tipton County Public Library","state":"IN"},"type":"Feature","geometry":{"type":"Point","coordinates":[-86.04071,40.280811]}},{"properties":{"city":"Gary","lon":-87.365868,"zip":"","librarysystem":"Gary Public Library","id":"a64kv3pal1zu","address":"1113 Taft Street","lat":41.591352,"libraryname":"Tolleston Branch","state":"IN"},"type":"Feature","geometry":{"type":"Point","coordinates":[-87.365868,41.591352]}},{"properties":{"city":"Topeka","lon":-85.539206,"zip":"","librarysystem":"LaGrange County Public Library","id":"a64kv3jzotpn","address":"105 S. Main St","lat":41.53921,"libraryname":"Topeka Branch Library","state":"IN"},"type":"Feature","geometry":{"type":"Point","coordinates":[-85.539206,41.53921]}},{"properties":{"city":"Trafalgar","lon":-86.15209,"zip":"","librarysystem":"Johnson County Public Library","id":"a64kv3lynwip","address":"100 Pearl St","lat":39.416151,"libraryname":"Trafalgar Community Center","state":"IN"},"type":"Feature","geometry":{"type":"Point","coordinates":[-86.15209,39.416151]}},{"properties":{"city":"Versailles","lon":-85.252924,"zip":"","librarysystem":"Tyson Library","id":"a64kv3x82p9f","address":"325 W. Tyson Street","lat":39.071695,"libraryname":"Tyson Library","state":"IN"},"type":"Feature","geometry":{"type":"Point","coordinates":[-85.252924,39.071695]}},{"properties":{"city":"Union City","lon":-84.808722,"zip":"","librarysystem":"Union City Public Library","id":"a64kv3odmdv9","address":"408 N Columbia St","lat":40.201501,"libraryname":"Union City Public Library","state":"IN"},"type":"Feature","geometry":{"type":"Point","coordinates":[-84.808722,40.201501]}},{"properties":{"city":"Liberty","lon":-84.929549,"zip":"","librarysystem":"Union County Public Library","id":"a64kv3swt8lg","address":"2 East Seminary Street","lat":39.634406,"libraryname":"Union County Public Library","state":"IN"},"type":"Feature","geometry":{"type":"Point","coordinates":[-84.929549,39.634406]}},{"properties":{"city":"Union Mills","lon":-86.772937,"zip":"","librarysystem":"La Porte County Public Library","id":"a64kv3q5q1rz","address":"3727 West 800 South","lat":41.491223,"libraryname":"Union Mills Branch","state":"IN"},"type":"Feature","geometry":{"type":"Point","coordinates":[-86.772937,41.491223]}},{"properties":{"city":"Valparaiso","lon":-87.059558,"zip":"","librarysystem":"Porter County Public Library System","id":"a64kv3k14sws","address":"103 Jefferson Street","lat":41.468911,"libraryname":"Valparaiso Branch &amp; System Office","state":"IN"},"type":"Feature","geometry":{"type":"Point","coordinates":[-87.059558,41.468911]}},{"properties":{"city":"Van Buren","lon":-85.504815,"zip":"","librarysystem":"Van Buren Public Library","id":"a64kv3yh9w38","address":"115 S First St","lat":40.617365,"libraryname":"Van Buren Public Library","state":"IN"},"type":"Feature","geometry":{"type":"Point","coordinates":[-85.504815,40.617365]}},{"properties":{"city":"Veedersburg","lon":-87.262379,"zip":"","librarysystem":"Covington-Veedersburg Public Library","id":"a64kv3noaac6","address":"408 N Main Street","lat":40.11502,"libraryname":"Veedersburg Public Library","state":"IN"},"type":"Feature","geometry":{"type":"Point","coordinates":[-87.262379,40.11502]}},{"properties":{"city":"Terre Haute","lon":-87.408174,"zip":"","librarysystem":"Vigo County Public Library","id":"a64kv3mi6l1z","address":"One Library Square","lat":39.46347,"libraryname":"Vigo County Public Library","state":"IN"},"type":"Feature","geometry":{"type":"Point","coordinates":[-87.408174,39.46347]}},{"properties":{"city":"South Bend","lon":-86.235043,"zip":"","librarysystem":"St. Joseph County Public Library","id":"a64kv3o8362f","address":"2223 Miami Street","lat":41.65169,"libraryname":"Virginia M. Tutt Branch Library","state":"IN"},"type":"Feature","geometry":{"type":"Point","coordinates":[-86.235043,41.65169]}},{"properties":{"city":"Muncie","lon":-85.36639,"zip":"","librarysystem":"Muncie Public Library","id":"a64kv3nv1j4q","address":"1824 E Centennial Avenue","lat":40.207646,"libraryname":"Vivian Conley Library","state":"IN"},"type":"Feature","geometry":{"type":"Point","coordinates":[-85.36639,40.207646]}},{"properties":{"city":"Wabash","lon":-85.824035,"zip":"","librarysystem":"Wabash Carnegie Public Library","id":"a64kv3r4t2mw","address":"188 W Hill St","lat":40.798698,"libraryname":"Wabash Carnegie Public Library","state":"IN"},"type":"Feature","geometry":{"type":"Point","coordinates":[-85.824035,40.798698]}},{"properties":{"city":"Wakarusa","lon":-86.020834,"zip":"","librarysystem":"Wakarusa Public Library","id":"a64kv3ve5e4i","address":"124 N Elkhart Street","lat":41.536446,"libraryname":"Wakarusa Public Library","state":"IN"},"type":"Feature","geometry":{"type":"Point","coordinates":[-86.020834,41.536446]}},{"properties":{"city":"Walkerton","lon":-86.482983,"zip":"","librarysystem":"Walkerton-Lincoln Township Public Library","id":"a64kv3y445jf","address":"607 Roosevelt Road","lat":41.466837,"libraryname":"Walkerton-Lincoln Twp Public Library","state":"IN"},"type":"Feature","geometry":{"type":"Point","coordinates":[-86.482983,41.466837]}},{"properties":{"city":"Walton","lon":-86.242676,"zip":"","librarysystem":"Walton &amp; Tipton Township Public Library","id":"a64kv3r7r8rl","address":"110 North Main Street","lat":40.660582,"libraryname":"Walton &amp; Tipton Township Public Library","state":"IN"},"type":"Feature","geometry":{"type":"Point","coordinates":[-86.242676,40.660582]}},{"properties":{"city":"Wanatah","lon":-86.89792,"zip":"","librarysystem":"Wanatah Public Library","id":"a64kv3uoe6zi","address":"101 N Main St","lat":41.429764,"libraryname":"Wanatah Public Library","state":"IN"},"type":"Feature","geometry":{"type":"Point","coordinates":[-86.89792,41.429764]}},{"properties":{"city":"Indianapolis","lon":-85.995648,"zip":"","librarysystem":"Indianapolis-Marion County Public Library","id":"a64kv3wbnw97","address":"9701 East 21st Street","lat":39.796728,"libraryname":"Warren Branch Library","state":"IN"},"type":"Feature","geometry":{"type":"Point","coordinates":[-85.995648,39.796728]}},{"properties":{"city":"Warren","lon":-85.42604,"zip":"","librarysystem":"Warren Public Library","id":"a64kv3nv1pi0","address":"123 E Third Street","lat":40.683628,"libraryname":"Warren Public Library","state":"IN"},"type":"Feature","geometry":{"type":"Point","coordinates":[-85.42604,40.683628]}},{"properties":{"city":"Warsaw","lon":-85.855088,"zip":"","librarysystem":"Warsaw Community Public Library","id":"a64kv3v2hmeb","address":"310 East Main Street","lat":41.238952,"libraryname":"Warsaw Community Public Library","state":"IN"},"type":"Feature","geometry":{"type":"Point","coordinates":[-85.855088,41.238952]}},{"properties":{"city":"Washington","lon":-87.178687,"zip":"","librarysystem":"Washington Carnegie Public Library","id":"a64kv3x7j565","address":"300 West Main St","lat":38.656914,"libraryname":"Washington Carnegie Public Library","state":"IN"},"type":"Feature","geometry":{"type":"Point","coordinates":[-87.178687,38.656914]}},{"properties":{"city":"Lynn","lon":-84.94009,"zip":"","librarysystem":"Washington Township Public Library","id":"a64kv3i47net","address":"106 N Main St","lat":40.048645,"libraryname":"Washington Twp Public Library, Lynn","state":"IN"},"type":"Feature","geometry":{"type":"Point","coordinates":[-84.94009,40.048645]}},{"properties":{"city":"Waterloo","lon":-85.019826,"zip":"","librarysystem":"Waterloo-Grant Township Public Library","id":"a64kv3icoo84","address":"300 South Wayne Street","lat":41.429837,"libraryname":"Waterloo-Grant Township Public Library","state":"IN"},"type":"Feature","geometry":{"type":"Point","coordinates":[-85.019826,41.429837]}},{"properties":{"city":"Waveland","lon":-87.044627,"zip":"","librarysystem":"Waveland-Brown Township Public Library","id":"a64kv3ukgy0m","address":"115 E Green","lat":39.878272,"libraryname":"Waveland-Brown Twp Public Library","state":"IN"},"type":"Feature","geometry":{"type":"Point","coordinates":[-87.044627,39.878272]}},{"properties":{"city":"Indianapolis","lon":-86.289184,"zip":"","librarysystem":"Indianapolis-Marion County Public Library","id":"a64kv3xs0yh7","address":"198 South Girls School Road","lat":39.76159,"libraryname":"Wayne Branch Library","state":"IN"},"type":"Feature","geometry":{"type":"Point","coordinates":[-86.289184,39.76159]}},{"properties":{"city":"Fort Wayne","lon":-85.165194,"zip":"","librarysystem":"Allen County Public Library","id":"a64kv3uoiukp","address":"2200 Lower Huntington Road","lat":41.020423,"libraryname":"Waynedale Branch","state":"IN"},"type":"Feature","geometry":{"type":"Point","coordinates":[-85.165194,41.020423]}},{"properties":{"city":"Evansville","lon":-87.594082,"zip":"","librarysystem":"Evansville Vanderburgh Public Library","id":"a64kv3kfwseh","address":"2000 W Franklin Street","lat":37.980338,"libraryname":"West Branch","state":"IN"},"type":"Feature","geometry":{"type":"Point","coordinates":[-87.594082,37.980338]}},{"properties":{"city":"West Terre Haute","lon":-87.450288,"zip":"","librarysystem":"Vigo County Public Library","id":"a64kv3rx66do","address":"626 National Avenue","lat":39.465176,"libraryname":"West Branch Library","state":"IN"},"type":"Feature","geometry":{"type":"Point","coordinates":[-87.450288,39.465176]}},{"properties":{"city":"East Chicago","lon":-87.46733,"zip":"","librarysystem":"East Chicago Public Library","id":"a64kv3sdhmzo","address":"4925 Gladiola St","lat":41.624547,"libraryname":"West Calumet Central Library","state":"IN"},"type":"Feature","geometry":{"type":"Point","coordinates":[-87.46733,41.624547]}},{"properties":{"city":"Indianapolis","lon":-86.194545,"zip":"","librarysystem":"Indianapolis-Marion County Public Library","id":"a64kv3jc1lhj","address":"1216 Kappes Street","lat":39.750626,"libraryname":"West Indianapolis Branch Library","state":"IN"},"type":"Feature","geometry":{"type":"Point","coordinates":[-86.194545,39.750626]}},{"properties":{"city":"West Lafayette","lon":-86.907083,"zip":"","librarysystem":"West Lafayette Public Library","id":"a64kv3yjg9l9","address":"208 West Columbia Ave","lat":40.424955,"libraryname":"West Lafayette Public Library","state":"IN"},"type":"Feature","geometry":{"type":"Point","coordinates":[-86.907083,40.424955]}},{"properties":{"city":"West Lebanon","lon":-87.386697,"zip":"","librarysystem":"West Lebanon-Pike Township Public Library","id":"a64kv3lqu8cp","address":"200 High St","lat":40.272766,"libraryname":"West Lebanon-Pike Twp Public Library","state":"IN"},"type":"Feature","geometry":{"type":"Point","coordinates":[-87.386697,40.272766]}},{"properties":{"city":"South Bend","lon":-86.310528,"zip":"","librarysystem":"St. Joseph County Public Library","id":"a64kv3qg2ejl","address":"611 South Lombardy Drive","lat":41.669486,"libraryname":"Western Branch","state":"IN"},"type":"Feature","geometry":{"type":"Point","coordinates":[-86.310528,41.669486]}},{"properties":{"city":"Westfield","lon":-86.130968,"zip":"","librarysystem":"Westfield Public Library","id":"a64kv3xq9eca","address":"333 West Hoover Street","lat":40.049858,"libraryname":"Westfield Public Library","state":"IN"},"type":"Feature","geometry":{"type":"Point","coordinates":[-86.130968,40.049858]}},{"properties":{"city":"Westport","lon":-85.576872,"zip":"","librarysystem":"Greensburg-Decatur County Contractual Public Library","id":"a64kv3jh9ahl","address":"205 West Main St","lat":39.1757,"libraryname":"Westport Branch Library","state":"IN"},"type":"Feature","geometry":{"type":"Point","coordinates":[-85.576872,39.1757]}},{"properties":{"city":"Westville","lon":-86.898817,"zip":"","librarysystem":"Westville-New Durham Township Public Library","id":"a64kv3ljvxzf","address":"153 Main St","lat":41.54148,"libraryname":"Westville-New Durham Twp Public Library","state":"IN"},"type":"Feature","geometry":{"type":"Point","coordinates":[-86.898817,41.54148]}},{"properties":{"city":"Wheatfield","lon":-87.051944,"zip":"","librarysystem":"Jasper County Public Library","id":"a64kv3rci47e","address":"170 S Grace","lat":41.192262,"libraryname":"Wheatfield Branch Library","state":"IN"},"type":"Feature","geometry":{"type":"Point","coordinates":[-87.051944,41.192262]}},{"properties":{"city":"Greenwood","lon":-86.155907,"zip":"","librarysystem":"Johnson County Public Library","id":"a64kv3nsze0w","address":"1664 Library Blvd","lat":39.607701,"libraryname":"White River Library","state":"IN"},"type":"Feature","geometry":{"type":"Point","coordinates":[-86.155907,39.607701]}},{"properties":{"city":"Whiting","lon":-87.494214,"zip":"","librarysystem":"Whiting Public Library","id":"a64kv3iix4ci","address":"1735 Oliver Street","lat":41.682009,"libraryname":"Whiting Public Library","state":"IN"},"type":"Feature","geometry":{"type":"Point","coordinates":[-87.494214,41.682009]}},{"properties":{"city":"Gary","lon":-87.267943,"zip":"","librarysystem":"Gary Public Library","id":"a64kv3m0wm37","address":"501 S Lake Street","lat":41.601493,"libraryname":"Wildermuth Branch","state":"IN"},"type":"Feature","geometry":{"type":"Point","coordinates":[-87.267943,41.601493]}},{"properties":{"city":"Evansville","lon":-87.574967,"zip":"","librarysystem":"Willard Library","id":"a64kv3v5btwd","address":"21 First Avenue","lat":37.977998,"libraryname":"Willard Library","state":"IN"},"type":"Feature","geometry":{"type":"Point","coordinates":[-87.574967,37.977998]}},{"properties":{"city":"Auburn","lon":-85.056934,"zip":"","librarysystem":"Eckhart Public Library","id":"a64kv3yl34v1","address":"700 South Jackson Street","lat":41.363584,"libraryname":"William H. Willennar Genealogy Center","state":"IN"},"type":"Feature","geometry":{"type":"Point","coordinates":[-85.056934,41.363584]}},{"properties":{"city":"Williamsport","lon":-87.292798,"zip":"","librarysystem":"Williamsport-Washington Township Public Library","id":"a64kv3tko2zs","address":"9 Fall St","lat":40.284918,"libraryname":"Williamsport-Washington Twp Public Library","state":"IN"},"type":"Feature","geometry":{"type":"Point","coordinates":[-87.292798,40.284918]}},{"properties":{"city":"Winchester","lon":-84.979609,"zip":"","librarysystem":"Winchester Community Public Library","id":"a64kv3qrnptw","address":"125 N East St","lat":40.172893,"libraryname":"Winchester Community Public Library","state":"IN"},"type":"Feature","geometry":{"type":"Point","coordinates":[-84.979609,40.172893]}},{"properties":{"city":"Windfall","lon":-85.956349,"zip":"","librarysystem":"Tipton County Public Library","id":"a64kv3kb2per","address":"104 McClelland St","lat":40.36272,"libraryname":"Windfall Branch","state":"IN"},"type":"Feature","geometry":{"type":"Point","coordinates":[-85.956349,40.36272]}},{"properties":{"city":"Crown Point","lon":-87.238797,"zip":"","librarysystem":"Crown Point Community Library","id":"a64kv3ka8r9u","address":"10645 Randolph","lat":41.42515,"libraryname":"Winfield Library","state":"IN"},"type":"Feature","geometry":{"type":"Point","coordinates":[-87.238797,41.42515]}},{"properties":{"city":"Winslow","lon":-87.215549,"zip":"","librarysystem":"Pike County Public Library","id":"a64kv3mouyl8","address":"105 E Center St","lat":38.382905,"libraryname":"Winslow Branch Library","state":"IN"},"type":"Feature","geometry":{"type":"Point","coordinates":[-87.215549,38.382905]}},{"properties":{"city":"Wolcott","lon":-87.040429,"zip":"","librarysystem":"Wolcott Community Public Library","id":"a64kv3ifl7fv","address":"101 E North St","lat":40.76021,"libraryname":"Wolcott Community Public Library","state":"IN"},"type":"Feature","geometry":{"type":"Point","coordinates":[-87.040429,40.76021]}},{"properties":{"city":"Woodburn","lon":-84.849018,"zip":"","librarysystem":"Allen County Public Library","id":"a64kv3ww7220","address":"22735 Main Street","lat":41.125267,"libraryname":"Woodburn Branch","state":"IN"},"type":"Feature","geometry":{"type":"Point","coordinates":[-84.849018,41.125267]}},{"properties":{"city":"Worthington","lon":-86.975613,"zip":"","librarysystem":"Worthington Jefferson Township Public Library","id":"a64kv3oppalk","address":"26 N Commercial St","lat":39.119512,"libraryname":"Worthington Jefferson Twp Public Library","state":"IN"},"type":"Feature","geometry":{"type":"Point","coordinates":[-86.975613,39.119512]}},{"properties":{"city":"Raub","lon":-87.491509,"zip":"","librarysystem":"York Township Public Library","id":"a64kv3uadc9v","address":"Main St","lat":40.730715,"libraryname":"York Twp Public Library","state":"IN"},"type":"Feature","geometry":{"type":"Point","coordinates":[-87.491509,40.730715]}},{"properties":{"city":"Yorktown","lon":-85.490316,"zip":"","librarysystem":"Yorktown Community Library","id":"a64kv3ty82u0","address":"8920 W Adaline St","lat":40.174771,"libraryname":"Yorktown Community Library","state":"IN"},"type":"Feature","geometry":{"type":"Point","coordinates":[-85.490316,40.174771]}}],"is_temporal":false,"author":{"url":"http://www.publiclibraries.com/indiana.htm","metadata":"","contact_name":"","contact_address":"","source":"publiclibrairies.com","contact_phone":""},"source":"http://www.publiclibraries.com/indiana.htm","pagination":{"sort":null,"start":0,"total":432,"limit":1000000},"state":"complete","tags":"books,education,indiana,libraries,library,public","published":"2008-05-09T12:00:00Z","id":893}