{"type":"FeatureCollection","data_type":"Dataset","url_type":null,"permissions":[{"permissions":{"download":true,"view":true},"group_id":"everyone"}],"classification":null,"title":"publiclibraries.com, Louisiana Public Libraries, Louisiana, 1.2008","count":335,"stream_id":899,"contributor":{"url":"http://geocommons.com/users/2","name":"data"},"data_attributes":null,"calculation_params":null,"icon_link":null,"link":"http://geocommons.com/overlays/899.json","extent":[-106.112,29.2258,-89.5282,37.7529],"geometry_types":["point"],"unique_name":null,"name":"publiclibraries.com, Louisiana Public Libraries, Louisiana, 1.2008","feature_count":335,"description":"This dataset displays the locations of all the public libraries in the state of Louisiana. The data included is the name of the library, name of the library system, library's address, phone, and lat/lon coordinates. The data came from publiclibraries.com which is a updated directory of all the public libraries throughout the United States.\n","next_feature":null,"is_raster":false,"short_classification":"Y","stats":{"lon":{"max":-89.528149,"mean":-91.8557565343284,"variance":2.16185049446525,"stdev":1.47032326189354,"min":-106.112319,"median":-91.852709},"lat":{"max":37.752875,"mean":30.8930351940298,"variance":1.30003707886821,"stdev":1.14019168514255,"min":29.225774,"median":30.488541}},"features":[{"properties":{"city":"Abita Springs","lon":-90.039275,"zip":"","librarysystem":"St. Tammany Parish Library","id":"a62g1dxegh8z","address":"71683 Leveson Street","lat":30.477933,"libraryname":"Abita Springs Branch","state":"LA"},"type":"Feature","geometry":{"type":"Point","coordinates":[-90.039275,30.477933]}},{"properties":{"city":"Crowley","lon":-92.377004,"zip":"","librarysystem":"Acadia Parish Library","id":"a62g1e0ez8uj","address":"1125 North Parkerson Avenue","lat":30.220107,"libraryname":"Acadia Parish Library","state":"LA"},"type":"Feature","geometry":{"type":"Point","coordinates":[-92.377004,30.220107]}},{"properties":{"city":"Albany","lon":-90.583259,"zip":"","librarysystem":"Livingston Parish Library","id":"a62g1e2c8zaw","address":"30051 West School Street","lat":30.500305,"libraryname":"Albany Branch","state":"LA"},"type":"Feature","geometry":{"type":"Point","coordinates":[-90.583259,30.500305]}},{"properties":{"city":"New Orleans","lon":-90.048612,"zip":"","librarysystem":"New Orleans Public Library","id":"a62g1ds7elzq","address":"725 Pelican Street","lat":29.953105,"libraryname":"Algiers Point/Hubbell Branch","state":"LA"},"type":"Feature","geometry":{"type":"Point","coordinates":[-90.048612,29.953105]}},{"properties":{"city":"New Orleans","lon":-90.013755,"zip":"","librarysystem":"New Orleans Public Library","id":"a62g1dtm0i8q","address":"3014 Holiday Drive","lat":29.923343,"libraryname":"Algiers Regional Branch","state":"LA"},"type":"Feature","geometry":{"type":"Point","coordinates":[-90.013755,29.923343]}},{"properties":{"city":"Oberlin","lon":-92.760222,"zip":"","librarysystem":"Allen Parish Library","id":"a62g1dzzf1ru","address":"320 South Sixth Street","lat":30.620546,"libraryname":"Allen Parish Library","state":"LA"},"type":"Feature","geometry":{"type":"Point","coordinates":[-92.760222,30.620546]}},{"properties":{"city":"New Orleans","lon":-90.036831,"zip":"","librarysystem":"New Orleans Public Library","id":"a62g1e4oomi5","address":"913 Alvar Street","lat":29.963798,"libraryname":"Alvar Branch","state":"LA"},"type":"Feature","geometry":{"type":"Point","coordinates":[-90.036831,29.963798]}},{"properties":{"city":"Amelia","lon":-91.100109,"zip":"","librarysystem":"St. Mary Parish Library","id":"a62g1dvmcrdc","address":"625 Lake Palourde Road","lat":29.661515,"libraryname":"Amelia Branch","state":"LA"},"type":"Feature","geometry":{"type":"Point","coordinates":[-91.100109,29.661515]}},{"properties":{"city":"Angie","lon":-89.811679,"zip":"","librarysystem":"Washington Parish Library","id":"a62g1dsmc38n","address":"30303 Railroad","lat":30.965591,"libraryname":"Angie Branch","state":"LA"},"type":"Feature","geometry":{"type":"Point","coordinates":[-89.811679,30.965591]}},{"properties":{"city":"Monroe","lon":-92.113887,"zip":"","librarysystem":"Ouachita Parish Library","id":"a62g1du6s9c8","address":"1808 Highway 165 South","lat":32.386277,"libraryname":"Anna Meyer Branch","state":"LA"},"type":"Feature","geometry":{"type":"Point","coordinates":[-92.113887,32.386277]}},{"properties":{"city":"Arnaudville","lon":-91.932841,"zip":"","librarysystem":"St. Martin Parish Library","id":"a62g1duiiquv","address":"1021 Overton Street","lat":30.395067,"libraryname":"Arnaudville Branch","state":"LA"},"type":"Feature","geometry":{"type":"Point","coordinates":[-91.932841,30.395067]}},{"properties":{"city":"Gonzales","lon":-90.913628,"zip":"","librarysystem":"Ascension Parish Library","id":"a62g1e227gzo","address":"708 South Irma Boulevard","lat":30.230971,"libraryname":"Ascension Parish Library","state":"LA"},"type":"Feature","geometry":{"type":"Point","coordinates":[-90.913628,30.230971]}},{"properties":{"city":"Napoleonville","lon":-91.025748,"zip":"","librarysystem":"Assumption Parish Library","id":"a62g1e2rutdx","address":"293 Napoleon Avenue","lat":29.945273,"libraryname":"Assumption Parish Library","state":"LA"},"type":"Feature","geometry":{"type":"Point","coordinates":[-91.025748,29.945273]}},{"properties":{"city":"Shreveport","lon":-93.799209,"zip":"","librarysystem":"Shreve Memorial Library","id":"a62g1e1tfgh3","address":"2709 Hassett","lat":32.4861,"libraryname":"Atkins Branch","state":"LA"},"type":"Feature","geometry":{"type":"Point","coordinates":[-93.799209,32.4861]}},{"properties":{"city":"Atlanta","lon":-92.735171,"zip":"","librarysystem":"Winn Parish Library","id":"a62g1e37qpev","address":"110 School Road","lat":31.805713,"libraryname":"Atlanta Branch","state":"LA"},"type":"Feature","geometry":{"type":"Point","coordinates":[-92.735171,31.805713]}},{"properties":{"city":"Clinton","lon":-91.018656,"zip":"","librarysystem":"Audubon Regional Library","id":"a62g1dw5reio","address":"12220 Woodville Street","lat":30.866877,"libraryname":"Audubon Regional Library","state":"LA"},"type":"Feature","geometry":{"type":"Point","coordinates":[-91.018656,30.866877]}},{"properties":{"city":"Marksville","lon":-92.06897,"zip":"","librarysystem":"Avoyelles Parish Library","id":"a62g1dqvxoer","address":"101 North Washington Street","lat":31.123508,"libraryname":"Avoyelles Parish Library","state":"LA"},"type":"Feature","geometry":{"type":"Point","coordinates":[-92.06897,31.123508]}},{"properties":{"city":"Baker","lon":-91.148783,"zip":"","librarysystem":"East Baton Rouge Parish Library","id":"a62g1e2bnvc9","address":"4761 Groom Road","lat":30.587025,"libraryname":"Baker Branch","state":"LA"},"type":"Feature","geometry":{"type":"Point","coordinates":[-91.148783,30.587025]}},{"properties":{"city":"Basile","lon":-92.594881,"zip":"","librarysystem":"Evangeline Parish Library","id":"a62g1dvizj4b","address":"3036 East Stagg Avenue","lat":30.485598,"libraryname":"Basile Branch","state":"LA"},"type":"Feature","geometry":{"type":"Point","coordinates":[-92.594881,30.485598]}},{"properties":{"city":"Houma","lon":-90.68793,"zip":"","librarysystem":"Lafourche Parish Public Library","id":"a62g1e0nto4a","address":"2004 Bayou Blue Road","lat":29.645806,"libraryname":"Bayou Blue Branch","state":"LA"},"type":"Feature","geometry":{"type":"Point","coordinates":[-90.68793,29.645806]}},{"properties":{"city":"Houma","lon":-90.751991,"zip":"","librarysystem":"Terrebonne Parish Library","id":"a62g1dw6bei5","address":"837 Bayou Dularge Road","lat":29.498905,"libraryname":"Bayou Dularge Branch","state":"LA"},"type":"Feature","geometry":{"type":"Point","coordinates":[-90.751991,29.498905]}},{"properties":{"city":"Plaquemine","lon":-91.283285,"zip":"","librarysystem":"Iberville Parish Library","id":"a62g1e47z5v0","address":"36625 Highway 75","lat":30.127725,"libraryname":"Bayou Pigeon Branch","state":"LA"},"type":"Feature","geometry":{"type":"Point","coordinates":[-91.283285,30.127725]}},{"properties":{"city":"Plaquemine","lon":-91.330661,"zip":"","librarysystem":"Iberville Parish Library","id":"a62g1e5rapcy","address":"33415 Hwy. 75 (65744 Tot Carlinedr)","lat":30.156298,"libraryname":"Bayou Sorrell Branch","state":"LA"},"type":"Feature","geometry":{"type":"Point","coordinates":[-91.330661,30.156298]}},{"properties":{"city":"Bayou Vista","lon":-91.26959,"zip":"","librarysystem":"St. Mary Parish Library","id":"a62g1dtcqi70","address":"1325 Belleview Drive","lat":29.694965,"libraryname":"Bayou Vista Branch","state":"LA"},"type":"Feature","geometry":{"type":"Point","coordinates":[-91.26959,29.694965]}},{"properties":{"city":"Deridder","lon":-93.286449,"zip":"","librarysystem":"Beauregard Parish Library","id":"a62g1dssjs5n","address":"205 South Washington Avenue","lat":30.845533,"libraryname":"Beauregard Parish Library","state":"LA"},"type":"Feature","geometry":{"type":"Point","coordinates":[-93.286449,30.845533]}},{"properties":{"city":"Belcher","lon":-93.834982,"zip":"","librarysystem":"Shreve Memorial Library","id":"a62g1dv9yzo8","address":"409 Charles Street","lat":32.748855,"libraryname":"Belcher-Wyche Branch","state":"LA"},"type":"Feature","geometry":{"type":"Point","coordinates":[-93.834982,32.748855]}},{"properties":{"city":"Bell City","lon":-92.962356,"zip":"","librarysystem":"Calcasieu Parish Library","id":"a62g1dy7dk4k","address":"7085 Highway 14","lat":30.11991,"libraryname":"Bell City Branch","state":"LA"},"type":"Feature","geometry":{"type":"Point","coordinates":[-92.962356,30.11991]}},{"properties":{"city":"Belle Chase","lon":-89.987061,"zip":"","librarysystem":"Plaquemines Parish Library","id":"a62g1dyfkp5o","address":"8442 Highway 23","lat":29.852261,"libraryname":"Belle Chasse Branch","state":"LA"},"type":"Feature","geometry":{"type":"Point","coordinates":[-89.987061,29.852261]}},{"properties":{"city":"Marrero","lon":-90.110148,"zip":"","librarysystem":"Jefferson Parish Library","id":"a62g1druaba8","address":"5550 Belle Terre Road","lat":29.879046,"libraryname":"Belle Terre Branch","state":"LA"},"type":"Feature","geometry":{"type":"Point","coordinates":[-90.110148,29.879046]}},{"properties":{"city":"Benton","lon":-93.740239,"zip":"","librarysystem":"Bossier Parish Library","id":"a62g1e3smx0j","address":"6th &amp; Sibley Streets","lat":32.69687,"libraryname":"Benton Branch","state":"LA"},"type":"Feature","geometry":{"type":"Point","coordinates":[-93.740239,32.69687]}},{"properties":{"city":"Berwick","lon":-91.220339,"zip":"","librarysystem":"St. Mary Parish Library","id":"a62g1e4iyjvc","address":"3527 Fourth Street","lat":29.695498,"libraryname":"Berwick Branch","state":"LA"},"type":"Feature","geometry":{"type":"Point","coordinates":[-91.220339,29.695498]}},{"properties":{"city":"Arcadia","lon":-92.923186,"zip":"","librarysystem":"Bienville Parish Library","id":"a62g1e0898d9","address":"2768 Maple Street","lat":32.549108,"libraryname":"Bienville Parish Library","state":"LA"},"type":"Feature","geometry":{"type":"Point","coordinates":[-92.923186,32.549108]}},{"properties":{"city":"Blanchard","lon":-93.88972,"zip":"","librarysystem":"Shreve Memorial Library","id":"a62g1e0t3z8n","address":"344 Alexander Street","lat":32.583815,"libraryname":"Blanchard Branch","state":"LA"},"type":"Feature","geometry":{"type":"Point","coordinates":[-93.88972,32.583815]}},{"properties":{"city":"Baton Rouge","lon":-91.10506,"zip":"","librarysystem":"East Baton Rouge Parish Library","id":"a62g1dtyxdcv","address":"9200 Bluebonnet Boulevard","lat":30.364073,"libraryname":"Bluebonnet Regional Branch","state":"LA"},"type":"Feature","geometry":{"type":"Point","coordinates":[-91.10506,30.364073]}},{"properties":{"city":"Bogalusa","lon":-89.869954,"zip":"","librarysystem":"Washington Parish Library","id":"a62g1dzmaqlw","address":"304 Avenue F","lat":30.779968,"libraryname":"Bogalusa Branch","state":"LA"},"type":"Feature","geometry":{"type":"Point","coordinates":[-89.869954,30.779968]}},{"properties":{"city":"Bonita","lon":-91.672664,"zip":"","librarysystem":"Morehouse Parish Library","id":"a62g1e0qsewu","address":"15004 Henry Street","lat":32.91949,"libraryname":"Bonita Branch","state":"LA"},"type":"Feature","geometry":{"type":"Point","coordinates":[-91.672664,32.91949]}},{"properties":{"city":"Bossier City","lon":-93.716604,"zip":"","librarysystem":"Bossier Parish Library","id":"a62g1dyqn2jb","address":"2206 Beckett Street","lat":32.526227,"libraryname":"Bossier Parish Library","state":"LA"},"type":"Feature","geometry":{"type":"Point","coordinates":[-93.716604,32.526227]}},{"properties":{"city":"Bourg","lon":-90.598946,"zip":"","librarysystem":"Terrebonne Parish Library","id":"a62g1dqw8yqh","address":"4455 Grace Street","lat":29.555194,"libraryname":"Bourg Branch","state":"LA"},"type":"Feature","geometry":{"type":"Point","coordinates":[-90.598946,29.555194]}},{"properties":{"city":"Boyce","lon":-92.669022,"zip":"","librarysystem":"Rapides Parish Library","id":"a62g1dy2bf45","address":"500 A Ulster (P.O. Box 792)","lat":31.391757,"libraryname":"Boyce Branch","state":"LA"},"type":"Feature","geometry":{"type":"Point","coordinates":[-92.669022,31.391757]}},{"properties":{"city":"Breaux Bridge","lon":-91.90054,"zip":"","librarysystem":"St. Martin Parish Library","id":"a62g1dth4u0m","address":"102 Courthouse Street","lat":30.274277,"libraryname":"Breaux Bridge Branch","state":"LA"},"type":"Feature","geometry":{"type":"Point","coordinates":[-91.90054,30.274277]}},{"properties":{"city":"Shreveport","lon":-93.707261,"zip":"","librarysystem":"Shreve Memorial Library","id":"a62g1dvo7ct9","address":"1212 Capitain Shreve Drive","lat":32.470982,"libraryname":"Broadmoor Branch","state":"LA"},"type":"Feature","geometry":{"type":"Point","coordinates":[-93.707261,32.470982]}},{"properties":{"city":"Broussard","lon":-91.964155,"zip":"","librarysystem":"Lafayette Parish Library","id":"a62g1e6mqox8","address":"100 West Main Street","lat":30.148153,"libraryname":"Broussard Branch","state":"LA"},"type":"Feature","geometry":{"type":"Point","coordinates":[-91.964155,30.148153]}},{"properties":{"city":"Bunkie","lon":-92.18447,"zip":"","librarysystem":"Avoyelles Parish Library","id":"a62g1dqxqou2","address":"107 West Oak Street","lat":30.954696,"libraryname":"Bunkie Branch","state":"LA"},"type":"Feature","geometry":{"type":"Point","coordinates":[-92.18447,30.954696]}},{"properties":{"city":"Bush","lon":-89.894839,"zip":"","librarysystem":"St. Tammany Parish Library","id":"a62g1e54sswl","address":"81597 Highway 41","lat":30.609148,"libraryname":"Bush Branch","state":"LA"},"type":"Feature","geometry":{"type":"Point","coordinates":[-89.894839,30.609148]}},{"properties":{"city":"Lafayette","lon":-92.027176,"zip":"","librarysystem":"Lafayette Parish Library","id":"a62g1dzvo617","address":"309 Cora Street","lat":30.246147,"libraryname":"Butler Memorial Branch","state":"LA"},"type":"Feature","geometry":{"type":"Point","coordinates":[-92.027176,30.246147]}},{"properties":{"city":"Lake Charles","lon":-93.223439,"zip":"","librarysystem":"Calcasieu Parish Library","id":"a62g1e077kaq","address":"301 W. Claude Street","lat":30.187036,"libraryname":"Calcasieu Parish Public Library","state":"LA"},"type":"Feature","geometry":{"type":"Point","coordinates":[-93.223439,30.187036]}},{"properties":{"city":"Columbia","lon":-92.075069,"zip":"","librarysystem":"Caldwell Parish Library","id":"a62g1e4aox26","address":"211 Jackson St.","lat":32.10369,"libraryname":"Caldwell Parish Library","state":"LA"},"type":"Feature","geometry":{"type":"Point","coordinates":[-92.075069,32.10369]}},{"properties":{"city":"Calvin","lon":-92.776336,"zip":"","librarysystem":"Winn Parish Library","id":"a62g1e1kzx1s","address":"255 Second Street","lat":31.963814,"libraryname":"Calvin Branch","state":"LA"},"type":"Feature","geometry":{"type":"Point","coordinates":[-92.776336,31.963814]}},{"properties":{"city":"Cameron","lon":-93.320162,"zip":"","librarysystem":"Cameron Parish Library","id":"a62g1dqulfp3","address":"498 Marshall Street","lat":29.795772,"libraryname":"Cameron Parish Library","state":"LA"},"type":"Feature","geometry":{"type":"Point","coordinates":[-93.320162,29.795772]}},{"properties":{"city":"Carencro","lon":-92.047768,"zip":"","librarysystem":"Lafayette Parish Library","id":"a62g1dwr9yx1","address":"215 E. St. Peter Street","lat":30.317846,"libraryname":"Carencro Branch","state":"LA"},"type":"Feature","geometry":{"type":"Point","coordinates":[-92.047768,30.317846]}},{"properties":{"city":"Pineville","lon":-92.41835,"zip":"","librarysystem":"Rapides Parish Library","id":"a62g1dxwsy1q","address":"5630 Holloway Rd (Hwy 28 E Libuse)","lat":31.333487,"libraryname":"Carl N. Gunter Sr. Branch","state":"LA"},"type":"Feature","geometry":{"type":"Point","coordinates":[-92.41835,31.333487]}},{"properties":{"city":"Lake Charles","lon":-93.215693,"zip":"","librarysystem":"Calcasieu Parish Library","id":"a62g1e3dfale","address":"411 Pujo Street","lat":30.227689,"libraryname":"Carnegie Memorial Branch","state":"LA"},"type":"Feature","geometry":{"type":"Point","coordinates":[-93.215693,30.227689]}},{"properties":{"city":"Baton Rouge","lon":-91.183293,"zip":"","librarysystem":"East Baton Rouge Parish Library","id":"a62g1dx7iixi","address":"1509 Highland Road","lat":30.43349,"libraryname":"Carver Branch","state":"LA"},"type":"Feature","geometry":{"type":"Point","coordinates":[-91.183293,30.43349]}},{"properties":{"city":"Monroe","lon":-92.085829,"zip":"","librarysystem":"Ouachita Parish Library","id":"a62g1e39xaxf","address":"2941 Renwick Street","lat":32.514443,"libraryname":"Carver Branch","state":"LA"},"type":"Feature","geometry":{"type":"Point","coordinates":[-92.085829,32.514443]}},{"properties":{"city":"St. Martinville","lon":-91.829287,"zip":"","librarysystem":"St. Martin Parish Library","id":"a62g1e0bqbaf","address":"1016a Catahoula School Highway","lat":30.123227,"libraryname":"Catahoula Branch","state":"LA"},"type":"Feature","geometry":{"type":"Point","coordinates":[-91.829287,30.123227]}},{"properties":{"city":"Harrisonburg","lon":-91.821653,"zip":"","librarysystem":"Catahoula Parish Library","id":"a62g1dqidr8e","address":"300 Bushley Street","lat":31.772202,"libraryname":"Catahoula Parish Library","state":"LA"},"type":"Feature","geometry":{"type":"Point","coordinates":[-91.821653,31.772202]}},{"properties":{"city":"Mandeville","lon":-90.082459,"zip":"","librarysystem":"St. Tammany Parish Library","id":"a62g1dxheqo4","address":"3457 Highway 190","lat":30.391396,"libraryname":"Causeway Branch","state":"LA"},"type":"Feature","geometry":{"type":"Point","coordinates":[-90.082459,30.391396]}},{"properties":{"city":"Cecilia","lon":-91.852709,"zip":"","librarysystem":"St. Martin Parish Library","id":"a62g1e65e4xh","address":"2040 Cecilia Street","lat":30.336815,"libraryname":"Cecilia Branch","state":"LA"},"type":"Feature","geometry":{"type":"Point","coordinates":[-91.852709,30.336815]}},{"properties":{"city":"Shreveport","lon":-93.743425,"zip":"","librarysystem":"Shreve Memorial Library","id":"a62g1dy02z1w","address":"8303 Line Avenue","lat":32.429226,"libraryname":"Cedar Grove-Line Avenue Branch","state":"LA"},"type":"Feature","geometry":{"type":"Point","coordinates":[-93.743425,32.429226]}},{"properties":{"city":"Baton Rouge","lon":-91.038152,"zip":"","librarysystem":"East Baton Rouge Parish Library","id":"a62g1e4int0b","address":"13505 Hooper Road","lat":30.553955,"libraryname":"Central Branch","state":"LA"},"type":"Feature","geometry":{"type":"Point","coordinates":[-91.038152,30.553955]}},{"properties":{"city":"Baton Rouge","lon":-91.187774,"zip":"","librarysystem":"East Baton Rouge Parish Library","id":"a62g1e4gmsfn","address":"120 St. Louis St.","lat":30.446552,"libraryname":"Centroplex Branch","state":"LA"},"type":"Feature","geometry":{"type":"Point","coordinates":[-91.187774,30.446552]}},{"properties":{"city":"Chataignier","lon":-92.319799,"zip":"","librarysystem":"Evangeline Parish Library","id":"a62g1e3j8v6u","address":"6215 Charles Armand Street","lat":30.56942,"libraryname":"Chataignier Branch","state":"LA"},"type":"Feature","geometry":{"type":"Point","coordinates":[-92.319799,30.56942]}},{"properties":{"city":"Chauvin","lon":-90.597387,"zip":"","librarysystem":"Terrebonne Parish Library","id":"a62g1dzqi24b","address":"5612 La Highway 56","lat":29.431708,"libraryname":"Chauvin Branch","state":"LA"},"type":"Feature","geometry":{"type":"Point","coordinates":[-90.597387,29.431708]}},{"properties":{"city":"Lafayette","lon":-92.017407,"zip":"","librarysystem":"Lafayette Parish Library","id":"a62g1e5wnjqw","address":"220 West Willow Street","lat":30.245304,"libraryname":"Chenier Center Branch","state":"LA"},"type":"Feature","geometry":{"type":"Point","coordinates":[-92.017407,30.245304]}},{"properties":{"city":"New Orleans","lon":-90.075384,"zip":"","librarysystem":"New Orleans Public Library","id":"a62g1dsqzm1w","address":"913 Jackson Avenue","lat":29.92823,"libraryname":"Children's Resource Center (Napoleon Branch)","state":"LA"},"type":"Feature","geometry":{"type":"Point","coordinates":[-90.075384,29.92823]}},{"properties":{"city":"Churchpoint","lon":-92.218083,"zip":"","librarysystem":"Acadia Parish Library","id":"a62g1e3kyn97","address":"P. O. Box 307 (311 N. Vista St.)","lat":30.406721,"libraryname":"Churchpoint Branch","state":"LA"},"type":"Feature","geometry":{"type":"Point","coordinates":[-92.218083,30.406721]}},{"properties":{"city":"Homer","lon":-93.06435,"zip":"","librarysystem":"Claiborne Parish Library","id":"a62g1drkemrc","address":"901 Edgewood Drive","lat":32.796546,"libraryname":"Claiborne Parish Library","state":"LA"},"type":"Feature","geometry":{"type":"Point","coordinates":[-93.06435,32.796546]}},{"properties":{"city":"Clayton","lon":-91.542136,"zip":"","librarysystem":"Concordia Parish Library","id":"a62g1dzcdf33","address":"8723 Highway 566","lat":31.722857,"libraryname":"Clayton Branch Library","state":"LA"},"type":"Feature","geometry":{"type":"Point","coordinates":[-91.542136,31.722857]}},{"properties":{"city":"Collingston","lon":-91.870704,"zip":"","librarysystem":"Morehouse Parish Library","id":"a62g1dw606eb","address":"4620 Main Street","lat":32.689115,"libraryname":"Collingston Branch","state":"LA"},"type":"Feature","geometry":{"type":"Point","coordinates":[-91.870704,32.689115]}},{"properties":{"city":"Ferriday","lon":-91.553792,"zip":"","librarysystem":"Concordia Parish Library","id":"a62g1e4y6huf","address":"1609 Third Street","lat":31.626389,"libraryname":"Concordia Parish Library","state":"LA"},"type":"Feature","geometry":{"type":"Point","coordinates":[-91.553792,31.626389]}},{"properties":{"city":"Converse","lon":-93.694347,"zip":"","librarysystem":"Sabine Parish Library","id":"a62g1dqmp8hq","address":"102 West Port Arthur Avenue","lat":31.781729,"libraryname":"Converse Branch","state":"LA"},"type":"Feature","geometry":{"type":"Point","coordinates":[-93.694347,31.781729]}},{"properties":{"city":"New Iberia","lon":-91.965698,"zip":"","librarysystem":"Iberia Parish Library","id":"a62g1e3y7lcu","address":"6308 Coteau Park Road","lat":30.035567,"libraryname":"Coteau Branch","state":"LA"},"type":"Feature","geometry":{"type":"Point","coordinates":[-91.965698,30.035567]}},{"properties":{"city":"Cottonport","lon":-92.054334,"zip":"","librarysystem":"Avoyelles Parish Library","id":"a62g1e5s1rse","address":"204 Cottonport Avenue","lat":30.985248,"libraryname":"Cottonport Branch","state":"LA"},"type":"Feature","geometry":{"type":"Point","coordinates":[-92.054334,30.985248]}},{"properties":{"city":"Abbeville","lon":-92.270914,"zip":"","librarysystem":"Vermilion Parish Library","id":"a62g1dsvyyvd","address":"19635 Columbus Street","lat":29.868514,"libraryname":"Cow Island Branch","state":"LA"},"type":"Feature","geometry":{"type":"Point","coordinates":[-92.270914,29.868514]}},{"properties":{"city":"Shreveport","lon":-93.822468,"zip":"","librarysystem":"Shreve Memorial Library","id":"a62g1e5twqo0","address":"2855 Martin Luther King, Jr. Drive","lat":32.543447,"libraryname":"David Raines Branch","state":"LA"},"type":"Feature","geometry":{"type":"Point","coordinates":[-93.822468,32.543447]}},{"properties":{"city":"Delcambre","lon":-91.989832,"zip":"","librarysystem":"Vermilion Parish Library","id":"a62g1dxq2my5","address":"206 W. Main","lat":29.94855,"libraryname":"Delcambre Branch","state":"LA"},"type":"Feature","geometry":{"type":"Point","coordinates":[-91.989832,29.94855]}},{"properties":{"city":"Delcambre","lon":-91.989832,"zip":"","librarysystem":"Iberia Parish Library","id":"a62g1e0m9mz8","address":"206 West Main Street","lat":29.94855,"libraryname":"Delcambre Branch","state":"LA"},"type":"Feature","geometry":{"type":"Point","coordinates":[-91.989832,29.94855]}},{"properties":{"city":"Delhi","lon":-91.492556,"zip":"","librarysystem":"Richland Parish Library","id":"a62g1e0lmypj","address":"520 North Main Street","lat":32.462352,"libraryname":"Delhi Branch","state":"LA"},"type":"Feature","geometry":{"type":"Point","coordinates":[-91.492556,32.462352]}},{"properties":{"city":"Baton Rouge","lon":-91.155949,"zip":"","librarysystem":"East Baton Rouge Parish Library","id":"a62g1dr2njl1","address":"3351 Lorraine Street","lat":30.49674,"libraryname":"Delmont Gardens Branch","state":"LA"},"type":"Feature","geometry":{"type":"Point","coordinates":[-91.155949,30.49674]}},{"properties":{"city":"Denham Springs","lon":-90.918713,"zip":"","librarysystem":"Livingston Parish Library","id":"a62g1dxwj18x","address":"8369 Florida Boulevard","lat":30.483038,"libraryname":"Denham Springs-Walker Branch","state":"LA"},"type":"Feature","geometry":{"type":"Point","coordinates":[-90.918713,30.483038]}},{"properties":{"city":"Dequincy","lon":-93.435862,"zip":"","librarysystem":"Calcasieu Parish Library","id":"a62g1e3t2na4","address":"102 West Harrison Street","lat":30.449098,"libraryname":"Dequincy Branch","state":"LA"},"type":"Feature","geometry":{"type":"Point","coordinates":[-93.435862,30.449098]}},{"properties":{"city":"Mansfield","lon":-93.704424,"zip":"","librarysystem":"Desoto Parish Library","id":"a62g1e65005x","address":"109 Crosby Street","lat":32.037242,"libraryname":"Desoto Parish Libray","state":"LA"},"type":"Feature","geometry":{"type":"Point","coordinates":[-93.704424,32.037242]}},{"properties":{"city":"Dodson","lon":-92.656146,"zip":"","librarysystem":"Winn Parish Library","id":"a62g1dw0bv7b","address":"206 East Gresham Street","lat":32.077089,"libraryname":"Dodson Branch","state":"LA"},"type":"Feature","geometry":{"type":"Point","coordinates":[-92.656146,32.077089]}},{"properties":{"city":"Donaldsonville","lon":-90.985942,"zip":"","librarysystem":"Ascension Parish Library","id":"a62g1dw3rzqw","address":"500 Mississippi Street","lat":30.105715,"libraryname":"Donaldsonville Branch","state":"LA"},"type":"Feature","geometry":{"type":"Point","coordinates":[-90.985942,30.105715]}},{"properties":{"city":"Doyline","lon":-93.411816,"zip":"","librarysystem":"Webster Parish Library","id":"a62g1dxnkpqe","address":"333 Main Street (P.O. Box 8)","lat":32.535899,"libraryname":"Doyline Branch","state":"LA"},"type":"Feature","geometry":{"type":"Point","coordinates":[-93.411816,32.535899]}},{"properties":{"city":"Cotton Valley","lon":-93.416889,"zip":"","librarysystem":"Webster Parish Library","id":"a62g1e0k50h9","address":"256 Main Street (P.O. Box 727)","lat":32.817675,"libraryname":"Dr. John Pugh Memorial Branch","state":"LA"},"type":"Feature","geometry":{"type":"Point","coordinates":[-93.416889,32.817675]}},{"properties":{"city":"Dry Prong","lon":-92.528707,"zip":"","librarysystem":"Grant Parish Library","id":"a62g1e6u7woz","address":"605 Elm Street","lat":31.576666,"libraryname":"Dry Prong Branch","state":"LA"},"type":"Feature","geometry":{"type":"Point","coordinates":[-92.528707,31.576666]}},{"properties":{"city":"St. Bernard","lon":-89.860459,"zip":"","librarysystem":"St. Bernard Parish Library","id":"a62g1dxx7yfz","address":"1345 Bayou Road","lat":29.867638,"libraryname":"Ducros Museum Branch","state":"LA"},"type":"Feature","geometry":{"type":"Point","coordinates":[-89.860459,29.867638]}},{"properties":{"city":"Bastrop","lon":-91.925273,"zip":"","librarysystem":"Morehouse Parish Library","id":"a62g1ds7oe6y","address":"1102 Perry Street","lat":32.770818,"libraryname":"Dunbar Branch","state":"LA"},"type":"Feature","geometry":{"type":"Point","coordinates":[-91.925273,32.770818]}},{"properties":{"city":"Duson","lon":-92.183549,"zip":"","librarysystem":"Lafayette Parish Library","id":"a62g1dxf8t9o","address":"708 First Street","lat":30.23586,"libraryname":"Duson Branch","state":"LA"},"type":"Feature","geometry":{"type":"Point","coordinates":[-92.183549,30.23586]}},{"properties":{"city":"Haughton","lon":-93.613128,"zip":"","librarysystem":"Bossier Parish Library","id":"a62g1dvrmqo6","address":"1050 Bellevue Road","lat":32.557404,"libraryname":"East 80 Branch","state":"LA"},"type":"Feature","geometry":{"type":"Point","coordinates":[-93.613128,32.557404]}},{"properties":{"city":"Baton Rouge","lon":-91.107575,"zip":"","librarysystem":"East Baton Rouge Parish Library","id":"a62g1e5s9rcu","address":"7711 Goodwood Boulevard","lat":30.442516,"libraryname":"East Baton Rouge Parish Library","state":"LA"},"type":"Feature","geometry":{"type":"Point","coordinates":[-91.107575,30.442516]}},{"properties":{"city":"Dry Creek","lon":-92.909079,"zip":"","librarysystem":"Beauregard Parish Library","id":"a62g1ds9c06h","address":"7580 Highway 26","lat":30.70811,"libraryname":"East Beauregard Branch","state":"LA"},"type":"Feature","geometry":{"type":"Point","coordinates":[-92.909079,30.70811]}},{"properties":{"city":"Lake Providence","lon":-91.170163,"zip":"","librarysystem":"East Carroll Parish Library","id":"a62g1dqsexwl","address":"109 Sparrow Street","lat":32.804313,"libraryname":"East Carroll Parish Library","state":"LA"},"type":"Feature","geometry":{"type":"Point","coordinates":[-91.170163,32.804313]}},{"properties":{"city":"Houma","lon":-90.699229,"zip":"","librarysystem":"Terrebonne Parish Library","id":"a62g1du8gn0r","address":"778 Grand Caillou Highway","lat":29.585396,"libraryname":"East Houma Branch","state":"LA"},"type":"Feature","geometry":{"type":"Point","coordinates":[-90.699229,29.585396]}},{"properties":{"city":"St. Gabriel","lon":-91.10332,"zip":"","librarysystem":"Iberville Parish Library","id":"a62g1dsrp0bg","address":"5715 Monticello Street","lat":30.258321,"libraryname":"East Iberville Branch","state":"LA"},"type":"Feature","geometry":{"type":"Point","coordinates":[-91.10332,30.258321]}},{"properties":{"city":"New Orleans","lon":-89.971999,"zip":"","librarysystem":"New Orleans Public Library","id":"a62g1dvs9cl1","address":"5641 Read Road","lat":30.031881,"libraryname":"East New Orleans Regional Branch","state":"LA"},"type":"Feature","geometry":{"type":"Point","coordinates":[-89.971999,30.031881]}},{"properties":{"city":"Destrehan","lon":-90.380055,"zip":"","librarysystem":"St. Charles Parish Library","id":"a62g1dxl3gky","address":"100 River Oaks Drive (P.O. Box 759)","lat":29.951213,"libraryname":"East Regional Branch","state":"LA"},"type":"Feature","geometry":{"type":"Point","coordinates":[-90.380055,29.951213]}},{"properties":{"city":"New Iberia","lon":-91.800532,"zip":"","librarysystem":"Iberia Parish Library","id":"a62g1drstr9y","address":"1000 Parkview Drive, Suite 28","lat":30.001563,"libraryname":"East Side Branch","state":"LA"},"type":"Feature","geometry":{"type":"Point","coordinates":[-91.800532,30.001563]}},{"properties":{"city":"Baton Rouge","lon":-91.14889,"zip":"","librarysystem":"East Baton Rouge Parish Library","id":"a62g1dtgoga5","address":"4142 Gus Young Avenue","lat":30.461799,"libraryname":"Eden Park Branch","state":"LA"},"type":"Feature","geometry":{"type":"Point","coordinates":[-91.14889,30.461799]}},{"properties":{"city":"Elton","lon":-92.693229,"zip":"","librarysystem":"Jefferson Davis Parish Library","id":"a62g1dqv21r1","address":"908 Main St.","lat":30.481368,"libraryname":"Elton Branch","state":"LA"},"type":"Feature","geometry":{"type":"Point","coordinates":[-92.693229,30.481368]}},{"properties":{"city":"Franklinton","lon":-90.085363,"zip":"","librarysystem":"Washington Parish Library","id":"a62g1e0fsoet","address":"14073 Highway 16","lat":30.727359,"libraryname":"Enon Branch","state":"LA"},"type":"Feature","geometry":{"type":"Point","coordinates":[-90.085363,30.727359]}},{"properties":{"city":"Lake Charles","lon":-93.186742,"zip":"","librarysystem":"Calcasieu Parish Library","id":"a62g1dzir7tr","address":"1324 North Simmons Street","lat":30.25545,"libraryname":"Epps Memorial Branch","state":"LA"},"type":"Feature","geometry":{"type":"Point","coordinates":[-93.186742,30.25545]}},{"properties":{"city":"Erath","lon":-92.034871,"zip":"","librarysystem":"Vermilion Parish Library","id":"a62g1e4byo7e","address":"210 South Broadway","lat":29.957345,"libraryname":"Erath Branch","state":"LA"},"type":"Feature","geometry":{"type":"Point","coordinates":[-92.034871,29.957345]}},{"properties":{"city":"Estherwood","lon":-92.463079,"zip":"","librarysystem":"Acadia Parish Library","id":"a62g1dww71k8","address":"116 N. Leblanc St.","lat":30.18854,"libraryname":"Estherwood Branch","state":"LA"},"type":"Feature","geometry":{"type":"Point","coordinates":[-92.463079,30.18854]}},{"properties":{"city":"Eunice","lon":-92.416254,"zip":"","librarysystem":"Opelousas-Eunice Public Library","id":"a62g1dri5nj1","address":"222 South Second Street","lat":30.493617,"libraryname":"Eunice Municipal Library","state":"LA"},"type":"Feature","geometry":{"type":"Point","coordinates":[-92.416254,30.493617]}},{"properties":{"city":"Evangeline","lon":-92.553815,"zip":"","librarysystem":"Acadia Parish Library","id":"a62g1dxjslrk","address":"123 Willis Lane","lat":30.27236,"libraryname":"Evangeline Branch","state":"LA"},"type":"Feature","geometry":{"type":"Point","coordinates":[-92.553815,30.27236]}},{"properties":{"city":"Ville Platte","lon":-92.276043,"zip":"","librarysystem":"Evangeline Parish Library","id":"a62g1e3fsbw0","address":"242 W. Main Street","lat":30.689032,"libraryname":"Evangeline Parish Library","state":"LA"},"type":"Feature","geometry":{"type":"Point","coordinates":[-92.276043,30.689032]}},{"properties":{"city":"Shreveport","lon":-93.771643,"zip":"","librarysystem":"Shreve Memorial Library","id":"a62g1e4tx4ab","address":"5802 Union Street","lat":32.456074,"libraryname":"Extension Center Branch","state":"LA"},"type":"Feature","geometry":{"type":"Point","coordinates":[-93.771643,32.456074]}},{"properties":{"city":"Fields","lon":-93.574639,"zip":"","librarysystem":"Beauregard Parish Library","id":"a62g1dyvtuu5","address":"13487 Highway 389","lat":30.52927,"libraryname":"Fields Southwest Branch","state":"LA"},"type":"Feature","geometry":{"type":"Point","coordinates":[-93.574639,30.52927]}},{"properties":{"city":"Fisher","lon":-93.460368,"zip":"","librarysystem":"Sabine Parish Library","id":"a62g1dwqswwa","address":"842 Four-L Drive","lat":31.495694,"libraryname":"Fisher Branch","state":"LA"},"type":"Feature","geometry":{"type":"Point","coordinates":[-93.460368,31.495694]}},{"properties":{"city":"Florien","lon":-93.462963,"zip":"","librarysystem":"Sabine Parish Library","id":"a62g1dstpiz8","address":"514 West Port Arthur Avenue","lat":31.443429,"libraryname":"Florien Branch","state":"LA"},"type":"Feature","geometry":{"type":"Point","coordinates":[-93.462963,31.443429]}},{"properties":{"city":"Folsom","lon":-90.189491,"zip":"","librarysystem":"St. Tammany Parish Library","id":"a62g1e4qp0oe","address":"82393 Railroad Avenue","lat":30.631637,"libraryname":"Folsom Branch","state":"LA"},"type":"Feature","geometry":{"type":"Point","coordinates":[-90.189491,30.631637]}},{"properties":{"city":"Vinton","lon":-93.578157,"zip":"","librarysystem":"Calcasieu Parish Library","id":"a62g1dxq59kx","address":"1402 Center Street","lat":30.191046,"libraryname":"Fontenot Memorial Branch","state":"LA"},"type":"Feature","geometry":{"type":"Point","coordinates":[-93.578157,30.191046]}},{"properties":{"city":"Winnsboro","lon":-91.718717,"zip":"","librarysystem":"Franklin Parish Library","id":"a62g1drtl3il","address":"705 Prairie Street","lat":32.164273,"libraryname":"Franklin Parish Library","state":"LA"},"type":"Feature","geometry":{"type":"Point","coordinates":[-91.718717,32.164273]}},{"properties":{"city":"Garyville","lon":-90.617934,"zip":"","librarysystem":"St. John The Baptist Parish Library","id":"a62g1dxhopy1","address":"493 Historic Main St. (P.O. Box 870)","lat":30.056972,"libraryname":"Frazee-Harris Memorial Branch","state":"LA"},"type":"Feature","geometry":{"type":"Point","coordinates":[-90.617934,30.056972]}},{"properties":{"city":"French Settlement","lon":-90.798041,"zip":"","librarysystem":"Livingston Parish Library","id":"a62g1dvotb3p","address":"16015 Highway 16","lat":30.298771,"libraryname":"French Settlement Branch","state":"LA"},"type":"Feature","geometry":{"type":"Point","coordinates":[-90.798041,30.298771]}},{"properties":{"city":"Alexandria","lon":-92.478873,"zip":"","librarysystem":"Rapides Parish Library","id":"a62g1e4c9ahw","address":"1264 Canterberry Drive","lat":31.285616,"libraryname":"Fuhrer Branch","state":"LA"},"type":"Feature","geometry":{"type":"Point","coordinates":[-92.478873,31.285616]}},{"properties":{"city":"Galliano","lon":-90.301669,"zip":"","librarysystem":"Lafourche Parish Public Library","id":"a62g1dxr6ytv","address":"Highway 1 At West 154th Street","lat":29.44425,"libraryname":"Galliano Branch","state":"LA"},"type":"Feature","geometry":{"type":"Point","coordinates":[-90.301669,29.44425]}},{"properties":{"city":"Prairieville","lon":-90.929741,"zip":"","librarysystem":"Ascension Parish Library","id":"a62g1e5hkk3d","address":"40300 Hwy 42 At Autumn Leaves Drive","lat":30.323317,"libraryname":"Galvez Branch","state":"LA"},"type":"Feature","geometry":{"type":"Point","coordinates":[-90.929741,30.323317]}},{"properties":{"city":"Georgetown","lon":-92.384439,"zip":"","librarysystem":"Grant Parish Library","id":"a62g1e0xt0s1","address":"4570 Highway 500","lat":31.76008,"libraryname":"Georgetown Branch","state":"LA"},"type":"Feature","geometry":{"type":"Point","coordinates":[-92.384439,31.76008]}},{"properties":{"city":"Lecompte","lon":-92.40396,"zip":"","librarysystem":"Rapides Parish Library","id":"a62g1dwvmv19","address":"1610 St. Charles St (P.O. Box 1207)","lat":31.08653,"libraryname":"Georgie S. Johnson Branch","state":"LA"},"type":"Feature","geometry":{"type":"Point","coordinates":[-92.40396,31.08653]}},{"properties":{"city":"Gibson","lon":-90.992578,"zip":"","librarysystem":"Terrebonne Parish Library","id":"a62g1dx41jxr","address":"6363 South Bayou Black Drive","lat":29.686723,"libraryname":"Gibson Branch","state":"LA"},"type":"Feature","geometry":{"type":"Point","coordinates":[-90.992578,29.686723]}},{"properties":{"city":"Gilliam","lon":-93.844874,"zip":"","librarysystem":"Shreve Memorial Library","id":"a62g1dwlha4v","address":"12797 Main Street","lat":32.827019,"libraryname":"Gilliam Branch","state":"LA"},"type":"Feature","geometry":{"type":"Point","coordinates":[-93.844874,32.827019]}},{"properties":{"city":"Glenmora","lon":-92.585279,"zip":"","librarysystem":"Rapides Parish Library","id":"a62g1dtg8jwj","address":"1120 Seventh Street","lat":30.96873,"libraryname":"Glenmora Branch","state":"LA"},"type":"Feature","geometry":{"type":"Point","coordinates":[-92.585279,30.96873]}},{"properties":{"city":"Golden Meadow","lon":-90.273525,"zip":"","librarysystem":"Lafourche Parish Public Library","id":"a62g1e22o197","address":"1501 North Bayou Drive","lat":29.402405,"libraryname":"Golden Meadow Branch","state":"LA"},"type":"Feature","geometry":{"type":"Point","coordinates":[-90.273525,29.402405]}},{"properties":{"city":"Dulac","lon":-90.713836,"zip":"","librarysystem":"Terrebonne Parish Library","id":"a62g1e0vbobj","address":"200 Badou Drive","lat":29.389611,"libraryname":"Grand Caillou Branch","state":"LA"},"type":"Feature","geometry":{"type":"Point","coordinates":[-90.713836,29.389611]}},{"properties":{"city":"Grand Isle","lon":-90.006842,"zip":"","librarysystem":"Jefferson Parish Library","id":"a62g1e2wne8b","address":"2734 La Highway 1","lat":29.225774,"libraryname":"Grand Isle Branch","state":"LA"},"type":"Feature","geometry":{"type":"Point","coordinates":[-90.006842,29.225774]}},{"properties":{"city":"Colfax","lon":-92.711453,"zip":"","librarysystem":"Grant Parish Library","id":"a62g1dz23eda","address":"300 Main Street","lat":31.517176,"libraryname":"Grant Parish Library","state":"LA"},"type":"Feature","geometry":{"type":"Point","coordinates":[-92.711453,31.517176]}},{"properties":{"city":"Baton Rouge","lon":-91.057662,"zip":"","librarysystem":"East Baton Rouge Parish Library","id":"a62g1ds6eajt","address":"11300 Greenwell Springs Road","lat":30.493647,"libraryname":"Greenwell Springs Road Regional Branch","state":"LA"},"type":"Feature","geometry":{"type":"Point","coordinates":[-91.057662,30.493647]}},{"properties":{"city":"Gretna","lon":-90.050904,"zip":"","librarysystem":"Jefferson Parish Library","id":"a62g1dvc95bq","address":"102 Willow Drive","lat":29.911892,"libraryname":"Gretna Branch","state":"LA"},"type":"Feature","geometry":{"type":"Point","coordinates":[-90.050904,29.911892]}},{"properties":{"city":"Grosse Tete","lon":-91.432603,"zip":"","librarysystem":"Iberville Parish Library","id":"a62g1e2i4le2","address":"18135 Willow St.","lat":30.410517,"libraryname":"Grosse Tete Branch","state":"LA"},"type":"Feature","geometry":{"type":"Point","coordinates":[-91.432603,30.410517]}},{"properties":{"city":"Gueydan","lon":-92.507796,"zip":"","librarysystem":"Vermilion Parish Library","id":"a62g1dv3qlpm","address":"605 Mcmurtry Street","lat":30.024776,"libraryname":"Gueydan Branch","state":"LA"},"type":"Feature","geometry":{"type":"Point","coordinates":[-92.507796,30.024776]}},{"properties":{"city":"Hackberry","lon":-93.365592,"zip":"","librarysystem":"Cameron Parish Library","id":"a62g1du0wyuh","address":"983 Main Street","lat":29.993329,"libraryname":"Hackberry Branch","state":"LA"},"type":"Feature","geometry":{"type":"Point","coordinates":[-93.365592,29.993329]}},{"properties":{"city":"Hahnville","lon":-90.405146,"zip":"","librarysystem":"St. Charles Parish Library","id":"a62g1e2f6nlx","address":"14996 River Road, #D (P.O. Box 444)","lat":29.962817,"libraryname":"Hahnville Branch","state":"LA"},"type":"Feature","geometry":{"type":"Point","coordinates":[-90.405146,29.962817]}},{"properties":{"city":"Shreveport","lon":-93.793387,"zip":"","librarysystem":"Shreve Memorial Library","id":"a62g1dya4jj8","address":"2111 Bert Koons So. Industrial Loop","lat":32.401917,"libraryname":"Hamilton/South Caddo Branch","state":"LA"},"type":"Feature","geometry":{"type":"Point","coordinates":[-93.793387,32.401917]}},{"properties":{"city":"Hammond","lon":-90.458251,"zip":"","librarysystem":"Tangipahoa Parish Library","id":"a62g1drmve3u","address":"314 East Thomas Street","lat":30.504542,"libraryname":"Hammond Branch","state":"LA"},"type":"Feature","geometry":{"type":"Point","coordinates":[-90.458251,30.504542]}},{"properties":{"city":"Harahan","lon":-90.201368,"zip":"","librarysystem":"Jefferson Parish Library","id":"a62g1e1q4ase","address":"219 Soniat Avenue","lat":29.936035,"libraryname":"Harahan Branch","state":"LA"},"type":"Feature","geometry":{"type":"Point","coordinates":[-90.201368,29.936035]}},{"properties":{"city":"Haughton","lon":-93.506061,"zip":"","librarysystem":"Bossier Parish Library","id":"a62g1dtxp0of","address":"116 W. Mckinley","lat":32.53338,"libraryname":"Haughton Branch","state":"LA"},"type":"Feature","geometry":{"type":"Point","coordinates":[-93.506061,32.53338]}},{"properties":{"city":"Hayes","lon":-92.921594,"zip":"","librarysystem":"Calcasieu Parish Library","id":"a62g1dyr2d4i","address":"7709 Perier Street","lat":30.107455,"libraryname":"Hayes Branch","state":"LA"},"type":"Feature","geometry":{"type":"Point","coordinates":[-92.921594,30.107455]}},{"properties":{"city":"Heflin","lon":-93.263066,"zip":"","librarysystem":"Webster Parish Library","id":"a62g1dufnggq","address":"7041 Highway 531 (P.O. Box 177)","lat":32.456743,"libraryname":"Heflin Branch","state":"LA"},"type":"Feature","geometry":{"type":"Point","coordinates":[-93.263066,32.456743]}},{"properties":{"city":"Bossier City","lon":-93.668799,"zip":"","librarysystem":"Bossier Parish Library","id":"a62g1e0y8jzy","address":"3950 Wayne Avenue","lat":32.481461,"libraryname":"Henry L. Aulds Jr. Branch","state":"LA"},"type":"Feature","geometry":{"type":"Point","coordinates":[-93.668799,32.481461]}},{"properties":{"city":"Greenwood","lon":-94.013541,"zip":"","librarysystem":"Shreve Memorial Library","id":"a62g1dr3oig5","address":"9359 Greenwood Road","lat":32.390497,"libraryname":"Higginbotham/Bryson Branch","state":"LA"},"type":"Feature","geometry":{"type":"Point","coordinates":[-94.013541,32.390497]}},{"properties":{"city":"Hineston","lon":-92.759144,"zip":"","librarysystem":"Rapides Parish Library","id":"a62g1dtlp0dw","address":"1839 Highway 121 (P.O. Box 63)","lat":31.140098,"libraryname":"Hineston Branch","state":"LA"},"type":"Feature","geometry":{"type":"Point","coordinates":[-92.759144,31.140098]}},{"properties":{"city":"Hosston","lon":-93.878297,"zip":"","librarysystem":"Shreve Memorial Library","id":"a62g1e5hew4z","address":"15487 Us Highway 71","lat":32.886356,"libraryname":"Hosston Branch","state":"LA"},"type":"Feature","geometry":{"type":"Point","coordinates":[-93.878297,32.886356]}},{"properties":{"city":"New Iberia","lon":-91.813724,"zip":"","librarysystem":"Iberia Parish Library","id":"a62g1e5uopur","address":"445 East Main Street","lat":30.00294,"libraryname":"Iberia Parish Library","state":"LA"},"type":"Feature","geometry":{"type":"Point","coordinates":[-91.813724,30.00294]}},{"properties":{"city":"Plaquemine","lon":-91.247304,"zip":"","librarysystem":"Iberville Parish Library","id":"a62g1e392nq5","address":"24605 J. Gerald Berret Boulevard","lat":30.265355,"libraryname":"Iberville Parish Library","state":"LA"},"type":"Feature","geometry":{"type":"Point","coordinates":[-91.247304,30.265355]}},{"properties":{"city":"Independence","lon":-90.501408,"zip":"","librarysystem":"Tangipahoa Parish Library","id":"a62g1e3xjjtn","address":"300 Fourth Street (P.O. Box 439)","lat":30.635291,"libraryname":"Independence Branch","state":"LA"},"type":"Feature","geometry":{"type":"Point","coordinates":[-90.501408,30.635291]}},{"properties":{"city":"Innis","lon":-91.680416,"zip":"","librarysystem":"Pointe Coupee Parish Library","id":"a62g1e0s79c4","address":"4360 Nicholls Avenue","lat":30.876135,"libraryname":"Innis Branch","state":"LA"},"type":"Feature","geometry":{"type":"Point","coordinates":[-91.680416,30.876135]}},{"properties":{"city":"Iota","lon":-92.494848,"zip":"","librarysystem":"Acadia Parish Library","id":"a62g1e31je45","address":"119 Duson St.","lat":30.331419,"libraryname":"Iota Branch","state":"LA"},"type":"Feature","geometry":{"type":"Point","coordinates":[-92.494848,30.331419]}},{"properties":{"city":"Iowa","lon":-93.013382,"zip":"","librarysystem":"Calcasieu Parish Library","id":"a62g1e1wkv10","address":"107 East First Street","lat":30.236946,"libraryname":"Iowa Branch","state":"LA"},"type":"Feature","geometry":{"type":"Point","coordinates":[-93.013382,30.236946]}},{"properties":{"city":"Tioga","lon":-92.441974,"zip":"","librarysystem":"Rapides Parish Library","id":"a62g1e53bzlt","address":"809 Tioga High School Road","lat":31.408702,"libraryname":"J.L. Robertson Branch","state":"LA"},"type":"Feature","geometry":{"type":"Point","coordinates":[-92.441974,31.408702]}},{"properties":{"city":"Jackson","lon":-91.213471,"zip":"","librarysystem":"Audubon Regional Library","id":"a62g1dtw1bj2","address":"3312 College Street","lat":30.839175,"libraryname":"Jackson Branch","state":"LA"},"type":"Feature","geometry":{"type":"Point","coordinates":[-91.213471,30.839175]}},{"properties":{"city":"Jonesboro","lon":-92.7149,"zip":"","librarysystem":"Jackson Parish Library","id":"a62g1dqm6aok","address":"614 South Polk Avenue","lat":32.239519,"libraryname":"Jackson Parish Library","state":"LA"},"type":"Feature","geometry":{"type":"Point","coordinates":[-92.7149,32.239519]}},{"properties":{"city":"Jeanerette","lon":-91.67223,"zip":"","librarysystem":"Iberia Parish Library","id":"a62g1dto63dk","address":"411 Kentucky Street","lat":29.919323,"libraryname":"Jeanerette Branch","state":"LA"},"type":"Feature","geometry":{"type":"Point","coordinates":[-91.67223,29.919323]}},{"properties":{"city":"Jennings","lon":-92.658297,"zip":"","librarysystem":"Jefferson Davis Parish Library","id":"a62g1dqjnlr5","address":"118 West Plaquemine Street","lat":30.222759,"libraryname":"Jefferson Davis Parish Library","state":"LA"},"type":"Feature","geometry":{"type":"Point","coordinates":[-92.658297,30.222759]}},{"properties":{"city":"Metairie","lon":-90.185431,"zip":"","librarysystem":"Jefferson Parish Library","id":"a62g1e2nqxvn","address":"4747 West Napoleon Avenue","lat":29.994397,"libraryname":"Jefferson Parish Library","state":"LA"},"type":"Feature","geometry":{"type":"Point","coordinates":[-90.185431,29.994397]}},{"properties":{"city":"Jennings","lon":-92.659275,"zip":"","librarysystem":"Jennings Carnegie Public Library","id":"a62g1e0e7ifo","address":"303 Cary Avenue","lat":30.222722,"libraryname":"Jennings Carnegie Public Library","state":"LA"},"type":"Feature","geometry":{"type":"Point","coordinates":[-92.659275,30.222722]}},{"properties":{"city":"Haynesville","lon":-92.72393,"zip":"","librarysystem":"Claiborne Parish Library","id":"a62g1dyidl05","address":"1919 Main Street","lat":33.004612,"libraryname":"Joe Webb Memorial Branch","state":"LA"},"type":"Feature","geometry":{"type":"Point","coordinates":[-92.72393,33.004612]}},{"properties":{"city":"Cameron","lon":-93.592693,"zip":"","librarysystem":"Cameron Parish Library","id":"a62g1e0sm673","address":"4586 Gulf Beach Highway","lat":29.761378,"libraryname":"Johnson Bayou Branch","state":"LA"},"type":"Feature","geometry":{"type":"Point","coordinates":[-93.592693,29.761378]}},{"properties":{"city":"Baton Rouge","lon":-91.017878,"zip":"","librarysystem":"East Baton Rouge Parish Library","id":"a62g1e5ztkp2","address":"6222 Jones Creek Road","lat":30.396264,"libraryname":"Jones Creek Regional Branch","state":"LA"},"type":"Feature","geometry":{"type":"Point","coordinates":[-91.017878,30.396264]}},{"properties":{"city":"Jonesville","lon":-91.813961,"zip":"","librarysystem":"Catahoula Parish Library","id":"a62g1dtjxxfg","address":"205 Pond Street","lat":31.62752,"libraryname":"Jonesville Branch","state":"LA"},"type":"Feature","geometry":{"type":"Point","coordinates":[-91.813961,31.62752]}},{"properties":{"city":"Rougon","lon":-91.368627,"zip":"","librarysystem":"Pointe Coupee Parish Library","id":"a62g1e0qaqle","address":"4985 Julian Poydras Lane","lat":30.606431,"libraryname":"Julian Poydras Branch","state":"LA"},"type":"Feature","geometry":{"type":"Point","coordinates":[-91.368627,30.606431]}},{"properties":{"city":"Kaplan","lon":-92.283859,"zip":"","librarysystem":"Vermilion Parish Library","id":"a62g1ds9vdmk","address":"513 North Cushing Avenue","lat":30.001828,"libraryname":"Kaplan Branch","state":"LA"},"type":"Feature","geometry":{"type":"Point","coordinates":[-92.283859,30.001828]}},{"properties":{"city":"New Orleans","lon":-90.103212,"zip":"","librarysystem":"New Orleans Public Library","id":"a62g1e0mm3ts","address":"4300 South Broad Street","lat":29.949318,"libraryname":"Keller Branch","state":"LA"},"type":"Feature","geometry":{"type":"Point","coordinates":[-90.103212,29.949318]}},{"properties":{"city":"Kentwood","lon":-90.510282,"zip":"","librarysystem":"Tangipahoa Parish Library","id":"a62g1dsbp7kb","address":"101 Avenue F","lat":30.938197,"libraryname":"Kentwood Branch","state":"LA"},"type":"Feature","geometry":{"type":"Point","coordinates":[-90.510282,30.938197]}},{"properties":{"city":"Springfield","lon":-90.585336,"zip":"","librarysystem":"Livingston Parish Library","id":"a62g1e5n0l7v","address":"28278 Highway 22","lat":30.356809,"libraryname":"Killian Branch","state":"LA"},"type":"Feature","geometry":{"type":"Point","coordinates":[-90.585336,30.356809]}},{"properties":{"city":"Kinder","lon":-92.854969,"zip":"","librarysystem":"Allen Parish Library","id":"a62g1duawhov","address":"4th Street","lat":30.487515,"libraryname":"Kinder Branch","state":"LA"},"type":"Feature","geometry":{"type":"Point","coordinates":[-92.854969,30.487515]}},{"properties":{"city":"Haughton","lon":-93.507709,"zip":"","librarysystem":"Bossier Parish Library","id":"a62g1dzgi1oz","address":"1684 Highway 527-Johnson Store Rd.","lat":32.42634,"libraryname":"Koran Branch","state":"LA"},"type":"Feature","geometry":{"type":"Point","coordinates":[-93.507709,32.42634]}},{"properties":{"city":"Labadieville","lon":-90.960551,"zip":"","librarysystem":"Assumption Parish Library","id":"a62g1e5mg15v","address":"105 Cherry Street","lat":29.832143,"libraryname":"Labadieville Branch","state":"LA"},"type":"Feature","geometry":{"type":"Point","coordinates":[-90.960551,29.832143]}},{"properties":{"city":"Lacombe","lon":-89.941969,"zip":"","librarysystem":"St. Tammany Parish Library","id":"a62g1e0efz4p","address":"28027 Highway 190","lat":30.313177,"libraryname":"Lacombe Branch","state":"LA"},"type":"Feature","geometry":{"type":"Point","coordinates":[-89.941969,30.313177]}},{"properties":{"city":"Lafayette","lon":-92.019681,"zip":"","librarysystem":"Lafayette Parish Library","id":"a62g1dv7guer","address":"301 West Congress Street","lat":30.2265,"libraryname":"Lafayette Parish Library","state":"LA"},"type":"Feature","geometry":{"type":"Point","coordinates":[-92.019681,30.2265]}},{"properties":{"city":"Lafitte","lon":-90.096473,"zip":"","librarysystem":"Jefferson Parish Library","id":"a62g1dqjnmub","address":"Route 1, Box 2, Highway 45","lat":29.690116,"libraryname":"Lafitte-Barataria Branch","state":"LA"},"type":"Feature","geometry":{"type":"Point","coordinates":[-90.096473,29.690116]}},{"properties":{"city":"Thibodaux","lon":-90.82448,"zip":"","librarysystem":"Lafourche Parish Public Library","id":"a62g1e5nphgm","address":"314 St. Mary Street","lat":29.795969,"libraryname":"Lafourche Parish Library Utley Memorial Branc","state":"LA"},"type":"Feature","geometry":{"type":"Point","coordinates":[-90.82448,29.795969]}},{"properties":{"city":"Lake Arthur","lon":-92.678268,"zip":"","librarysystem":"Jefferson Davis Parish Library","id":"a62g1e2whdzw","address":"411 Lake Street","lat":30.075824,"libraryname":"Lake Arthur Branch","state":"LA"},"type":"Feature","geometry":{"type":"Point","coordinates":[-92.678268,30.075824]}},{"properties":{"city":"Metairie","lon":-90.13222,"zip":"","librarysystem":"Jefferson Parish Library","id":"a62g1dtbxt9r","address":"1000 West Esplanade","lat":30.013214,"libraryname":"Lakeshore Branch","state":"LA"},"type":"Feature","geometry":{"type":"Point","coordinates":[-90.13222,30.013214]}},{"properties":{"city":"Larose","lon":-90.539439,"zip":"","librarysystem":"Lafourche Parish Public Library","id":"a62g1e0m4514","address":"Bayou Civic Center East 5th Street","lat":29.63765,"libraryname":"Larose Cut-Off Branch","state":"LA"},"type":"Feature","geometry":{"type":"Point","coordinates":[-90.539439,29.63765]}},{"properties":{"city":"Jena","lon":-92.133207,"zip":"","librarysystem":"Lasalle Parish Library","id":"a62g1dv1oogs","address":"3108 North First Street","lat":31.684981,"libraryname":"Lasalle Parish Library","state":"LA"},"type":"Feature","geometry":{"type":"Point","coordinates":[-92.133207,31.684981]}},{"properties":{"city":"Covington","lon":-90.067349,"zip":"","librarysystem":"St. Tammany Parish Library","id":"a62g1dv9ujn2","address":"79213 Highway 40","lat":30.58505,"libraryname":"Lee Road Branch","state":"LA"},"type":"Feature","geometry":{"type":"Point","coordinates":[-90.067349,30.58505]}},{"properties":{"city":"Ruston","lon":-92.645013,"zip":"","librarysystem":"Lincoln Parish Library","id":"a62g1dt1hn9i","address":"509 West Alabama Street","lat":32.530744,"libraryname":"Lincoln Parish Library","state":"LA"},"type":"Feature","geometry":{"type":"Point","coordinates":[-92.645013,32.530744]}},{"properties":{"city":"Waggaman","lon":-90.212258,"zip":"","librarysystem":"Jefferson Parish Library","id":"a62g1e4uzfa7","address":"125 Acadian Drive","lat":29.91472,"libraryname":"Live Oak Branch","state":"LA"},"type":"Feature","geometry":{"type":"Point","coordinates":[-90.212258,29.91472]}},{"properties":{"city":"Livingston","lon":-90.745167,"zip":"","librarysystem":"Livingston Parish Library","id":"a62g1e5lwnw3","address":"13986 Florida Boulevard","lat":30.503202,"libraryname":"Livingston Parish Library","state":"LA"},"type":"Feature","geometry":{"type":"Point","coordinates":[-90.745167,30.503202]}},{"properties":{"city":"Livonia","lon":-91.556014,"zip":"","librarysystem":"Pointe Coupee Parish Library","id":"a62g1dxg35u2","address":"3100 Highway 78","lat":30.5581,"libraryname":"Livonia Branch","state":"LA"},"type":"Feature","geometry":{"type":"Point","coordinates":[-91.556014,30.5581]}},{"properties":{"city":"Lockport","lon":-90.541987,"zip":"","librarysystem":"Lafourche Parish Public Library","id":"a62g1dvnfszm","address":"710 Church Street","lat":29.64098,"libraryname":"Lockport Branch","state":"LA"},"type":"Feature","geometry":{"type":"Point","coordinates":[-90.541987,29.64098]}},{"properties":{"city":"Logansport","lon":-93.998672,"zip":"","librarysystem":"Desoto Parish Library","id":"a62g1e2jzj65","address":"808 Main Street","lat":31.975275,"libraryname":"Logansport Branch","state":"LA"},"type":"Feature","geometry":{"type":"Point","coordinates":[-93.998672,31.975275]}},{"properties":{"city":"Longville","lon":-93.230552,"zip":"","librarysystem":"Beauregard Parish Library","id":"a62g1dquwh77","address":"234 Longville Road","lat":30.606085,"libraryname":"Longville Midsouth Branch","state":"LA"},"type":"Feature","geometry":{"type":"Point","coordinates":[-93.230552,30.606085]}},{"properties":{"city":"Loranger","lon":-90.398924,"zip":"","librarysystem":"Tangipahoa Parish Library","id":"a62g1dxyatzj","address":"Highway 1040 (P.O.Box 515)","lat":30.63567,"libraryname":"Loranger Branch","state":"LA"},"type":"Feature","geometry":{"type":"Point","coordinates":[-90.398924,30.63567]}},{"properties":{"city":"Loreauville","lon":-91.737306,"zip":"","librarysystem":"Iberia Parish Library","id":"a62g1e3rufu2","address":"510 Main Street","lat":30.060633,"libraryname":"Loreauville Branch","state":"LA"},"type":"Feature","geometry":{"type":"Point","coordinates":[-91.737306,30.060633]}},{"properties":{"city":"New Iberia","lon":-91.789703,"zip":"","librarysystem":"Iberia Parish Library","id":"a62g1dy45285","address":"4800 Freyou Road","lat":29.924233,"libraryname":"Lydia Branch","state":"LA"},"type":"Feature","geometry":{"type":"Point","coordinates":[-91.789703,29.924233]}},{"properties":{"city":"Tallulah","lon":-91.1846,"zip":"","librarysystem":"Madison Parish Library","id":"a62g1drzhlac","address":"403 N. Mulberry Street","lat":32.409913,"libraryname":"Madison Parish Library","state":"LA"},"type":"Feature","geometry":{"type":"Point","coordinates":[-91.1846,32.409913]}},{"properties":{"city":"Madisonville","lon":-90.159193,"zip":"","librarysystem":"St. Tammany Parish Library","id":"a62g1dt1wsc7","address":"400 Cedar Street (P.O. Box 69)","lat":30.407828,"libraryname":"Madisonville Branch","state":"LA"},"type":"Feature","geometry":{"type":"Point","coordinates":[-90.159193,30.407828]}},{"properties":{"city":"Mamou","lon":-92.424364,"zip":"","librarysystem":"Evangeline Parish Library","id":"a62g1e3djgbi","address":"317a Second Street","lat":30.628324,"libraryname":"Mamou Branch","state":"LA"},"type":"Feature","geometry":{"type":"Point","coordinates":[-92.424364,30.628324]}},{"properties":{"city":"Mandeville","lon":-90.079104,"zip":"","librarysystem":"St. Tammany Parish Library","id":"a62g1ds6t053","address":"842 Gerard Street","lat":30.37251,"libraryname":"Mandeville Branch","state":"LA"},"type":"Feature","geometry":{"type":"Point","coordinates":[-90.079104,30.37251]}},{"properties":{"city":"Mangham","lon":-91.785346,"zip":"","librarysystem":"Richland Parish Library","id":"a62g1dupbl2o","address":"302 Hixon Street","lat":32.312924,"libraryname":"Mangham Branch","state":"LA"},"type":"Feature","geometry":{"type":"Point","coordinates":[-91.785346,32.312924]}},{"properties":{"city":"Maplewood","lon":-93.321979,"zip":"","librarysystem":"Calcasieu Parish Library","id":"a62g1e3g6jt0","address":"91 Center Circle","lat":30.236934,"libraryname":"Maplewood Branch","state":"LA"},"type":"Feature","geometry":{"type":"Point","coordinates":[-93.321979,30.236934]}},{"properties":{"city":"Maringouin","lon":-91.512957,"zip":"","librarysystem":"Iberville Parish Library","id":"a62g1dwnj3ca","address":"77175 Ridgewood Dr.","lat":30.488541,"libraryname":"Maringouin Branch","state":"LA"},"type":"Feature","geometry":{"type":"Point","coordinates":[-91.512957,30.488541]}},{"properties":{"city":"Pineville","lon":-92.436705,"zip":"","librarysystem":"Rapides Parish Library","id":"a62g1dr71pb3","address":"801 West Shamrock","lat":31.32376,"libraryname":"Martin Branch","state":"LA"},"type":"Feature","geometry":{"type":"Point","coordinates":[-92.436705,31.32376]}},{"properties":{"city":"Alexandria","lon":-92.425545,"zip":"","librarysystem":"Rapides Parish Library","id":"a62g1e45d867","address":"3311 Third Street","lat":31.297262,"libraryname":"Martin Luther King Jr. Memorial Branch","state":"LA"},"type":"Feature","geometry":{"type":"Point","coordinates":[-92.425545,31.297262]}},{"properties":{"city":"New Orleans","lon":-90.013931,"zip":"","librarysystem":"New Orleans Public Library","id":"a62g1dxkto8o","address":"1617 Caffin Avenue","lat":29.966427,"libraryname":"Martin Luther King, Jr. Branch","state":"LA"},"type":"Feature","geometry":{"type":"Point","coordinates":[-90.013931,29.966427]}},{"properties":{"city":"Maurice","lon":-92.124069,"zip":"","librarysystem":"Vermilion Parish Library","id":"a62g1e0huecp","address":"100 East Joseph Street","lat":30.10603,"libraryname":"Maurice Branch","state":"LA"},"type":"Feature","geometry":{"type":"Point","coordinates":[-92.124069,30.10603]}},{"properties":{"city":"Welsh","lon":-92.824686,"zip":"","librarysystem":"Jefferson Davis Parish Library","id":"a62g1e001tcz","address":"301 South Sarah Street","lat":30.235654,"libraryname":"Mcburney Memorial Branch","state":"LA"},"type":"Feature","geometry":{"type":"Point","coordinates":[-92.824686,30.235654]}},{"properties":{"city":"Ida","lon":-93.894122,"zip":"","librarysystem":"Shreve Memorial Library","id":"a62g1e2d15kj","address":"7016 East Magnolia Lane","lat":33.004148,"libraryname":"Means Memorial Branch","state":"LA"},"type":"Feature","geometry":{"type":"Point","coordinates":[-93.894122,33.004148]}},{"properties":{"city":"Mer Rouge","lon":-91.794024,"zip":"","librarysystem":"Morehouse Parish Library","id":"a62g1dsmueis","address":"107 South 16th Street","lat":32.77437,"libraryname":"Mer Rouge Branch","state":"LA"},"type":"Feature","geometry":{"type":"Point","coordinates":[-91.794024,32.77437]}},{"properties":{"city":"Mermentau","lon":-92.586759,"zip":"","librarysystem":"Acadia Parish Library","id":"a62g1dzrtkhr","address":"107 Second St.","lat":30.188975,"libraryname":"Mermentau Branch","state":"LA"},"type":"Feature","geometry":{"type":"Point","coordinates":[-92.586759,30.188975]}},{"properties":{"city":"Merryville","lon":-93.541622,"zip":"","librarysystem":"Beauregard Parish Library","id":"a62g1e495fi8","address":"120 Heard Street","lat":30.757055,"libraryname":"Merryville West Branch","state":"LA"},"type":"Feature","geometry":{"type":"Point","coordinates":[-93.541622,30.757055]}},{"properties":{"city":"Milton","lon":-92.077014,"zip":"","librarysystem":"Lafayette Parish Library","id":"a62g1e18um2s","address":"Cedar Village Shop. Center Hwy.92","lat":30.104075,"libraryname":"Milton Branch","state":"LA"},"type":"Feature","geometry":{"type":"Point","coordinates":[-92.077014,30.104075]}},{"properties":{"city":"New Orleans","lon":-90.110057,"zip":"","librarysystem":"New Orleans Public Library","id":"a62g1e1qchsl","address":"5120 St. Charles Avenue","lat":29.926917,"libraryname":"Milton H. Latter Branch","state":"LA"},"type":"Feature","geometry":{"type":"Point","coordinates":[-90.110057,29.926917]}},{"properties":{"city":"Montegut","lon":-90.555847,"zip":"","librarysystem":"Terrebonne Parish Library","id":"a62g1e41filv","address":"1135 Highway 55","lat":29.477752,"libraryname":"Montegut Branch","state":"LA"},"type":"Feature","geometry":{"type":"Point","coordinates":[-90.555847,29.477752]}},{"properties":{"city":"Montgomery","lon":-92.889964,"zip":"","librarysystem":"Grant Parish Library","id":"a62g1dt5mo24","address":"4360 Nicholls Avenue","lat":31.66729,"libraryname":"Montgomery Branch","state":"LA"},"type":"Feature","geometry":{"type":"Point","coordinates":[-92.889964,31.66729]}},{"properties":{"city":"Shreveport","lon":-93.809247,"zip":"","librarysystem":"Shreve Memorial Library","id":"a62g1dy3m8t1","address":"4260 Hollywood Avenue","lat":32.456722,"libraryname":"Mooretown Branch","state":"LA"},"type":"Feature","geometry":{"type":"Point","coordinates":[-93.809247,32.456722]}},{"properties":{"city":"Mooringsport","lon":-93.959939,"zip":"","librarysystem":"Shreve Memorial Library","id":"a62g1dy3n1qu","address":"603 Latimer Street","lat":32.687355,"libraryname":"Mooringsport Branch","state":"LA"},"type":"Feature","geometry":{"type":"Point","coordinates":[-93.959939,32.687355]}},{"properties":{"city":"Moreauville","lon":-91.975235,"zip":"","librarysystem":"Avoyelles Parish Library","id":"a62g1dwi8i2x","address":"343 Tassin Street","lat":31.033319,"libraryname":"Moreauville Branch","state":"LA"},"type":"Feature","geometry":{"type":"Point","coordinates":[-91.975235,31.033319]}},{"properties":{"city":"Bastrop","lon":-91.909116,"zip":"","librarysystem":"Morehouse Parish Library","id":"a62g1dwpvqk5","address":"524 East Madison Street","lat":32.778148,"libraryname":"Morehouse Parish Library","state":"LA"},"type":"Feature","geometry":{"type":"Point","coordinates":[-91.909116,32.778148]}},{"properties":{"city":"Morgan City","lon":-91.208752,"zip":"","librarysystem":"Morgan City Public Library","id":"a62g1e2gvqz9","address":"220 Everett Street","lat":29.694769,"libraryname":"Morgan City Public Library","state":"LA"},"type":"Feature","geometry":{"type":"Point","coordinates":[-91.208752,29.694769]}},{"properties":{"city":"Morganza","lon":-91.593928,"zip":"","librarysystem":"Pointe Coupee Parish Library","id":"a62g1dzk14oy","address":"221 Highway 1 South (P.O.Box 309)","lat":30.738831,"libraryname":"Morganza Branch","state":"LA"},"type":"Feature","geometry":{"type":"Point","coordinates":[-91.593928,30.738831]}},{"properties":{"city":"Morse","lon":-92.499884,"zip":"","librarysystem":"Acadia Parish Library","id":"a62g1dzln08m","address":"232 S. Jules Av.","lat":30.12673,"libraryname":"Morse Branch","state":"LA"},"type":"Feature","geometry":{"type":"Point","coordinates":[-92.499884,30.12673]}},{"properties":{"city":"Lake Charles","lon":-93.19988,"zip":"","librarysystem":"Calcasieu Parish Library","id":"a62g1e2jf5s8","address":"261 Parish Road","lat":30.303614,"libraryname":"Moss Bluff Branch","state":"LA"},"type":"Feature","geometry":{"type":"Point","coordinates":[-93.19988,30.303614]}},{"properties":{"city":"Mound Bayou","lon":-106.112319,"zip":"","librarysystem":"Bolivar County Library System","id":"a62g1dzmip3k","address":"St. Gabriel Educational Center","lat":37.752875,"libraryname":"Mound Bayou Public Library","state":"LA"},"type":"Feature","geometry":{"type":"Point","coordinates":[-106.112319,37.752875]}},{"properties":{"city":"Mount Hermon","lon":-90.296061,"zip":"","librarysystem":"Washington Parish Library","id":"a62g1dykrlok","address":"36015 Highway 38","lat":30.960195,"libraryname":"Mount Hermon Branch","state":"LA"},"type":"Feature","geometry":{"type":"Point","coordinates":[-90.296061,30.960195]}},{"properties":{"city":"Natchitoches","lon":-93.088627,"zip":"","librarysystem":"Natchitoches Parish Library","id":"a62g1du38z2t","address":"450 Second Street","lat":31.759001,"libraryname":"Natchitoches Parish Library","state":"LA"},"type":"Feature","geometry":{"type":"Point","coordinates":[-93.088627,31.759001]}},{"properties":{"city":"New Orleans","lon":-90.07524,"zip":"","librarysystem":"New Orleans Public Library","id":"a62g1dz4sbc0","address":"219 Loyola Avenue","lat":29.954439,"libraryname":"New Orleans Public Library","state":"LA"},"type":"Feature","geometry":{"type":"Point","coordinates":[-90.07524,29.954439]}},{"properties":{"city":"New Orleans","lon":-90.127915,"zip":"","librarysystem":"New Orleans Public Library","id":"a62g1dywj3wh","address":"1401 South Carrollton Avenue","lat":29.948631,"libraryname":"Nix Branch","state":"LA"},"type":"Feature","geometry":{"type":"Point","coordinates":[-90.127915,29.948631]}},{"properties":{"city":"New Orleans","lon":-90.06758,"zip":"","librarysystem":"New Orleans Public Library","id":"a62g1e6hpjeq","address":"1902 St. Bernard Avenue","lat":29.975706,"libraryname":"Nora Narva Branch","state":"LA"},"type":"Feature","geometry":{"type":"Point","coordinates":[-90.06758,29.975706]}},{"properties":{"city":"Norco","lon":-90.410587,"zip":"","librarysystem":"St. Charles Parish Library","id":"a62g1duh3l77","address":"197 Good Hope Street","lat":30.001555,"libraryname":"Norco Branch","state":"LA"},"type":"Feature","geometry":{"type":"Point","coordinates":[-90.410587,30.001555]}},{"properties":{"city":"New Orleans","lon":-90.061151,"zip":"","librarysystem":"New Orleans Public Library","id":"a62g1dqt0xlh","address":"2098 Foy Street","lat":29.997671,"libraryname":"Norman Mayer Gentilly Branch","state":"LA"},"type":"Feature","geometry":{"type":"Point","coordinates":[-90.061151,29.997671]}},{"properties":{"city":"Vivian","lon":-93.984358,"zip":"","librarysystem":"Shreve Memorial Library","id":"a62g1e1yt0gt","address":"615 N. Pine Street","lat":32.877314,"libraryname":"North Caddo Branch","state":"LA"},"type":"Feature","geometry":{"type":"Point","coordinates":[-93.984358,32.877314]}},{"properties":{"city":"Kenner","lon":-90.259945,"zip":"","librarysystem":"Jefferson Parish Library","id":"a62g1dyqo1ze","address":"630 West Esplanade Avenue","lat":30.022285,"libraryname":"North Kenner Branch","state":"LA"},"type":"Feature","geometry":{"type":"Point","coordinates":[-90.259945,30.022285]}},{"properties":{"city":"Shreveport","lon":-93.811279,"zip":"","librarysystem":"Shreve Memorial Library","id":"a62g1dwu5cgq","address":"4844 North Market Street","lat":32.58638,"libraryname":"North Shreveport","state":"LA"},"type":"Feature","geometry":{"type":"Point","coordinates":[-93.811279,32.58638]}},{"properties":{"city":"Gray","lon":-90.78073,"zip":"","librarysystem":"Terrebonne Parish Library","id":"a62g1e40tpep","address":"4130 West Park Avenue","lat":29.677052,"libraryname":"North Terrebonne Branch","state":"LA"},"type":"Feature","geometry":{"type":"Point","coordinates":[-90.78073,29.677052]}},{"properties":{"city":"Oak Ridge","lon":-89.73375,"zip":"","librarysystem":"Morehouse Parish Library","id":"a62g1dwz7tuk","address":"Main Street","lat":37.501287,"libraryname":"Oak Ridge Branch","state":"LA"},"type":"Feature","geometry":{"type":"Point","coordinates":[-89.73375,37.501287]}},{"properties":{"city":"Oakdale","lon":-92.65924,"zip":"","librarysystem":"Allen Parish Library","id":"a62g1e5u2je0","address":"405 East Sixth Avenue","lat":30.815569,"libraryname":"Oakdale Branch","state":"LA"},"type":"Feature","geometry":{"type":"Point","coordinates":[-92.65924,30.815569]}},{"properties":{"city":"Oil City","lon":-93.978275,"zip":"","librarysystem":"Shreve Memorial Library","id":"a62g1drqk9x4","address":"102 Allen Street","lat":32.746458,"libraryname":"Oil City Branch","state":"LA"},"type":"Feature","geometry":{"type":"Point","coordinates":[-93.978275,32.746458]}},{"properties":{"city":"Metairie","lon":-90.149037,"zip":"","librarysystem":"Jefferson Parish Library","id":"a62g1dvikjsk","address":"2350 Metairie Road","lat":29.983246,"libraryname":"Old Metairie Branch","state":"LA"},"type":"Feature","geometry":{"type":"Point","coordinates":[-90.149037,29.983246]}},{"properties":{"city":"Olla","lon":-92.242211,"zip":"","librarysystem":"Lasalle Parish Library","id":"a62g1e58wajs","address":"Blake Street","lat":31.89872,"libraryname":"Olla Branch","state":"LA"},"type":"Feature","geometry":{"type":"Point","coordinates":[-92.242211,31.89872]}},{"properties":{"city":"Opelousas","lon":-92.080865,"zip":"","librarysystem":"Opelousas-Eunice Public Library","id":"a62g1duum6zt","address":"249 East Grolee Street","lat":30.535937,"libraryname":"Opelousas-Eunice Libraries","state":"LA"},"type":"Feature","geometry":{"type":"Point","coordinates":[-92.080865,30.535937]}},{"properties":{"city":"Monroe","lon":-92.108773,"zip":"","librarysystem":"Ouachita Parish Library","id":"a62g1dsm791l","address":"1800 Stubbs Avenue","lat":32.519806,"libraryname":"Ouachita Parish Public Library","state":"LA"},"type":"Feature","geometry":{"type":"Point","coordinates":[-92.108773,32.519806]}},{"properties":{"city":"West Monroe","lon":-92.153594,"zip":"","librarysystem":"Ouachita Parish Library","id":"a62g1dqzf8yg","address":"601 Mcmillan Road","lat":32.514234,"libraryname":"Ouachita Valley Branch","state":"LA"},"type":"Feature","geometry":{"type":"Point","coordinates":[-92.153594,32.514234]}},{"properties":{"city":"Mansura","lon":-92.050749,"zip":"","librarysystem":"Avoyelles Parish Library","id":"a62g1e2kx8on","address":"2111 Cleco Road","lat":31.05661,"libraryname":"Outreach Branch","state":"LA"},"type":"Feature","geometry":{"type":"Point","coordinates":[-92.050749,31.05661]}},{"properties":{"city":"Parks","lon":-91.832868,"zip":"","librarysystem":"St. Martin Parish Library","id":"a62g1e6tcc4g","address":"1012 Martin Street","lat":30.213419,"libraryname":"Parks Branch","state":"LA"},"type":"Feature","geometry":{"type":"Point","coordinates":[-91.832868,30.213419]}},{"properties":{"city":"Patterson","lon":-91.303448,"zip":"","librarysystem":"St. Mary Parish Library","id":"a62g1e3e83cc","address":"1108 First Street","lat":29.693279,"libraryname":"Patterson Branch","state":"LA"},"type":"Feature","geometry":{"type":"Point","coordinates":[-91.303448,29.693279]}},{"properties":{"city":"Leesville","lon":-93.270407,"zip":"","librarysystem":"Vernon Parish Library","id":"a62g1dvh7vl2","address":"1003 North Gladys St. At Nona St.","lat":31.151352,"libraryname":"Paul Laurence Dunbar Branch","state":"LA"},"type":"Feature","geometry":{"type":"Point","coordinates":[-93.270407,31.151352]}},{"properties":{"city":"Pearl River","lon":-89.769229,"zip":"","librarysystem":"St. Tammany Parish Library","id":"a62g1dxvffwa","address":"64580 Highway 41 (P.O. Box 508)","lat":30.37961,"libraryname":"Pearl River Branch","state":"LA"},"type":"Feature","geometry":{"type":"Point","coordinates":[-89.769229,30.37961]}},{"properties":{"city":"Pelican","lon":-93.589563,"zip":"","librarysystem":"Desoto Parish Library","id":"a62g1e1iadeu","address":"139 Jackson Ave.","lat":31.879238,"libraryname":"Pelican Branch","state":"LA"},"type":"Feature","geometry":{"type":"Point","coordinates":[-93.589563,31.879238]}},{"properties":{"city":"Pierre Part","lon":-91.201902,"zip":"","librarysystem":"Assumption Parish Library","id":"a62g1e36q4ps","address":"3103 Highway 70 (Lee Drive)","lat":29.965935,"libraryname":"Pierre Part Branch","state":"LA"},"type":"Feature","geometry":{"type":"Point","coordinates":[-91.201902,29.965935]}},{"properties":{"city":"Franklinton","lon":-90.012872,"zip":"","librarysystem":"Washington Parish Library","id":"a62g1dt8is6w","address":"26513 Highway 62","lat":30.905118,"libraryname":"Pine Branch","state":"LA"},"type":"Feature","geometry":{"type":"Point","coordinates":[-90.012872,30.905118]}},{"properties":{"city":"Pine Prairie","lon":-92.425566,"zip":"","librarysystem":"Evangeline Parish Library","id":"a62g1dup7833","address":"1111walnut Street","lat":30.782785,"libraryname":"Pine Prairie Branch","state":"LA"},"type":"Feature","geometry":{"type":"Point","coordinates":[-92.425566,30.782785]}},{"properties":{"city":"Pitkin","lon":-92.935068,"zip":"","librarysystem":"Vernon Parish Library","id":"a62g1e3jyz1s","address":"7277 Highway 463 (P. O. Box 159)","lat":30.936828,"libraryname":"Pitkin Branch","state":"LA"},"type":"Feature","geometry":{"type":"Point","coordinates":[-92.935068,30.936828]}},{"properties":{"city":"Plain Dealing","lon":-93.699789,"zip":"","librarysystem":"Bossier Parish Library","id":"a62g1dw69wr4","address":"Mary Lee &amp; Lynch St.","lat":32.90655,"libraryname":"Plain Dealing Branch","state":"LA"},"type":"Feature","geometry":{"type":"Point","coordinates":[-93.699789,32.90655]}},{"properties":{"city":"Buras","lon":-89.528149,"zip":"","librarysystem":"Plaquemines Parish Library","id":"a62g1e547hl4","address":"35572 La Highway 11 South","lat":29.355145,"libraryname":"Plaquemines Parish Library","state":"LA"},"type":"Feature","geometry":{"type":"Point","coordinates":[-89.528149,29.355145]}},{"properties":{"city":"Plaucheville","lon":-91.981321,"zip":"","librarysystem":"Avoyelles Parish Library","id":"a62g1dxan8ep","address":"146 Gin Street","lat":30.965324,"libraryname":"Plaucheville Branch","state":"LA"},"type":"Feature","geometry":{"type":"Point","coordinates":[-91.981321,30.965324]}},{"properties":{"city":"Pleasant Hill","lon":-93.515449,"zip":"","librarysystem":"Sabine Parish Library","id":"a62g1dw9rnpd","address":"2112 West Main Street","lat":31.820635,"libraryname":"Pleasant Hill Branch","state":"LA"},"type":"Feature","geometry":{"type":"Point","coordinates":[-93.515449,31.820635]}},{"properties":{"city":"New Roads","lon":-91.439195,"zip":"","librarysystem":"Pointe Coupee Parish Library","id":"a62g1dvo97so","address":"201 Claiborne Street","lat":30.694057,"libraryname":"Pointe Coupee Parish Library","state":"LA"},"type":"Feature","geometry":{"type":"Point","coordinates":[-91.439195,30.694057]}},{"properties":{"city":"Pollock","lon":-92.406564,"zip":"","librarysystem":"Grant Parish Library","id":"a62g1dtbz5rg","address":"1316 Pine Street (P.O. Box 641)","lat":31.52405,"libraryname":"Pollock Branch","state":"LA"},"type":"Feature","geometry":{"type":"Point","coordinates":[-92.406564,31.52405]}},{"properties":{"city":"Ponchatoula","lon":-90.440051,"zip":"","librarysystem":"Tangipahoa Parish Library","id":"a62g1dvv5om0","address":"380 North 5th Street","lat":30.44129,"libraryname":"Ponchatoula Branch","state":"LA"},"type":"Feature","geometry":{"type":"Point","coordinates":[-90.440051,30.44129]}},{"properties":{"city":"Slidell","lon":-89.792548,"zip":"","librarysystem":"St. Tammany Parish Library","id":"a62g1dzjkzo8","address":"4002 Pontchartrain, #2","lat":30.249544,"libraryname":"Pontchartrain Branch","state":"LA"},"type":"Feature","geometry":{"type":"Point","coordinates":[-89.792548,30.249544]}},{"properties":{"city":"Port Sulphur","lon":-89.695036,"zip":"","librarysystem":"Plaquemines Parish Library","id":"a62g1dt6tkso","address":"138 Civic Drive (Route 2, Box 99)","lat":29.479516,"libraryname":"Port Sulphur Branch","state":"LA"},"type":"Feature","geometry":{"type":"Point","coordinates":[-89.695036,29.479516]}},{"properties":{"city":"Pride","lon":-90.98081,"zip":"","librarysystem":"East Baton Rouge Parish Library","id":"a62g1e32t3vh","address":"16477 Pride-Port Hudson Road","lat":30.693526,"libraryname":"Pride Branch","state":"LA"},"type":"Feature","geometry":{"type":"Point","coordinates":[-90.98081,30.693526]}},{"properties":{"city":"Raceland","lon":-90.597783,"zip":"","librarysystem":"Lafourche Parish Public Library","id":"a62g1dupvys0","address":"104 Mississippi St","lat":29.728918,"libraryname":"Raceland Branch","state":"LA"},"type":"Feature","geometry":{"type":"Point","coordinates":[-90.597783,29.728918]}},{"properties":{"city":"Ragley","lon":-93.232271,"zip":"","librarysystem":"Beauregard Parish Library","id":"a62g1e4wamyd","address":"6715 Highway 12","lat":30.510083,"libraryname":"Ragley South Branch","state":"LA"},"type":"Feature","geometry":{"type":"Point","coordinates":[-93.232271,30.510083]}},{"properties":{"city":"Alexandria","lon":-92.444119,"zip":"","librarysystem":"Rapides Parish Library","id":"a62g1dvqlib9","address":"411 Washington Street","lat":31.309657,"libraryname":"Rapides Parish Library","state":"LA"},"type":"Feature","geometry":{"type":"Point","coordinates":[-92.444119,31.309657]}},{"properties":{"city":"Rayne","lon":-92.268907,"zip":"","librarysystem":"Acadia Parish Library","id":"a62g1dyifo46","address":"109 West Perrodin Street","lat":30.232898,"libraryname":"Rayne Branch","state":"LA"},"type":"Feature","geometry":{"type":"Point","coordinates":[-92.268907,30.232898]}},{"properties":{"city":"Coushatta","lon":-93.340358,"zip":"","librarysystem":"Red River Parish Library","id":"a62g1dwgervl","address":"2022 Alonzo Carroll Street","lat":32.014977,"libraryname":"Red River Parish Library","state":"LA"},"type":"Feature","geometry":{"type":"Point","coordinates":[-93.340358,32.014977]}},{"properties":{"city":"Reserve","lon":-90.56389,"zip":"","librarysystem":"St. John The Baptist Parish Library","id":"a62g1e56q7ob","address":"170 West 10th Street","lat":30.057704,"libraryname":"Reserve Branch","state":"LA"},"type":"Feature","geometry":{"type":"Point","coordinates":[-90.56389,30.057704]}},{"properties":{"city":"Rayville","lon":-91.758063,"zip":"","librarysystem":"Richland Parish Library","id":"a62g1dz7jyte","address":"910 Louisa Street","lat":32.474034,"libraryname":"Richland Parish Library","state":"LA"},"type":"Feature","geometry":{"type":"Point","coordinates":[-91.758063,32.474034]}},{"properties":{"city":"New Orleans","lon":-90.107745,"zip":"","librarysystem":"New Orleans Public Library","id":"a62g1e2q9fts","address":"6301 Canal Boulevard","lat":30.004864,"libraryname":"Robert E. Smith Branch","state":"LA"},"type":"Feature","geometry":{"type":"Point","coordinates":[-90.107745,30.004864]}},{"properties":{"city":"Rodessa","lon":-93.992937,"zip":"","librarysystem":"Shreve Memorial Library","id":"a62g1dxtm23n","address":"10093 Main Street","lat":32.97209,"libraryname":"Rodessa Branch","state":"LA"},"type":"Feature","geometry":{"type":"Point","coordinates":[-93.992937,32.97209]}},{"properties":{"city":"Rosedale","lon":-91.433839,"zip":"","librarysystem":"Iberville Parish Library","id":"a62g1ds9kcdg","address":"15695 Rosedale Rd","lat":30.45317,"libraryname":"Rosedale Branch","state":"LA"},"type":"Feature","geometry":{"type":"Point","coordinates":[-91.433839,30.45317]}},{"properties":{"city":"Jefferson","lon":-90.168366,"zip":"","librarysystem":"Jefferson Parish Library","id":"a62g1dzevwgz","address":"4036 Jefferson Highway","lat":29.96155,"libraryname":"Rosedale Branch","state":"LA"},"type":"Feature","geometry":{"type":"Point","coordinates":[-90.168366,29.96155]}},{"properties":{"city":"Many","lon":-93.483859,"zip":"","librarysystem":"Sabine Parish Library","id":"a62g1e11m1ez","address":"750 W. Main Street","lat":31.567582,"libraryname":"Sabine Parish Library","state":"LA"},"type":"Feature","geometry":{"type":"Point","coordinates":[-93.483859,31.567582]}},{"properties":{"city":"Saline","lon":-92.974494,"zip":"","librarysystem":"Bienville Parish Library","id":"a62g1e22kcdc","address":"920 Cooper Street","lat":32.164396,"libraryname":"Saline Branch","state":"LA"},"type":"Feature","geometry":{"type":"Point","coordinates":[-92.974494,32.164396]}},{"properties":{"city":"Sarepta","lon":-93.450551,"zip":"","librarysystem":"Webster Parish Library","id":"a62g1dxez2np","address":"24448 Highway 7 (P.O. Box 127)","lat":32.896532,"libraryname":"Sarepta Branch","state":"LA"},"type":"Feature","geometry":{"type":"Point","coordinates":[-93.450551,32.896532]}},{"properties":{"city":"Baton Rouge","lon":-91.177587,"zip":"","librarysystem":"East Baton Rouge Parish Library","id":"a62g1e056nu3","address":"1492 Harding Boulevard","lat":30.520364,"libraryname":"Scotlandville Branch","state":"LA"},"type":"Feature","geometry":{"type":"Point","coordinates":[-91.177587,30.520364]}},{"properties":{"city":"Scott","lon":-92.09405,"zip":"","librarysystem":"Lafayette Parish Library","id":"a62g1dxd32b3","address":"5808 West Cameron Street","lat":30.233683,"libraryname":"Scott Branch","state":"LA"},"type":"Feature","geometry":{"type":"Point","coordinates":[-92.09405,30.233683]}},{"properties":{"city":"Shreveport","lon":-93.749135,"zip":"","librarysystem":"Shreve Memorial Library","id":"a62g1du3o2zp","address":"424 Texas Street","lat":32.5135,"libraryname":"Shreve Memorial Library","state":"LA"},"type":"Feature","geometry":{"type":"Point","coordinates":[-93.749135,32.5135]}},{"properties":{"city":"Sicily Island","lon":-91.656999,"zip":"","librarysystem":"Catahoula Parish Library","id":"a62g1dumi2nz","address":"Main Street","lat":31.846665,"libraryname":"Sicily Island Branch","state":"LA"},"type":"Feature","geometry":{"type":"Point","coordinates":[-91.656999,31.846665]}},{"properties":{"city":"Sikes","lon":-92.487149,"zip":"","librarysystem":"Winn Parish Library","id":"a62g1dv3hwdw","address":"125 Fifth Street","lat":32.080015,"libraryname":"Sikes Branch","state":"LA"},"type":"Feature","geometry":{"type":"Point","coordinates":[-92.487149,32.080015]}},{"properties":{"city":"Simmesport","lon":-91.80788,"zip":"","librarysystem":"Avoyelles Parish Library","id":"a62g1dzhuwe2","address":"461 Main Street","lat":30.987282,"libraryname":"Simmesport Branch","state":"LA"},"type":"Feature","geometry":{"type":"Point","coordinates":[-91.80788,30.987282]}},{"properties":{"city":"Singer","lon":-93.413449,"zip":"","librarysystem":"Beauregard Parish Library","id":"a62g1e5u504b","address":"9130 Highway 27","lat":30.653116,"libraryname":"Singer South Centralbranch","state":"LA"},"type":"Feature","geometry":{"type":"Point","coordinates":[-93.413449,30.653116]}},{"properties":{"city":"Slidell","lon":-89.758885,"zip":"","librarysystem":"St. Tammany Parish Library","id":"a62g1e262okg","address":"555 Robert Boulevard","lat":30.299088,"libraryname":"Slidell Branch","state":"LA"},"type":"Feature","geometry":{"type":"Point","coordinates":[-89.758885,30.299088]}},{"properties":{"city":"Ringgold","lon":-93.287423,"zip":"","librarysystem":"Bienville Parish Library","id":"a62g1dy8t08g","address":"2078 Hall Street","lat":32.329044,"libraryname":"South Bienville Ringold Branch","state":"LA"},"type":"Feature","geometry":{"type":"Point","coordinates":[-93.287423,32.329044]}},{"properties":{"city":"Sunset","lon":-92.064925,"zip":"","librarysystem":"South St. Landry Community Library","id":"a62g1e6jxvyz","address":"235 Marie Street","lat":30.411822,"libraryname":"South St. Landry Community Library","state":"LA"},"type":"Feature","geometry":{"type":"Point","coordinates":[-92.064925,30.411822]}},{"properties":{"city":"Lafayette","lon":-92.072331,"zip":"","librarysystem":"Lafayette Parish Library","id":"a62g1dzfgcj1","address":"5417 Johnston Street","lat":30.180112,"libraryname":"Southside Branch","state":"LA"},"type":"Feature","geometry":{"type":"Point","coordinates":[-92.072331,30.180112]}},{"properties":{"city":"Lake Charles","lon":-93.215693,"zip":"","librarysystem":"Calcasieu Parish Library","id":"a62g1dtsgoev","address":"411 Pujo Street","lat":30.227689,"libraryname":"Southwest La Genealogical &amp; Historical Lib","state":"LA"},"type":"Feature","geometry":{"type":"Point","coordinates":[-93.215693,30.227689]}},{"properties":{"city":"Springfield","lon":-90.545623,"zip":"","librarysystem":"Livingston Parish Library","id":"a62g1e1b9lfi","address":"31626 Highway 22","lat":30.427467,"libraryname":"Springfield Branch","state":"LA"},"type":"Feature","geometry":{"type":"Point","coordinates":[-90.545623,30.427467]}},{"properties":{"city":"Chalmette","lon":-89.957235,"zip":"","librarysystem":"St. Bernard Parish Library","id":"a62g1e3ym3uf","address":"1125 East St. Bernard Highway","lat":29.932028,"libraryname":"St. Bernard Parish Library","state":"LA"},"type":"Feature","geometry":{"type":"Point","coordinates":[-89.957235,29.932028]}},{"properties":{"city":"Luling","lon":-90.345214,"zip":"","librarysystem":"St. Charles Parish Library","id":"a62g1e1hfwea","address":"105 Lakewood Drive","lat":29.911839,"libraryname":"St. Charles Parish Library","state":"LA"},"type":"Feature","geometry":{"type":"Point","coordinates":[-90.345214,29.911839]}},{"properties":{"city":"Greensburg","lon":-90.667159,"zip":"","librarysystem":"Audubon Regional Library","id":"a62g1dskalko","address":"Oak Plaza Shopping Center","lat":30.829415,"libraryname":"St. Helena Branch","state":"LA"},"type":"Feature","geometry":{"type":"Point","coordinates":[-90.667159,30.829415]}},{"properties":{"city":"Lutcher","lon":-90.700254,"zip":"","librarysystem":"St. James Parish Library","id":"a62g1dzequkm","address":"1879 West Main Street","lat":30.039687,"libraryname":"St. James Parish Library","state":"LA"},"type":"Feature","geometry":{"type":"Point","coordinates":[-90.700254,30.039687]}},{"properties":{"city":"Laplace","lon":-90.492923,"zip":"","librarysystem":"St. John The Baptist Parish Library","id":"a62g1e2qnkr6","address":"1334 West Airline Highway","lat":30.072093,"libraryname":"St. John The Baptist Parish Library","state":"LA"},"type":"Feature","geometry":{"type":"Point","coordinates":[-90.492923,30.072093]}},{"properties":{"city":"St. Martinville","lon":-91.82853,"zip":"","librarysystem":"St. Martin Parish Library","id":"a62g1ds1ryew","address":"201 Porter Street","lat":30.129451,"libraryname":"St. Martin Parish Library","state":"LA"},"type":"Feature","geometry":{"type":"Point","coordinates":[-91.82853,30.129451]}},{"properties":{"city":"Franklin","lon":-91.502171,"zip":"","librarysystem":"St. Mary Parish Library","id":"a62g1dx819uz","address":"206 Iberia Street","lat":29.796152,"libraryname":"St. Mary Parish Library","state":"LA"},"type":"Feature","geometry":{"type":"Point","coordinates":[-91.502171,29.796152]}},{"properties":{"city":"St. Rose","lon":-90.306139,"zip":"","librarysystem":"St. Charles Parish Library","id":"a62g1dtz36w3","address":"90 East Club Drive","lat":29.96024,"libraryname":"St. Rose Branch","state":"LA"},"type":"Feature","geometry":{"type":"Point","coordinates":[-90.306139,29.96024]}},{"properties":{"city":"Covington","lon":-90.102848,"zip":"","librarysystem":"St. Tammany Parish Library","id":"a62g1dqvpqm1","address":"310 West 21st Avenue","lat":30.476682,"libraryname":"St. Tammany Parish Library","state":"LA"},"type":"Feature","geometry":{"type":"Point","coordinates":[-90.102848,30.476682]}},{"properties":{"city":"Starks","lon":-93.661996,"zip":"","librarysystem":"Calcasieu Parish Library","id":"a62g1e49jbl9","address":"113 South Highway 109","lat":30.318705,"libraryname":"Starks Branch","state":"LA"},"type":"Feature","geometry":{"type":"Point","coordinates":[-93.661996,30.318705]}},{"properties":{"city":"Morgan City","lon":-91.174855,"zip":"","librarysystem":"St. Martin Parish Library","id":"a62g1drlvulg","address":"3243 Highway 70","lat":29.75892,"libraryname":"Stephensville Branch","state":"LA"},"type":"Feature","geometry":{"type":"Point","coordinates":[-91.174855,29.75892]}},{"properties":{"city":"Stonewall","lon":-93.823773,"zip":"","librarysystem":"Desoto Parish Library","id":"a62g1dxi2beo","address":"1460 Highway 171","lat":32.264826,"libraryname":"Stonewall Branch","state":"LA"},"type":"Feature","geometry":{"type":"Point","coordinates":[-93.823773,32.264826]}},{"properties":{"city":"Sulphur","lon":-93.364655,"zip":"","librarysystem":"Calcasieu Parish Library","id":"a62g1dw3wuvh","address":"1160 Cypress Street","lat":30.231196,"libraryname":"Sulphur Branch","state":"LA"},"type":"Feature","geometry":{"type":"Point","coordinates":[-93.364655,30.231196]}},{"properties":{"city":"Amite","lon":-90.506029,"zip":"","librarysystem":"Tangipahoa Parish Library","id":"a62g1e1nv5bc","address":"200 East Mulberry Street","lat":30.727931,"libraryname":"Tangipahoa Parish Genealogy Library &amp; Administration Office","state":"LA"},"type":"Feature","geometry":{"type":"Point","coordinates":[-90.506029,30.727931]}},{"properties":{"city":"Amite","lon":-90.519158,"zip":"","librarysystem":"Tangipahoa Parish Library","id":"a62g1dqkvjdr","address":"739 West Oak Street","lat":30.726417,"libraryname":"Tangipahoa Parish Main Library","state":"LA"},"type":"Feature","geometry":{"type":"Point","coordinates":[-90.519158,30.726417]}},{"properties":{"city":"St. Joseph","lon":-91.243797,"zip":"","librarysystem":"Tensas Parish Library","id":"a62g1e01asyc","address":"135 Plank Road","lat":31.926271,"libraryname":"Tensas Parish Library","state":"LA"},"type":"Feature","geometry":{"type":"Point","coordinates":[-91.243797,31.926271]}},{"properties":{"city":"Houma","lon":-90.725291,"zip":"","librarysystem":"Terrebonne Parish Library","id":"a62g1dz11pgi","address":"151 Civic Center Boulevard","lat":29.5797,"libraryname":"Terrebonne Parish Library","state":"LA"},"type":"Feature","geometry":{"type":"Point","coordinates":[-90.725291,29.5797]}},{"properties":{"city":"Gretna","lon":-90.035263,"zip":"","librarysystem":"Jefferson Parish Library","id":"a62g1dz4937d","address":"680 Heritage Avenue","lat":29.904297,"libraryname":"Terrytown Branch","state":"LA"},"type":"Feature","geometry":{"type":"Point","coordinates":[-90.035263,29.904297]}},{"properties":{"city":"Franklinton","lon":-90.028773,"zip":"","librarysystem":"Washington Parish Library","id":"a62g1e1dmoeo","address":"30390 Highway 424","lat":30.966694,"libraryname":"Thomas Branch","state":"LA"},"type":"Feature","geometry":{"type":"Point","coordinates":[-90.028773,30.966694]}},{"properties":{"city":"Many","lon":-93.659663,"zip":"","librarysystem":"Sabine Parish Library","id":"a62g1e2zt5lv","address":"12224 Texas Highway","lat":31.495064,"libraryname":"Toledo Branch","state":"LA"},"type":"Feature","geometry":{"type":"Point","coordinates":[-93.659663,31.495064]}},{"properties":{"city":"Farmerville","lon":-92.406124,"zip":"","librarysystem":"Union Parish Library","id":"a62g1dtowps6","address":"202 West Jackson Street","lat":32.774714,"libraryname":"Union Parish Library","state":"LA"},"type":"Feature","geometry":{"type":"Point","coordinates":[-92.406124,32.774714]}},{"properties":{"city":"Angie","lon":-89.835359,"zip":"","librarysystem":"Washington Parish Library","id":"a62g1dy31p02","address":"63086 Main Street","lat":30.89504,"libraryname":"Varnado Branch","state":"LA"},"type":"Feature","geometry":{"type":"Point","coordinates":[-89.835359,30.89504]}},{"properties":{"city":"Kaplan","lon":-92.490927,"zip":"","librarysystem":"Vermilion Parish Library","id":"a62g1e51mqs8","address":"28736 West La Highway 82","lat":29.654158,"libraryname":"Vaughn-Copel Pecan Island Branch","state":"LA"},"type":"Feature","geometry":{"type":"Point","coordinates":[-92.490927,29.654158]}},{"properties":{"city":"Abbeville","lon":-92.131977,"zip":"","librarysystem":"Vermilion Parish Library","id":"a62g1dujexbm","address":"405 East St. Victor Street","lat":29.974658,"libraryname":"Vermilion Parish Library","state":"LA"},"type":"Feature","geometry":{"type":"Point","coordinates":[-92.131977,29.974658]}},{"properties":{"city":"Leesville","lon":-93.281897,"zip":"","librarysystem":"Vernon Parish Library","id":"a62g1dzmz42l","address":"1401 Nolan Trace","lat":31.142742,"libraryname":"Vernon Parish Library","state":"LA"},"type":"Feature","geometry":{"type":"Point","coordinates":[-93.281897,31.142742]}},{"properties":{"city":"Vidalia","lon":-91.42858,"zip":"","librarysystem":"Concordia Parish Library","id":"a62g1ds98z37","address":"405 Carter Street","lat":31.566858,"libraryname":"Vidalia Branch","state":"LA"},"type":"Feature","geometry":{"type":"Point","coordinates":[-91.42858,31.566858]}},{"properties":{"city":"Metairie","lon":-90.217454,"zip":"","librarysystem":"Jefferson Parish Library","id":"a62g1e0vxpsr","address":"6612 Kawanee Avenue","lat":30.012054,"libraryname":"Wagner Branch","state":"LA"},"type":"Feature","geometry":{"type":"Point","coordinates":[-90.217454,30.012054]}},{"properties":{"city":"Shreveport","lon":-93.780049,"zip":"","librarysystem":"Shreve Memorial Library","id":"a62g1e4szpgo","address":"363 Hearne Avenue","lat":32.508067,"libraryname":"Wallette Lakeside Branch","state":"LA"},"type":"Feature","geometry":{"type":"Point","coordinates":[-93.780049,32.508067]}},{"properties":{"city":"Franklinton","lon":-90.159304,"zip":"","librarysystem":"Washington Parish Library","id":"a62g1e6zwt6o","address":"825 Free Street","lat":30.848811,"libraryname":"Washington Parish Library","state":"LA"},"type":"Feature","geometry":{"type":"Point","coordinates":[-90.159304,30.848811]}},{"properties":{"city":"Watson","lon":-90.951739,"zip":"","librarysystem":"Livingston Parish Library","id":"a62g1dz6vat7","address":"34917 Highway 16","lat":30.575675,"libraryname":"Watson Branch","state":"LA"},"type":"Feature","geometry":{"type":"Point","coordinates":[-90.951739,30.575675]}},{"properties":{"city":"Minden","lon":-93.284383,"zip":"","librarysystem":"Webster Parish Library","id":"a62g1dw4ga1g","address":"521 East &amp; West Street","lat":32.608795,"libraryname":"Webster Parish Library","state":"LA"},"type":"Feature","geometry":{"type":"Point","coordinates":[-93.284383,32.608795]}},{"properties":{"city":"Harvey","lon":-90.047808,"zip":"","librarysystem":"Jefferson Parish Library","id":"a62g1dx3yi7a","address":"2751 Manhattan Boulevard","lat":29.871444,"libraryname":"West Bank Regional Branch","state":"LA"},"type":"Feature","geometry":{"type":"Point","coordinates":[-90.047808,29.871444]}},{"properties":{"city":"Port Allen","lon":-91.210358,"zip":"","librarysystem":"West Baton Rouge Parish Library","id":"a62g1drsrc5q","address":"830 North Alexander Avenue","lat":30.459678,"libraryname":"West Baton Rouge Parish Library","state":"LA"},"type":"Feature","geometry":{"type":"Point","coordinates":[-91.210358,30.459678]}},{"properties":{"city":"Oak Grove","lon":-91.389793,"zip":"","librarysystem":"West Carroll Parish Library","id":"a62g1dtfh8hp","address":"101 Marietta Street At Highway 17","lat":32.859848,"libraryname":"West Carroll Parish Library","state":"LA"},"type":"Feature","geometry":{"type":"Point","coordinates":[-91.389793,32.859848]}},{"properties":{"city":"Baldwin","lon":-91.541449,"zip":"","librarysystem":"St. Mary Parish Library","id":"a62g1dtgm6vn","address":"100 Charenton Road","lat":29.84328,"libraryname":"West End Branch","state":"LA"},"type":"Feature","geometry":{"type":"Point","coordinates":[-91.541449,29.84328]}},{"properties":{"city":"New Iberia","lon":-91.817594,"zip":"","librarysystem":"Iberia Parish Library","id":"a62g1e1y4syu","address":"M. L. King, Jr Park, 1200 Field St.","lat":30.005135,"libraryname":"West End Park Branch","state":"LA"},"type":"Feature","geometry":{"type":"Point","coordinates":[-91.817594,30.005135]}},{"properties":{"city":"St. Francisville","lon":-91.378719,"zip":"","librarysystem":"Audubon Regional Library","id":"a62g1du1719n","address":"11865 Ferdinand Street","lat":30.779065,"libraryname":"West Feliciana Branch","state":"LA"},"type":"Feature","geometry":{"type":"Point","coordinates":[-91.378719,30.779065]}},{"properties":{"city":"West Monroe","lon":-92.126791,"zip":"","librarysystem":"Ouachita Parish Library","id":"a62g1du1py3j","address":"315 Cypress Street","lat":32.501705,"libraryname":"West Monroe Branch","state":"LA"},"type":"Feature","geometry":{"type":"Point","coordinates":[-92.126791,32.501705]}},{"properties":{"city":"West Monroe","lon":-92.245844,"zip":"","librarysystem":"Ouachita Parish Library","id":"a62g1e3a8vq3","address":"188 Highway 546","lat":32.516083,"libraryname":"West Ouachita Branch","state":"LA"},"type":"Feature","geometry":{"type":"Point","coordinates":[-92.245844,32.516083]}},{"properties":{"city":"Shreveport","lon":-93.863413,"zip":"","librarysystem":"Shreve Memorial Library","id":"a62g1e0e7601","address":"6723 Pines Road, Suite 110","lat":32.446989,"libraryname":"West Shreveport Branch","state":"LA"},"type":"Feature","geometry":{"type":"Point","coordinates":[-93.863413,32.446989]}},{"properties":{"city":"Vacharie","lon":-90.724749,"zip":"","librarysystem":"St. James Parish Library","id":"a62g1dule5gu","address":"2631 Highway 20 W (P.O. Box 190)","lat":29.993706,"libraryname":"West St. James Branch","state":"LA"},"type":"Feature","geometry":{"type":"Point","coordinates":[-90.724749,29.993706]}},{"properties":{"city":"Edgard","lon":-90.582454,"zip":"","librarysystem":"St. John The Baptist Parish Library","id":"a62g1e55dhci","address":"2979 Highway 18","lat":30.046448,"libraryname":"West St. John Branch","state":"LA"},"type":"Feature","geometry":{"type":"Point","coordinates":[-90.582454,30.046448]}},{"properties":{"city":"Westlake","lon":-93.260576,"zip":"","librarysystem":"Calcasieu Parish Library","id":"a62g1dt7hfbz","address":"937 Mulberry Street","lat":30.253042,"libraryname":"Westlake Branch","state":"LA"},"type":"Feature","geometry":{"type":"Point","coordinates":[-93.260576,30.253042]}},{"properties":{"city":"Westwego","lon":-90.141446,"zip":"","librarysystem":"Jefferson Parish Library","id":"a62g1drbfkg9","address":"635 Fourth Street","lat":29.907465,"libraryname":"Westwego Branch","state":"LA"},"type":"Feature","geometry":{"type":"Point","coordinates":[-90.141446,29.907465]}},{"properties":{"city":"White Castle","lon":-91.155588,"zip":"","librarysystem":"Iberville Parish Library","id":"a62g1dw9m7og","address":"32835 Bowie Street","lat":30.144613,"libraryname":"White Castle Branch","state":"LA"},"type":"Feature","geometry":{"type":"Point","coordinates":[-91.155588,30.144613]}},{"properties":{"city":"Springhill","lon":-93.461104,"zip":"","librarysystem":"Webster Parish Library","id":"a62g1e3wfdm1","address":"217 North Main Street","lat":33.003937,"libraryname":"Willie &amp; Mary Mack Memorial Branch","state":"LA"},"type":"Feature","geometry":{"type":"Point","coordinates":[-93.461104,33.003937]}},{"properties":{"city":"Winnfield","lon":-92.639777,"zip":"","librarysystem":"Winn Parish Library","id":"a62g1e1incre","address":"205 West Main Street","lat":31.926591,"libraryname":"Winn Parish Library","state":"LA"},"type":"Feature","geometry":{"type":"Point","coordinates":[-92.639777,31.926591]}},{"properties":{"city":"Wisner","lon":-91.655811,"zip":"","librarysystem":"Franklin Parish Library","id":"a62g1dzzr90d","address":"129 Fort Scott St.","lat":31.980333,"libraryname":"Wisner Branch","state":"LA"},"type":"Feature","geometry":{"type":"Point","coordinates":[-91.655811,31.980333]}},{"properties":{"city":"Youngsville","lon":-91.990434,"zip":"","librarysystem":"Lafayette Parish Library","id":"a62g1dz3vckf","address":"506 Lafayette Street","lat":30.103467,"libraryname":"Youngsville Branch","state":"LA"},"type":"Feature","geometry":{"type":"Point","coordinates":[-91.990434,30.103467]}},{"properties":{"city":"Zachary","lon":-91.151026,"zip":"","librarysystem":"East Baton Rouge Parish Library","id":"a62g1e5yc6bh","address":"5055 East Mae","lat":30.647009,"libraryname":"Zachary Branch","state":"LA"},"type":"Feature","geometry":{"type":"Point","coordinates":[-91.151026,30.647009]}},{"properties":{"city":"Zwolle","lon":-93.642639,"zip":"","librarysystem":"Sabine Parish Library","id":"a62g1e0zip0q","address":"2218 Port Arthur Avenue","lat":31.63079,"libraryname":"Zwolle Branch","state":"LA"},"type":"Feature","geometry":{"type":"Point","coordinates":[-93.642639,31.63079]}}],"is_temporal":false,"author":{"url":"http://www.publiclibraries.com/louisiana.htm","metadata":"","contact_name":"","contact_address":"","source":"publiclibrairies.com","contact_phone":""},"source":"http://www.publiclibraries.com/louisiana.htm","pagination":{"sort":null,"start":0,"total":335,"limit":1000000},"state":"complete","tags":"books,education,libraries,library,louisiana,public","published":"2008-05-09T12:00:00Z","id":899}