{"type":"FeatureCollection","data_type":"Dataset","url_type":null,"permissions":[{"permissions":{"download":true,"view":true},"group_id":"everyone"}],"classification":null,"title":"publiclibraries.com, Maryland Public Libraries, Maryland, 1.2008","count":178,"stream_id":903,"contributor":{"url":"http://geocommons.com/users/2","name":"data"},"data_attributes":null,"calculation_params":null,"icon_link":null,"link":"http://geocommons.com/overlays/903.json","extent":[-79.407,37.9814,-75.0807,39.7097],"geometry_types":["point"],"unique_name":null,"name":"publiclibraries.com, Maryland Public Libraries, Maryland, 1.2008","feature_count":178,"description":"This dataset displays the locations of all the public libraries in the state of Maryland. The data included is the name of the library, name of the library system, library's address, phone, and lat/lon coordinates. The data came from publiclibraries.com which is a updated directory of all the public libraries throughout the United States.\n","next_feature":null,"is_raster":false,"short_classification":"Y","stats":{"lon":{"max":-75.080653,"mean":-76.7775187865169,"variance":0.592912203985593,"stdev":0.77000792462519,"min":-79.406983,"median":-76.663338},"zip":{"max":21921,"mean":21211.797752809,"variance":145388.071859328,"stdev":381.297878120674,"min":20602,"median":21211},"lat":{"max":39.709672,"mean":39.1243741123596,"variance":0.151329321873343,"stdev":0.389010696348241,"min":37.981417,"median":39.200952}},"features":[{"properties":{"city":"Aberdeen","lon":-76.164177,"zip":21001,"librarysystem":"Harford County Library","phone":"Phone: 410-273-5608","id":"a672lqgnxpyz","address":"21 Franklin Street","lat":39.512307,"libraryname":"Aberdeen Branch Library","state":"MD"},"type":"Feature","geometry":{"type":"Point","coordinates":[-76.164177,39.512307]}},{"properties":{"city":"Abingdon","lon":-76.327606,"zip":21009,"librarysystem":"Harford County Library","phone":"Phone: 410-638-3990","id":"a672lqtc93c4","address":"2510 Tollgate Road","lat":39.482061,"libraryname":"Abingdon Branch Library","state":"MD"},"type":"Feature","geometry":{"type":"Point","coordinates":[-76.327606,39.482061]}},{"properties":{"city":"Accident","lon":-79.320648,"zip":21520,"librarysystem":"Garrett County Library","phone":"Phone: 301-746-8792","id":"a672lqmoqst2","address":"106 S. North Street","lat":39.629124,"libraryname":"Accident Branch Library","state":"MD"},"type":"Feature","geometry":{"type":"Point","coordinates":[-79.320648,39.629124]}},{"properties":{"city":"Accokeek","lon":-77.006505,"zip":20607,"librarysystem":"Prince George County Library","phone":"Phone: 301-292-2880","id":"a672lqjmlzru","address":"15773 Livingston Rd.","lat":38.669682,"libraryname":"Accokeek Branch Library","state":"MD"},"type":"Feature","geometry":{"type":"Point","coordinates":[-77.006505,38.669682]}},{"properties":{"city":"Annapolis","lon":-76.515407,"zip":21401,"librarysystem":"Anne Arundel County Public Library","phone":"Phone: 410-222-1750","id":"a672lqf9dhqc","address":"1410 West Street","lat":38.978245,"libraryname":"Annapolis Area Library","state":"MD"},"type":"Feature","geometry":{"type":"Point","coordinates":[-76.515407,38.978245]}},{"properties":{"city":"Baltimore","lon":-76.687478,"zip":21227,"librarysystem":"Baltimore County Library","phone":"Phone: 410-887-1451","id":"a672lqrif3fp","address":"1581 Sulphur Spring Rd., Suite 105","lat":39.249048,"libraryname":"Arbutus Library","state":"MD"},"type":"Feature","geometry":{"type":"Point","coordinates":[-76.687478,39.249048]}},{"properties":{"city":"Rockville","lon":-77.087596,"zip":20853,"librarysystem":"Montgomery County Library","phone":"Phone: 240-773-9410","id":"a672lqhy94rt","address":"4407 Aspen Hill Road","lat":39.079333,"libraryname":"Aspen Hill Branch Library","state":"MD"},"type":"Feature","geometry":{"type":"Point","coordinates":[-77.087596,39.079333]}},{"properties":{"city":"Hyattsville","lon":-76.949227,"zip":20782,"librarysystem":"Prince George County Library","phone":"Phone: 301-985-4697","id":"a672lqq04v0y","address":"6530 Adelphi Rd.","lat":38.968874,"libraryname":"Audio Visual Division","state":"MD"},"type":"Feature","geometry":{"type":"Point","coordinates":[-76.949227,38.968874]}},{"properties":{"city":"Brandywine","lon":-76.771291,"zip":20613,"librarysystem":"Prince George County Library","phone":"Phone: 301-888-1152","id":"a672lqfxjs4t","address":"13603 Baden-Westwood Road","lat":38.660599,"libraryname":"Baden Branch Library","state":"MD"},"type":"Feature","geometry":{"type":"Point","coordinates":[-76.771291,38.660599]}},{"properties":{"city":"Bel Air","lon":-76.348138,"zip":21014,"librarysystem":"Harford County Library","phone":"Phone: 410-638-3151","id":"a672lqfd0qeo","address":"100 E. Pennsylvania Ave","lat":39.537675,"libraryname":"Bel Air Branch Library","state":"MD"},"type":"Feature","geometry":{"type":"Point","coordinates":[-76.348138,39.537675]}},{"properties":{"city":"Beltsville","lon":-76.918807,"zip":20705,"librarysystem":"Prince George County Library","phone":"Tel: 301-937-0294","id":"a672lqf9ykqs","address":"4319 Sellman Rd.","lat":39.035095,"libraryname":"Beltsville Branch Library","state":"MD"},"type":"Feature","geometry":{"type":"Point","coordinates":[-76.918807,39.035095]}},{"properties":{"city":"Berlin","lon":-75.220498,"zip":21811,"librarysystem":"Worcester County Library","phone":"Phone: 410-641-0650","id":"a672lqi46wwe","address":"220 North Main St.","lat":38.327901,"libraryname":"Berlin Branch Library","state":"MD"},"type":"Feature","geometry":{"type":"Point","coordinates":[-75.220498,38.327901]}},{"properties":{"city":"Bethesda","lon":-77.098707,"zip":20814,"librarysystem":"Montgomery County Library","phone":"Phone: 240-777-0970","id":"a672lqmrago5","address":"7400 Arlington Rd.","lat":38.983481,"libraryname":"Bethesda Branch Library","state":"MD"},"type":"Feature","geometry":{"type":"Point","coordinates":[-77.098707,38.983481]}},{"properties":{"city":"Bivalve","lon":-75.88017,"zip":21814,"librarysystem":"Wicomico County Library","phone":"Phone: 410-873-2993","id":"a672lqnhr9xa","address":"Bivalve Lodge Road","lat":38.30303,"libraryname":"Bivalve Station Library","state":"MD"},"type":"Feature","geometry":{"type":"Point","coordinates":[-75.88017,38.30303]}},{"properties":{"city":"Bladensburg","lon":-76.935644,"zip":20710,"librarysystem":"Prince George County Library","phone":"Phone: 301-927-4916","id":"a672lqjewgaz","address":"4820 Annapolis Rd.","lat":38.939503,"libraryname":"Bladensburg Branch Library","state":"MD"},"type":"Feature","geometry":{"type":"Point","coordinates":[-76.935644,38.939503]}},{"properties":{"city":"LaVale","lon":-78.818491,"zip":21502,"librarysystem":"Allegheny County Library","phone":"Phone: 240-727-0745","id":"a672lqrt301l","address":"815 National Highway","lat":39.648508,"libraryname":"Bookmobile","state":"MD"},"type":"Feature","geometry":{"type":"Point","coordinates":[-78.818491,39.648508]}},{"properties":{"city":"Bowie","lon":-76.743,"zip":20715,"librarysystem":"Prince George County Library","phone":"Phone: 301-262-7000","id":"a672lqnsszeu","address":"15210 Annapolis Road","lat":38.977311,"libraryname":"Bowie Branch Library","state":"MD"},"type":"Feature","geometry":{"type":"Point","coordinates":[-76.743,38.977311]}},{"properties":{"city":"Annapolis","lon":-76.456572,"zip":21401,"librarysystem":"Anne Arundel County Public Library","phone":"Phone: 410-222-1905","id":"a672lqnn2y2a","address":"1275 Green Holly Drive","lat":39.037469,"libraryname":"Broadneck Branch","state":"MD"},"type":"Feature","geometry":{"type":"Point","coordinates":[-76.456572,39.037469]}},{"properties":{"city":"Baltimore","lon":-76.593797,"zip":21231,"librarysystem":"Baltimore City Library","phone":"Phone: 410-396-0970","id":"a672lqq8qphg","address":"301 N. Broadway","lat":39.29463,"libraryname":"Broadway Branch / Pratt Center for Technology Training","state":"MD"},"type":"Feature","geometry":{"type":"Point","coordinates":[-76.593797,39.29463]}},{"properties":{"city":"Baltimore","lon":-76.606878,"zip":21225,"librarysystem":"Baltimore City Library","phone":"Phone: 410-396-1120","id":"a672lqm946rd","address":"300 E. Patapsco Avenue","lat":39.23781,"libraryname":"Brooklyn Branch","state":"MD"},"type":"Feature","geometry":{"type":"Point","coordinates":[-76.606878,39.23781]}},{"properties":{"city":"Baltimore","lon":-76.613437,"zip":21225,"librarysystem":"Anne Arundel County Public Library","phone":"Phone: 410-222-6260","id":"a672lqmuf9ty","address":"1 East 11th Avenue","lat":39.223892,"libraryname":"Brooklyn Park Branch","state":"MD"},"type":"Feature","geometry":{"type":"Point","coordinates":[-76.613437,39.223892]}},{"properties":{"city":"Brunswick","lon":-77.624019,"zip":21716,"librarysystem":"Frederick County  Library","phone":"Phone: 301-834-9065","id":"a672lqczav28","address":"915 North Maple Avenue","lat":39.320811,"libraryname":"Brunswick Branch Library","state":"MD"},"type":"Feature","geometry":{"type":"Point","coordinates":[-77.624019,39.320811]}},{"properties":{"city":"Frederick","lon":-77.408842,"zip":21701,"librarysystem":"Frederick County  Library","phone":"Phone: 301-694-1630","id":"a672lqczqoj5","address":"110 East Patrick Street","lat":39.413917,"libraryname":"C.Burr Artz Public Library","state":"MD"},"type":"Feature","geometry":{"type":"Point","coordinates":[-77.408842,39.413917]}},{"properties":{"city":"Owings","lon":-76.638899,"zip":20736,"librarysystem":"Calvert County Library","phone":"Phone: 410-257-2101","id":"a672lqedoruk","address":"Rt. 4 and Chaneyville Road","lat":38.69062,"libraryname":"Calvert Library, Fairview Branch","state":"MD"},"type":"Feature","geometry":{"type":"Point","coordinates":[-76.638899,38.69062]}},{"properties":{"city":"Lusby","lon":-76.435598,"zip":20657,"librarysystem":"Calvert County Library","phone":"Phone: 410-326-5289","id":"a672lqfcwim4","address":"20 Appeal Lane","lat":38.376726,"libraryname":"Calvert Library, Southern Branch","state":"MD"},"type":"Feature","geometry":{"type":"Point","coordinates":[-76.435598,38.376726]}},{"properties":{"city":"Chesapeake Beach","lon":-76.536923,"zip":20732,"librarysystem":"Calvert County Library","phone":"Phone: 410-257-2411","id":"a672lqo7kpbd","address":"3819 Harbor Road","lat":38.689684,"libraryname":"Calvert Library, Twin Beaches Branch","state":"MD"},"type":"Feature","geometry":{"type":"Point","coordinates":[-76.536923,38.689684]}},{"properties":{"city":"Baltimore","lon":-76.572547,"zip":21224,"librarysystem":"Baltimore City Library","phone":"Phone: 410-396-8548","id":"a672lqrwwfq3","address":"1030 S. Ellwood Avenue","lat":39.28029,"libraryname":"Canton Branch","state":"MD"},"type":"Feature","geometry":{"type":"Point","coordinates":[-76.572547,39.28029]}},{"properties":{"city":"Catonsville","lon":-76.739633,"zip":21228,"librarysystem":"Baltimore County Library","phone":"Phone: 410-887-0951","id":"a672lqkgw36z","address":"1100 Frederick Rd.","lat":39.270398,"libraryname":"Catonsville Library","state":"MD"},"type":"Feature","geometry":{"type":"Point","coordinates":[-76.739633,39.270398]}},{"properties":{"city":"Cecilton","lon":-75.863209,"zip":21913,"librarysystem":"Cecil County Library","phone":"Phone: 410-275-1091","id":"a672lqj39xyz","address":"215 East Main Street","lat":39.40384,"libraryname":"Cecilton Branch Library","state":"MD"},"type":"Feature","geometry":{"type":"Point","coordinates":[-75.863209,39.40384]}},{"properties":{"city":"Cambridge","lon":-76.075983,"zip":21613,"librarysystem":"Dorchester County Library","phone":"Phone: 410-228-7331","id":"a672lqgv55q3","address":"303 Gay St.","lat":38.571019,"libraryname":"Central Library","state":"MD"},"type":"Feature","geometry":{"type":"Point","coordinates":[-76.075983,38.571019]}},{"properties":{"city":"Chestertown","lon":-76.068629,"zip":21620,"librarysystem":"Kent County Library","phone":"Phone: 410-778-3636","id":"a672lqnpzz1y","address":"408 High Street","lat":39.210626,"libraryname":"Central Library","state":"MD"},"type":"Feature","geometry":{"type":"Point","coordinates":[-76.068629,39.210626]}},{"properties":{"city":"Columbia","lon":-76.858879,"zip":21044,"librarysystem":"Howard County Library","phone":"Phone: 410-313-7800","id":"a672lqmzze9x","address":"10375 Little Patuxent Parkway","lat":39.211356,"libraryname":"Central Library","state":"MD"},"type":"Feature","geometry":{"type":"Point","coordinates":[-76.858879,39.211356]}},{"properties":{"city":"Denton","lon":-75.833965,"zip":21629,"librarysystem":"Caroline County Library","phone":"Phones: 410-479-1343","id":"a672lqerzxm1","address":"100 Market Street","lat":38.88668,"libraryname":"Central Library","state":"MD"},"type":"Feature","geometry":{"type":"Point","coordinates":[-75.833965,38.88668]}},{"properties":{"city":"Baltimore","lon":-76.616922,"zip":21201,"librarysystem":"Baltimore City Library","phone":"Phone: 410-396-5430","id":"a672lqprrjmx","address":"400 Cathedral Street","lat":39.294171,"libraryname":"Central Library/State Library Resource Center","state":"MD"},"type":"Feature","geometry":{"type":"Point","coordinates":[-76.616922,39.294171]}},{"properties":{"city":"Salisbury","lon":-75.567257,"zip":21801,"librarysystem":"Wicomico County Library","phone":"Phone: 410-54605397","id":"a672lqlwmjpu","address":"N. Salisbury Blvd","lat":38.410595,"libraryname":"Centre Branch Library","state":"MD"},"type":"Feature","geometry":{"type":"Point","coordinates":[-75.567257,38.410595]}},{"properties":{"city":"Charlotte Hall","lon":-76.778065,"zip":20622,"librarysystem":"St. Mary's County Library","phone":"Phone: 301-884-2211","id":"a672lqnxy189","address":"37600 New Market Road","lat":38.473002,"libraryname":"Charlotte Hall Branch Library","state":"MD"},"type":"Feature","geometry":{"type":"Point","coordinates":[-76.778065,38.473002]}},{"properties":{"city":"Baltimore","lon":-76.622361,"zip":21225,"librarysystem":"Baltimore City Library","phone":"Phone: 410-396-1168","id":"a672lqolnrqo","address":"606 Cherry Hill Road","lat":39.250387,"libraryname":"Cherry Hill Branch","state":"MD"},"type":"Feature","geometry":{"type":"Point","coordinates":[-76.622361,39.250387]}},{"properties":{"city":"Chevy Chase","lon":-77.076931,"zip":20815,"librarysystem":"Montgomery County Library","phone":"Phone: 301-986-4313","id":"a672lqh00jr8","address":"8005 Connecticut Ave.","lat":38.990809,"libraryname":"Chevy Chase Branch Library","state":"MD"},"type":"Feature","geometry":{"type":"Point","coordinates":[-77.076931,38.990809]}},{"properties":{"city":"Baltimore","lon":-76.59165,"zip":21213,"librarysystem":"Baltimore City Library","phone":"Phone: 410-396-0984","id":"a672lqno727u","address":"2001 N. Wolfe Street","lat":39.313308,"libraryname":"Clifton Branch","state":"MD"},"type":"Feature","geometry":{"type":"Point","coordinates":[-76.59165,39.313308]}},{"properties":{"city":"Cockeysville","lon":-76.629581,"zip":21030,"librarysystem":"Baltimore County Library","phone":"Phone: 410-887-7750","id":"a672lqkvju5h","address":"9833 Greenside Dr.","lat":39.45941,"libraryname":"Cockeysville Library","state":"MD"},"type":"Feature","geometry":{"type":"Point","coordinates":[-76.629581,39.45941]}},{"properties":{"city":"Crisfield","lon":-75.844303,"zip":21817,"librarysystem":"Somerset County Library","phone":"Phone: 410-968-0955","id":"a672lqprjrbd","address":"4 E. Main Street","lat":37.981417,"libraryname":"Corbin Memorial Library","state":"MD"},"type":"Feature","geometry":{"type":"Point","coordinates":[-75.844303,37.981417]}},{"properties":{"city":"Crofton","lon":-76.681701,"zip":21114,"librarysystem":"Anne Arundel County Public Library","phone":"Phone: 410-222-7915 and 301-261-3909","id":"a672lqp8f5w9","address":"1681 Riedel Road","lat":39.012305,"libraryname":"Crofton Area Branch","state":"MD"},"type":"Feature","geometry":{"type":"Point","coordinates":[-76.681701,39.012305]}},{"properties":{"city":"Damascus","lon":-77.200212,"zip":20872,"librarysystem":"Montgomery County Library","phone":"Phone: 240-773-9444","id":"a672lqq2q1i2","address":"9701 Main Street","lat":39.287384,"libraryname":"Damascus Branch Library","state":"MD"},"type":"Feature","geometry":{"type":"Point","coordinates":[-77.200212,39.287384]}},{"properties":{"city":"Darlington","lon":-76.203253,"zip":21034,"librarysystem":"Harford County Library","phone":"Phone: 410-638-3750","id":"a672lqfmiysw","address":"1134 Main Street","lat":39.642571,"libraryname":"Darlington Branch Library","state":"MD"},"type":"Feature","geometry":{"type":"Point","coordinates":[-76.203253,39.642571]}},{"properties":{"city":"Bethesda","lon":-77.127391,"zip":20817,"librarysystem":"Montgomery County Library","phone":"Phone: 240-777-0922","id":"a672lqecnp1d","address":"6400 Democracy Blvd.","lat":39.023839,"libraryname":"Davis Branch Library","state":"MD"},"type":"Feature","geometry":{"type":"Point","coordinates":[-77.127391,39.023839]}},{"properties":{"city":"Columbia","lon":-76.846643,"zip":21045,"librarysystem":"Howard County Library","phone":"Phone: 410-313-7700","id":"a672lqikvx4w","address":"6600 Cradlerock Way","lat":39.191038,"libraryname":"East Columbia Branch Library","state":"MD"},"type":"Feature","geometry":{"type":"Point","coordinates":[-76.846643,39.191038]}},{"properties":{"city":"Annapolis","lon":-76.49336,"zip":21403,"librarysystem":"Anne Arundel County Public Library","phone":"Phone: 410-222-1770","id":"a672lqgb019l","address":"269 Hillsmere Drive","lat":38.946907,"libraryname":"Eastport-Annapolis Neck Branch","state":"MD"},"type":"Feature","geometry":{"type":"Point","coordinates":[-76.49336,38.946907]}},{"properties":{"city":"Edgewater","lon":-76.56303,"zip":21037,"librarysystem":"Anne Arundel County Public Library","phone":"Phone: 410-222-1538","id":"a672lqgx1lj5","address":"25 Stepneys Lane","lat":38.927106,"libraryname":"Edgewater Branch","state":"MD"},"type":"Feature","geometry":{"type":"Point","coordinates":[-76.56303,38.927106]}},{"properties":{"city":"Edgewood","lon":-76.297322,"zip":21040,"librarysystem":"Harford County Library","phone":"Phone: 410-612-1600","id":"a672lqpgb89z","address":"629 Edgewood Road","lat":39.425428,"libraryname":"Edgewood Branch Library","state":"MD"},"type":"Feature","geometry":{"type":"Point","coordinates":[-76.297322,39.425428]}},{"properties":{"city":"Baltimore","lon":-76.687789,"zip":21229,"librarysystem":"Baltimore City Library","phone":"Phone: 410-396-0946","id":"a672lqdtl9d6","address":"4330 Edmondson Avenue","lat":39.293741,"libraryname":"Edmondson Avenue Branch","state":"MD"},"type":"Feature","geometry":{"type":"Point","coordinates":[-76.687789,39.293741]}},{"properties":{"city":"Eldersburg","lon":-76.935968,"zip":21784,"librarysystem":"Carroll County Library","phone":"Phone: 410-386-4460","id":"a672lqiluat2","address":"6400 Hemlock Drive","lat":39.39828,"libraryname":"Eldersburg Branch","state":"MD"},"type":"Feature","geometry":{"type":"Point","coordinates":[-76.935968,39.39828]}},{"properties":{"city":"Elkridge","lon":-76.735963,"zip":21075,"librarysystem":"Howard County Library","phone":"Phone: 410-313-5088","id":"a672lqko1klq","address":"6540 Washington Boulevard","lat":39.200952,"libraryname":"Elkridge Branch Library","state":"MD"},"type":"Feature","geometry":{"type":"Point","coordinates":[-76.735963,39.200952]}},{"properties":{"city":"Elkton","lon":-75.835946,"zip":21921,"librarysystem":"Cecil County Library","phone":"Phone: 410-996-5600","id":"a672lqf8tpp5","address":"301 Newark Avenue","lat":39.619326,"libraryname":"Elkton Central Library","state":"MD"},"type":"Feature","geometry":{"type":"Point","coordinates":[-75.835946,39.619326]}},{"properties":{"city":"Emmitsburg","lon":-77.328379,"zip":21727,"librarysystem":"Frederick County  Library","phone":"Phone: 240-629-6329","id":"a672lqhrrubg","address":"300 South Seton Avenue","lat":39.701394,"libraryname":"Emmitsburg Branch Library","state":"MD"},"type":"Feature","geometry":{"type":"Point","coordinates":[-77.328379,39.701394]}},{"properties":{"city":"Essex","lon":-76.462088,"zip":21221,"librarysystem":"Baltimore County Library","phone":"Phone: 410-887-0295","id":"a672lqhbptcy","address":"1110 Eastern Blvd.","lat":39.314801,"libraryname":"Essex Library","state":"MD"},"type":"Feature","geometry":{"type":"Point","coordinates":[-76.462088,39.314801]}},{"properties":{"city":"Ewell","lon":-76.031226,"zip":21824,"librarysystem":"Somerset County Library","phone":"Phone: 410-425-5141","id":"a672lqqd3i4l","address":"20910 Caleb Jones Road","lat":37.994657,"libraryname":"Ewell School","state":"MD"},"type":"Feature","geometry":{"type":"Point","coordinates":[-76.031226,37.994657]}},{"properties":{"city":"Burtonsville","lon":-76.940743,"zip":20866,"librarysystem":"Montgomery County Library","phone":"Phone: 240-773-9460","id":"a672lqhj9izv","address":"14910 Old Columbia Pike","lat":39.101603,"libraryname":"Fairland Branch Library","state":"MD"},"type":"Feature","geometry":{"type":"Point","coordinates":[-76.940743,39.101603]}},{"properties":{"city":"Fairmount Heights","lon":-76.915174,"zip":20743,"librarysystem":"Prince George County Library","phone":"Phone: 301- 883-2650","id":"a672lqgw3pen","address":"5904 Kolb St.","lat":38.90297,"libraryname":"Fairmount Heights Branch Library","state":"MD"},"type":"Feature","geometry":{"type":"Point","coordinates":[-76.915174,38.90297]}},{"properties":{"city":"Fallston","lon":-76.425508,"zip":21047,"librarysystem":"Harford County Library","phone":"Phone: 410-638-3003","id":"a672lqszfqio","address":"1461 Fallston Road","lat":39.524108,"libraryname":"Fallston Branch Library","state":"MD"},"type":"Feature","geometry":{"type":"Point","coordinates":[-76.425508,39.524108]}},{"properties":{"city":"Federalsburg","lon":-75.774704,"zip":21632,"librarysystem":"Caroline County Library","phone":"Phones: 410-754-8397","id":"a672lqdlepic","address":"123 Morris Avenue","lat":38.695186,"libraryname":"Federalsburg Branch","state":"MD"},"type":"Feature","geometry":{"type":"Point","coordinates":[-75.774704,38.695186]}},{"properties":{"city":"Baltimore","lon":-76.680576,"zip":21216,"librarysystem":"Baltimore City Library","phone":"Phone: 410-396-0942","id":"a672lqo4ow4h","address":"3023 Garrison Boulevard","lat":39.322947,"libraryname":"Forest Park Branch","state":"MD"},"type":"Feature","geometry":{"type":"Point","coordinates":[-76.680576,39.322947]}},{"properties":{"city":"Friendsville","lon":-79.405058,"zip":21531,"librarysystem":"Garrett County Library","phone":"Phone: 301-746-5663","id":"a672lqlb7n15","address":"315 Chestnut Street","lat":39.66239,"libraryname":"Friendsville Branch Library","state":"MD"},"type":"Feature","geometry":{"type":"Point","coordinates":[-79.405058,39.66239]}},{"properties":{"city":"Frostburg","lon":-78.927157,"zip":21532,"librarysystem":"Allegheny County Library","phone":"Phone: 301-687-0790","id":"a672lqophn1i","address":"65 East Main Street","lat":39.656519,"libraryname":"Frostburg Library","state":"MD"},"type":"Feature","geometry":{"type":"Point","coordinates":[-78.927157,39.656519]}},{"properties":{"city":"Gaithersburg","lon":-77.205789,"zip":20879,"librarysystem":"Montgomery County Library","phone":"Phone: 301-840-2515","id":"a672lqr3a0bg","address":"18330 Montgomery Village Ave.","lat":39.157285,"libraryname":"Gaithersburg Branch Library","state":"MD"},"type":"Feature","geometry":{"type":"Point","coordinates":[-77.205789,39.157285]}},{"properties":{"city":"Lonaconing","lon":-78.979629,"zip":21539,"librarysystem":"Allegheny County Library","phone":"Phone: 301-463-2629","id":"a672lqlucz77","address":"76 Main Street","lat":39.567045,"libraryname":"George's Creek Library","state":"MD"},"type":"Feature","geometry":{"type":"Point","coordinates":[-78.979629,39.567045]}},{"properties":{"city":"Germantown","lon":-77.265882,"zip":20874,"librarysystem":"Montgomery County Library","phone":"Phone: 240-777-0110","id":"a672lqo5kshb","address":"19840 Century Boulevard","lat":39.181873,"libraryname":"Germantown Branch Library","state":"MD"},"type":"Feature","geometry":{"type":"Point","coordinates":[-77.265882,39.181873]}},{"properties":{"city":"Glenarden","lon":-76.85993,"zip":20706,"librarysystem":"Prince George County Library","phone":"Phone: 301-772-5477","id":"a672lqf2qzws","address":"8724 Glenarden Pkwy.","lat":38.930375,"libraryname":"Glenarden Branch Library","state":"MD"},"type":"Feature","geometry":{"type":"Point","coordinates":[-76.85993,38.930375]}},{"properties":{"city":"Cooksville","lon":-77.021118,"zip":21723,"librarysystem":"Howard County Library","phone":"Phone: 410-313-5577","id":"a672lqsckdus","address":"2350 Route 97","lat":39.306762,"libraryname":"Glenwood Branch Library","state":"MD"},"type":"Feature","geometry":{"type":"Point","coordinates":[-77.021118,39.306762]}},{"properties":{"city":"Baltimore","lon":-76.610735,"zip":21212,"librarysystem":"Baltimore City Library","phone":"Phone: 410-396-6098","id":"a672lqg84ct5","address":"5714 Bellona Avenue","lat":39.359103,"libraryname":"Govans Branch","state":"MD"},"type":"Feature","geometry":{"type":"Point","coordinates":[-76.610735,39.359103]}},{"properties":{"city":"Grantsville","lon":-79.156895,"zip":21536,"librarysystem":"Garrett County Library","phone":"Phone: 301-895-5298","id":"a672lqntxadx","address":"102 Parkside Dr.","lat":39.700034,"libraryname":"Grantsville Branch Library","state":"MD"},"type":"Feature","geometry":{"type":"Point","coordinates":[-79.156895,39.700034]}},{"properties":{"city":"Greenbelt","lon":-76.880071,"zip":20770,"librarysystem":"Prince George County Library","phone":"Phone: 301-345-5800","id":"a672lqgwe59s","address":"11 Crescent Road","lat":39.000712,"libraryname":"Greenbelt Branch Library","state":"MD"},"type":"Feature","geometry":{"type":"Point","coordinates":[-76.880071,39.000712]}},{"properties":{"city":"Baltimore","lon":-76.55838,"zip":21214,"librarysystem":"Baltimore City Library","phone":"Phone: 410-396-6088","id":"a672lqe7m1xy","address":"5910 Harford Road","lat":39.356027,"libraryname":"Hamilton Branch","state":"MD"},"type":"Feature","geometry":{"type":"Point","coordinates":[-76.55838,39.356027]}},{"properties":{"city":"Baltimore","lon":-76.634966,"zip":21211,"librarysystem":"Baltimore City Library","phone":"Phone: 410-396-6043","id":"a672lqit7gz5","address":"3641 Falls Road","lat":39.331684,"libraryname":"Hampden Branch","state":"MD"},"type":"Feature","geometry":{"type":"Point","coordinates":[-76.634966,39.331684]}},{"properties":{"city":"Havre de Grace","lon":-76.091782,"zip":21078,"librarysystem":"Harford County Library","phone":"Phone: 410-939-6700","id":"a672lqkxk87t","address":"120 N. Union Ave.","lat":39.547977,"libraryname":"Havre de Grace Branch Library","state":"MD"},"type":"Feature","geometry":{"type":"Point","coordinates":[-76.091782,39.547977]}},{"properties":{"city":"Monkton","lon":-76.663338,"zip":21111,"librarysystem":"Baltimore County Library","phone":"Phone: 410-887-1919","id":"a672lqczt71z","address":"16940 York Rd.","lat":39.589437,"libraryname":"Hereford Library","state":"MD"},"type":"Feature","geometry":{"type":"Point","coordinates":[-76.663338,39.589437]}},{"properties":{"city":"Baltimore","lon":-76.569056,"zip":21213,"librarysystem":"Baltimore City Library","phone":"Phone: 410-396-0996","id":"a672lqhw0ywh","address":"3801 Erdman Avenue","lat":39.315663,"libraryname":"Herring Run Branch","state":"MD"},"type":"Feature","geometry":{"type":"Point","coordinates":[-76.569056,39.315663]}},{"properties":{"city":"Baltimore","lon":-76.569672,"zip":21224,"librarysystem":"Baltimore City Library","phone":"Phone: 410-396-1580","id":"a672lqffy5sj","address":"3323 Eastern Avenue","lat":39.286387,"libraryname":"Highlandtown Branch","state":"MD"},"type":"Feature","geometry":{"type":"Point","coordinates":[-76.569672,39.286387]}},{"properties":{"city":"Temple Hills","lon":-76.956452,"zip":20748,"librarysystem":"Prince George County Library","phone":"Phone: 301-630-4900","id":"a672lql27srp","address":"2398 Iverson St.","lat":38.835115,"libraryname":"Hillcrest Heights Branch Library","state":"MD"},"type":"Feature","geometry":{"type":"Point","coordinates":[-76.956452,38.835115]}},{"properties":{"city":"Hurlock","lon":-75.862283,"zip":21643,"librarysystem":"Dorchester County Library","phone":"Phone: 410-943-4331","id":"a672lqefrrw8","address":"222 S. Main St.","lat":38.631585,"libraryname":"Hurlock Branch Library","state":"MD"},"type":"Feature","geometry":{"type":"Point","coordinates":[-75.862283,38.631585]}},{"properties":{"city":"Hyattsville","lon":-76.949227,"zip":20782,"librarysystem":"Prince George County Library","phone":"Tel: 301-985-4690","id":"a672lqhiizbk","address":"6530 Adelphi Rd.","lat":38.968874,"libraryname":"Hyattsville Branch Library","state":"MD"},"type":"Feature","geometry":{"type":"Point","coordinates":[-76.949227,38.968874]}},{"properties":{"city":"Jarrettsville","lon":-76.48054,"zip":21084,"librarysystem":"Harford County Library","phone":"Phone: 410-692-7887","id":"a672lqd52p3y","address":"3722 Norrisville Road","lat":39.603316,"libraryname":"Jarrettsville Branch Library","state":"MD"},"type":"Feature","geometry":{"type":"Point","coordinates":[-76.48054,39.603316]}},{"properties":{"city":"Joppa","lon":-76.358074,"zip":21085,"librarysystem":"Harford County Library","phone":"Phone: 410-612-1660","id":"a672lqhpsfp4","address":"655 Towne Center Dr.","lat":39.411554,"libraryname":"Joppa Branch Library","state":"MD"},"type":"Feature","geometry":{"type":"Point","coordinates":[-76.358074,39.411554]}},{"properties":{"city":"Kensington","lon":-77.081548,"zip":20895,"librarysystem":"Montgomery County Library","phone":"Phone: 301-897-2211","id":"a672lqruzwmy","address":"4201 Knowles Ave.","lat":39.028871,"libraryname":"Kensington Park Branch Library","state":"MD"},"type":"Feature","geometry":{"type":"Point","coordinates":[-77.081548,39.028871]}},{"properties":{"city":"Stevensville","lon":-76.306345,"zip":21666,"librarysystem":"Queen Anne's County Library","phone":"Phone: 410-643-8161","id":"a672lqpg2lm1","address":"200 Library Circle","lat":38.977692,"libraryname":"Kent Island Branch","state":"MD"},"type":"Feature","geometry":{"type":"Point","coordinates":[-76.306345,38.977692]}},{"properties":{"city":"Kitzmiller","lon":-79.187817,"zip":21538,"librarysystem":"Garrett County Library","phone":"Phone: 301-453-3368","id":"a672lqcuidwc","address":"288 W. Main Street","lat":39.387222,"libraryname":"Kitzmiller Branch Library","state":"MD"},"type":"Feature","geometry":{"type":"Point","coordinates":[-79.187817,39.387222]}},{"properties":{"city":"La Plata","lon":-76.971571,"zip":20646,"librarysystem":"Charles County Library","phone":"Phone: 301-934-9001","id":"a672lqgmeur6","address":"2 Garrett Avenue","lat":38.530405,"libraryname":"La Plata Branch Library","state":"MD"},"type":"Feature","geometry":{"type":"Point","coordinates":[-76.971571,38.530405]}},{"properties":{"city":"LaVale","lon":-78.818491,"zip":21502,"librarysystem":"Allegheny County Library","phone":"Phone: 301-729-0855","id":"a672lqjy45dl","address":"815 National Highway","lat":39.648508,"libraryname":"LaVale Library","state":"MD"},"type":"Feature","geometry":{"type":"Point","coordinates":[-78.818491,39.648508]}},{"properties":{"city":"Largo","lon":-76.839378,"zip":20774,"librarysystem":"Prince George County Library","phone":"Phone: 301-336-4044","id":"a672lqkio511","address":"9601 Capital Lane","lat":38.891758,"libraryname":"Largo-Kettering Branch Library","state":"MD"},"type":"Feature","geometry":{"type":"Point","coordinates":[-76.839378,38.891758]}},{"properties":{"city":"Leonardtown","lon":-76.631636,"zip":20650,"librarysystem":"St. Mary's County Library","phone":"Phone: 301-475-2846","id":"a672lqrvipt3","address":"23250 Hollywood Road","lat":38.306841,"libraryname":"Leonardtown Branch Library","state":"MD"},"type":"Feature","geometry":{"type":"Point","coordinates":[-76.631636,38.306841]}},{"properties":{"city":"Lexington Park","lon":-76.456427,"zip":20653,"librarysystem":"St. Mary's County Library","phone":"Phone: 301-863-8188","id":"a672lqjyyl3o","address":"21677 FDR Blvd.","lat":38.261739,"libraryname":"Lexington Park Branch Library","state":"MD"},"type":"Feature","geometry":{"type":"Point","coordinates":[-76.456427,38.261739]}},{"properties":{"city":"Annapolis","lon":-76.576193,"zip":21401,"librarysystem":"Anne Arundel County Public Library","phone":"Phone: 410-222-7371","id":"a672lqp6b651","address":"5 Harry S. Truman Parkway","lat":38.984078,"libraryname":"Library Headquarters","state":"MD"},"type":"Feature","geometry":{"type":"Point","coordinates":[-76.576193,38.984078]}},{"properties":{"city":"Baltimore","lon":-76.611935,"zip":21230,"librarysystem":"Baltimore City Library","phone":"Phone: 410-396-1096","id":"a672lqrngdos","address":"1251 Light Street","lat":39.275423,"libraryname":"Light Street Branch","state":"MD"},"type":"Feature","geometry":{"type":"Point","coordinates":[-76.611935,39.275423]}},{"properties":{"city":"Linthicum","lon":-76.658078,"zip":21090,"librarysystem":"Anne Arundel County Public Library","phone":"Phone: 410-222-6265","id":"a672lqh2wiv1","address":"400 Shipley Road","lat":39.201623,"libraryname":"Linthicum Branch","state":"MD"},"type":"Feature","geometry":{"type":"Point","coordinates":[-76.658078,39.201623]}},{"properties":{"city":"Bethesda","lon":-77.110041,"zip":20816,"librarysystem":"Montgomery County Library","phone":"Phone: 240-773-9520","id":"a672lqdxh9yb","address":"5501 Massachusetts Ave.","lat":38.958539,"libraryname":"Little Falls Branch Library","state":"MD"},"type":"Feature","geometry":{"type":"Point","coordinates":[-77.110041,38.958539]}},{"properties":{"city":"Towson","lon":-76.57478,"zip":21286,"librarysystem":"Baltimore County Library","phone":"Phone: 410-887-4444","id":"a672lqpbufgf","address":"1046 Taylor Avenue","lat":39.384502,"libraryname":"Loch Raven Mini Library","state":"MD"},"type":"Feature","geometry":{"type":"Point","coordinates":[-76.57478,39.384502]}},{"properties":{"city":"Silver Spring","lon":-77.001465,"zip":20901,"librarysystem":"Montgomery County Library","phone":"Phone: 240-777-0910","id":"a672lqj5md41","address":"8800 Garland Ave.","lat":39.00059,"libraryname":"Long Branch Library","state":"MD"},"type":"Feature","geometry":{"type":"Point","coordinates":[-77.001465,39.00059]}},{"properties":{"city":"Easton","lon":-76.077846,"zip":21601,"librarysystem":"Talbot County Library","phone":"Phone: 410-822-1626","id":"a672lqmn60j6","address":"100 West Dover Street","lat":38.774356,"libraryname":"Main Library","state":"MD"},"type":"Feature","geometry":{"type":"Point","coordinates":[-76.077846,38.774356]}},{"properties":{"city":"Prince Frederick","lon":-76.584653,"zip":20678,"librarysystem":"Calvert County Library","phone":"Phone: 410-535-0291","id":"a672lqqf7fo0","address":"30 Duke Street","lat":38.536784,"libraryname":"Main Library, Prince Frederick","state":"MD"},"type":"Feature","geometry":{"type":"Point","coordinates":[-76.584653,38.536784]}},{"properties":{"city":"Laurel","lon":-76.803506,"zip":20724,"librarysystem":"Anne Arundel County Public Library","phone":"Phone: 301-725-2390","id":"a672lqmni6ff","address":"3501 Russett Common","lat":39.101755,"libraryname":"Maryland City at Russett Branch","state":"MD"},"type":"Feature","geometry":{"type":"Point","coordinates":[-76.803506,39.101755]}},{"properties":{"city":"Middletown","lon":-77.541988,"zip":21769,"librarysystem":"Frederick County  Library","phone":"Phone: 301-371-7560","id":"a672lqmok3xm","address":"101 Prospect Street","lat":39.442875,"libraryname":"Middletown Branch Library","state":"MD"},"type":"Feature","geometry":{"type":"Point","coordinates":[-77.541988,39.442875]}},{"properties":{"city":"Ellicott City","lon":-76.837636,"zip":21042,"librarysystem":"Howard County Library","phone":"Phone: 410-313-1950","id":"a672lqklg1hm","address":"9421 Frederick Road","lat":39.27294,"libraryname":"Miller Branch Library","state":"MD"},"type":"Feature","geometry":{"type":"Point","coordinates":[-76.837636,39.27294]}},{"properties":{"city":"Baltimore","lon":-76.504098,"zip":21222,"librarysystem":"Baltimore County Library","phone":"Phone: 410-887-7586","id":"a672lqeikjbq","address":"1716 Merritt Blvd.","lat":39.268977,"libraryname":"Mobile Library Services","state":"MD"},"type":"Feature","geometry":{"type":"Point","coordinates":[-76.504098,39.268977]}},{"properties":{"city":"Mount Airy","lon":-77.154987,"zip":21771,"librarysystem":"Carroll County Library","phone":"Phone: 410-386-4470","id":"a672lqh5z28r","address":"705 Ridge Avenue","lat":39.369768,"libraryname":"Mount Airy Branch","state":"MD"},"type":"Feature","geometry":{"type":"Point","coordinates":[-77.154987,39.369768]}},{"properties":{"city":"Mount Rainier","lon":-76.95982,"zip":20712,"librarysystem":"Prince George County Library","phone":"Phone: 301-864-8937","id":"a672lqhh1ulk","address":"3409 Rhode Island Ave.","lat":38.936719,"libraryname":"Mount Rainier Branch Library","state":"MD"},"type":"Feature","geometry":{"type":"Point","coordinates":[-76.95982,38.936719]}},{"properties":{"city":"Pasadena","lon":-76.466931,"zip":21122,"librarysystem":"Anne Arundel County Public Library","phone":"Phone: 410-222-6699","id":"a672lqich3qf","address":"4730 Mountain Road","lat":39.104979,"libraryname":"Mountain Road Branch","state":"MD"},"type":"Feature","geometry":{"type":"Point","coordinates":[-76.466931,39.104979]}},{"properties":{"city":"New Carrollton","lon":-76.884199,"zip":20784,"librarysystem":"Prince George County Library","phone":"Phone: 301-459-6900","id":"a672lqngef4f","address":"7414 Riverdale Rd..","lat":38.962008,"libraryname":"New Carrollton Branch Library","state":"MD"},"type":"Feature","geometry":{"type":"Point","coordinates":[-76.884199,38.962008]}},{"properties":{"city":"White Hall","lon":-76.533161,"zip":21161,"librarysystem":"Harford County Library","phone":"Phone: 410-692-7856","id":"a672lqgezkae","address":"5310 Norrisville Road","lat":39.70122,"libraryname":"Norrisville Branch Library","state":"MD"},"type":"Feature","geometry":{"type":"Point","coordinates":[-76.533161,39.70122]}},{"properties":{"city":"Greenmount","lon":-76.865662,"zip":21074,"librarysystem":"Carroll County Library","phone":"Phone: 410-386-4480","id":"a672lqscw692","address":"2255 Hanover Pike","lat":39.636118,"libraryname":"North Carroll Branch","state":"MD"},"type":"Feature","geometry":{"type":"Point","coordinates":[-76.865662,39.636118]}},{"properties":{"city":"Glen Burnie","lon":-76.614104,"zip":21060,"librarysystem":"Anne Arundel County Public Library","phone":"Phone: 410-222-6270","id":"a672lqlem6ys","address":"1010 Eastway","lat":39.153335,"libraryname":"North County Area Library","state":"MD"},"type":"Feature","geometry":{"type":"Point","coordinates":[-76.614104,39.153335]}},{"properties":{"city":"Greensboro","lon":-75.804517,"zip":21639,"librarysystem":"Caroline County Library","phone":"Phones: 410-482-2173","id":"a672lqobxk5a","address":"101 Cedar Lane","lat":38.976193,"libraryname":"North County Branch","state":"MD"},"type":"Feature","geometry":{"type":"Point","coordinates":[-75.804517,38.976193]}},{"properties":{"city":"North East","lon":-75.944314,"zip":21901,"librarysystem":"Cecil County Library","phone":"Phone: 410-996-6269","id":"a672lqpj82lm","address":"106 West Cecil Avenue","lat":39.600913,"libraryname":"North East Branch Library","state":"MD"},"type":"Feature","geometry":{"type":"Point","coordinates":[-75.944314,39.600913]}},{"properties":{"city":"Baltimore","lon":-76.504098,"zip":21222,"librarysystem":"Baltimore County Library","phone":"Phone: 410-887-7255","id":"a672lqnvht2y","address":"1716 Merritt Blvd.","lat":39.268977,"libraryname":"North Point Library","state":"MD"},"type":"Feature","geometry":{"type":"Point","coordinates":[-76.504098,39.268977]}},{"properties":{"city":"Baltimore","lon":-76.592514,"zip":21218,"librarysystem":"Baltimore City Library","phone":"Phone: 410-396-6076","id":"a672lqjojo3y","address":"4420 Loch Raven Boulevard","lat":39.345355,"libraryname":"Northwood Branch","state":"MD"},"type":"Feature","geometry":{"type":"Point","coordinates":[-76.592514,39.345355]}},{"properties":{"city":"Kensington","lon":-77.073814,"zip":20895,"librarysystem":"Montgomery County Library","phone":"Phone: 301-929-5533","id":"a672lqokl4up","address":"10237 Carroll Place","lat":39.024601,"libraryname":"Noyes Library for Young Children","state":"MD"},"type":"Feature","geometry":{"type":"Point","coordinates":[-77.073814,39.024601]}},{"properties":{"city":"Oakland","lon":-79.406983,"zip":21550,"librarysystem":"Garrett County Library","phone":"Phone: 301-334-3996","id":"a672lqeqemsw","address":"6 N. Second Street","lat":39.410978,"libraryname":"Oakland Branch Library","state":"MD"},"type":"Feature","geometry":{"type":"Point","coordinates":[-79.406983,39.410978]}},{"properties":{"city":"Ocean City","lon":-75.080653,"zip":21842,"librarysystem":"Worcester County Library","phone":"Phone: 410-289-7297","id":"a672lqszos9l","address":"200 14th St.","lat":38.34465,"libraryname":"Ocean City Branch Library","state":"MD"},"type":"Feature","geometry":{"type":"Point","coordinates":[-75.080653,38.34465]}},{"properties":{"city":"Ocean Pines","lon":-75.16581,"zip":21811,"librarysystem":"Worcester County Library","phone":"Phone: 410-208-4014","id":"a672lqnaw8fl","address":"11107 Cathell Rd.","lat":38.379976,"libraryname":"Ocean Pines Branch Library","state":"MD"},"type":"Feature","geometry":{"type":"Point","coordinates":[-75.16581,38.379976]}},{"properties":{"city":"Olney","lon":-77.069431,"zip":20832,"librarysystem":"Montgomery County Library","phone":"Phone: 301-570-1232","id":"a672lqe81s9h","address":"3500 Olney-Laytonsville Road","lat":39.154481,"libraryname":"Olney Branch Library","state":"MD"},"type":"Feature","geometry":{"type":"Point","coordinates":[-77.069431,39.154481]}},{"properties":{"city":"Oxon Hill","lon":-76.983036,"zip":20745,"librarysystem":"Prince George County Library","phone":"Phone: 301-839-2400","id":"a672lqhwzfdi","address":"6200 Oxon Hill Rd.","lat":38.804022,"libraryname":"Oxon Hill Branch Library","state":"MD"},"type":"Feature","geometry":{"type":"Point","coordinates":[-76.983036,38.804022]}},{"properties":{"city":"Waldorf","lon":-76.901508,"zip":20602,"librarysystem":"Charles County Library","phone":"Phone: 301-645-2864","id":"a672lqri15dn","address":"50 Village Street","lat":38.601305,"libraryname":"P.D. Brown Memorial Branch Library","state":"MD"},"type":"Feature","geometry":{"type":"Point","coordinates":[-76.901508,38.601305]}},{"properties":{"city":"Baltimore","lon":-76.52534,"zip":21234,"librarysystem":"Baltimore County Library","phone":"Phone: 410-887-5353","id":"a672lqcxmifh","address":"9509 Harford Rd.","lat":39.393517,"libraryname":"Parkville-Carney Library","state":"MD"},"type":"Feature","geometry":{"type":"Point","coordinates":[-76.52534,39.393517]}},{"properties":{"city":"Baltimore","lon":-76.57648,"zip":21224,"librarysystem":"Baltimore City Library","phone":"Phone: 410-396-0983","id":"a672lqm3fkyz","address":"158 N. Linwood Avenue","lat":39.29406,"libraryname":"Patterson Park / La Biblioteca Sucursal de Patterson Park","state":"MD"},"type":"Feature","geometry":{"type":"Point","coordinates":[-76.57648,39.29406]}},{"properties":{"city":"Baltimore","lon":-76.641602,"zip":21217,"librarysystem":"Baltimore City Library","phone":"Phone: 410-396-0399","id":"a672lqedg1am","address":"1531 W. North Avenue","lat":39.309962,"libraryname":"Pennsylvania Avenue Branch","state":"MD"},"type":"Feature","geometry":{"type":"Point","coordinates":[-76.641602,39.309962]}},{"properties":{"city":"Baltimore","lon":-76.470129,"zip":21236,"librarysystem":"Baltimore County Library","phone":"Phone: 410-887-5195","id":"a672lqnlsgnv","address":"9440 Belair Rd.","lat":39.407572,"libraryname":"Perry Hall Library","state":"MD"},"type":"Feature","geometry":{"type":"Point","coordinates":[-76.470129,39.407572]}},{"properties":{"city":"Perryville","lon":-76.073502,"zip":21903,"librarysystem":"Cecil County Library","phone":"Phone: 410-996-6050","id":"a672lqmaprcl","address":"515 Broad Street, 2nd floor","lat":39.559302,"libraryname":"Perryville Branch Library","state":"MD"},"type":"Feature","geometry":{"type":"Point","coordinates":[-76.073502,39.559302]}},{"properties":{"city":"Baltimore","lon":-76.723576,"zip":21208,"librarysystem":"Baltimore County Library","phone":"Phone: 410-887-1234","id":"a672lqsqjskb","address":"1301 Reisterstown Rd.","lat":39.375415,"libraryname":"Pikesville Library","state":"MD"},"type":"Feature","geometry":{"type":"Point","coordinates":[-76.723576,39.375415]}},{"properties":{"city":"Pocomoke City","lon":-75.566305,"zip":21851,"librarysystem":"Worcester County Library","phone":"Phone: 410-957-0878","id":"a672lqn4cgso","address":"301 Market St.","lat":38.074087,"libraryname":"Pocomoke City Branch Library","state":"MD"},"type":"Feature","geometry":{"type":"Point","coordinates":[-75.566305,38.074087]}},{"properties":{"city":"Poolesville","lon":-77.40936,"zip":20837,"librarysystem":"Montgomery County Library","phone":"Phone: 240-773-9550","id":"a672lqejb350","address":"19633 Fisher Ave.","lat":39.144238,"libraryname":"Poolesville Branch Library","state":"MD"},"type":"Feature","geometry":{"type":"Point","coordinates":[-77.40936,39.144238]}},{"properties":{"city":"Port Deposit","lon":-76.115175,"zip":21904,"librarysystem":"Cecil County Library","phone":"Phone: 410-996-6055","id":"a672lqnnknk7","address":"13 South Main Street","lat":39.604455,"libraryname":"Port Deposit Branch Library","state":"MD"},"type":"Feature","geometry":{"type":"Point","coordinates":[-76.115175,39.604455]}},{"properties":{"city":"Indian Head","lon":-77.086798,"zip":20640,"librarysystem":"Charles County Library","phone":"Phone: 301-375-7375","id":"a672lqe75qpx","address":"3225 Ruth B. Swann Drive","lat":38.623875,"libraryname":"Potomac Branch Library","state":"MD"},"type":"Feature","geometry":{"type":"Point","coordinates":[-77.086798,38.623875]}},{"properties":{"city":"Potomac","lon":-77.205624,"zip":20854,"librarysystem":"Montgomery County Library","phone":"Phone: 240-777-0690","id":"a672lqqqjbmb","address":"10101 Glenolden Drive","lat":39.01871,"libraryname":"Potomac Branch Library","state":"MD"},"type":"Feature","geometry":{"type":"Point","coordinates":[-77.205624,39.01871]}},{"properties":{"city":"Severn","lon":-76.73684,"zip":21144,"librarysystem":"Anne Arundel County Public Library","phone":"Phone: 410-222-6280","id":"a672lqdxbcuu","address":"2624 Annapolis Road","lat":39.129489,"libraryname":"Provinces Branch","state":"MD"},"type":"Feature","geometry":{"type":"Point","coordinates":[-76.73684,39.129489]}},{"properties":{"city":"Upper Marlboro","lon":-76.751493,"zip":20772,"librarysystem":"Prince George County Library","phone":"Phone: 301-952-3904","id":"a672lqjo906a","address":"14741 Governor Oden Bowie Drive, CAB, Room 2198","lat":38.818211,"libraryname":"Public Documents Reference Library","state":"MD"},"type":"Feature","geometry":{"type":"Point","coordinates":[-76.751493,38.818211]}},{"properties":{"city":"Centreville","lon":-76.065401,"zip":21617,"librarysystem":"Queen Anne's County Library","phone":"Phone: 410-758-0980","id":"a672lqfgz9he","address":"121 South Commerce Street","lat":39.043913,"libraryname":"Queen Anne's County Free Library - Main Library","state":"MD"},"type":"Feature","geometry":{"type":"Point","coordinates":[-76.065401,39.043913]}},{"properties":{"city":"Gaithersburg","lon":-77.252772,"zip":20878,"librarysystem":"Montgomery County Library","phone":"Phone: 240-777-0200","id":"a672lqs5qail","address":"15831 Quince Orchard Rd.","lat":39.114943,"libraryname":"Quince Orchard Branch Library","state":"MD"},"type":"Feature","geometry":{"type":"Point","coordinates":[-77.252772,39.114943]}},{"properties":{"city":"Randallstown","lon":-76.779194,"zip":21133,"librarysystem":"Baltimore County Library","phone":"Phone: 410-887-0770","id":"a672lqew0g8l","address":"8604 Liberty Rd.","lat":39.361701,"libraryname":"Randallstown Library","state":"MD"},"type":"Feature","geometry":{"type":"Point","coordinates":[-76.779194,39.361701]}},{"properties":{"city":"Baltimore","lon":-76.577549,"zip":21224,"librarysystem":"Baltimore City Library","phone":"Phone: 410-732-0500","id":"a672lqq9ilzi","address":"2700 Lighthouse Point East, Suite 310","lat":39.27832,"libraryname":"Regional Information Center","state":"MD"},"type":"Feature","geometry":{"type":"Point","coordinates":[-76.577549,39.27832]}},{"properties":{"city":"Baltimore","lon":-76.700466,"zip":21215,"librarysystem":"Baltimore City Library","phone":"Phone: 410-396-0948","id":"a672lqixgkqw","address":"6310 Reisterstown Road","lat":39.354676,"libraryname":"Reisterstown Branch","state":"MD"},"type":"Feature","geometry":{"type":"Point","coordinates":[-76.700466,39.354676]}},{"properties":{"city":"Reisterstown","lon":-76.831532,"zip":21136,"librarysystem":"Baltimore County Library","phone":"Phone: 410-887-1165","id":"a672lqmgy1w3","address":"21 Cockeys Mill Rd.","lat":39.463706,"libraryname":"Reisterstown Library","state":"MD"},"type":"Feature","geometry":{"type":"Point","coordinates":[-76.831532,39.463706]}},{"properties":{"city":"Rising Sun","lon":-76.055715,"zip":21911,"librarysystem":"Cecil County Library","phone":"Phone: 410-658-4025","id":"a672lqinvujs","address":"111 Colonial Way","lat":39.695472,"libraryname":"Rising Sun Branch Library","state":"MD"},"type":"Feature","geometry":{"type":"Point","coordinates":[-76.055715,39.695472]}},{"properties":{"city":"Pasadena","lon":-76.528098,"zip":21122,"librarysystem":"Anne Arundel County Public Library","phone":"Phone: 410-222-6285","id":"a672lqk7l0ce","address":"1130 Duvall Highway","lat":39.145646,"libraryname":"Riviera Beach Branch","state":"MD"},"type":"Feature","geometry":{"type":"Point","coordinates":[-76.528098,39.145646]}},{"properties":{"city":"Rock Hall","lon":-76.23215,"zip":21661,"librarysystem":"Kent County Library","phone":"Phone: 410-639-7162","id":"a672lqscjcuk","address":"5585 Main Street","lat":39.132469,"libraryname":"Rock Hall Branch Library","state":"MD"},"type":"Feature","geometry":{"type":"Point","coordinates":[-76.23215,39.132469]}},{"properties":{"city":"Rockville","lon":-77.151106,"zip":20850,"librarysystem":"Montgomery County Library","phone":"Phone: 240-777-0140","id":"a672lqm74bys","address":"21 Maryland Ave.","lat":39.083688,"libraryname":"Rockville Branch Library","state":"MD"},"type":"Feature","geometry":{"type":"Point","coordinates":[-77.151106,39.083688]}},{"properties":{"city":"Baltimore","lon":-76.634791,"zip":21210,"librarysystem":"Baltimore City Library","phone":"Phone: 410-396-6099","id":"a672lqnf37l9","address":"5108 Roland Avenue","lat":39.35581,"libraryname":"Roland Park Branch","state":"MD"},"type":"Feature","geometry":{"type":"Point","coordinates":[-76.634791,39.35581]}},{"properties":{"city":"Baltimore","lon":-76.505368,"zip":21237,"librarysystem":"Baltimore County Library","phone":"Phone: 410-887-0512","id":"a672lqiy29kl","address":"6105 Kenwood Ave.","lat":39.343472,"libraryname":"Rosedale Library","state":"MD"},"type":"Feature","geometry":{"type":"Point","coordinates":[-76.505368,39.343472]}},{"properties":{"city":"Laurel","lon":-76.835976,"zip":20723,"librarysystem":"Howard County Library","phone":"Phone: 410-880-5980","id":"a672lqmclzwm","address":"9525 Durness Lane","lat":39.132487,"libraryname":"Savage Branch Library","state":"MD"},"type":"Feature","geometry":{"type":"Point","coordinates":[-76.835976,39.132487]}},{"properties":{"city":"Severna Park","lon":-76.54219,"zip":21146,"librarysystem":"Anne Arundel County Public Library","phone":"Phone: 410-222-6290","id":"a672lqfv8vnz","address":"45 McKinsey Road","lat":39.075017,"libraryname":"Severna Park Area Branch","state":"MD"},"type":"Feature","geometry":{"type":"Point","coordinates":[-76.54219,39.075017]}},{"properties":{"city":"Silver Spring","lon":-77.025259,"zip":20910,"librarysystem":"Montgomery County Library","phone":"Phone: 240-773-9420","id":"a672lqlpc5ep","address":"8901 Colesville Road","lat":39.000991,"libraryname":"Silver Spring Branch Library","state":"MD"},"type":"Feature","geometry":{"type":"Point","coordinates":[-77.025259,39.000991]}},{"properties":{"city":"Snow Hill","lon":-75.393856,"zip":21863,"librarysystem":"Worcester County Library","phone":"Phone: 410-632-2600","id":"a672lqqantmz","address":"307 North Washington St.","lat":38.178156,"libraryname":"Snow Hill Branch Library","state":"MD"},"type":"Feature","geometry":{"type":"Point","coordinates":[-75.393856,38.178156]}},{"properties":{"city":"Princess Anne","lon":-75.692181,"zip":21853,"librarysystem":"Somerset County Library","phone":"Phone: 410-651-0852","id":"a672lqkjng0i","address":"11767 Beechwood Street","lat":38.204209,"libraryname":"Somerset County Library - Headquarters","state":"MD"},"type":"Feature","geometry":{"type":"Point","coordinates":[-75.692181,38.204209]}},{"properties":{"city":"Deale","lon":-76.552534,"zip":20751,"librarysystem":"Anne Arundel County Public Library","phone":"Phone: 410-222-1925","id":"a672lqr1d42t","address":"5940 Deale-Churchton Road","lat":38.783824,"libraryname":"South County Branch","state":"MD"},"type":"Feature","geometry":{"type":"Point","coordinates":[-76.552534,38.783824]}},{"properties":{"city":"Cumberland","lon":-78.759336,"zip":21502,"librarysystem":"Allegheny County Library","phone":"Phone: 301-724-1607","id":"a672lqqtvl85","address":"100 Seymour Street","lat":39.637094,"libraryname":"South Cumberland Library","state":"MD"},"type":"Feature","geometry":{"type":"Point","coordinates":[-78.759336,39.637094]}},{"properties":{"city":"District Heights","lon":-76.905912,"zip":20747,"librarysystem":"Prince George County Library","phone":"Phone: 301-817-3750","id":"a672lqo2u2ui","address":"5811 Old Silver Hill Rd.","lat":38.853688,"libraryname":"Spauldings Branch Library","state":"MD"},"type":"Feature","geometry":{"type":"Point","coordinates":[-76.905912,38.853688]}},{"properties":{"city":"Bethesda","lon":-77.127391,"zip":20817,"librarysystem":"Montgomery County Library","phone":"Phone: 240-777-0960","id":"a672lqszfz31","address":"6400 Democracy Blvd.","lat":39.023839,"libraryname":"Special Needs Library","state":"MD"},"type":"Feature","geometry":{"type":"Point","coordinates":[-77.127391,39.023839]}},{"properties":{"city":"St. Michaels","lon":-76.225464,"zip":21663,"librarysystem":"Talbot County Library","phone":"Phone: 410-745-5877","id":"a672lqnq29vq","address":"106 Fremont St.","lat":38.786665,"libraryname":"St. Michaels Branch Library","state":"MD"},"type":"Feature","geometry":{"type":"Point","coordinates":[-76.225464,38.786665]}},{"properties":{"city":"Clinton","lon":-76.915194,"zip":20735,"librarysystem":"Prince George County Library","phone":"Phone: 301-868-9200","id":"a672lqjfzill","address":"9400 Piscataway RD.","lat":38.761241,"libraryname":"Surratts-Clinton Branch Library","state":"MD"},"type":"Feature","geometry":{"type":"Point","coordinates":[-76.915194,38.761241]}},{"properties":{"city":"Taneytown","lon":-77.160339,"zip":21787,"librarysystem":"Carroll County Library","phone":"Phone: 410-386-4510","id":"a672lqpiqhf7","address":"10 Grand Drive","lat":39.649532,"libraryname":"Taneytown Branch","state":"MD"},"type":"Feature","geometry":{"type":"Point","coordinates":[-77.160339,39.649532]}},{"properties":{"city":"Thurmont","lon":-77.411847,"zip":21788,"librarysystem":"Frederick County  Library","phone":"Phone: 301-271-7721","id":"a672lqeh66jn","address":"11 Water Street","lat":39.623229,"libraryname":"Thurmont Branch Library","state":"MD"},"type":"Feature","geometry":{"type":"Point","coordinates":[-77.411847,39.623229]}},{"properties":{"city":"Tilghman","lon":-76.338105,"zip":21671,"librarysystem":"Talbot County Library","phone":"Phone: 410-886-9816","id":"a672lqeex9mj","address":"21374 Foster Avenue","lat":38.712426,"libraryname":"Tilghman Branch Library","state":"MD"},"type":"Feature","geometry":{"type":"Point","coordinates":[-76.338105,38.712426]}},{"properties":{"city":"Towson","lon":-76.602748,"zip":21204,"librarysystem":"Baltimore County Library","phone":"Phone: 410-887-6166","id":"a672lqf6x90o","address":"320 York Rd.","lat":39.398557,"libraryname":"Towson Library","state":"MD"},"type":"Feature","geometry":{"type":"Point","coordinates":[-76.602748,39.398557]}},{"properties":{"city":"Rockville","lon":-77.113594,"zip":20851,"librarysystem":"Montgomery County Library","phone":"Phone: 240-777-0240","id":"a672lqs6xrfa","address":"202 Meadow Hall Drive","lat":39.074629,"libraryname":"Twinbrook Branch Library","state":"MD"},"type":"Feature","geometry":{"type":"Point","coordinates":[-77.113594,39.074629]}},{"properties":{"city":"Upper Marlboro","lon":-76.750613,"zip":20772,"librarysystem":"Prince George County Library","phone":"Phone: 301-627-9330","id":"a672lqg1llvo","address":"14730 Main St.","lat":38.816838,"libraryname":"Upper Marlboro Branch Library","state":"MD"},"type":"Feature","geometry":{"type":"Point","coordinates":[-76.750613,38.816838]}},{"properties":{"city":"Baltimore","lon":-76.671154,"zip":21216,"librarysystem":"Baltimore City Library","phone":"Phone: 410-396-0935","id":"a672lqf7dc6o","address":"3203 W. North Avenue","lat":39.308855,"libraryname":"Walbrook Branch","state":"MD"},"type":"Feature","geometry":{"type":"Point","coordinates":[-76.671154,39.308855]}},{"properties":{"city":"Walkersville","lon":-77.354815,"zip":21793,"librarysystem":"Frederick County  Library","phone":"Phone: 301-845-8880","id":"a672lqjoa9om","address":"57 West Frederick Street","lat":39.478917,"libraryname":"Walkersville Branch Library","state":"MD"},"type":"Feature","geometry":{"type":"Point","coordinates":[-77.354815,39.478917]}},{"properties":{"city":"Hagerstown","lon":-77.721689,"zip":21740,"librarysystem":"Washington County Library","phone":"Phone: 301-739-3250","id":"a672lqqcbu6q","address":"100 South Potomac St.","lat":39.639993,"libraryname":"Washington County Free Library","state":"MD"},"type":"Feature","geometry":{"type":"Point","coordinates":[-77.721689,39.639993]}},{"properties":{"city":"Cumberland","lon":-78.766563,"zip":21502,"librarysystem":"Allegheny County Library","phone":"Phone: 301-777-1200","id":"a672lqdanac0","address":"31 Washington Street","lat":39.651055,"libraryname":"Washington Street Library","state":"MD"},"type":"Feature","geometry":{"type":"Point","coordinates":[-78.766563,39.651055]}},{"properties":{"city":"Baltimore","lon":-76.630219,"zip":21230,"librarysystem":"Baltimore City Library","phone":"Phone: 410-396-1099","id":"a672lqlw3d2q","address":"856 Washington Boulevard","lat":39.283022,"libraryname":"Washington Village Branch","state":"MD"},"type":"Feature","geometry":{"type":"Point","coordinates":[-76.630219,39.283022]}},{"properties":{"city":"Baltimore","lon":-76.610964,"zip":21218,"librarysystem":"Baltimore City Library","phone":"Phone: 410-396-6053","id":"a672lqj9h8bw","address":"400 E. 33rd Street","lat":39.328509,"libraryname":"Waverly Branch","state":"MD"},"type":"Feature","geometry":{"type":"Point","coordinates":[-76.610964,39.328509]}},{"properties":{"city":"Odenton","lon":-76.702151,"zip":21113,"librarysystem":"Anne Arundel County Public Library","phone":"Phone: 410-222-6277","id":"a672lqkdgsnd","address":"1325 Annapolis Road","lat":39.088886,"libraryname":"West County Area Library","state":"MD"},"type":"Feature","geometry":{"type":"Point","coordinates":[-76.702151,39.088886]}},{"properties":{"city":"Westernport","lon":-79.044639,"zip":21562,"librarysystem":"Allegheny County Library","phone":"Phone: 301-359-0455","id":"a672lqjejg7u","address":"66 Main Street","lat":39.485481,"libraryname":"Westernport Library","state":"MD"},"type":"Feature","geometry":{"type":"Point","coordinates":[-79.044639,39.485481]}},{"properties":{"city":"Westminster","lon":-76.995119,"zip":21157,"librarysystem":"Carroll County Library","phone":"Phone: 410-386-4490","id":"a672lqdd28jc","address":"50 East Main Street","lat":39.574104,"libraryname":"Westminster Branch","state":"MD"},"type":"Feature","geometry":{"type":"Point","coordinates":[-76.995119,39.574104]}},{"properties":{"city":"Wheaton","lon":-77.051854,"zip":20902,"librarysystem":"Montgomery County Library","phone":"Phone: 240-777-0678","id":"a672lqo895ys","address":"11701 Georgia Ave.","lat":39.047266,"libraryname":"Wheaton Branch Library","state":"MD"},"type":"Feature","geometry":{"type":"Point","coordinates":[-77.051854,39.047266]}},{"properties":{"city":"Baltimore","lon":-76.472159,"zip":21236,"librarysystem":"Baltimore County Library","phone":"Phone: 410-887-5097","id":"a672lqljlp13","address":"8133 Sandpiper Circle","lat":39.370348,"libraryname":"White Marsh Library","state":"MD"},"type":"Feature","geometry":{"type":"Point","coordinates":[-76.472159,39.370348]}},{"properties":{"city":"Silver Spring","lon":-76.992717,"zip":20904,"librarysystem":"Montgomery County Library","phone":"Phone: 301-622-2492","id":"a672lqkd17tj","address":"11701 New Hampshire Ave.","lat":39.047769,"libraryname":"White Oak Branch Library","state":"MD"},"type":"Feature","geometry":{"type":"Point","coordinates":[-76.992717,39.047769]}},{"properties":{"city":"Whiteford","lon":-76.346267,"zip":21160,"librarysystem":"Harford County Library","phone":"Phone: 410-638-3608","id":"a672lqpjvawr","address":"2407 Whiteford Road","lat":39.709672,"libraryname":"Whiteford Branch Library","state":"MD"},"type":"Feature","geometry":{"type":"Point","coordinates":[-76.346267,39.709672]}},{"properties":{"city":"Salisbury","lon":-75.600819,"zip":21801,"librarysystem":"Wicomico County Library","phone":"Phone: 410-749-3612","id":"a672lqqxiug6","address":"122 S. Division Street","lat":38.365125,"libraryname":"Wicomico County Free Library - Main Library","state":"MD"},"type":"Feature","geometry":{"type":"Point","coordinates":[-75.600819,38.365125]}},{"properties":{"city":"Willards","lon":-75.348919,"zip":21874,"librarysystem":"Wicomico County Library","phone":"Phone: 410-835-2353","id":"a672lqs0ftkp","address":"Canal &amp; Hearne St","lat":38.39133,"libraryname":"Willards Station Library","state":"MD"},"type":"Feature","geometry":{"type":"Point","coordinates":[-75.348919,38.39133]}},{"properties":{"city":"Baltimore","lon":-76.737137,"zip":21207,"librarysystem":"Baltimore County Library","phone":"Phone: 410-887-1336","id":"a672lqo7w4yh","address":"1811 Woodlawn Dr.","lat":39.317149,"libraryname":"Woodlawn Library","state":"MD"},"type":"Feature","geometry":{"type":"Point","coordinates":[-76.737137,39.317149]}}],"is_temporal":false,"author":{"url":"http://www.publiclibraries.com/maryland.htm","metadata":"","contact_name":"","contact_address":"","source":"publiclibrairies.com","contact_phone":""},"source":"http://www.publiclibraries.com/maryland.htm","pagination":{"sort":null,"start":0,"total":178,"limit":1000000},"state":"complete","tags":"books,education,libraries,library,maryland,public","published":"2008-05-09T12:00:00Z","id":903}