{"type":"FeatureCollection","data_type":"Dataset","url_type":null,"permissions":[{"permissions":{"download":true,"view":true},"group_id":"everyone"}],"classification":null,"title":"alhambra crime sheet feb 2","count":50,"stream_id":90401,"contributor":{"url":"http://geocommons.com/users/21500","name":"alhambrasource"},"data_attributes":null,"calculation_params":null,"icon_link":null,"link":"http://geocommons.com/overlays/90401.json","extent":[-118.16,34.0674,-118.117,34.1035],"geometry_types":["point"],"unique_name":null,"name":"alhambra crime sheet feb 2","feature_count":50,"description":"","next_feature":null,"is_raster":false,"short_classification":"Y","stats":{"code":{"max":5,"mean":2.84,"variance":1.6065306122449,"stdev":1.26748988644679,"min":1,"median":2},"date":{"max":"2011/01/23 00:00:00 -0500","mean":"2011/01/19 12:00:00 -0500","variance":31459474285.7143,"stdev":177368.188482925,"min":"2011/01/17 00:00:00 -0500","median":"2011/01/19 00:00:00 -0500"}},"features":[{"properties":{"city":"Alhambra, CA","code":1,"date":{"end_time":"2011/01/18 00:00:00 -0500","original":"17-Jan-11","granularity":"day","time":"2011/01/17 00:00:00 -0500"},"type of crime":"grand theft","geo_score":0.684,"id":"a65vxqie7s9y","address":"1600 block of Westmont Drive","geo_precision":"range","state":"California"},"type":"Feature","geometry":{"type":"Point","coordinates":[-118.159984,34.074311]}},{"properties":{"city":"Alhambra, CA","code":2,"date":{"end_time":"2011/01/18 00:00:00 -0500","original":"17-Jan-11","granularity":"day","time":"2011/01/17 00:00:00 -0500"},"type of crime":"burglary","geo_score":0.691,"id":"a65vxq39bwxd","address":"2800 block of West Valley Boulevard","geo_precision":"range","state":"California"},"type":"Feature","geometry":{"type":"Point","coordinates":[-118.153514,34.076756]}},{"properties":{"city":"Alhambra, CA","code":1,"date":{"end_time":"2011/01/18 00:00:00 -0500","original":"17-Jan-11","granularity":"day","time":"2011/01/17 00:00:00 -0500"},"type of crime":"grand theft","geo_score":0.682,"id":"a65vxq9pp567","address":"1100 block of West Stoneman Avenue","geo_precision":"range","state":"California"},"type":"Feature","geometry":{"type":"Point","coordinates":[-118.121947,34.082797]}},{"properties":{"city":"Alhambra, CA","code":2,"date":{"end_time":"2011/01/18 00:00:00 -0500","original":"17-Jan-11","granularity":"day","time":"2011/01/17 00:00:00 -0500"},"type of crime":"burglary","geo_score":0.659,"id":"a65vxqhrpky0","address":"2200 block of West Main Street","geo_precision":"range","state":"California"},"type":"Feature","geometry":{"type":"Point","coordinates":[-118.146838,34.092227]}},{"properties":{"city":"Alhambra, CA","code":4,"date":{"end_time":"2011/01/18 00:00:00 -0500","original":"17-Jan-11","granularity":"day","time":"2011/01/17 00:00:00 -0500"},"type of crime":"hit and run","geo_score":0.691,"id":"a65vxqch9e4m","address":"800 block of South Almansor Street","geo_precision":"range","state":"California"},"type":"Feature","geometry":{"type":"Point","coordinates":[-118.116949,34.086869]}},{"properties":{"city":"Alhambra, CA","code":2,"date":{"end_time":"2011/01/18 00:00:00 -0500","original":"17-Jan-11","granularity":"day","time":"2011/01/17 00:00:00 -0500"},"type of crime":"burglary","geo_score":0.684,"id":"a65vxq56vkvj","address":"100 block of North Chapel Avenue","geo_precision":"range","state":"California"},"type":"Feature","geometry":{"type":"Point","coordinates":[-118.124232,34.0975]}},{"properties":{"city":"Alhambra, CA","code":2,"date":{"end_time":"2011/01/18 00:00:00 -0500","original":"17-Jan-11","granularity":"day","time":"2011/01/17 00:00:00 -0500"},"type of crime":"burglary","geo_score":0.691,"id":"a65vxq7gapx5","address":"220 block of West Alhambra Road","geo_precision":"range","state":"California"},"type":"Feature","geometry":{"type":"Point","coordinates":[-118.132958,34.099531]}},{"properties":{"city":"Alhambra, CA","code":1,"date":{"end_time":"2011/01/19 00:00:00 -0500","original":"18-Jan-11","granularity":"day","time":"2011/01/18 00:00:00 -0500"},"type of crime":"grand theft","geo_score":0.566,"id":"a65vxq868vif","address":"1600 block of South Grandada Avenue","geo_precision":"city","state":"California"},"type":"Feature","geometry":{"type":"Point","coordinates":[-118.127015,34.095287]}},{"properties":{"city":"Alhambra, CA","code":2,"date":{"end_time":"2011/01/20 00:00:00 -0500","original":"19-Jan-11","granularity":"day","time":"2011/01/19 00:00:00 -0500"},"type of crime":"burglary","geo_score":0.659,"id":"a65vxq6a1nxa","address":"1200 block of South Edith Avenue","geo_precision":"range","state":"California"},"type":"Feature","geometry":{"type":"Point","coordinates":[-118.136353,34.079408]}},{"properties":{"city":"Alhambra, CA","code":4,"date":{"end_time":"2011/01/20 00:00:00 -0500","original":"19-Jan-11","granularity":"day","time":"2011/01/19 00:00:00 -0500"},"type of crime":"hit and run","geo_score":0.482,"id":"a65vxq7q46kt","address":"Garfield Avenue and Valley Boulevard","geo_precision":"street","state":"California"},"type":"Feature","geometry":{"type":"Point","coordinates":[-118.121893,34.078633]}},{"properties":{"city":"Alhambra, CA","code":2,"date":{"end_time":"2011/01/20 00:00:00 -0500","original":"19-Jan-11","granularity":"day","time":"2011/01/19 00:00:00 -0500"},"type of crime":"burglary","geo_score":0.5,"id":"a65vxqhnczsa","address":"Benito Avenue and Valley Boulevard","geo_precision":"street","state":"California"},"type":"Feature","geometry":{"type":"Point","coordinates":[-118.121893,34.078633]}},{"properties":{"city":"Alhambra, CA","code":2,"date":{"end_time":"2011/01/20 00:00:00 -0500","original":"19-Jan-11","granularity":"day","time":"2011/01/19 00:00:00 -0500"},"type of crime":"burglary","geo_score":0.697,"id":"a65vxqf10ohj","address":"900 block of North Stoneman Avenue","geo_precision":"range","state":"California"},"type":"Feature","geometry":{"type":"Point","coordinates":[-118.131435,34.103533]}},{"properties":{"city":"Alhambra, CA","code":4,"date":{"end_time":"2011/01/20 00:00:00 -0500","original":"19-Jan-11","granularity":"day","time":"2011/01/19 00:00:00 -0500"},"type of crime":"hit and run","geo_score":0.5,"id":"a65vxq9stvgo","address":"Concord Street and Fremont Avenue","geo_precision":"street","state":"California"},"type":"Feature","geometry":{"type":"Point","coordinates":[-118.152076,34.095231]}},{"properties":{"city":"Alhambra, CA","code":4,"date":{"end_time":"2011/01/22 00:00:00 -0500","original":"21-Jan-11","granularity":"day","time":"2011/01/21 00:00:00 -0500"},"type of crime":"hit and run","geo_score":0.691,"id":"a65vxq9510yr","address":"1000 block of South Fremont Avenue","geo_precision":"range","state":"California"},"type":"Feature","geometry":{"type":"Point","coordinates":[-118.151894,34.084061]}},{"properties":{"city":"Alhambra, CA","code":1,"date":{"end_time":"2011/01/21 00:00:00 -0500","original":"20-Jan-11","granularity":"day","time":"2011/01/20 00:00:00 -0500"},"type of crime":"grand theft","geo_score":0.691,"id":"a65vxqgoqz4k","address":"400 block of South Monterey Street","geo_precision":"range","state":"California"},"type":"Feature","geometry":{"type":"Point","coordinates":[-118.121918,34.09214]}},{"properties":{"city":"Alhambra, CA","code":4,"date":{"end_time":"2011/01/21 00:00:00 -0500","original":"20-Jan-11","granularity":"day","time":"2011/01/20 00:00:00 -0500"},"type of crime":"hit and run","geo_score":0.707,"id":"a65vxq87ja9g","address":"1500 block of South Marguerita Avenue","geo_precision":"range","state":"California"},"type":"Feature","geometry":{"type":"Point","coordinates":[-118.138159,34.076611]}},{"properties":{"city":"Alhambra, CA","code":2,"date":{"end_time":"2011/01/21 00:00:00 -0500","original":"20-Jan-11","granularity":"day","time":"2011/01/20 00:00:00 -0500"},"type of crime":"burglary","geo_score":0.659,"id":"a65vxqfa7wao","address":"400 block of East Main Street","geo_precision":"range","state":"California"},"type":"Feature","geometry":{"type":"Point","coordinates":[-118.12254,34.097193]}},{"properties":{"city":"Alhambra, CA","code":4,"date":{"end_time":"2011/01/22 00:00:00 -0500","original":"21-Jan-11","granularity":"day","time":"2011/01/21 00:00:00 -0500"},"type of crime":"hit and run","geo_score":0.667,"id":"a65vxq7qe7f5","address":"2500 block of South Aurora Terrace","geo_precision":"range","state":"California"},"type":"Feature","geometry":{"type":"Point","coordinates":[-118.149234,34.067414]}},{"properties":{"city":"Alhambra, CA","code":4,"date":{"end_time":"2011/01/23 00:00:00 -0500","original":"22-Jan-11","granularity":"day","time":"2011/01/22 00:00:00 -0500"},"type of crime":"hit and run","geo_score":0.649,"id":"a65vxq95p5lk","address":"1900 block of South Date Avenue","geo_precision":"range","state":"California"},"type":"Feature","geometry":{"type":"Point","coordinates":[-118.147525,34.07201]}},{"properties":{"city":"Alhambra, CA","code":4,"date":{"end_time":"2011/01/23 00:00:00 -0500","original":"22-Jan-11","granularity":"day","time":"2011/01/22 00:00:00 -0500"},"type of crime":"hit and run","geo_score":0.548,"id":"a65vxqc5cgof","address":"Elm Street and Hellman Avenue","geo_precision":"street","state":"California"},"type":"Feature","geometry":{"type":"Point","coordinates":[-118.121804,34.069773]}},{"properties":{"city":"Alhambra, CA","code":4,"date":{"end_time":"2011/01/23 00:00:00 -0500","original":"22-Jan-11","granularity":"day","time":"2011/01/22 00:00:00 -0500"},"type of crime":"hit and run","geo_score":0.691,"id":"a65vxqeosuah","address":"500 block of West Valley Boulevard","geo_precision":"range","state":"California"},"type":"Feature","geometry":{"type":"Point","coordinates":[-118.128048,34.078291]}},{"properties":{"city":"Alhambra, CA","code":4,"date":{"end_time":"2011/01/23 00:00:00 -0500","original":"22-Jan-11","granularity":"day","time":"2011/01/22 00:00:00 -0500"},"type of crime":"hit and run","geo_score":0.472,"id":"a65vxq8lmrui","address":"Garfield Avenue and Norwood Place","geo_precision":"street","state":"California"},"type":"Feature","geometry":{"type":"Point","coordinates":[-118.126868,34.09516]}},{"properties":{"city":"Alhambra, CA","code":2,"date":{"end_time":"2011/01/23 00:00:00 -0500","original":"22-Jan-11","granularity":"day","time":"2011/01/22 00:00:00 -0500"},"type of crime":"burglary","geo_score":0.565,"id":"a65vxqemy0f1","address":"1700 block of South Fifth Street","geo_precision":"range","state":"California"},"type":"Feature","geometry":{"type":"Point","coordinates":[-118.128008,34.074987]}},{"properties":{"city":"Alhambra, CA","code":5,"date":{"end_time":"2011/01/23 00:00:00 -0500","original":"22-Jan-11","granularity":"day","time":"2011/01/22 00:00:00 -0500"},"type of crime":"robbery","geo_score":0.5,"id":"a65vxq96oww2","address":"Garfield Avenue and Main Street","geo_precision":"street","state":"California"},"type":"Feature","geometry":{"type":"Point","coordinates":[-118.126868,34.09516]}},{"properties":{"city":"Alhambra, CA","code":4,"date":{"end_time":"2011/01/24 00:00:00 -0500","original":"23-Jan-11","granularity":"day","time":"2011/01/23 00:00:00 -0500"},"type of crime":"hit and run","geo_score":0.659,"id":"a65vxqfd4mbo","address":"220 block of East Main Street","geo_precision":"range","state":"California"},"type":"Feature","geometry":{"type":"Point","coordinates":[-118.124631,34.096215]}},{"properties":{"city":"Alhambra, CA","code":1,"date":{"end_time":"2011/01/18 00:00:00 -0500","original":"17-Jan-11","granularity":"day","time":"2011/01/17 00:00:00 -0500"},"type of crime":"grand theft","geo_score":0.684,"id":"a65vxq6h01i4","address":"1600 block of Westmont Drive","geo_precision":"range","state":"California"},"type":"Feature","geometry":{"type":"Point","coordinates":[-118.159984,34.074311]}},{"properties":{"city":"Alhambra, CA","code":2,"date":{"end_time":"2011/01/18 00:00:00 -0500","original":"17-Jan-11","granularity":"day","time":"2011/01/17 00:00:00 -0500"},"type of crime":"burglary","geo_score":0.691,"id":"a65vxq6jdlga","address":"2800 block of West Valley Boulevard","geo_precision":"range","state":"California"},"type":"Feature","geometry":{"type":"Point","coordinates":[-118.153514,34.076756]}},{"properties":{"city":"Alhambra, CA","code":1,"date":{"end_time":"2011/01/18 00:00:00 -0500","original":"17-Jan-11","granularity":"day","time":"2011/01/17 00:00:00 -0500"},"type of crime":"grand theft","geo_score":0.682,"id":"a65vxq52iodf","address":"1100 block of West Stoneman Avenue","geo_precision":"range","state":"California"},"type":"Feature","geometry":{"type":"Point","coordinates":[-118.121947,34.082797]}},{"properties":{"city":"Alhambra, CA","code":2,"date":{"end_time":"2011/01/18 00:00:00 -0500","original":"17-Jan-11","granularity":"day","time":"2011/01/17 00:00:00 -0500"},"type of crime":"burglary","geo_score":0.659,"id":"a65vxqh39c2z","address":"2200 block of West Main Street","geo_precision":"range","state":"California"},"type":"Feature","geometry":{"type":"Point","coordinates":[-118.146838,34.092227]}},{"properties":{"city":"Alhambra, CA","code":4,"date":{"end_time":"2011/01/18 00:00:00 -0500","original":"17-Jan-11","granularity":"day","time":"2011/01/17 00:00:00 -0500"},"type of crime":"hit and run","geo_score":0.691,"id":"a65vxqifomfk","address":"800 block of South Almansor Street","geo_precision":"range","state":"California"},"type":"Feature","geometry":{"type":"Point","coordinates":[-118.116949,34.086869]}},{"properties":{"city":"Alhambra, CA","code":2,"date":{"end_time":"2011/01/18 00:00:00 -0500","original":"17-Jan-11","granularity":"day","time":"2011/01/17 00:00:00 -0500"},"type of crime":"burglary","geo_score":0.684,"id":"a65vxqihv03c","address":"100 block of North Chapel Avenue","geo_precision":"range","state":"California"},"type":"Feature","geometry":{"type":"Point","coordinates":[-118.124232,34.0975]}},{"properties":{"city":"Alhambra, CA","code":2,"date":{"end_time":"2011/01/18 00:00:00 -0500","original":"17-Jan-11","granularity":"day","time":"2011/01/17 00:00:00 -0500"},"type of crime":"burglary","geo_score":0.691,"id":"a65vxqchibtm","address":"220 block of West Alhambra Road","geo_precision":"range","state":"California"},"type":"Feature","geometry":{"type":"Point","coordinates":[-118.132958,34.099531]}},{"properties":{"city":"Alhambra, CA","code":1,"date":{"end_time":"2011/01/18 00:00:00 -0500","original":"17-Jan-11","granularity":"day","time":"2011/01/17 00:00:00 -0500"},"type of crime":"grand theft","geo_score":0.566,"id":"a65vxq6mwx4v","address":"1600 block of South Grandada Avenue","geo_precision":"city","state":"California"},"type":"Feature","geometry":{"type":"Point","coordinates":[-118.127015,34.095287]}},{"properties":{"city":"Alhambra, CA","code":2,"date":{"end_time":"2011/01/20 00:00:00 -0500","original":"19-Jan-11","granularity":"day","time":"2011/01/19 00:00:00 -0500"},"type of crime":"burglary","geo_score":0.659,"id":"a65vxq3vakgg","address":"1200 block of South Edith Avenue","geo_precision":"range","state":"California"},"type":"Feature","geometry":{"type":"Point","coordinates":[-118.136353,34.079408]}},{"properties":{"city":"Alhambra, CA","code":4,"date":{"end_time":"2011/01/20 00:00:00 -0500","original":"19-Jan-11","granularity":"day","time":"2011/01/19 00:00:00 -0500"},"type of crime":"hit and run","geo_score":0.482,"id":"a65vxqc068j0","address":"Garfield Avenue and Valley Boulevard","geo_precision":"street","state":"California"},"type":"Feature","geometry":{"type":"Point","coordinates":[-118.121893,34.078633]}},{"properties":{"city":"Alhambra, CA","code":2,"date":{"end_time":"2011/01/20 00:00:00 -0500","original":"19-Jan-11","granularity":"day","time":"2011/01/19 00:00:00 -0500"},"type of crime":"burglary","geo_score":0.5,"id":"a65vxqavyh75","address":"Benito Avenue and Valley Boulevard","geo_precision":"street","state":"California"},"type":"Feature","geometry":{"type":"Point","coordinates":[-118.121893,34.078633]}},{"properties":{"city":"Alhambra, CA","code":2,"date":{"end_time":"2011/01/20 00:00:00 -0500","original":"19-Jan-11","granularity":"day","time":"2011/01/19 00:00:00 -0500"},"type of crime":"burglary","geo_score":0.697,"id":"a65vxq92vzh0","address":"900 block of North Stoneman Avenue","geo_precision":"range","state":"California"},"type":"Feature","geometry":{"type":"Point","coordinates":[-118.131435,34.103533]}},{"properties":{"city":"Alhambra, CA","code":4,"date":{"end_time":"2011/01/20 00:00:00 -0500","original":"19-Jan-11","granularity":"day","time":"2011/01/19 00:00:00 -0500"},"type of crime":"hit and run","geo_score":0.5,"id":"a65vxq8peimz","address":"Concord Street and Fremont Avenue","geo_precision":"street","state":"California"},"type":"Feature","geometry":{"type":"Point","coordinates":[-118.152076,34.095231]}},{"properties":{"city":"Alhambra, CA","code":4,"date":{"end_time":"2011/01/20 00:00:00 -0500","original":"19-Jan-11","granularity":"day","time":"2011/01/19 00:00:00 -0500"},"type of crime":"hit and run","geo_score":0.691,"id":"a65vxqfgiw2b","address":"1000 block of South Fremont Avenue","geo_precision":"range","state":"California"},"type":"Feature","geometry":{"type":"Point","coordinates":[-118.151894,34.084061]}},{"properties":{"city":"Alhambra, CA","code":1,"date":{"end_time":"2011/01/21 00:00:00 -0500","original":"20-Jan-11","granularity":"day","time":"2011/01/20 00:00:00 -0500"},"type of crime":"grand theft","geo_score":0.691,"id":"a65vxqft2n2t","address":"400 block of South Monterey Street","geo_precision":"range","state":"California"},"type":"Feature","geometry":{"type":"Point","coordinates":[-118.121918,34.09214]}},{"properties":{"city":"Alhambra, CA","code":4,"date":{"end_time":"2011/01/21 00:00:00 -0500","original":"20-Jan-11","granularity":"day","time":"2011/01/20 00:00:00 -0500"},"type of crime":"hit and run","geo_score":0.707,"id":"a65vxqbvi0x4","address":"1500 block of South Marguerita Avenue","geo_precision":"range","state":"California"},"type":"Feature","geometry":{"type":"Point","coordinates":[-118.138159,34.076611]}},{"properties":{"city":"Alhambra, CA","code":2,"date":{"end_time":"2011/01/21 00:00:00 -0500","original":"20-Jan-11","granularity":"day","time":"2011/01/20 00:00:00 -0500"},"type of crime":"burglary","geo_score":0.659,"id":"a65vxq5cthb7","address":"400 block of East Main Street","geo_precision":"range","state":"California"},"type":"Feature","geometry":{"type":"Point","coordinates":[-118.12254,34.097193]}},{"properties":{"city":"Alhambra, CA","code":4,"date":{"end_time":"2011/01/22 00:00:00 -0500","original":"21-Jan-11","granularity":"day","time":"2011/01/21 00:00:00 -0500"},"type of crime":"hit and run","geo_score":0.667,"id":"a65vxq2d0gnl","address":"2500 block of South Aurora Terrace","geo_precision":"range","state":"California"},"type":"Feature","geometry":{"type":"Point","coordinates":[-118.149234,34.067414]}},{"properties":{"city":"Alhambra, CA","code":4,"date":{"end_time":"2011/01/23 00:00:00 -0500","original":"22-Jan-11","granularity":"day","time":"2011/01/22 00:00:00 -0500"},"type of crime":"hit and run","geo_score":0.649,"id":"a65vxqgyyz13","address":"1900 block of South Date Avenue","geo_precision":"range","state":"California"},"type":"Feature","geometry":{"type":"Point","coordinates":[-118.147525,34.07201]}},{"properties":{"city":"Alhambra, CA","code":4,"date":{"end_time":"2011/01/23 00:00:00 -0500","original":"22-Jan-11","granularity":"day","time":"2011/01/22 00:00:00 -0500"},"type of crime":"hit and run","geo_score":0.548,"id":"a65vxq63ngzp","address":"Elm Street and Hellman Avenue","geo_precision":"street","state":"California"},"type":"Feature","geometry":{"type":"Point","coordinates":[-118.121804,34.069773]}},{"properties":{"city":"Alhambra, CA","code":4,"date":{"end_time":"2011/01/23 00:00:00 -0500","original":"22-Jan-11","granularity":"day","time":"2011/01/22 00:00:00 -0500"},"type of crime":"hit and run","geo_score":0.691,"id":"a65vxq4agyy0","address":"500 block of West Valley Boulevard","geo_precision":"range","state":"California"},"type":"Feature","geometry":{"type":"Point","coordinates":[-118.128048,34.078291]}},{"properties":{"city":"Alhambra, CA","code":4,"date":{"end_time":"2011/01/23 00:00:00 -0500","original":"22-Jan-11","granularity":"day","time":"2011/01/22 00:00:00 -0500"},"type of crime":"hit and run","geo_score":0.472,"id":"a65vxq9lzvxw","address":"Garfield Avenue and Norwood Place","geo_precision":"street","state":"California"},"type":"Feature","geometry":{"type":"Point","coordinates":[-118.126868,34.09516]}},{"properties":{"city":"Alhambra, CA","code":2,"date":{"end_time":"2011/01/23 00:00:00 -0500","original":"22-Jan-11","granularity":"day","time":"2011/01/22 00:00:00 -0500"},"type of crime":"burglary","geo_score":0.565,"id":"a65vxq2drnz2","address":"1700 block of South Fifth Street","geo_precision":"range","state":"California"},"type":"Feature","geometry":{"type":"Point","coordinates":[-118.128008,34.074987]}},{"properties":{"city":"Alhambra, CA","code":5,"date":{"end_time":"2011/01/23 00:00:00 -0500","original":"22-Jan-11","granularity":"day","time":"2011/01/22 00:00:00 -0500"},"type of crime":"robbery","geo_score":0.5,"id":"a65vxqanzhiw","address":"Garfield Avenue and Main Street","geo_precision":"street","state":"California"},"type":"Feature","geometry":{"type":"Point","coordinates":[-118.126868,34.09516]}},{"properties":{"city":"Alhambra, CA","code":4,"date":{"end_time":"2011/01/24 00:00:00 -0500","original":"23-Jan-11","granularity":"day","time":"2011/01/23 00:00:00 -0500"},"type of crime":"hit and run","geo_score":0.659,"id":"a65vxq883f1b","address":"220 block of East Main Street","geo_precision":"range","state":"California"},"type":"Feature","geometry":{"type":"Point","coordinates":[-118.124631,34.096215]}}],"is_temporal":true,"author":{"url":"","metadata":"","contact_name":"","contact_address":"","source":"","contact_phone":""},"source":"","pagination":{"sort":null,"start":0,"total":50,"limit":1000000},"state":"complete","tags":"","published":"2014-08-10T11:29:56-04:00","id":90401}