{"type":"FeatureCollection","data_type":"Dataset","url_type":null,"permissions":[{"permissions":{"download":true,"view":true},"group_id":"everyone"}],"classification":null,"title":"Mako Surgeons","count":40,"stream_id":90563,"contributor":{"url":"http://geocommons.com/users/21668","name":"leosuccar"},"data_attributes":null,"calculation_params":null,"icon_link":null,"link":"http://geocommons.com/overlays/90563.json","extent":[-122.65,25.7254,-80.0509,47.6124],"geometry_types":["point"],"unique_name":null,"name":"Mako Surgeons","feature_count":40,"description":"","next_feature":null,"is_raster":false,"short_classification":"Y","stats":{"latitude":{"max":47.612423,"mean":31.8817442625,"variance":77.8860872614718,"stdev":8.82530947114444,"min":25.7254061,"median":27.1511298},"longitude":{"max":-80.050914,"mean":-91.5155230425,"variance":321.155282436974,"stdev":17.920805853448,"min":-122.6497446,"median":-82.1381767}},"features":[{"properties":{"city":"Miami","name":"Rafael Fernandez, M.D.","latitude":25.7510188,"zip":"33145","image url":"http://makosurgical.com/site/images/rafaelfernandez.jpg","hospital":"Doctors Hospital - Baptist Health South Florida","website":null,"phone":"305-856-3592","longitude":-80.2239236,"id":"a63iumx6iyul","address":"1797 Coral Way","state":"FL","location":"Orthopedic Associates"},"type":"Feature","geometry":{"type":"Point","coordinates":[-80.2239236,25.7510188]}},{"properties":{"city":"Hialeah","name":"Rodolfo Lawson, M.D.","latitude":25.8400016,"zip":"33155","image url":"http://makosurgical.com/site/images/rodolfolawson.jpg","hospital":"Doctors Hospital - Baptist Health South Florida","website":null,"phone":"305-820-6000","longitude":-80.2303332,"id":"a63iumsw0093","address":"7150 W 20th Ave","state":"FL","location":null},"type":"Feature","geometry":{"type":"Point","coordinates":[-80.2303332,25.8400016]}},{"properties":{"city":"Miami","name":"Richard Levitt, M.D.","latitude":25.7254061,"zip":"33146","image url":"http://makosurgical.com/site/images/richardlevitt.jpg","hospital":"Doctors Hospital - Baptist Health South Florida","website":null,"phone":"786-308-3350","longitude":-80.2735489,"id":"a63iumzj7dha","address":"1150 Campo Sano Ave., #301","state":"FL","location":null},"type":"Feature","geometry":{"type":"Point","coordinates":[-80.2735489,25.7254061]}},{"properties":{"city":"Deland","name":"Mark W. Hollmann, M.D.","latitude":29.042189,"zip":"32720","image url":"http://makosurgical.com/site/images/markhollman.jpg","hospital":"Florida Hospital Deland","website":"http://fl-ortho.net/","phone":"386-734-9122","longitude":-81.317748,"id":"a63iumult32k","address":"740 W Plymouth Ave","state":"FL","location":null},"type":"Feature","geometry":{"type":"Point","coordinates":[-81.317748,29.042189]}},{"properties":{"city":"West Palm Beach","name":"Andrew R. Noble, M.D.","latitude":26.725872,"zip":"33401","image url":"http://makosurgical.com/site/images/andrewnoble.jpg","hospital":"Good Samaritan Medical Center","website":"http://pboi.com","phone":"561-694-7776","longitude":-80.050914,"id":"a63iumlwuh3z","address":"1411 N Flagler Drive, Suite 9800","state":"FL","location":"Palm Beach Orthopaedic Institute"},"type":"Feature","geometry":{"type":"Point","coordinates":[-80.050914,26.725872]}},{"properties":{"city":"West Palm Beach","name":"Gary Wexler, M.D.","latitude":26.725872,"zip":"33401","image url":"http://makosurgical.com/site/images/garywexler.jpg","hospital":"Good Samaritan Medical Center","website":"http://pboi.com","phone":"561-694-7776","longitude":-80.050914,"id":"a63iumm3b6c2","address":"1411 N Flagler Drive, Suite 9800","state":"FL","location":"Palm Beach Orthopaedic Institute"},"type":"Feature","geometry":{"type":"Point","coordinates":[-80.050914,26.725872]}},{"properties":{"city":"Ft. Lauderdale","name":"William Leone , M.D.","latitude":26.187115,"zip":"33308","image url":"http://makosurgical.com/site/images/williamleone.jpg","hospital":"Holy Cross Hospital","website":"http://holycrossleonecenter.com","phone":"954-958-4800","longitude":-80.119415,"id":"a63iumwrlwfh","address":"4725 N Federal Highway","state":"FL","location":null},"type":"Feature","geometry":{"type":"Point","coordinates":[-80.119415,26.187115]}},{"properties":{"city":"Ft. Lauderdale","name":"Martin W. Roche, M.D.","latitude":26.1961969,"zip":"33334","image url":"http://makosurgical.com/site/images/martinroche.jpg","hospital":"Holy Cross Hospital","website":"http://martinrochemd.com","phone":"954-958-4800","longitude":-80.1325409,"id":"a63iun0e7xqw","address":"5597 N Dixie Highway","state":"FL","location":null},"type":"Feature","geometry":{"type":"Point","coordinates":[-80.1325409,26.1961969]}},{"properties":{"city":"Stuart","name":"Scott M. Desman, M.D.","latitude":27.1763882,"zip":"34994","image url":"http://makosurgical.com/site/images/scottdesman.jpg","hospital":"Martin Memorial Health Systems","website":"http://southflaortho.com","phone":"772-288-2400","longitude":-80.2382862,"id":"a63iumvzrmdl","address":"1050 SE Monterey Road, Suite 400","state":"FL","location":null},"type":"Feature","geometry":{"type":"Point","coordinates":[-80.2382862,27.1763882]}},{"properties":{"city":"Stuart","name":"James D. Hoffman, M.D.","latitude":27.1763882,"zip":"34994","image url":"http://makosurgical.com/site/images/jameshoffman.jpg","hospital":"Martin Memorial Health Systems","website":"http://southflaortho.com","phone":"772-288-2400","longitude":-80.2382862,"id":"a63iumpuhtqy","address":"1050 SE Monterey Road, Suite 400","state":"FL","location":null},"type":"Feature","geometry":{"type":"Point","coordinates":[-80.2382862,27.1763882]}},{"properties":{"city":"Stuart","name":"Norman A. Palmeri, M.D.","latitude":27.196658,"zip":"34996","image url":"http://makosurgical.com/site/images/normanpalmeri.jpg","hospital":"Martin Memorial Health Systems","website":"http://coastal-orthopaedic.com","phone":"772-283-5500","longitude":-80.222691,"id":"a63iumoaxtob","address":"2220 SE Ocean Blvd. Suite 302","state":"FL","location":null},"type":"Feature","geometry":{"type":"Point","coordinates":[-80.222691,27.196658]}},{"properties":{"city":"Pt. St. Lucie","name":"Norman A. Palmeri, M.D.","latitude":27.333919,"zip":"34952","image url":"http://makosurgical.com/site/images/normanpalmeri.jpg","hospital":"Martin Memorial Health Systems","website":"http://coastal-orthopaedic.com","phone":"772-335-5300","longitude":-80.32437,"id":"a63iumprx25y","address":"7710 S US Hwy 1","state":"FL","location":null},"type":"Feature","geometry":{"type":"Point","coordinates":[-80.32437,27.333919]}},{"properties":{"city":"Miami","name":"Wilfredo Amaya, M.D.","latitude":25.7403825,"zip":"33133","image url":"http://makosurgical.com/site/images/wilfredoamaya.jpg","hospital":"Mercy Hospital","website":null,"phone":"305-285-3200","longitude":-80.2125747,"id":"a63iumt8v0mu","address":"3661 S Miami Ave.","state":"FL","location":null},"type":"Feature","geometry":{"type":"Point","coordinates":[-80.2125747,25.7403825]}},{"properties":{"city":"Miami","name":"Peter Hommen, M.D.","latitude":25.7421595,"zip":"33133","image url":"http://makosurgical.com/site/images/peterhommen.jpg","hospital":"Mercy Hospital","website":null,"phone":"305-856-6753","longitude":-80.2179636,"id":"a63iumped7z6","address":"3659 S Miami Ave.","state":"FL","location":"Orthopedic Institute at Mercy Hospital"},"type":"Feature","geometry":{"type":"Point","coordinates":[-80.2179636,25.7421595]}},{"properties":{"city":"Port Charlotte","name":"Nicholas J. Connors, M.D.","latitude":27.0090744,"zip":"33948","image url":"http://makosurgical.com/site/images/nicholasconnors.jpg","hospital":"Peace River Regional Medical Center","website":"http://advancedorthopediccenter.com","phone":"941-629-6262","longitude":-82.1381767,"id":"a63iumzlovxx","address":"1641 Tamiami Trail, Suite 1","state":"FL","location":null},"type":"Feature","geometry":{"type":"Point","coordinates":[-82.1381767,27.0090744]}},{"properties":{"city":"Port Charlotte","name":"Ronald M. Constine, M.D.","latitude":27.0090744,"zip":"33948","image url":"http://makosurgical.com/site/images/ronaldconstine.jpg","hospital":"Peace River Regional Medical Center","website":"http://advancedorthopediccenter.com","phone":"941-629-6262","longitude":-82.1381767,"id":"a63iumw4b55s","address":"1641 Tamiami Trail, Suite 1","state":"FL","location":null},"type":"Feature","geometry":{"type":"Point","coordinates":[-82.1381767,27.0090744]}},{"properties":{"city":"Punta Gorda","name":"Nicholas J. Connors, M.D.","latitude":26.9375856,"zip":"33950","image url":"http://makosurgical.com/site/images/nicholasconnors.jpg","hospital":"Peace River Regional Medical Center","website":"http://advancedorthopediccenter.com","phone":"941-639-6699","longitude":-82.0417329,"id":"a63iumw2y0u8","address":"350 Mary St.","state":"FL","location":null},"type":"Feature","geometry":{"type":"Point","coordinates":[-82.0417329,26.9375856]}},{"properties":{"city":"Punta Gorda","name":"Ronald M. Constine, M.D.","latitude":26.9375856,"zip":"33950","image url":"http://makosurgical.com/site/images/ronaldconstine.jpg","hospital":"Peace River Regional Medical Center","website":"http://advancedorthopediccenter.com","phone":"941-639-6699","longitude":-82.0417329,"id":"a63iumq1eqzz","address":"350 Mary St.","state":"FL","location":null},"type":"Feature","geometry":{"type":"Point","coordinates":[-82.0417329,26.9375856]}},{"properties":{"city":"Naples","name":"Frederick F. Buechel, Jr., M.D.","latitude":26.1585094,"zip":"34102","image url":"http://makosurgical.com/site/images/frederickbuechel.jpg","hospital":"Physicians Regional Healthcare System","website":"http://jointreplacementmd.com","phone":"239-659-5633","longitude":-81.7910786,"id":"a63iumqgc3kx","address":"1032 Goodlette Road","state":"FL","location":"Colonial Square Office Park"},"type":"Feature","geometry":{"type":"Point","coordinates":[-81.7910786,26.1585094]}},{"properties":{"city":"Naples","name":"Jon S. Dounchis, M.D.","latitude":26.163581,"zip":"34102","image url":"http://makosurgical.com/site/images/jondounchis.jpg","hospital":"Physicians Regional Healthcare System","website":"http://anchorhealthcenters.com","phone":"239-434-5700","longitude":-81.797825,"id":"a63iumya90o7","address":"1350 N Tamiami Trail N., Suite 220","state":"FL","location":null},"type":"Feature","geometry":{"type":"Point","coordinates":[-81.797825,26.163581]}},{"properties":{"city":"Naples","name":"Michael T. Havig, M.D.","latitude":26.163581,"zip":"34102","image url":"http://makosurgical.com/site/images/michaelhavig.jpg","hospital":"Physicians Regional Healthcare System","website":"http://havigmd.com","phone":"239-325-1135","longitude":-81.797825,"id":"a63iumtt7k8u","address":"1350 N Tamiami Trail N., Suite 202","state":"FL","location":null},"type":"Feature","geometry":{"type":"Point","coordinates":[-81.797825,26.163581]}},{"properties":{"city":"Tampa","name":"Thomas Bernasek, M.D.","latitude":27.938263,"zip":"33601","image url":"http://makosurgical.com/site/images/thomasbernasek.jpg","hospital":"Tampa General Hospital","website":"http://floridaortho.com","phone":"813-978-9700","longitude":-82.459017,"id":"a63iumorusac","address":"2 Columbia Drive","state":"FL","location":null},"type":"Feature","geometry":{"type":"Point","coordinates":[-82.459017,27.938263]}},{"properties":{"city":"Tampa","name":"Grant Garlick, M.D.","latitude":27.938263,"zip":"33601","image url":"http://makosurgical.com/site/images/grantgerlick.jpg","hospital":"Tampa General Hospital","website":"http://floridaortho.com","phone":"813-978-9700","longitude":-82.459017,"id":"a63iuml7etun","address":"2 Columbia Drive","state":"FL","location":null},"type":"Feature","geometry":{"type":"Point","coordinates":[-82.459017,27.938263]}},{"properties":{"city":"Tampa","name":"Kenneth Gustke, M.D.","latitude":27.938263,"zip":"33601","image url":"http://makosurgical.com/site/images/kennethgustke.jpg","hospital":"Tampa General Hospital","website":"http://floridaortho.com","phone":"813-978-9700","longitude":-82.459017,"id":"a63iumwovgob","address":"2 Columbia Drive","state":"FL","location":null},"type":"Feature","geometry":{"type":"Point","coordinates":[-82.459017,27.938263]}},{"properties":{"city":"Tampa","name":"Steven T. Lyons, M.D.","latitude":27.938263,"zip":"33601","image url":"http://makosurgical.com/site/images/stevenlyons.jpg","hospital":"Tampa General Hospital","website":"http://floridaortho.com","phone":"813-978-9700","longitude":-82.459017,"id":"a63iumtjlu00","address":"2 Columbia Drive","state":"FL","location":null},"type":"Feature","geometry":{"type":"Point","coordinates":[-82.459017,27.938263]}},{"properties":{"city":"Venice","name":"Julio Gonzalez, M.D.","latitude":27.1511298,"zip":"34285","image url":"http://makosurgical.com/site/images/juliogonzalez.jpg","hospital":"Venice Regional Medical Center","website":"http://orthovenice.com","phone":"941-485-3302","longitude":-82.4243746,"id":"a63iumstj6et","address":"241 S Nokomis Ave., Suite B","state":"FL","location":null},"type":"Feature","geometry":{"type":"Point","coordinates":[-82.4243746,27.1511298]}},{"properties":{"city":"Venice","name":"Michael H. Jaquith, M.D.","latitude":27.078494,"zip":"34285","image url":"http://makosurgical.com/site/images/michaeljaquith.jpg","hospital":"Venice Regional Medical Center","website":"http://veniceorthopedicsurgery.com","phone":"941-497-2663","longitude":-82.428584,"id":"a63iumlgikfr","address":"1525 S Tamiami Trail, Suite 602","state":"FL","location":null},"type":"Feature","geometry":{"type":"Point","coordinates":[-82.428584,27.078494]}},{"properties":{"city":"Venice","name":"Joseph Noah, M.D.","latitude":27.083295,"zip":"34292","image url":"http://makosurgical.com/site/images/josephnoah.jpg","hospital":"Venice Regional Medical Center","website":"http://suncoastorthopaedic.com","phone":"941-485-1505","longitude":-82.390406,"id":"a63iumzmwzt2","address":"836 Sunset Lake Blvd., Building A, Suite 205","state":"FL","location":"Suncoast Orthopaedic Surgery &amp; Sports Medicine"},"type":"Feature","geometry":{"type":"Point","coordinates":[-82.390406,27.083295]}},{"properties":{"city":"Venice","name":"John Paul Vidolin, M.D.","latitude":27.083295,"zip":"34292","image url":"http://makosurgical.com/site/images/johnvidolin.jpg","hospital":"Venice Regional Medical Center","website":"http://veniceorthopedicsurgery.com","phone":"941-497-1771","longitude":-82.390406,"id":"a63iums9p7fu","address":"836 Sunset Lake Blvd., Suite 102","state":"FL","location":"Suncoast Orthopaedic Surgery &amp; Sports Medicine"},"type":"Feature","geometry":{"type":"Point","coordinates":[-82.390406,27.083295]}},{"properties":{"city":"Venice","name":"Edmund G. Witkowski, M.D.","latitude":27.083295,"zip":"34292","image url":"http://makosurgical.com/site/images/edmundwitkowski.jpg","hospital":"Venice Regional Medical Center","website":"http://suncoastorthopaedic.com","phone":"941-485-1505","longitude":-82.390406,"id":"a63iumrlysg8","address":"836 Sunset Lake Blvd., Building A, Suite 205","state":"FL","location":"Suncoast Orthopaedic Surgery &amp; Sports Medicine"},"type":"Feature","geometry":{"type":"Point","coordinates":[-82.390406,27.083295]}},{"properties":{"city":"Vancouver","name":"Todd A. Borus, M.D.","latitude":45.7218457,"zip":"98686","image url":"http://makosurgical.com/site/images/toddborus.jpg","hospital":"Legacy Salmon Creek Medical Center","website":"http://reboundmd.com","phone":"360-254-6165","longitude":-122.6497446,"id":"a63iumy6zqws","address":"2121 NE 139th St. Suite 300","state":"WA","location":null},"type":"Feature","geometry":{"type":"Point","coordinates":[-122.6497446,45.7218457]}},{"properties":{"city":"Vancouver","name":"Alan P. Newman, M.D..","latitude":45.7218457,"zip":"98686","image url":"http://makosurgical.com/site/images/alannewman.jpg","hospital":"Legacy Salmon Creek Medical Center","website":"http://reboundmd.com","phone":"360-254-6165","longitude":-122.6497446,"id":"a63iummju1wt","address":"2121 NE 139th St. Suite 300","state":"WA","location":null},"type":"Feature","geometry":{"type":"Point","coordinates":[-122.6497446,45.7218457]}},{"properties":{"city":"Vancouver","name":"Donald W. Roberts, M.D.","latitude":45.7218457,"zip":"98686","image url":"http://makosurgical.com/site/images/donaldroberts.jpg","hospital":"Legacy Salmon Creek Medical Center","website":"http://reboundmd.com","phone":"360-254-6165","longitude":-122.6497446,"id":"a63iumtzmft1","address":"2121 NE 139th St. Suite 300","state":"WA","location":null},"type":"Feature","geometry":{"type":"Point","coordinates":[-122.6497446,45.7218457]}},{"properties":{"city":"Richland","name":"James R. Hazel, M.D.","latitude":46.2802656,"zip":"99352","image url":"http://makosurgical.com/site/images/jameshazel.jpg","hospital":"Lourdes Medical Center","website":"http://tcortho.com","phone":"509-946-6144","longitude":-119.2804047,"id":"a63iumxpngjq","address":"821 Swift Blvd.","state":"WA","location":"Tri-City Orthopaedic Clinic"},"type":"Feature","geometry":{"type":"Point","coordinates":[-119.2804047,46.2802656]}},{"properties":{"city":"Seattle","name":"Christopher P. Cannon, M.D.","latitude":47.612423,"zip":"98122","image url":"http://makosurgical.com/site/images/christophercannon.jpg","hospital":"Swedish Orthopedic Institute","website":"http://polyclinic.com","phone":"206-860-4704","longitude":-122.320887,"id":"a63iumtdrfr8","address":"1145 Broadway","state":"WA","location":"The Polyclinic First Hill"},"type":"Feature","geometry":{"type":"Point","coordinates":[-122.320887,47.612423]}},{"properties":{"city":"Seattle","name":"James P. Crutcher, M.D.","latitude":47.607899,"zip":"98122","image url":"http://makosurgical.com/site/images/jamescrutcher.jpg","hospital":"Swedish Orthopedic Institute","website":"http://opaortho.com","phone":"206-386-2600","longitude":-122.321305,"id":"a63iumzydd8j","address":"601 Broadway, 6th Floor","state":"WA","location":"Orthopedic Physician Associates Swedish Orthopedic Institute"},"type":"Feature","geometry":{"type":"Point","coordinates":[-122.321305,47.607899]}},{"properties":{"city":"Seattle","name":"Lawerence E. Holland, M.D.","latitude":47.607899,"zip":"98122","image url":"http://makosurgical.com/site/images/lawerenceholland.jpg","hospital":"Swedish Orthopedic Institute","website":"http://opaortho.com","phone":"206-386-2600","longitude":-122.321305,"id":"a63iumxpra0c","address":"601 Broadway, 7th Floor","state":"WA","location":"Orthopedic Physician Associates Swedish Orthopedic Institute"},"type":"Feature","geometry":{"type":"Point","coordinates":[-122.321305,47.607899]}},{"properties":{"city":"Seattle","name":"James W Pritchett, M.D.","latitude":47.6088298,"zip":"98104","image url":"http://makosurgical.com/site/images/jamespritchett.jpg","hospital":"Swedish Orthopedic Institute","website":"http://pritchettorthopedics.com","phone":"206-323-1900","longitude":-122.3248745,"id":"a63iumx47lxb","address":"901 Boren Ave., Suite 900","state":"WA","location":null},"type":"Feature","geometry":{"type":"Point","coordinates":[-122.3248745,47.6088298]}},{"properties":{"city":"Seattle","name":"Sean Toomey, M.D.","latitude":47.607899,"zip":"98122","image url":"http://makosurgical.com/site/images/seantoomey.jpg","hospital":"Swedish Orthopedic Institute","website":"http://opaortho.com","phone":"206-386-2600","longitude":-122.321305,"id":"a63iumzbzjkd","address":"601 Broadway, 7th Floor","state":"WA","location":"Orthopedic Physician Associates Swedish Orthopedic Institute"},"type":"Feature","geometry":{"type":"Point","coordinates":[-122.321305,47.607899]}},{"properties":{"city":"Seattle","name":"William J. Wilson, M.D.","latitude":47.607899,"zip":"98122","image url":"http://makosurgical.com/site/images/williamwilson.jpg","hospital":"Swedish Orthopedic Institute","website":"http://opaortho.com","phone":"206-386-2600","longitude":-122.321305,"id":"a63iumnhjggt","address":"601 Broadway, 7th Floor","state":"WA","location":"Orthopedic Physician Associates Swedish Orthopedic Institute"},"type":"Feature","geometry":{"type":"Point","coordinates":[-122.321305,47.607899]}}],"is_temporal":false,"author":{"url":"","metadata":"","contact_name":"","contact_address":"","source":"","contact_phone":""},"source":"","pagination":{"sort":null,"start":0,"total":40,"limit":1000000},"state":"complete","tags":"","published":"2014-08-10T11:48:02-04:00","id":90563}