{"type":"FeatureCollection","data_type":"Dataset","url_type":null,"permissions":[{"permissions":{"download":true,"view":true},"group_id":"everyone"}],"classification":null,"title":"SIF Subgrants by District","count":69,"stream_id":90582,"contributor":{"url":"http://geocommons.com/users/21674","name":"davemitrani"},"data_attributes":null,"calculation_params":null,"icon_link":null,"link":"http://geocommons.com/overlays/90582.json","extent":[-122.396,29.4241,-71.0515,47.6062],"geometry_types":["point"],"unique_name":null,"name":"SIF Subgrants by District","feature_count":69,"description":"","next_feature":null,"is_raster":false,"short_classification":"Y","stats":{"amount":{"max":0,"mean":0.0,"variance":0.0,"stdev":0.0,"min":0,"median":0}},"features":[{"properties":{"zip":"94105","district":"CA-08","geo_score":0.714,"notes":null,"amount":0,"representative":"Pelosi","id":"a72jfkk0wohx","geo_precision":"zip","subgrant":"REDF"},"type":"Feature","geometry":{"type":"Point","coordinates":[-122.395631,37.789595]}},{"properties":{"zip":"94704","district":"CA-09","geo_score":0.714,"notes":null,"amount":0,"representative":"Lee","id":"a72jfkfuhle9","geo_precision":"zip","subgrant":"Rubicon Programs"},"type":"Feature","geometry":{"type":"Point","coordinates":[-122.256729,37.866975]}},{"properties":{"zip":"94501","district":"CA-13","geo_score":0.714,"notes":null,"amount":0,"representative":"Stark","id":"a72jfkk6h0gs","geo_precision":"zip","subgrant":"Merritt Community College"},"type":"Feature","geometry":{"type":"Point","coordinates":[-122.264779,37.770563]}},{"properties":{"zip":"95110","district":"CA-16","geo_score":0.714,"notes":null,"amount":0,"representative":"Lofgren","id":"a72jfkhh7wby","geo_precision":"zip","subgrant":"Sacred Heart Community Service"},"type":"Feature","geometry":{"type":"Point","coordinates":[-121.705327,37.189396]}},{"properties":{"zip":"92128","district":"CA-49","geo_score":0.714,"notes":null,"amount":0,"representative":"Issa","id":"a72jfkl8vfsd","geo_precision":"zip","subgrant":"North County LifeLine"},"type":"Feature","geometry":{"type":"Point","coordinates":[-117.060866,33.018655]}},{"properties":{"zip":"92153","district":"CA-51","geo_score":0.714,"notes":"Over 2Y","amount":0,"representative":"Filner","id":"a72jfkcbzqhy","geo_precision":"zip","subgrant":"San Diego Workforce Funders Collaborative"},"type":"Feature","geometry":{"type":"Point","coordinates":[-117.084195,32.575889]}},{"properties":{"zip":"92108","district":"CA-53","geo_score":0.714,"notes":null,"amount":0,"representative":"Davis","id":"a72jfkb8aszu","geo_precision":"zip","subgrant":"Home Start, Inc"},"type":"Feature","geometry":{"type":"Point","coordinates":[-117.148616,32.774699]}},{"properties":{"zip":"92105","district":"CA-53","geo_score":0.714,"notes":null,"amount":0,"representative":"Davis","id":"a72jfkntxfv3","geo_precision":"zip","subgrant":"International Rescue Committee"},"type":"Feature","geometry":{"type":"Point","coordinates":[-117.110032,32.749495]}},{"properties":{"zip":"92101","district":"CA-53","geo_score":0.714,"notes":null,"amount":0,"representative":"Davis","id":"a72jfk8yo89z","geo_precision":"zip","subgrant":"San Diego Housing Committee"},"type":"Feature","geometry":{"type":"Point","coordinates":[-117.174366,32.7211]}},{"properties":{"zip":"60629","district":"IL-01","geo_score":0.714,"notes":null,"amount":0,"representative":"Rush","id":"a72jfkiun7pp","geo_precision":"zip","subgrant":"Greater Southwest Development Corporation"},"type":"Feature","geometry":{"type":"Point","coordinates":[-87.68732,41.811929]}},{"properties":{"zip":"60632","district":"IL-03","geo_score":0.714,"notes":null,"amount":0,"representative":"Lipinski","id":"a72jfkn70fkb","geo_precision":"zip","subgrant":"Central States SER"},"type":"Feature","geometry":{"type":"Point","coordinates":[-87.72172,41.793644]}},{"properties":{"zip":"60647","district":"IL-04","geo_score":0.714,"notes":null,"amount":0,"representative":"Gutierrez","id":"a72jfkhfk4x6","geo_precision":"zip","subgrant":"Association House"},"type":"Feature","geometry":{"type":"Point","coordinates":[-87.68732,41.811929]}},{"properties":{"zip":"60647","district":"IL-04","geo_score":0.714,"notes":null,"amount":0,"representative":"Gutierrez","id":"a72jfk8w1wix","geo_precision":"zip","subgrant":"Humboldt Park Social Services"},"type":"Feature","geometry":{"type":"Point","coordinates":[-87.68732,41.811929]}},{"properties":{"zip":"60613","district":"IL-05","geo_score":0.714,"notes":null,"amount":0,"representative":"Quigley","id":"a72jfkgijmed","geo_precision":"zip","subgrant":"Jane Addams Resource Corporation"},"type":"Feature","geometry":{"type":"Point","coordinates":[-87.68732,41.811929]}},{"properties":{"zip":"60608","district":"IL-07","geo_score":0.714,"notes":null,"amount":0,"representative":"Davis","id":"a72jfkdttggb","geo_precision":"zip","subgrant":"Instituto Del Progreso Latino"},"type":"Feature","geometry":{"type":"Point","coordinates":[-87.68732,41.811929]}},{"properties":{"zip":"60606","district":"IL-07","geo_score":0.714,"notes":null,"amount":0,"representative":"Davis","id":"a72jfkb65ghf","geo_precision":"zip","subgrant":"Jane Addams Hull House"},"type":"Feature","geometry":{"type":"Point","coordinates":[-87.68732,41.811929]}},{"properties":{"zip":"60624","district":"IL-07","geo_score":0.714,"notes":null,"amount":0,"representative":"Davis","id":"a72jfkocktm5","geo_precision":"zip","subgrant":"North Lawndale Employment Network"},"type":"Feature","geometry":{"type":"Point","coordinates":[-87.68732,41.811929]}},{"properties":{"zip":"60661","district":"IL-07","geo_score":0.714,"notes":null,"amount":0,"representative":"Davis","id":"a72jfkgc6bz8","geo_precision":"zip","subgrant":"Safer Foundation"},"type":"Feature","geometry":{"type":"Point","coordinates":[-87.68732,41.811929]}},{"properties":{"zip":"60661","district":"IL-07","geo_score":0.714,"notes":null,"amount":0,"representative":"Davis","id":"a72jfkjh1yce","geo_precision":"zip","subgrant":"The Cara Program"},"type":"Feature","geometry":{"type":"Point","coordinates":[-87.68732,41.811929]}},{"properties":{"zip":"46208","district":"IN-07","geo_score":0.714,"notes":null,"amount":0,"representative":"Carson","id":"a72jfkbfilxg","geo_precision":"zip","subgrant":"Flanner House of Indianapolis"},"type":"Feature","geometry":{"type":"Point","coordinates":[-86.197489,39.831153]}},{"properties":{"zip":"46222","district":"IN-07","geo_score":0.714,"notes":null,"amount":0,"representative":"Carson","id":"a72jfkns8nej","geo_precision":"zip","subgrant":"Hawthorne Community Center"},"type":"Feature","geometry":{"type":"Point","coordinates":[-86.206655,39.765321]}},{"properties":{"zip":"46201","district":"IN-07","geo_score":0.714,"notes":null,"amount":0,"representative":"Carson","id":"a72jfkmu773v","geo_precision":"zip","subgrant":"John H Boner Community Center"},"type":"Feature","geometry":{"type":"Point","coordinates":[-86.136654,39.876429]}},{"properties":{"zip":"46221","district":"IN-07","geo_score":0.714,"notes":null,"amount":0,"representative":"Carson","id":"a72jfkbaarx1","geo_precision":"zip","subgrant":"Mary Rigg Neighborhood Center"},"type":"Feature","geometry":{"type":"Point","coordinates":[-86.130655,39.764258]}},{"properties":{"zip":"46201","district":"IN-07","geo_score":0.714,"notes":null,"amount":0,"representative":"Carson","id":"a72jfkcaxw0d","geo_precision":"zip","subgrant":"Shepherd Community, Inc"},"type":"Feature","geometry":{"type":"Point","coordinates":[-86.136654,39.876429]}},{"properties":{"zip":"46203","district":"IN-07","geo_score":0.714,"notes":null,"amount":0,"representative":"Carson","id":"a72jfkclplsj","geo_precision":"zip","subgrant":"Southeast Community Center"},"type":"Feature","geometry":{"type":"Point","coordinates":[-86.113535,39.743493]}},{"properties":{"zip":"41071","district":"KT-04","geo_score":0.714,"notes":null,"amount":0,"representative":"Davis","id":"a72jfkdiugy6","geo_precision":"zip","subgrant":"Brighton Center"},"type":"Feature","geometry":{"type":"Point","coordinates":[-84.47522,39.09256]}},{"properties":{"zip":"45999","district":"KT-04","geo_score":0.714,"notes":"Over 2Y","amount":0,"representative":"Davis","id":"a72jfkf7zxba","geo_precision":"zip","subgrant":"Greater Cincinnati Workforce Network"},"type":"Feature","geometry":{"type":"Point","coordinates":[-84.53822,39.166759]}},{"properties":{"zip":"01532","district":"MA-03","geo_score":0.714,"notes":"Over 2Y","amount":0,"representative":"McGovern","id":"a72jfkjzther","geo_precision":"zip","subgrant":"Skillworks: Partners for a Productive Workforce"},"type":"Feature","geometry":{"type":"Point","coordinates":[-71.629234,42.330094]}},{"properties":{"zip":"02110","district":"MA-08","geo_score":0.714,"notes":null,"amount":0,"representative":"Capuano","id":"a72jfkixb8ay","geo_precision":"zip","subgrant":"Jobs for the Future"},"type":"Feature","geometry":{"type":"Point","coordinates":[-71.051466,42.352847]}},{"properties":{"zip":"02141","district":"MA-08","geo_score":0.714,"notes":null,"amount":0,"representative":"Capuano","id":"a72jfkh7qam6","geo_precision":"zip","subgrant":"New Profit, Inc"},"type":"Feature","geometry":{"type":"Point","coordinates":[-71.080052,42.366764]}},{"properties":{"zip":"21202","district":"MD-07","geo_score":0.714,"notes":"Over 2Y","amount":0,"representative":"Cummings","id":"a72jfkdsqyo5","geo_precision":"zip","subgrant":"Baltimore Workforce Funders Collaborative"},"type":"Feature","geometry":{"type":"Point","coordinates":[-76.608438,39.295907]}},{"properties":{"zip":"48342","district":"MI-09","geo_score":0.714,"notes":null,"amount":0,"representative":"Peters","id":"a72jfkm9vvv1","geo_precision":"zip","subgrant":"Lighthouse of Oakland County"},"type":"Feature","geometry":{"type":"Point","coordinates":[-83.288516,42.694224]}},{"properties":{"zip":"48220","district":"MI-12","geo_score":0.714,"notes":null,"amount":0,"representative":"Levin","id":"a72jfkd7oujb","geo_precision":"zip","subgrant":"Oakland Livingston Human Service Agency"},"type":"Feature","geometry":{"type":"Point","coordinates":[-83.140675,42.460586]}},{"properties":{"zip":"48201","district":"MI-13","geo_score":0.714,"notes":null,"amount":0,"representative":"Clarke","id":"a72jfkd5ix24","geo_precision":"zip","subgrant":"Operation ABLE of Michigan"},"type":"Feature","geometry":{"type":"Point","coordinates":[-83.150823,42.239933]}},{"properties":{"zip":"48210","district":"MI-13","geo_score":0.714,"notes":null,"amount":0,"representative":"Clarke","id":"a72jfkiqxbhc","geo_precision":"zip","subgrant":"SER Metro Detroit Jobs for Progress"},"type":"Feature","geometry":{"type":"Point","coordinates":[-83.148424,42.326937]}},{"properties":{"zip":"48216","district":"MI-13","geo_score":0.714,"notes":null,"amount":0,"representative":"Clarke","id":"a72jfkhbbt5d","geo_precision":"zip","subgrant":"Southwest Housing Solutions"},"type":"Feature","geometry":{"type":"Point","coordinates":[-83.167925,42.337787]}},{"properties":{"zip":"48238","district":"MI-14","geo_score":0.714,"notes":null,"amount":0,"representative":"Conyers","id":"a72jfka952gn","geo_precision":"zip","subgrant":"Focus: Hope"},"type":"Feature","geometry":{"type":"Point","coordinates":[-83.150823,42.239933]}},{"properties":{"zip":"55416","district":"MN-05","geo_score":0.714,"notes":null,"amount":0,"representative":"Ellison","id":"a72jfk8sl2x4","geo_precision":"zip","subgrant":"CommonBond Communities Career Advantage"},"type":"Feature","geometry":{"type":"Point","coordinates":[-93.337326,44.949714]}},{"properties":{"zip":"55407","district":"MN-05","geo_score":0.714,"notes":null,"amount":0,"representative":"Ellison","id":"a72jfked4nhh","geo_precision":"zip","subgrant":"Communidades Latinas Unidas En Servicio"},"type":"Feature","geometry":{"type":"Point","coordinates":[-93.254023,44.935465]}},{"properties":{"zip":"55411","district":"MN-05","geo_score":0.714,"notes":null,"amount":0,"representative":"Ellison","id":"a72jfkh4yhtt","geo_precision":"zip","subgrant":"Emerge Community Development"},"type":"Feature","geometry":{"type":"Point","coordinates":[-93.297393,44.999514]}},{"properties":{"zip":"55404","district":"MN-05","geo_score":0.714,"notes":null,"amount":0,"representative":"Ellison","id":"a72jfkjwiqgl","geo_precision":"zip","subgrant":"Lutheran Social Services"},"type":"Feature","geometry":{"type":"Point","coordinates":[-93.329926,44.948614]}},{"properties":{"zip":"55404","district":"MN-05","geo_score":0.714,"notes":null,"amount":0,"representative":"Ellison","id":"a72jfk9aw43p","geo_precision":"zip","subgrant":"Project for Pride in Living"},"type":"Feature","geometry":{"type":"Point","coordinates":[-93.329926,44.948614]}},{"properties":{"zip":"55806","district":"MN-08","geo_score":0.714,"notes":null,"amount":0,"representative":"Cravaack","id":"a72jfkdzqjnq","geo_precision":"zip","subgrant":"Community Action Duluth"},"type":"Feature","geometry":{"type":"Point","coordinates":[-92.343802,46.800775]}},{"properties":{"zip":"63103","district":"MO-01","geo_score":0.714,"notes":null,"amount":0,"representative":"Clay","id":"a72jfkk6549u","geo_precision":"zip","subgrant":"Missouri Foundation of Health"},"type":"Feature","geometry":{"type":"Point","coordinates":[-90.216411,38.629901]}},{"properties":{"zip":"07102","district":"NJ-13","geo_score":0.714,"notes":null,"amount":0,"representative":"Sires","id":"a72jfkcqdk5r","geo_precision":"zip","subgrant":"Newark Now"},"type":"Feature","geometry":{"type":"Point","coordinates":[-74.173988,40.735642]}},{"properties":{"zip":"10006","district":"NY-08","geo_score":0.714,"notes":null,"amount":0,"representative":"Nadler","id":"a72jfkhhl1c1","geo_precision":"zip","subgrant":"Food Bank of New York City"},"type":"Feature","geometry":{"type":"Point","coordinates":[-74.013168,40.708834]}},{"properties":{"zip":"10007","district":"NY-08","geo_score":0.714,"notes":null,"amount":0,"representative":"Nadler","id":"a72jfkf862gy","geo_precision":"zip","subgrant":"Mayors Fund to Advance New York City"},"type":"Feature","geometry":{"type":"Point","coordinates":[-74.007401,40.713941]}},{"properties":{"zip":"10017","district":"NY-14","geo_score":0.714,"notes":null,"amount":0,"representative":"Maloney","id":"a72jfk8jnxd9","geo_precision":"zip","subgrant":"Edna McConnell Clark Foundation"},"type":"Feature","geometry":{"type":"Point","coordinates":[-73.973196,40.752955]}},{"properties":{"zip":"10018","district":"NY-14","geo_score":0.714,"notes":null,"amount":0,"representative":"Maloney","id":"a72jfkm8159q","geo_precision":"zip","subgrant":"Local Initiatives Support Corporation"},"type":"Feature","geometry":{"type":"Point","coordinates":[-73.993172,40.755332]}},{"properties":{"zip":"10082","district":"NY-14","geo_score":0.714,"notes":"Over 2Y","amount":0,"representative":"Maloney","id":"a72jfkgkbz9y","geo_precision":"zip","subgrant":"New York City Workforce Innovation Fund"},"type":"Feature","geometry":{"type":"Point","coordinates":[-73.977182,40.780751]}},{"properties":{"zip":"45204","district":"OH-01","geo_score":0.714,"notes":null,"amount":0,"representative":"Chabot","id":"a72jfkhsdoq7","geo_precision":"zip","subgrant":"Santa Maria Community Services"},"type":"Feature","geometry":{"type":"Point","coordinates":[-84.603,39.07756]}},{"properties":{"zip":"45202","district":"OH-01","geo_score":0.714,"notes":"Over 2Y","amount":0,"representative":"Chabot","id":"a72jfkl11o0a","geo_precision":"zip","subgrant":"United Way of Greater Cincinnati"},"type":"Feature","geometry":{"type":"Point","coordinates":[-84.486142,39.11026]}},{"properties":{"zip":"45229","district":"OH-01","geo_score":0.714,"notes":null,"amount":0,"representative":"Chabot","id":"a72jfkmqvo92","geo_precision":"zip","subgrant":"Urban League of Greater Cincinnati"},"type":"Feature","geometry":{"type":"Point","coordinates":[-84.720503,39.165058]}},{"properties":{"zip":"45202","district":"OH-02","geo_score":0.714,"notes":null,"amount":0,"representative":"Schmidt","id":"a72jfkigv2wj","geo_precision":"zip","subgrant":"Cincinnati Works"},"type":"Feature","geometry":{"type":"Point","coordinates":[-84.486142,39.11026]}},{"properties":{"zip":"74146","district":"OK-01","geo_score":0.714,"notes":null,"amount":0,"representative":"Sullivan","id":"a72jfk94ob7h","geo_precision":"zip","subgrant":"Community Action Project of Tulsa"},"type":"Feature","geometry":{"type":"Point","coordinates":[-95.846066,36.097046]}},{"properties":{"zip":"19187","district":"PA-02","geo_score":0.714,"notes":"Over 2Y","amount":0,"representative":"Fattah","id":"a72jfkgdkggf","geo_precision":"zip","subgrant":"Job Oppurtunity Investment Network"},"type":"Feature","geometry":{"type":"Point","coordinates":[-75.11787,40.001811]}},{"properties":{"zip":"02895","district":"RI-01","geo_score":0.714,"notes":null,"amount":0,"representative":"Cicilline","id":"a72jfkhky71m","geo_precision":"zip","subgrant":"Family Resources Community Action"},"type":"Feature","geometry":{"type":"Point","coordinates":[-71.539229,41.991209]}},{"properties":{"zip":"02907","district":"RI-02","geo_score":0.714,"notes":null,"amount":0,"representative":"Langevin","id":"a72jfkb34iu5","geo_precision":"zip","subgrant":"Amos House"},"type":"Feature","geometry":{"type":"Point","coordinates":[-71.426168,41.797878]}},{"properties":{"zip":"02907","district":"RI-02","geo_score":0.714,"notes":null,"amount":0,"representative":"Langevin","id":"a72jfkolkv0o","geo_precision":"zip","subgrant":"Dorcas Place Adult and Family Learning Center"},"type":"Feature","geometry":{"type":"Point","coordinates":[-71.426168,41.797878]}},{"properties":{"zip":"02903","district":"RI-02","geo_score":0.714,"notes":null,"amount":0,"representative":"Langevin","id":"a72jfko3ab1n","geo_precision":"zip","subgrant":"Providence Housing Authority"},"type":"Feature","geometry":{"type":"Point","coordinates":[-71.4115,41.819459]}},{"properties":{"zip":"77081","district":"TX-09","geo_score":0.714,"notes":null,"amount":0,"representative":"Green","id":"a72jfklg0cjp","geo_precision":"zip","subgrant":"Alliance for Multicultural Community Services"},"type":"Feature","geometry":{"type":"Point","coordinates":[-95.306914,29.68193]}},{"properties":{"zip":"77092","district":"TX-18","geo_score":0.714,"notes":null,"amount":0,"representative":"Jackson Lee","id":"a72jfkodo9bu","geo_precision":"zip","subgrant":"Volunteers of America, Texas"},"type":"Feature","geometry":{"type":"Point","coordinates":[-95.434241,29.83399]}},{"properties":{"zip":"78205","district":"TX-20","geo_score":0.714,"notes":null,"amount":0,"representative":"Gonzalez","id":"a72jfknyyzmp","geo_precision":"zip","subgrant":"United Way of San Antonio and Bexar County"},"type":"Feature","geometry":{"type":"Point","coordinates":[-98.484144,29.424132]}},{"properties":{"zip":"77012","district":"TX-29","geo_score":0.714,"notes":null,"amount":0,"representative":"Green","id":"a72jfkhze4l3","geo_precision":"zip","subgrant":"SER Jobs for Progress - Texas Gulf Coast"},"type":"Feature","geometry":{"type":"Point","coordinates":[-95.251662,29.711528]}},{"properties":{"zip":"77007","district":"TX-29","geo_score":0.714,"notes":null,"amount":0,"representative":"Green","id":"a72jfkc3t1y7","geo_precision":"zip","subgrant":"United Way of Greater Houston - Bay Area"},"type":"Feature","geometry":{"type":"Point","coordinates":[-95.434241,29.83399]}},{"properties":{"zip":"98141","district":"WA-07","geo_score":0.714,"notes":"Over 2Y","amount":0,"representative":"McDermott","id":"a72jfkm8plvh","geo_precision":"zip","subgrant":"Skillup Washington"},"type":"Feature","geometry":{"type":"Point","coordinates":[-122.332071,47.60621]}},{"properties":{"zip":"53202","district":"WI-04","geo_score":0.714,"notes":"Over 2Y","amount":0,"representative":"Moore","id":"a72jfkn8mmta","geo_precision":"zip","subgrant":"Milwaukee Area Workforce Funding Alliance"},"type":"Feature","geometry":{"type":"Point","coordinates":[-87.894734,43.043213]}},{"properties":{"zip":"54480","district":"WI-07","geo_score":0.714,"notes":"Over 2Y","amount":0,"representative":"Duffy","id":"a72jfkog9ys0","geo_precision":"zip","subgrant":"Workforce Central Funders Collaborative"},"type":"Feature","geometry":{"type":"Point","coordinates":[-90.302783,45.19405]}},{"properties":{"zip":"Statewide","district":null,"geo_score":0.0,"notes":"Over 2Y","amount":0,"representative":null,"id":"a72jfkec1qfy","geo_precision":"unmatched","subgrant":"Pennsylvania Fund for Workforce Solutions"},"type":"Feature","geometry":null}],"is_temporal":false,"author":{"url":"","metadata":"","contact_name":"","contact_address":"","source":"","contact_phone":""},"source":"","pagination":{"sort":null,"start":0,"total":69,"limit":1000000},"state":"complete","tags":"","published":"2014-08-10T11:50:03-04:00","id":90582}