{"type":"FeatureCollection","data_type":"Dataset","url_type":null,"permissions":[{"permissions":{"download":true,"view":true},"group_id":"everyone"}],"classification":null,"title":"2008 Election","count":50,"stream_id":90647,"contributor":{"url":"http://geocommons.com/users/21677","name":"dconant@forestfoundation.org"},"data_attributes":null,"calculation_params":null,"icon_link":null,"link":"http://geocommons.com/overlays/90647.json","extent":[-157.517,20.5755,-69.0284,61.4946],"geometry_types":["point"],"unique_name":null,"name":"2008 Election","feature_count":50,"description":"Blue red map of 2008 election","next_feature":null,"is_raster":false,"short_classification":"Y","stats":{"latitude":{"max":61.49463401,"mean":39.5356408934,"variance":39.1674905598553,"stdev":6.25839360857523,"min":20.57545311,"median":39.74809298},"values":{"max":2,"mean":1.54,"variance":0.253469387755102,"stdev":0.503457433905889,"min":1,"median":2},"longitude":{"max":-69.02839014,"mean":-93.9412454926,"variance":373.540189274949,"stdev":19.3271878263484,"min":-157.5167511,"median":-89.86707555}},"features":[{"properties":{"latitude":32.62481896,"red or blue":"red","values":1,"longitude":-86.6834839,"id":"a64d1topsu0o","state":"Alabama"},"type":"Feature","geometry":{"type":"Point","coordinates":[-86.6834839,32.62481896]}},{"properties":{"latitude":61.49463401,"red or blue":"red","values":1,"longitude":-154.1049169,"id":"a64d1tnnzanv","state":"Alaska"},"type":"Feature","geometry":{"type":"Point","coordinates":[-154.1049169,61.49463401]}},{"properties":{"latitude":34.16978002,"red or blue":"red","values":1,"longitude":-111.9336881,"id":"a64d1txgxlmw","state":"Arizona"},"type":"Feature","geometry":{"type":"Point","coordinates":[-111.9336881,34.16978002]}},{"properties":{"latitude":34.75148134,"red or blue":"red","values":1,"longitude":-92.13136815,"id":"a64d1twa7g9x","state":"Arkansas"},"type":"Feature","geometry":{"type":"Point","coordinates":[-92.13136815,34.75148134]}},{"properties":{"latitude":37.26898656,"red or blue":"blue","values":2,"longitude":-119.2589342,"id":"a64d1txdg1ey","state":"California"},"type":"Feature","geometry":{"type":"Point","coordinates":[-119.2589342,37.26898656]}},{"properties":{"latitude":38.99618452,"red or blue":"blue","values":2,"longitude":-105.5465344,"id":"a64d1tm8wsqd","state":"Colorado"},"type":"Feature","geometry":{"type":"Point","coordinates":[-105.5465344,38.99618452]}},{"properties":{"latitude":41.52291025,"red or blue":"blue","values":2,"longitude":-72.75674326,"id":"a64d1tpto9bx","state":"Connecticut"},"type":"Feature","geometry":{"type":"Point","coordinates":[-72.75674326,41.52291025]}},{"properties":{"latitude":39.1448606,"red or blue":"blue","values":2,"longitude":-75.41835879,"id":"a64d1ty8oeix","state":"Delaware"},"type":"Feature","geometry":{"type":"Point","coordinates":[-75.41835879,39.1448606]}},{"properties":{"latitude":27.97976682,"red or blue":"blue","values":2,"longitude":-83.83831119,"id":"a64d1tye1p55","state":"Florida"},"type":"Feature","geometry":{"type":"Point","coordinates":[-83.83831119,27.97976682]}},{"properties":{"latitude":32.68082927,"red or blue":"red","values":1,"longitude":-83.2518569,"id":"a64d1tsp87wx","state":"Georgia"},"type":"Feature","geometry":{"type":"Point","coordinates":[-83.2518569,32.68082927]}},{"properties":{"latitude":20.57545311,"red or blue":"blue","values":2,"longitude":-157.5167511,"id":"a64d1txdyceg","state":"Hawaii"},"type":"Feature","geometry":{"type":"Point","coordinates":[-157.5167511,20.57545311]}},{"properties":{"latitude":45.49727496,"red or blue":"red","values":1,"longitude":-114.141846,"id":"a64d1tls25o0","state":"Idaho"},"type":"Feature","geometry":{"type":"Point","coordinates":[-114.141846,45.49727496]}},{"properties":{"latitude":39.74809298,"red or blue":"blue","values":2,"longitude":-89.51209675,"id":"a64d1tw7liiv","state":"Illinois"},"type":"Feature","geometry":{"type":"Point","coordinates":[-89.51209675,39.74809298]}},{"properties":{"latitude":39.77088229,"red or blue":"blue","values":2,"longitude":-86.44446803,"id":"a64d1tpqat89","state":"Indiana"},"type":"Feature","geometry":{"type":"Point","coordinates":[-86.44446803,39.77088229]}},{"properties":{"latitude":41.93670203,"red or blue":"blue","values":2,"longitude":-93.39175297,"id":"a64d1tvcvo5r","state":"Iowa"},"type":"Feature","geometry":{"type":"Point","coordinates":[-93.39175297,41.93670203]}},{"properties":{"latitude":38.49593181,"red or blue":"red","values":1,"longitude":-98.32637995,"id":"a64d1tlz65ya","state":"Kansas"},"type":"Feature","geometry":{"type":"Point","coordinates":[-98.32637995,38.49593181]}},{"properties":{"latitude":37.81931706,"red or blue":"red","values":1,"longitude":-85.76390324,"id":"a64d1tlbss7s","state":"Kentucky"},"type":"Feature","geometry":{"type":"Point","coordinates":[-85.76390324,37.81931706]}},{"properties":{"latitude":30.98153904,"red or blue":"red","values":1,"longitude":-91.53179419,"id":"a64d1tt21405","state":"Louisiana"},"type":"Feature","geometry":{"type":"Point","coordinates":[-91.53179419,30.98153904]}},{"properties":{"latitude":45.27219253,"red or blue":"blue","values":2,"longitude":-69.02839014,"id":"a64d1tkm43kj","state":"Maine"},"type":"Feature","geometry":{"type":"Point","coordinates":[-69.02839014,45.27219253]}},{"properties":{"latitude":38.84785799,"red or blue":"blue","values":2,"longitude":-77.2677439,"id":"a64d1tyaolxb","state":"Maryland"},"type":"Feature","geometry":{"type":"Point","coordinates":[-77.2677439,38.84785799]}},{"properties":{"latitude":42.06257858,"red or blue":"blue","values":2,"longitude":-71.7083099,"id":"a64d1tv8ygv3","state":"Massachusetts"},"type":"Feature","geometry":{"type":"Point","coordinates":[-71.7083099,42.06257858]}},{"properties":{"latitude":44.93564502,"red or blue":"blue","values":2,"longitude":-86.41401786,"id":"a64d1tvf4sbb","state":"Michigan"},"type":"Feature","geometry":{"type":"Point","coordinates":[-86.41401786,44.93564502]}},{"properties":{"latitude":46.43491612,"red or blue":"blue","values":2,"longitude":-93.38005479,"id":"a64d1tqbpdka","state":"Minnesota"},"type":"Feature","geometry":{"type":"Point","coordinates":[-93.38005479,46.43491612]}},{"properties":{"latitude":32.59998842,"red or blue":"red","values":1,"longitude":-89.86707555,"id":"a64d1u05g0yw","state":"Mississippi"},"type":"Feature","geometry":{"type":"Point","coordinates":[-89.86707555,32.59998842]}},{"properties":{"latitude":38.2997204,"red or blue":"red","values":1,"longitude":-92.43625673,"id":"a64d1tqjz9rv","state":"Missouri"},"type":"Feature","geometry":{"type":"Point","coordinates":[-92.43625673,38.2997204]}},{"properties":{"latitude":46.67683322,"red or blue":"red","values":1,"longitude":-110.0533018,"id":"a64d1tz04o8h","state":"Montana"},"type":"Feature","geometry":{"type":"Point","coordinates":[-110.0533018,46.67683322]}},{"properties":{"latitude":41.49782869,"red or blue":"red","values":1,"longitude":-99.6824583,"id":"a64d1tkf1iwj","state":"Nebraska"},"type":"Feature","geometry":{"type":"Point","coordinates":[-99.6824583,41.49782869]}},{"properties":{"latitude":38.49777576,"red or blue":"red","values":1,"longitude":-117.0168584,"id":"a64d1tsvc8wn","state":"Nevada"},"type":"Feature","geometry":{"type":"Point","coordinates":[-117.0168584,38.49777576]}},{"properties":{"latitude":44.00003633,"red or blue":"blue","values":2,"longitude":-71.64378366,"id":"a64d1trdbunj","state":"New Hampshire"},"type":"Feature","geometry":{"type":"Point","coordinates":[-71.64378366,44.00003633]}},{"properties":{"latitude":40.15362776,"red or blue":"blue","values":2,"longitude":-74.73319127,"id":"a64d1tqipdn6","state":"New Jersey"},"type":"Feature","geometry":{"type":"Point","coordinates":[-74.73319127,40.15362776]}},{"properties":{"latitude":34.17160662,"red or blue":"blue","values":2,"longitude":-106.0243736,"id":"a64d1tm9z2qe","state":"New Mexico"},"type":"Feature","geometry":{"type":"Point","coordinates":[-106.0243736,34.17160662]}},{"properties":{"latitude":42.75607104,"red or blue":"blue","values":2,"longitude":-75.81661084,"id":"a64d1txj6ort","state":"New York"},"type":"Feature","geometry":{"type":"Point","coordinates":[-75.81661084,42.75607104]}},{"properties":{"latitude":35.23596621,"red or blue":"blue","values":2,"longitude":-79.89017696,"id":"a64d1tvuu3w9","state":"North Carolina"},"type":"Feature","geometry":{"type":"Point","coordinates":[-79.89017696,35.23596621]}},{"properties":{"latitude":47.46542445,"red or blue":"red","values":1,"longitude":-100.307461,"id":"a64d1tw3uzea","state":"North Dakota"},"type":"Feature","geometry":{"type":"Point","coordinates":[-100.307461,47.46542445]}},{"properties":{"latitude":40.19369154,"red or blue":"blue","values":2,"longitude":-82.66603338,"id":"a64d1u029jvk","state":"Ohio"},"type":"Feature","geometry":{"type":"Point","coordinates":[-82.66603338,40.19369154]}},{"properties":{"latitude":35.31130735,"red or blue":"red","values":1,"longitude":-98.71313073,"id":"a64d1tlt05b4","state":"Oklahoma"},"type":"Feature","geometry":{"type":"Point","coordinates":[-98.71313073,35.31130735]}},{"properties":{"latitude":44.11188188,"red or blue":"blue","values":2,"longitude":-120.5150179,"id":"a64d1txlnlan","state":"Oregon"},"type":"Feature","geometry":{"type":"Point","coordinates":[-120.5150179,44.11188188]}},{"properties":{"latitude":40.99332035,"red or blue":"blue","values":2,"longitude":-77.61305381,"id":"a64d1tx2t977","state":"Pennsylvania"},"type":"Feature","geometry":{"type":"Point","coordinates":[-77.61305381,40.99332035]}},{"properties":{"latitude":41.66824148,"red or blue":"blue","values":2,"longitude":-71.49190558,"id":"a64d1tordhxx","state":"Rhode Island"},"type":"Feature","geometry":{"type":"Point","coordinates":[-71.49190558,41.66824148]}},{"properties":{"latitude":33.63826517,"red or blue":"red","values":1,"longitude":-80.96506932,"id":"a64d1tz89ljy","state":"South Carolina"},"type":"Feature","geometry":{"type":"Point","coordinates":[-80.96506932,33.63826517]}},{"properties":{"latitude":44.21600327,"red or blue":"red","values":1,"longitude":-100.2502154,"id":"a64d1ts5pxdj","state":"South Dakota"},"type":"Feature","geometry":{"type":"Point","coordinates":[-100.2502154,44.21600327]}},{"properties":{"latitude":35.83422151,"red or blue":"red","values":1,"longitude":-85.97886026,"id":"a64d1tu8sna3","state":"Tennessee"},"type":"Feature","geometry":{"type":"Point","coordinates":[-85.97886026,35.83422151]}},{"properties":{"latitude":31.16973507,"red or blue":"red","values":1,"longitude":-100.0787254,"id":"a64d1u027m5y","state":"Texas"},"type":"Feature","geometry":{"type":"Point","coordinates":[-100.0787254,31.16973507]}},{"properties":{"latitude":39.49702344,"red or blue":"red","values":1,"longitude":-111.5452397,"id":"a64d1tn1j7j7","state":"Utah"},"type":"Feature","geometry":{"type":"Point","coordinates":[-111.5452397,39.49702344]}},{"properties":{"latitude":43.86960212,"red or blue":"blue","values":2,"longitude":-72.47068651,"id":"a64d1tym539b","state":"Vermont"},"type":"Feature","geometry":{"type":"Point","coordinates":[-72.47068651,43.86960212]}},{"properties":{"latitude":37.99931082,"red or blue":"blue","values":2,"longitude":-79.45869803,"id":"a64d1tp7ciwb","state":"Virginia"},"type":"Feature","geometry":{"type":"Point","coordinates":[-79.45869803,37.99931082]}},{"properties":{"latitude":47.27151208,"red or blue":"blue","values":2,"longitude":-120.8259511,"id":"a64d1tznchum","state":"Washington"},"type":"Feature","geometry":{"type":"Point","coordinates":[-120.8259511,47.27151208]}},{"properties":{"latitude":38.9210566,"red or blue":"red","values":1,"longitude":-80.18731287,"id":"a64d1u07dxpt","state":"West Virginia"},"type":"Feature","geometry":{"type":"Point","coordinates":[-80.18731287,38.9210566]}},{"properties":{"latitude":44.72081619,"red or blue":"blue","values":2,"longitude":-89.92655482,"id":"a64d1tnmd14p","state":"Wisconsin"},"type":"Feature","geometry":{"type":"Point","coordinates":[-89.92655482,44.72081619]}},{"properties":{"latitude":42.99854103,"red or blue":"red","values":1,"longitude":-107.5525671,"id":"a64d1tw8gwhs","state":"Wyoming"},"type":"Feature","geometry":{"type":"Point","coordinates":[-107.5525671,42.99854103]}}],"is_temporal":false,"author":{"url":"","metadata":"","contact_name":"","contact_address":"","source":"","contact_phone":""},"source":"","pagination":{"sort":null,"start":0,"total":50,"limit":1000000},"state":"complete","tags":"","published":"2014-08-10T12:02:36-04:00","id":90647}