{"type":"FeatureCollection","data_type":"Dataset","url_type":null,"permissions":[{"permissions":{"download":true,"view":true},"group_id":"everyone"}],"classification":null,"title":"Cell Phone Recycling","count":5,"stream_id":91139,"contributor":{"url":"http://geocommons.com/users/21795","name":"pmenlibai"},"data_attributes":null,"calculation_params":null,"icon_link":null,"link":"http://geocommons.com/overlays/91139.json","extent":[-79.9807,40.4357,-79.9186,40.4612],"geometry_types":["point"],"unique_name":null,"name":"Cell Phone Recycling","feature_count":5,"description":"Cell phone recycling locations","next_feature":null,"is_raster":false,"short_classification":"Y","stats":{},"features":[{"properties":{"city":"Pittsburgh","zip":"15217","geo_score":0.911,"id":"a62jept78xt0","geo_precision":"range","address":"1923 Murray Avenue","recycle site":"Wireless Zone","state":"PA"},"type":"Feature","geometry":{"type":"Point","coordinates":[-79.922866,40.435737]}},{"properties":{"city":"Pittsburgh","zip":"15224","geo_score":0.902,"id":"a62jeq2ekjp4","geo_precision":"range","address":"4753 Liberty Ave","recycle site":"Atlas Electronics","state":"PA"},"type":"Feature","geometry":{"type":"Point","coordinates":[-79.94828,40.461222]}},{"properties":{"city":"Pittsburgh","zip":"15206","geo_score":0.929,"id":"a62jept2ooi8","geo_precision":"range","address":"6375 Penn Ave","recycle site":"Staples","state":"PA"},"type":"Feature","geometry":{"type":"Point","coordinates":[-79.918615,40.458204]}},{"properties":{"city":"Pittsburgh","zip":"15206","geo_score":0.575,"id":"a62jeq01zpjr","geo_precision":"street","address":"400 ?N Highland ?Ave","recycle site":"Home Depot","state":"PA"},"type":"Feature","geometry":{"type":"Point","coordinates":[-79.924894,40.460951]}},{"properties":{"city":"Pittsburgh","zip":"15222","geo_score":1.0,"id":"a62jepwwzats","geo_precision":"range","address":"2400 Penn Avenue","recycle site":"Cingular Wireless","state":"PA"},"type":"Feature","geometry":{"type":"Point","coordinates":[-79.980657,40.453381]}}],"is_temporal":false,"author":{"url":"","metadata":"http://search.earth911.com/?what=cell+phones&where=15289&list_filter=all&max_distance=25&family_id=&latitude=&longitude=&country=&province=&city=","contact_name":"","contact_address":"","source":"earth911.com","contact_phone":""},"source":"","pagination":{"sort":null,"start":0,"total":5,"limit":1000000},"state":"complete","tags":"cell,phone,recycling","published":"2014-08-10T12:37:37-04:00","id":91139}