{"type":"FeatureCollection","data_type":"Dataset","url_type":null,"permissions":[{"permissions":{"download":true,"view":true},"group_id":"everyone"}],"classification":null,"title":"Metal Recycling","count":9,"stream_id":91141,"contributor":{"url":"http://geocommons.com/users/21795","name":"pmenlibai"},"data_attributes":null,"calculation_params":null,"icon_link":null,"link":"http://geocommons.com/overlays/91141.json","extent":[-80.057,40.4294,-79.9684,40.4893],"geometry_types":["point"],"unique_name":null,"name":"Metal Recycling","feature_count":9,"description":"Metal Recycling locations","next_feature":null,"is_raster":false,"short_classification":"Y","stats":{},"features":[{"properties":{"city":"Pittsburgh","zip":"15201","geo_score":1.0,"column_1":null,"id":"a673oezc433z","geo_precision":"range","address":"3313 Penn Avenue","recycle site":"All Scrap Metals Company","state":"PA"},"type":"Feature","geometry":{"type":"Point","coordinates":[-79.968452,40.461836]}},{"properties":{"city":"Pittsburgh","zip":"15203","geo_score":0.667,"column_1":null,"id":"a673of077sct","geo_precision":"street","address":"2700 ?East Carson ?Street","recycle site":"Goodwill Industries","state":"PA"},"type":"Feature","geometry":{"type":"Point","coordinates":[-80.000675,40.431169]}},{"properties":{"city":"Pittsburgh","zip":"15201","geo_score":1.0,"column_1":null,"id":"a673of14vlu9","geo_precision":"range","address":"3315 Penn Ave","recycle site":"Harman Metals Company Incorporated","state":"PA"},"type":"Feature","geometry":{"type":"Point","coordinates":[-79.968405,40.461879]}},{"properties":{"city":"Pittsburgh","zip":"15201","geo_score":1.0,"column_1":null,"id":"a673oezywagy","geo_precision":"range","address":"3135 Liberty Ave","recycle site":"Cartiff &amp; Brothers","state":"PA"},"type":"Feature","geometry":{"type":"Point","coordinates":[-79.970243,40.459556]}},{"properties":{"city":"Pittsburgh","zip":"15201","geo_score":1.0,"column_1":null,"id":"a673of69ef0n","geo_precision":"range","address":"3232 Penn Ave","recycle site":"All Scrap Metals Company","state":"PA"},"type":"Feature","geometry":{"type":"Point","coordinates":[-79.969601,40.461036]}},{"properties":{"city":"Pittsburgh","zip":"15201","geo_score":0.629,"column_1":null,"id":"a673of38k4j2","geo_precision":"range","address":"3001 Railroad St","recycle site":"City of Pittsburgh Environmental Services Facility","state":"PA"},"type":"Feature","geometry":{"type":"Point","coordinates":[-79.974355,40.460146]}},{"properties":{"city":"Pittsburgh","zip":"15219","geo_score":0.902,"column_1":null,"id":"a673oexjamie","geo_precision":"range","address":"700 5th Avenue","recycle site":"National Kidney Foundation of Western Pennsylvania","state":"PA"},"type":"Feature","geometry":{"type":"Point","coordinates":[-79.993429,40.438911]}},{"properties":{"city":"Pittsburgh","zip":"15203","geo_score":1.0,"column_1":null,"id":"a673of7t9lgp","geo_precision":"range","address":"523 Bingham Street","recycle site":"Appliance Disposal","state":"PA"},"type":"Feature","geometry":{"type":"Point","coordinates":[-79.99445,40.429414]}},{"properties":{"city":"Pittsburgh","zip":"15207","geo_score":0.393,"column_1":null,"id":"a673of6g21tl","geo_precision":"street","address":"4903 ?E Carson ?St","recycle site":"Keystone Iron &amp; Metal Company","state":"PA"},"type":"Feature","geometry":{"type":"Point","coordinates":[-80.056978,40.489291]}}],"is_temporal":false,"author":{"url":"","metadata":"http://search.earth911.com/?what=metal&where=15289&max_distance=5&country=US&province=PA&city=Pittsburgh&region=Allegheny&latitude=40.4444032089&longitude=-79.9419363656&list_filter=all&page=1","contact_name":"","contact_address":"","source":"earth911.com","contact_phone":""},"source":"","pagination":{"sort":null,"start":0,"total":9,"limit":1000000},"state":"complete","tags":"metal,recycling","published":"2014-08-10T12:37:38-04:00","id":91141}