{"type":"FeatureCollection","data_type":"Dataset","url_type":null,"permissions":[{"permissions":{"download":true,"view":true},"group_id":"everyone"}],"classification":null,"title":"AZ inpatient behavioral health","count":396,"stream_id":91150,"contributor":{"url":"http://geocommons.com/users/21798","name":"warisbusiness"},"data_attributes":null,"calculation_params":null,"icon_link":null,"link":"http://geocommons.com/overlays/91150.json","extent":[-114.643,31.3799,-106.488,36.9236],"geometry_types":["point"],"unique_name":null,"name":"AZ inpatient behavioral health","feature_count":396,"description":"Arizona DHS records of inpatient behavioral health providers.","next_feature":null,"is_raster":false,"short_classification":"Y","stats":{"capacity":{"max":475,"mean":17.3005050505051,"variance":1136.6765567063,"stdev":33.7146341624271,"min":1,"median":8}},"features":[{"properties":{"city":"PHOENIX","name":"ARIZONA STATE HOSPITAL","zip":"85008","geo_score":0.61,"capacity":475,"subtype":"LEVEL 1 PSYCH HOSPITAL","id":"a624ayvullp0","geo_precision":"street","address":"2500 E. VAN BUREN STREET","state":"AZ"},"type":"Feature","geometry":{"type":"Point","coordinates":[-112.030157,33.451352]}},{"properties":{"city":"PHOENIX","name":"MARICOPA MEDICAL CENTER DESERT VISTA PSYC - ANNEX","zip":"85008","geo_score":0.512,"capacity":190,"subtype":"LEVEL 1 PSYCH HOSPTIAL/OUTPATIENT CLINIC","id":"a624ayp7fqy1","geo_precision":"street","address":"2619 E PIERCE STREET &amp;  570 W BROWN RD","state":"AZ"},"type":"Feature","geometry":{"type":"Point","coordinates":[-112.030176,33.456418]}},{"properties":{"city":"PHOENIX","name":"ARIZONA COMMUNITY PROTECTION AND TREATMENT CENTER","zip":"85008","geo_score":1.0,"capacity":189,"subtype":"LEVEL 1 SPECIALIZED TRANSITIONAL AGENCY","id":"a624aykkdqti","geo_precision":"range","address":"2500 EAST VAN BUREN STREET","state":"AZ"},"type":"Feature","geometry":{"type":"Point","coordinates":[-112.027806,33.451346]}},{"properties":{"city":"PHOENIX","name":"ALHAMBRA BEHAVIORAL HEALTH TREATMENT FACILITY","zip":"85008","geo_score":1.0,"capacity":160,"subtype":"LEVEL 1 SUB-ACUTE","id":"a624ayo7vtpz","geo_precision":"range","address":"2500 EAST VAN BUREN STREET","state":"AZ"},"type":"Feature","geometry":{"type":"Point","coordinates":[-112.027806,33.451346]}},{"properties":{"city":"TUCSON","name":"SIERRA TUCSON INC","zip":"85739","geo_score":0.785,"capacity":139,"subtype":"LEVEL 1 PSYCH HOSPITAL","id":"a624ayhg7rm0","geo_precision":"street","address":"39580 SOUTH LAGO DEL ORO PARKWAY","state":"AZ"},"type":"Feature","geometry":{"type":"Point","coordinates":[-110.886124,32.511429]}},{"properties":{"city":"TUCSON","name":"EPIDAURUS DBA AMITY FOUNDATION","zip":"85749","geo_score":1.0,"capacity":139,"subtype":"LEVEL 2 RESIDENTIAL","id":"a624ayk8ooo3","geo_precision":"range","address":"10500 EAST TANQUE VERDE ROAD","state":"AZ"},"type":"Feature","geometry":{"type":"Point","coordinates":[-110.767133,32.250937]}},{"properties":{"city":"PHOENIX","name":"ST LUKES' BEHAVIORAL HOSPITAL L P","zip":"85006","geo_score":0.947,"capacity":124,"subtype":"LEVEL 1 PSYCH HOSPTIAL/OUTPATIENT CLINIC","id":"a624ayjjeww8","geo_precision":"range","address":"1800 EAST VAN BUREN","state":"AZ"},"type":"Feature","geometry":{"type":"Point","coordinates":[-112.043372,33.451428]}},{"properties":{"city":"PHOENIX","name":"SOUTHWEST KEY PROGRAM","zip":"85017","geo_score":1.0,"capacity":98,"subtype":"LEVEL 4 TRANSITIONAL AGENCY","id":"a624aysguqxv","geo_precision":"range","address":"2613 WEST CAMPBELL AVENUE","state":"AZ"},"type":"Feature","geometry":{"type":"Point","coordinates":[-112.115174,33.502196]}},{"properties":{"city":"SCOTTSDALE","name":"BANNER HEALTH/ BANNER BEHAVIORAL HEALTH HOSPITAL","zip":"85251","geo_score":1.0,"capacity":96,"subtype":"L1 PSY/ L1 RTC/L1 SUB-ACUTE/OPC/L4 TR","id":"a624ayg0nq8o","geo_precision":"range","address":"7575 EAST EARLL DRIVE","state":"AZ"},"type":"Feature","geometry":{"type":"Point","coordinates":[-111.918115,33.484001]}},{"properties":{"city":"PRESCOTT VALLEY","name":"MINGUS MOUNTAIN ESTATE RESIDENTIAL CENTER, INC","zip":"86315","geo_score":0.439,"capacity":96,"subtype":"LEVEL 1 RESIDENTIAL TREATMENT CENTER","id":"a624ayrtur6x","geo_precision":"street","address":"15801 EAST DON CARLOS DRIVE","state":"AZ"},"type":"Feature","geometry":{"type":"Point","coordinates":[-110.276924,31.541483]}},{"properties":{"city":"GLENDALE","name":"AURORA BEHAVIORAL SYSTEM, L L C","zip":"85302","geo_score":1.0,"capacity":90,"subtype":"LEVEL 1 PSYCH HOSPTIAL/OUTPATIENT CLINIC","id":"a624aynjiv0b","geo_precision":"range","address":"6015 WEST PEORIA AVENUE","state":"AZ"},"type":"Feature","geometry":{"type":"Point","coordinates":[-112.189526,33.581901]}},{"properties":{"city":"TUCSON","name":"UNIVERSITY PHYSICIANS HOSPITAL","zip":"85713","geo_score":0.956,"capacity":88,"subtype":"LEVEL 1 PSYCH HOSPITAL","id":"a624aym68s8m","geo_precision":"range","address":"2800 EAST AJO WAY","state":"AZ"},"type":"Feature","geometry":{"type":"Point","coordinates":[-110.932013,32.177943]}},{"properties":{"city":"CHANDLER","name":"SOUTHWESTERN CHILDREN'S HEALTH SERVICES, INC","zip":"85225","geo_score":1.0,"capacity":87,"subtype":"LEVEL 1 RTC/OUTPATIENT CLINIC","id":"a624ayuimkmn","geo_precision":"range","address":"2190 NORTH GRACE BLVD","state":"AZ"},"type":"Feature","geometry":{"type":"Point","coordinates":[-111.847216,33.336338]}},{"properties":{"city":"PHOENIX","name":"YOUTH DEVELOPMENT INSTITUTE","zip":"85006","geo_score":1.0,"capacity":84,"subtype":"LEVEL 1 RTC/OUTPATIENT CLINIC","id":"a624ayi1zpr9","geo_precision":"range","address":"1830 EAST ROOSEVELT STREET","state":"AZ"},"type":"Feature","geometry":{"type":"Point","coordinates":[-112.04276,33.458685]}},{"properties":{"city":"WICKENBURG","name":"THE MEADOWS OF WICKENBURG, INC DBA THE MEADOWS","zip":"85390","geo_score":0.805,"capacity":82,"subtype":"LEVEL 1 PSYCH HOSPITAL","id":"a624ayvu7aco","geo_precision":"street","address":"1655 NORTH TEGNER STREET","state":"AZ"},"type":"Feature","geometry":{"type":"Point","coordinates":[-112.740807,33.986236]}},{"properties":{"city":"TEMPE","name":"AURORA BEHAVIORAL HEALTHCARE-TEMPE, LLC","zip":"85283","geo_score":0.924,"capacity":75,"subtype":"OUTPATIENT CLINIC","id":"a624ayranj6t","geo_precision":"range","address":"6350 SOUTH MAPLE AVENUE","state":"AZ"},"type":"Feature","geometry":{"type":"Point","coordinates":[-111.938429,33.364429]}},{"properties":{"city":"MAYER","name":"SPRING RIDGE ACADEMY","zip":"86333","geo_score":0.912,"capacity":72,"subtype":"JUVENILE GROUP HOME","id":"a624ayg4hn35","geo_precision":"range","address":"13690 SOUTH BURTON ROAD","state":"AZ"},"type":"Feature","geometry":{"type":"Point","coordinates":[-112.164507,34.344451]}},{"properties":{"city":"PHOENIX","name":"BEHAVIORAL SYSTEMS SOUTHWEST","zip":"85008","geo_score":0.951,"capacity":70,"subtype":"LEVEL 4 TRANSITIONAL AGENCY","id":"a624ayta87fg","geo_precision":"range","address":"2846 E ROOSEVELT","state":"AZ"},"type":"Feature","geometry":{"type":"Point","coordinates":[-112.020576,33.458565]}},{"properties":{"city":"TUCSON","name":"COTTONWOOD DE TUCSON, INC","zip":"85745","geo_score":1.0,"capacity":69,"subtype":"LEVEL 1 SUB-ACUTE","id":"a624ayofolvj","geo_precision":"range","address":"4110 WEST SWEETWATER DRIVE","state":"AZ"},"type":"Feature","geometry":{"type":"Point","coordinates":[-111.053075,32.279781]}},{"properties":{"city":"GLENDALE","name":"BANNER HEALTH","zip":"85306","geo_score":1.0,"capacity":62,"subtype":"LEVEL 1 PSYCH HOSPTIAL/OUTPATIENT CLINIC","id":"a624ayrce75j","geo_precision":"range","address":"5555 WEST THUNDERBIRD ROAD","state":"AZ"},"type":"Feature","geometry":{"type":"Point","coordinates":[-112.178322,33.610748]}},{"properties":{"city":"TUCSON","name":"COMPASS HEALTH CARE, INC","zip":"85716","geo_score":1.0,"capacity":62,"subtype":"LEVEL 1 SUB-ACUTE/ LEVEL 2 RESIDENTIAL","id":"a624ayuwss5r","geo_precision":"range","address":"2950 NORTH DODGE BOULEVARD","state":"AZ"},"type":"Feature","geometry":{"type":"Point","coordinates":[-110.914131,32.260558]}},{"properties":{"city":"FLORENCE","name":"BEHAVIORAL SYSTEMS SOUTHWEST FLORENCE R R C","zip":"85132","geo_score":0.805,"capacity":60,"subtype":"LEVEL 4 TRANSITIONAL AGENCY","id":"a624ayj4sowk","geo_precision":"range","address":"950 EAST DIVERSION DAM ROAD","state":"AZ"},"type":"Feature","geometry":{"type":"Point","coordinates":[-111.376024,33.038443]}},{"properties":{"city":"PHOENIX","name":"CROSSROADS INC","zip":"85016","geo_score":1.0,"capacity":60,"subtype":"LEVEL 4 TRANSITIONAL AGENCY","id":"a624ayq5kn10","geo_precision":"range","address":"1632 E FLOWER STREET","state":"AZ"},"type":"Feature","geometry":{"type":"Point","coordinates":[-112.047129,33.486047]}},{"properties":{"city":"MESA","name":"WOMEN IN NEW RECOVERY","zip":"85201","geo_score":0.912,"capacity":59,"subtype":"LEVEL 4 TRANSITIONAL AGENCY","id":"a624ayrbpgvf","geo_precision":"range","address":"860 NORTH CENTER STREET","state":"AZ"},"type":"Feature","geometry":{"type":"Point","coordinates":[-111.831306,33.43094]}},{"properties":{"city":"CHANDLER","name":"VALLEY HOPE ASSOCIATION - CHANDLER","zip":"85225","geo_score":0.955,"capacity":56,"subtype":"LEVEL 1 SUB-ACUTE","id":"a624ayiqqbpz","geo_precision":"range","address":"501 NORTH WASHINGTON","state":"AZ"},"type":"Feature","geometry":{"type":"Point","coordinates":[-111.840137,33.311611]}},{"properties":{"city":"TUCSON","name":"SONORA BEHAVIORAL HEALTH HOSPITAL","zip":"85704","geo_score":0.735,"capacity":56,"subtype":"LEVEL 1 PSYCH HOSPTIAL/OUTPATIENT CLINIC","id":"a624ayotmjej","geo_precision":"street","address":"6050 N CORONA ROAD #3","state":"AZ"},"type":"Feature","geometry":{"type":"Point","coordinates":[-111.00789,32.319342]}},{"properties":{"city":"TUCSON","name":"THE HAVEN","zip":"85719","geo_score":1.0,"capacity":54,"subtype":"LEVEL 2 RESIDENTIAL/ OUTPATIENT CLINIC","id":"a624ayfmluzf","geo_precision":"range","address":"1107 EAST ADELAIDE DRIVE","state":"AZ"},"type":"Feature","geometry":{"type":"Point","coordinates":[-110.954739,32.259444]}},{"properties":{"city":"TUCSON","name":"LA FRONTERA CENTER, INC / CASA DE VIDA","zip":"85745","geo_score":1.0,"capacity":53,"subtype":"LEVEL 2 RESIDENTIAL","id":"a624ayqiv7z8","geo_precision":"range","address":"1900 WEST SPEEDWAY BOULEVARD","state":"AZ"},"type":"Feature","geometry":{"type":"Point","coordinates":[-111.007717,32.235228]}},{"properties":{"city":"PHOENIX","name":"NEW ARIZONA FAMILY, INC","zip":"85018","geo_score":0.92,"capacity":53,"subtype":"LEVEL 2 RESIDENTIAL","id":"a624ayj5m8ov","geo_precision":"range","address":"3301 E PINCHOT","state":"AZ"},"type":"Feature","geometry":{"type":"Point","coordinates":[-112.010504,33.482338]}},{"properties":{"city":"PHOENIX","name":"CROSSROADS, INC","zip":"85051","geo_score":0.927,"capacity":50,"subtype":"LEVEL 4 TRANSITIONAL AGENCY","id":"a624ayfh9dcd","geo_precision":"range","address":"7523 NORTH 35TH AVENUE","state":"AZ"},"type":"Feature","geometry":{"type":"Point","coordinates":[-112.134297,33.546629]}},{"properties":{"city":"PHOENIX","name":"CALVARY CENTER, INC","zip":"85014","geo_score":1.0,"capacity":50,"subtype":"LEVEL 1 SUB-ACUTE / OUTPATIENT CLINIC","id":"a624ayts2dh3","geo_precision":"range","address":"720 EAST MONTEBELLO AVENUE","state":"AZ"},"type":"Feature","geometry":{"type":"Point","coordinates":[-112.064754,33.520113]}},{"properties":{"city":"TUCSON","name":"PALO VERDE MENTAL HEALTH SERVICES","zip":"85712","geo_score":1.0,"capacity":48,"subtype":"LEVEL 1 PSYCH HOSPTIAL/OUTPATIENT CLINIC","id":"a624aynp9dgx","geo_precision":"range","address":"2695 NORTH CRAYCROFT ROAD","state":"AZ"},"type":"Feature","geometry":{"type":"Point","coordinates":[-110.875272,32.255909]}},{"properties":{"city":"SCOTTSDALE","name":"DEVEREUX  FOUNDATION / DEVEREUX ARIZONA SCOTTSDALE","zip":"85254","geo_score":1.0,"capacity":48,"subtype":"LEVEL 1 RESIDENTIAL TREATMENT CENTER","id":"a624ayiutree","geo_precision":"range","address":"6436 EAST SWEETWATER AVENUE","state":"AZ"},"type":"Feature","geometry":{"type":"Point","coordinates":[-111.942614,33.604065]}},{"properties":{"city":"WICKENBURG","name":"REMUDA RANCH CENTER FOR ANOREXIA AND BULIMIA, INC","zip":"85390","geo_score":0.809,"capacity":46,"subtype":"LEVEL 1 PSYCH HOSPITAL","id":"a624ayh70hna","geo_precision":"street","address":"1245 JACK BURDEN ROAD","state":"AZ"},"type":"Feature","geometry":{"type":"Point","coordinates":[-112.728479,33.979155]}},{"properties":{"city":"TUCSON","name":"BEHAVIORAL SYSTEMS SOUTHWEST","zip":"85706","geo_score":0.922,"capacity":44,"subtype":"LEVEL 4 TRANSITIONAL AGENCY","id":"a624aymitalf","geo_precision":"range","address":"6420 SOUTH PARK AVENUE","state":"AZ"},"type":"Feature","geometry":{"type":"Point","coordinates":[-110.956232,32.136101]}},{"properties":{"city":"PHOENIX","name":"CHICANOS POR LA CAUSA, INC / CORAZON","zip":"85009","geo_score":0.912,"capacity":41,"subtype":"LEVEL 2 RESIDENTIAL","id":"a624ayntmmot","geo_precision":"range","address":"3639 WEST LINCOLN STREET","state":"AZ"},"type":"Feature","geometry":{"type":"Point","coordinates":[-112.13741,33.442318]}},{"properties":{"city":"MESA","name":"ANASAZI FOUNDATION","zip":"85204","geo_score":0.902,"capacity":40,"subtype":"JUVENILE GROUP HOME","id":"a624ayvk7otl","geo_precision":"street","address":"1424 SOUTH STAPLEY DRIVE","state":"AZ"},"type":"Feature","geometry":{"type":"Point","coordinates":[-111.805516,33.388856]}},{"properties":{"city":"CASA GRANDE","name":"THE RIVER SOURCE TREATMENT CENTER","zip":"85122","geo_score":0.514,"capacity":40,"subtype":"LEVEL 1 SUB-ACUTE","id":"a624ayr6h9r2","geo_precision":"street","address":"950 NORTH ARIZOLA ROAD, SUITE 3","state":"AZ"},"type":"Feature","geometry":{"type":"Point","coordinates":[-111.714263,32.865195]}},{"properties":{"city":"PHOENIX","name":"FLORENCE CRITTENTON SERVICES OF ARIZONA, INC","zip":"85013","geo_score":1.0,"capacity":40,"subtype":"JUVENILE GROUP HOME","id":"a624ayhalerh","geo_precision":"range","address":"715 WEST MARIPOSA STREET","state":"AZ"},"type":"Feature","geometry":{"type":"Point","coordinates":[-112.082641,33.508435]}},{"properties":{"city":"PHOENIX","name":"CROSSROADS, INC","zip":"85016","geo_score":0.902,"capacity":40,"subtype":"LEVEL 4 TRANSITIONAL AGENCY","id":"a624ayj65jdz","geo_precision":"street","address":"1845 EAST OCOTILLO ROAD","state":"AZ"},"type":"Feature","geometry":{"type":"Point","coordinates":[-112.040275,33.534674]}},{"properties":{"city":"PHOENIX","name":"CHRYSALIS SHELTER FOR VICTIMS OF DOMESTIC VIOLENCE","zip":"85020","geo_score":0.415,"capacity":40,"subtype":"LEV 4 SHELTER FOR VICTIMS OF DV","id":"a624ayppvwzb","geo_precision":"street","address":"CONFIDENTIAL PURSUANT TO A.R.S. 36-3009","state":"AZ"},"type":"Feature","geometry":{"type":"Point","coordinates":[-112.121255,33.658605]}},{"properties":{"city":"CHANDLER","name":"REMUDA RANCH CENTER FOR ANOREXIA AND BULIMIA, INC","zip":"85226","geo_score":1.0,"capacity":38,"subtype":"LEVEL 2 RESIDENTIAL/ OUTPATIENT CLINIC","id":"a624ayk249ai","geo_precision":"range","address":"111 SOUTH HEARTHSTONE WAY","state":"AZ"},"type":"Feature","geometry":{"type":"Point","coordinates":[-111.905243,33.301639]}},{"properties":{"city":"WICKENBURG","name":"REMUDA  RANCH CENTER FOR ANOREXIA AND BULIMIA, INC","zip":"85390","geo_score":1.0,"capacity":36,"subtype":"LEVEL 1 RESIDENTIAL TREATMENT CENTER","id":"a624ayncc6lk","geo_precision":"range","address":"55635 NORTH VULTURE MINE ROAD","state":"AZ"},"type":"Feature","geometry":{"type":"Point","coordinates":[-112.771936,33.98846]}},{"properties":{"city":"SCOTTSDALE","name":"THE NEW FOUNDATION","zip":"85257","geo_score":0.731,"capacity":36,"subtype":"LEVEL 1 RTC/OUTPATIENT CLINIC","id":"a624ayk5zn7k","geo_precision":"street","address":"1200 NORTH 77TH STREET","state":"AZ"},"type":"Feature","geometry":{"type":"Point","coordinates":[-111.913745,33.462041]}},{"properties":{"city":"FLAGSTAFF","name":"NORTHLAND FAMILY HELP CENTER / HALO HOUSE","zip":"86004","geo_score":0.641,"capacity":36,"subtype":"JUVENILE GROUP HOME","id":"a624ayr9ri8h","geo_precision":"street","address":"CONFIDENTIAL PURSUANT TO A R S 36-3009","state":"AZ"},"type":"Feature","geometry":{"type":"Point","coordinates":[-111.605004,35.224022]}},{"properties":{"city":"SUN CITY WEST","name":"BANNER HEALTH DBA BANNER DEL E WEBB MEDICAL CENTER","zip":"85375","geo_score":1.0,"capacity":34,"subtype":"LEVEL 1 PSYCH HOSPTIAL/OUTPATIENT CLINIC","id":"a624aynlddxy","geo_precision":"range","address":"14502 WEST MEEKER BOULEVARD","state":"AZ"},"type":"Feature","geometry":{"type":"Point","coordinates":[-112.372303,33.65797]}},{"properties":{"city":"PHOENIX","name":"CROSSROADS, INC","zip":"85013","geo_score":0.927,"capacity":32,"subtype":"LEVEL 4 TRANSITIONAL AGENCY","id":"a624ayllnm71","geo_precision":"range","address":"3702 NORTH 13TH AVENUE","state":"AZ"},"type":"Feature","geometry":{"type":"Point","coordinates":[-112.089142,33.490409]}},{"properties":{"city":"CASA GRANDE","name":"SOUTHWESTERN CHILDREN'S HEALTH SERVICES, INC","zip":"85122","geo_score":0.805,"capacity":32,"subtype":"LEVEL 1 RESIDENTIAL TREATMENT CENTER","id":"a624ayhud0fv","geo_precision":"range","address":"1120 EAST 6TH STREET","state":"AZ"},"type":"Feature","geometry":{"type":"Point","coordinates":[-111.740021,32.878107]}},{"properties":{"city":"COTTONWOOD","name":"MINGUS CENTER","zip":"86326","geo_score":0.911,"capacity":32,"subtype":"LEVEL 1 SUB-ACUTE/ LEVEL 2 RESIDENTIAL","id":"a624ayiltfi8","geo_precision":"range","address":"636 NORTH MAIN STREET","state":"AZ"},"type":"Feature","geometry":{"type":"Point","coordinates":[-112.017038,34.744151]}},{"properties":{"city":"PHOENIX","name":"NATIVE AMERICAN CONNECTIONS, INC - GUIDING STAR","zip":"85008","geo_score":0.947,"capacity":32,"subtype":"LEVEL 2 RESIDENTIAL","id":"a624aygviy52","geo_precision":"range","address":"3424 EAST VAN BUREN","state":"AZ"},"type":"Feature","geometry":{"type":"Point","coordinates":[-112.008243,33.45129]}},{"properties":{"city":"KINGMAN","name":"KINGMAN AID TO ABUSED PEOPLE","zip":"86401","geo_score":0.485,"capacity":30,"subtype":"LEV 4 SHELTER FOR VICTIMS OF DV","id":"a624ayosw5k0","geo_precision":"street","address":"CONFIDENTIAL PURSUANT TO ARS 36-3009","state":"AZ"},"type":"Feature","geometry":{"type":"Point","coordinates":[-114.035415,35.260827]}},{"properties":{"city":"TUCSON","name":"COMPASS BEHAVIORAL HEALTH CARE","zip":"85705","geo_score":0.919,"capacity":30,"subtype":"LEVEL 2 RESIDENTIAL","id":"a624ayuozr7n","geo_precision":"range","address":"302 WEST VENTURA STREET","state":"AZ"},"type":"Feature","geometry":{"type":"Point","coordinates":[-110.976517,32.245952]}},{"properties":{"city":"PHOENIX","name":"HAVEN BEHAVIORAL SERVICES OF PHOENIX, L L C","zip":"85007","geo_score":0.878,"capacity":30,"subtype":"LEVEL 1 PSYCH HOSPITAL","id":"a624ayho825z","geo_precision":"street","address":"1201 SOUTH 7TH AVENUE, SUITE 200","state":"AZ"},"type":"Feature","geometry":{"type":"Point","coordinates":[-112.082527,33.447111]}},{"properties":{"city":"GLENDALE","name":"NORTHWEST ORG FOR VOLUNTARY ALTERNATIVES INC","zip":"85301","geo_score":0.862,"capacity":29,"subtype":"LEVEL 2 RESIDENTIAL/ OUTPATIENT CLINIC","id":"a624ayro71lk","geo_precision":"range","address":"7022 NORTH 48TH AVENUE","state":"AZ"},"type":"Feature","geometry":{"type":"Point","coordinates":[-112.162258,33.538654]}},{"properties":{"city":"WICKENBURG","name":"ROSEWOOD RANCH","zip":"85390","geo_score":0.773,"capacity":28,"subtype":"LEVEL 1 SUB-ACUTE","id":"a624ayg6x5ax","geo_precision":"street","address":"36075 SOUTH RINCON ROAD","state":"AZ"},"type":"Feature","geometry":{"type":"Point","coordinates":[-112.741798,34.024375]}},{"properties":{"city":"FLAGSTAFF","name":"THE GUIDANCE CENTER INC","zip":"86004","geo_score":1.0,"capacity":28,"subtype":"L1 PSYCH/L4 RURAL SA/OPC","id":"a624ayus5ra8","geo_precision":"range","address":"2187 NORTH VICKEY STREET","state":"AZ"},"type":"Feature","geometry":{"type":"Point","coordinates":[-111.605921,35.206468]}},{"properties":{"city":"FLAGSTAFF","name":"FMC  BEHAVIORAL HEALTH SERVICES","zip":"86001","geo_score":0.913,"capacity":26,"subtype":"LEVEL 1 PSYCH HOSPTIAL/OUTPATIENT CLINIC","id":"a624ayk184t3","geo_precision":"range","address":"1200 NORTH BEAVER STREET","state":"AZ"},"type":"Feature","geometry":{"type":"Point","coordinates":[-111.645139,35.208912]}},{"properties":{"city":"PRESCOTT","name":"WEST YAVAPAI GUIDANCE CLINIC / HILLSIDE CENTER","zip":"86301","geo_score":0.837,"capacity":26,"subtype":"LEVEL 2 RESIDENTIAL/ OUTPATIENT CLINIC","id":"a624aynmjfsr","geo_precision":"range","address":"642 DAMERON","state":"AZ"},"type":"Feature","geometry":{"type":"Point","coordinates":[-112.476164,34.552062]}},{"properties":{"city":"PHOENIX","name":"MARK ALLEN FOUNDATION, INC","zip":"85051","geo_score":1.0,"capacity":26,"subtype":"LEVEL 2 RESIDENTIAL","id":"a624ayvcfu56","geo_precision":"range","address":"2622 WEST STATE AVENUE","state":"AZ"},"type":"Feature","geometry":{"type":"Point","coordinates":[-112.114842,33.54463]}},{"properties":{"city":"MESA","name":"A NEW LEAF, INC - LARRY SIMMONS RESIDENCE","zip":"85203","geo_score":0.941,"capacity":26,"subtype":"LEVEL 1 RTC/OUTPATIENT CLINIC","id":"a624ayrdc96u","geo_precision":"range","address":"960 NORTH STAPLEY","state":"AZ"},"type":"Feature","geometry":{"type":"Point","coordinates":[-111.805278,33.433154]}},{"properties":{"city":"PHOENIX","name":"HOMEBASE YOUTH SERVICES - NICHOLAS CENTER","zip":"85014","geo_score":0.937,"capacity":25,"subtype":"LEVEL 4 TRANSITIONAL AGENCY","id":"a624ayvxvqag","geo_precision":"range","address":"931 EAST DEVONSHIRE","state":"AZ"},"type":"Feature","geometry":{"type":"Point","coordinates":[-112.062299,33.497251]}},{"properties":{"city":"MESA","name":"A NEW LEAF, INC - DOROTHY MITCHELL RESIDENCE","zip":"85213","geo_score":0.902,"capacity":25,"subtype":"LEVEL 1 RESIDENTIAL TREATMENT CENTER","id":"a624ayhtwls4","geo_precision":"range","address":"3505 EAST UNIVERSITY DRIVE","state":"AZ"},"type":"Feature","geometry":{"type":"Point","coordinates":[-111.755426,33.422758]}},{"properties":{"city":"BULLHEAD CITY","name":"WESTCARE ARIZONA I, INC / SAFE HOUSE","zip":"86442","geo_score":0.423,"capacity":24,"subtype":"LEV 4 SHELTER FOR VICTIMS OF DV","id":"a624aym480rt","geo_precision":"street","address":"CONFIDENTIAL PURSUANT TO A.R.S. 36-3009","state":"AZ"},"type":"Feature","geometry":{"type":"Point","coordinates":[-114.091246,34.934142]}},{"properties":{"city":"MESA","name":"COMMUNITY BRIDGES, INC - CENTER FOR HOPE","zip":"85204","geo_score":1.0,"capacity":24,"subtype":"LEVEL 2 RESIDENTIAL/ OUTPATIENT CLINIC","id":"a624aynjar6c","geo_precision":"range","address":"554-1 SOUTH BELLVIEW","state":"AZ"},"type":"Feature","geometry":{"type":"Point","coordinates":[-111.815258,33.405484]}},{"properties":{"city":"GLENDALE","name":"SOUTHWEST KEY PROGRAM CAMPUS","zip":"85301","geo_score":0.935,"capacity":24,"subtype":"LEVEL 4 TRANSITIONAL AGENCY","id":"a624aypj28ub","geo_precision":"range","address":"5125 WEST MYRTLE AVENUE","state":"AZ"},"type":"Feature","geometry":{"type":"Point","coordinates":[-112.169062,33.542103]}},{"properties":{"city":"YUMA","name":"COMMUNITY BRIDGES, INC - LIGHTHOUSE","zip":"85365","geo_score":0.875,"capacity":24,"subtype":"LEVEL 2 RESIDENTIAL/ OUTPATIENT CLINIC","id":"a624aynn06dg","geo_precision":"range","address":"3250 B EAST 40TH STREET","state":"AZ"},"type":"Feature","geometry":{"type":"Point","coordinates":[-114.577075,32.655126]}},{"properties":{"city":"TUCSON","name":"CARONDELET BEHAVIORAL HEALTH","zip":"85745","geo_score":1.0,"capacity":24,"subtype":"LEVEL 1 PSYCH HOSPITAL","id":"a624aynl4syi","geo_precision":"range","address":"1601 WEST ST MARY'S ROAD","state":"AZ"},"type":"Feature","geometry":{"type":"Point","coordinates":[-111.001362,32.22874]}},{"properties":{"city":"TUCSON","name":"ARIZONA'S CHILDREN ASSOCIATION","zip":"85713","geo_score":0.872,"capacity":22,"subtype":"HB 2113 JUVENILE GROUP HOME/OPC","id":"a624aymxp501","geo_precision":"range","address":"2700 SOUTH 8TH AVENUE","state":"AZ"},"type":"Feature","geometry":{"type":"Point","coordinates":[-110.971443,32.191397]}},{"properties":{"city":"PHOENIX","name":"BANNER HEALTH - BANNER GOOD SAMARITAN BEHAVIORAL","zip":"85006","geo_score":1.0,"capacity":22,"subtype":"LEVEL 1 PSYCH HOSPITAL","id":"a624ayfui3t6","geo_precision":"range","address":"1111 EAST MCDOWELL ROAD","state":"AZ"},"type":"Feature","geometry":{"type":"Point","coordinates":[-112.059956,33.465712]}},{"properties":{"city":"TUCSON","name":"CODAC BEHAVIORAL HEALTH SERVICES, INC - LAS AMIGAS","zip":"85745","geo_score":0.955,"capacity":21,"subtype":"LEVEL 2 RESIDENTIAL","id":"a624aygy0vfz","geo_precision":"range","address":"502 NORTH SILVERBELL","state":"AZ"},"type":"Feature","geometry":{"type":"Point","coordinates":[-110.998992,32.228876]}},{"properties":{"city":"PHOENIX","name":"ST LUKE'S MEDICAL CENTER - GENERATIONS PROGRAM","zip":"85006","geo_score":0.61,"capacity":19,"subtype":"LEVEL 1 PSYCH HOSPITAL","id":"a624ayo0xf1f","geo_precision":"street","address":"1800 EAST VAN BUREN STREET, 4TH FLOOR","state":"AZ"},"type":"Feature","geometry":{"type":"Point","coordinates":[-112.064235,33.451354]}},{"properties":{"city":"MESA","name":"A NEW LEAF, INC - AUTUMN HOUSE","zip":"85203","geo_score":0.293,"capacity":16,"subtype":"LEV 4 SHELTER FOR VICTIMS OF DV","id":"a624ayiayk7x","geo_precision":"street","address":"CONFIDENTIAL PURSUANT TO A.R.S. 36-3009","state":"AZ"},"type":"Feature","geometry":{"type":"Point","coordinates":[-111.669323,33.306544]}},{"properties":{"city":"YUMA","name":"CROSSROADS MISSION","zip":"85364","geo_score":0.649,"capacity":16,"subtype":"OUTPATIENT CLINIC","id":"a624ayfyi16p","geo_precision":"street","address":"944 SOUTH ARIZONA AVENUE, BULIDING 200","state":"AZ"},"type":"Feature","geometry":{"type":"Point","coordinates":[-114.615878,32.712915]}},{"properties":{"city":"PHOENIX","name":"SOUTHWEST BEHAVIORAL HEALTH SERVICES, INC","zip":"85007","geo_score":0.878,"capacity":16,"subtype":"LEVEL 1 SUB-ACUTE","id":"a624ayspovxs","geo_precision":"street","address":"1424 SOUTH 7TH AVENUE, BUILDING B","state":"AZ"},"type":"Feature","geometry":{"type":"Point","coordinates":[-112.082527,33.447111]}},{"properties":{"city":"FLAGSTAFF","name":"THE GUIDANCE CENTER, INC","zip":"86004","geo_score":1.0,"capacity":16,"subtype":"LEVEL 2 RESIDENTIAL","id":"a624aylnjsmb","geo_precision":"range","address":"2697 EAST INDUSTRIAL DRIVE","state":"AZ"},"type":"Feature","geometry":{"type":"Point","coordinates":[-111.603248,35.210772]}},{"properties":{"city":"WINSLOW","name":"COMMUNITY BRIDGES, INC / LOMA PUH' TAH VI  WINSLOW","zip":"86047","geo_score":0.859,"capacity":16,"subtype":"LEVEL 4 RURAL SUBSTANCE ABUSE TRANSITION","id":"a624ayiao2zo","geo_precision":"range","address":"105 NORTH COTTONWOOD","state":"AZ"},"type":"Feature","geometry":{"type":"Point","coordinates":[-110.690373,35.019654]}},{"properties":{"city":"LAKESIDE","name":"COMMUNITY COUNSELING CENTERS AT PINEVIEW HOSPITAL","zip":"85929","geo_score":0.584,"capacity":16,"subtype":"LEVEL 1 PSYCH HOSPITAL","id":"a624aysgiysd","geo_precision":"street","address":"1920 WEST COMMERCE DRIVE","state":"AZ"},"type":"Feature","geometry":{"type":"Point","coordinates":[-110.025302,34.267027]}},{"properties":{"city":"MESA","name":"RECOVERY HOMES, INC","zip":"85210","geo_score":0.916,"capacity":16,"subtype":"LEVEL 4 TRANSITIONAL AGENCY","id":"a624ayq6vrup","geo_precision":"range","address":"266 EAST 2ND AVENUE","state":"AZ"},"type":"Feature","geometry":{"type":"Point","coordinates":[-111.824836,33.41071]}},{"properties":{"city":"MESA","name":"RECOVERY HOMES, INC","zip":"85204","geo_score":1.0,"capacity":16,"subtype":"LEVEL 4 TRANSITIONAL AGENCY","id":"a624aytjhovj","geo_precision":"range","address":"919 EAST BROADWAY ROAD","state":"AZ"},"type":"Feature","geometry":{"type":"Point","coordinates":[-111.811278,33.407863]}},{"properties":{"city":"PHOENIX","name":"NATIVE AMERICAN CONNECTIONS/ INDIAN REHABILITATION","zip":"85003","geo_score":0.916,"capacity":16,"subtype":"LEVEL 2 RESIDENTIAL","id":"a624ayuv4c59","geo_precision":"range","address":"636 NORTH 3RD AVENUE","state":"AZ"},"type":"Feature","geometry":{"type":"Point","coordinates":[-112.077699,33.455461]}},{"properties":{"city":"PHOENIX","name":"SOUTHWEST BEHAVIORAL HEALTH SERVICES, INC","zip":"85007","geo_score":0.878,"capacity":16,"subtype":"LEVEL 1 SUB-ACUTE","id":"a624aypsyi82","geo_precision":"street","address":"1424 SOUTH 7TH AVENUE, BUILDING A","state":"AZ"},"type":"Feature","geometry":{"type":"Point","coordinates":[-112.082527,33.447111]}},{"properties":{"city":"PEORIA","name":"RECOVERY INNOVATIONS OF AZ PSYCHIATRIC REC CTR","zip":"85345","geo_score":0.893,"capacity":16,"subtype":"LEVEL 1 SUB-ACUTE","id":"a624ayszcp2k","geo_precision":"street","address":"11361 NORTH 99TH AVENUE, SUITE 402","state":"AZ"},"type":"Feature","geometry":{"type":"Point","coordinates":[-112.272404,33.53712]}},{"properties":{"city":"YUMA","name":"S M M H C, INC DBA MOUNTAIN HEALTH &amp; WELLNESS","zip":"85365","geo_score":0.725,"capacity":16,"subtype":"LEVEL 1 SUB-ACUTE","id":"a624ayhudyyy","geo_precision":"street","address":"3180 EAST 40TH STREET","state":"AZ"},"type":"Feature","geometry":{"type":"Point","coordinates":[-114.577291,32.655125]}},{"properties":{"city":"PHOENIX","name":"SOUTHWEST BEHAVIORAL HEALTH SERVICES, INC - TOBY","zip":"85003","geo_score":1.0,"capacity":16,"subtype":"LEVEL 2 RESIDENTIAL","id":"a624ayp06jm3","geo_precision":"range","address":"303 WEST WILLETTA STREET","state":"AZ"},"type":"Feature","geometry":{"type":"Point","coordinates":[-112.078263,33.463716]}},{"properties":{"city":"PHOENIX","name":"YOUTH DEVELOPMENT INSTITUTE","zip":"85006","geo_score":0.875,"capacity":16,"subtype":"JUVENILE GROUP HOME","id":"a624ayjcmfp6","geo_precision":"range","address":"1050-A NORTH 19TH STREET","state":"AZ"},"type":"Feature","geometry":{"type":"Point","coordinates":[-112.041163,33.459874]}},{"properties":{"city":"TUCSON","name":"CARONDELET BEHAVIORAL HEALTH - EXTENDED CARE UNIT","zip":"85745","geo_score":1.0,"capacity":16,"subtype":"LEVEL 1 SUB-ACUTE","id":"a624ayv3rcjv","geo_precision":"range","address":"1802 WEST ST MARY'S ROAD","state":"AZ"},"type":"Feature","geometry":{"type":"Point","coordinates":[-111.003584,32.228115]}},{"properties":{"city":"PHOENIX","name":"SOUTHWEST BEHAVIORAL HEALTH SERVICES, INC","zip":"85009","geo_score":0.829,"capacity":16,"subtype":"LEVEL 2 RESIDENTIAL","id":"a624ayvqx5sr","geo_precision":"range","address":"2313 WEST YUMA","state":"AZ"},"type":"Feature","geometry":{"type":"Point","coordinates":[-112.108873,33.434948]}},{"properties":{"city":"PAYSON","name":"ROUND VALLEY RESIDENTIAL","zip":"85541","geo_score":0.595,"capacity":16,"subtype":"LEVEL 2 RESIDENTIAL","id":"a624ayukp6rx","geo_precision":"zip","address":"8985 WEST STAGELINE ROAD","state":"AZ"},"type":"Feature","geometry":{"type":"Point","coordinates":[-111.258467,34.255035]}},{"properties":{"city":"BENSON","name":"SOUTHEASTERN ARIZONA BEH HLTH SRVCS, INC - PSYCH","zip":"85602","geo_score":0.946,"capacity":16,"subtype":"LEVEL 1 SUB-ACUTE","id":"a624ayufsmvh","geo_precision":"range","address":"470 SOUTH OCOTILLO AVENUE","state":"AZ"},"type":"Feature","geometry":{"type":"Point","coordinates":[-110.307129,31.964167]}},{"properties":{"city":"GLENDALE","name":"A NEW LEAF, INC - FAITH HOUSE","zip":"85302","geo_score":0.415,"capacity":16,"subtype":"LEV 4 SHELTER FOR VICTIMS OF DV","id":"a624aytcz46h","geo_precision":"street","address":"CONFIDENTIAL PURSUANT TO A.R.S. 36-3009","state":"AZ"},"type":"Feature","geometry":{"type":"Point","coordinates":[-114.444352,32.864167]}},{"properties":{"city":"PHOENIX","name":"SOUTHWEST BEHAVIORAL HEALTH SERVICES, INC","zip":"85040","geo_score":0.805,"capacity":16,"subtype":"LEVEL 2 RESIDENTIAL","id":"a624ayictl8x","geo_precision":"range","address":"7439 SOUTH 7TH STREET","state":"AZ"},"type":"Feature","geometry":{"type":"Point","coordinates":[-112.064633,33.378635]}},{"properties":{"city":"YUMA","name":"CROSSROADS MISSION","zip":"85364","geo_score":0.61,"capacity":16,"subtype":"LEVEL 4 RURAL SUBSTANCE ABUSE TRANSITION","id":"a624ayslhsij","geo_precision":"street","address":"944 SOUTH ARIZONA AVENUE, BUILDING 300","state":"AZ"},"type":"Feature","geometry":{"type":"Point","coordinates":[-114.615878,32.712915]}},{"properties":{"city":"MESA","name":"A NEW LEAF, INC - ALICE PETERSON RESIDENCE","zip":"85203","geo_score":1.0,"capacity":16,"subtype":"JUVENILE GROUP HOME","id":"a624aysbzons","geo_precision":"range","address":"901 EAST UNIVERSITY DRIVE","state":"AZ"},"type":"Feature","geometry":{"type":"Point","coordinates":[-111.811844,33.422388]}},{"properties":{"city":"PHOENIX","name":"NEW ARIZONA FAMILY, INC - I I","zip":"85018","geo_score":0.916,"capacity":16,"subtype":"LEVEL 2 RESIDENTIAL","id":"a624aylle5ik","geo_precision":"range","address":"3222 NORTH 37TH STREET","state":"AZ"},"type":"Feature","geometry":{"type":"Point","coordinates":[-112.002017,33.4858]}},{"properties":{"city":"HOLBROOK","name":"COMMUNITY BRIDGES, INC / LOMA PUH' TAH VI HOLBROOK","zip":"86025","geo_score":0.829,"capacity":16,"subtype":"LEVEL 4 RURAL SUBSTANCE ABUSE TRANSITION","id":"a624ayh2byuw","geo_precision":"street","address":"993 HERMOSA DRIVE","state":"AZ"},"type":"Feature","geometry":{"type":"Point","coordinates":[-110.131366,34.923718]}},{"properties":{"city":"SIERRA VISTA","name":"MARY'S MISSION AND DEVELOPMENT CENTER","zip":"85635","geo_score":0.722,"capacity":16,"subtype":"JUVENILE GROUP HOME","id":"a624ayqo24gm","geo_precision":"street","address":"345 TAYLOR DRIVE","state":"AZ"},"type":"Feature","geometry":{"type":"Point","coordinates":[-110.302088,31.561829]}},{"properties":{"city":"TUCSON","name":"LA FRONTERA CENTER, INC / PSYCHIATRIC HEALTH FAC","zip":"85714","geo_score":0.929,"capacity":16,"subtype":"LEVEL 1 SUB-ACUTE","id":"a624ayokaaux","geo_precision":"range","address":"1601 EAST APACHE PARK PLACE","state":"AZ"},"type":"Feature","geometry":{"type":"Point","coordinates":[-110.948021,32.171776]}},{"properties":{"city":"PHOENIX","name":"YOUTH DEVELOPMENT INSTITUTE","zip":"85006","geo_score":0.875,"capacity":16,"subtype":"JUVENILE GROUP HOME","id":"a624ayjhpi1z","geo_precision":"range","address":"1050-B NORTH 19TH STREET","state":"AZ"},"type":"Feature","geometry":{"type":"Point","coordinates":[-112.041163,33.459874]}},{"properties":{"city":"MESA","name":"COMMUNITY BRIDGES, INC - EAST VALLEY ADDICTION","zip":"85204","geo_score":1.0,"capacity":16,"subtype":"LEVEL 1 SUB-ACUTE / OUTPATIENT CLINIC","id":"a624ayoir8wz","geo_precision":"range","address":"560 SOUTH BELLVIEW","state":"AZ"},"type":"Feature","geometry":{"type":"Point","coordinates":[-111.815258,33.405393]}},{"properties":{"city":"PHOENIX","name":"COMMUNITY BRIDGES, INC / CENTRAL CITY ARC &amp; OUTPAT","zip":"85008","geo_score":1.0,"capacity":16,"subtype":"LEVEL 1 SUB-ACUTE / OUTPATIENT CLINIC","id":"a624aykqhffu","geo_precision":"range","address":"2770 EAST VAN BUREN STREET","state":"AZ"},"type":"Feature","geometry":{"type":"Point","coordinates":[-112.022762,33.45133]}},{"properties":{"city":"KINGMAN","name":"MOHAVE MENTAL HEALTH CLINIC, INC","zip":"86409","geo_score":1.0,"capacity":16,"subtype":"LEVEL 1 SUB-ACUTE","id":"a624ayn1ogty","geo_precision":"range","address":"1741 SYCAMORE AVENUE","state":"AZ"},"type":"Feature","geometry":{"type":"Point","coordinates":[-114.036368,35.222207]}},{"properties":{"city":"PHOENIX","name":"SOUTHWEST BEHAVIORAL HEALTH SERVICES, INC","zip":"85009","geo_score":0.839,"capacity":16,"subtype":"LEVEL 2 RESIDENTIAL","id":"a624ayoki54w","geo_precision":"range","address":"2042 NORTH 35TH AVENUE","state":"AZ"},"type":"Feature","geometry":{"type":"Point","coordinates":[-112.134438,33.469828]}},{"properties":{"city":"PRESCOTT VALLEY","name":"WEST YAVAPAI GUIDANCE CLINIC - WINDHAVEN PSYCHIATR","zip":"86314","geo_score":1.0,"capacity":16,"subtype":"LEVEL 1 PSYCH HOSPTIAL/OUTPATIENT CLINIC","id":"a624ayur7h9c","geo_precision":"range","address":"3347 NORTH WINDSONG DRIVE","state":"AZ"},"type":"Feature","geometry":{"type":"Point","coordinates":[-112.326803,34.591642]}},{"properties":{"city":"TUCSON","name":"COPE COMMUNITY SERVICES, INC","zip":"85705","geo_score":0.865,"capacity":15,"subtype":"LEVEL 2 RESIDENTIAL","id":"a624ayvh48lo","geo_precision":"range","address":"535 EAST DRACHMAN","state":"AZ"},"type":"Feature","geometry":{"type":"Point","coordinates":[-110.963643,32.239534]}},{"properties":{"city":"PHOENIX","name":"SOUTHWEST BEHAVIORAL HEALTH SERVICES, INC - TOBY","zip":"85029","geo_score":0.902,"capacity":15,"subtype":"LEVEL 2 RESIDENTIAL","id":"a624aymycpvg","geo_precision":"range","address":"1601 WEST DESERT COVE AVENUE","state":"AZ"},"type":"Feature","geometry":{"type":"Point","coordinates":[-112.093357,33.585725]}},{"properties":{"city":"PHOENIX","name":"CONNECTIONS AZ, INC","zip":"85004","geo_score":0.902,"capacity":15,"subtype":"LEVEL 1 SUB-ACUTE","id":"a624ayrtk4rk","geo_precision":"range","address":"903 NORTH 2ND STREET","state":"AZ"},"type":"Feature","geometry":{"type":"Point","coordinates":[-112.071257,33.457658]}},{"properties":{"city":"TUCSON","name":"CARONDELET BEHAVIORAL  HEALTH / O'RIELLY CARE CTR","zip":"85711","geo_score":1.0,"capacity":15,"subtype":"LEVEL 1 PSYCH HOSPTIAL/OUTPATIENT CLINIC","id":"a624ayhx8dq8","geo_precision":"range","address":"350 NORTH WILMOT ROAD","state":"AZ"},"type":"Feature","geometry":{"type":"Point","coordinates":[-110.85793,32.225804]}},{"properties":{"city":"APACHE JUNCTION","name":"S M M H C, INC DBA MOUNTAIN HEALTH &amp; WELLNESS","zip":"85120","geo_score":0.667,"capacity":14,"subtype":"LEVEL 1 SUB-ACUTE","id":"a624ayl7lg5b","geo_precision":"street","address":"150 NORTH OCOTILLO DRIVE, BUILDING 1","state":"AZ"},"type":"Feature","geometry":{"type":"Point","coordinates":[-106.48778,32.381149]}},{"properties":{"city":"WICKENBURG","name":"ROSEWOOD RANCH","zip":"85390","geo_score":0.667,"capacity":14,"subtype":"LEVEL 1 RESIDENTIAL TREATMENT CENTER","id":"a624aygqiz1w","geo_precision":"street","address":"36075 SOUTH RINCON ROAD, BUILDING C","state":"AZ"},"type":"Feature","geometry":{"type":"Point","coordinates":[-112.745417,33.990325]}},{"properties":{"city":"PHOENIX","name":"EBONY HOUSE, INC","zip":"85042","geo_score":0.916,"capacity":14,"subtype":"LEVEL 2 RESIDENTIAL/ OUTPATIENT CLINIC","id":"a624ayoay080","geo_precision":"range","address":"6222 SOUTH 13TH STREET","state":"AZ"},"type":"Feature","geometry":{"type":"Point","coordinates":[-112.053738,33.390298]}},{"properties":{"city":"WICKENBURG","name":"THE MEADOWS OF WICKENBURG, INC THE MEADOWS MELLODY","zip":"85390","geo_score":0.619,"capacity":14,"subtype":"LEVEL 4 TRANSITIONAL AGENCY","id":"a624ayquqsat","geo_precision":"street","address":"1655 NORTH TEGNER STREET, COMPLEX B","state":"AZ"},"type":"Feature","geometry":{"type":"Point","coordinates":[-112.729175,33.968247]}},{"properties":{"city":"SCOTTSDALE","name":"THE SUNDANCE CENTER","zip":"85259","geo_score":1.0,"capacity":14,"subtype":"LEVEL 2 RESIDENTIAL","id":"a624ayu6ywud","geo_precision":"range","address":"12816 EAST TURQUOISE AVENUE / 10195 NORTH 128TH ST","state":"AZ"},"type":"Feature","geometry":{"type":"Point","coordinates":[-111.804706,33.578685]}},{"properties":{"city":"MESA","name":"COMMUNITY BRIDGES, INC - ARIZONA BRIDGE TO RECOVER","zip":"85204","geo_score":1.0,"capacity":14,"subtype":"LEVEL 1 SUB-ACUTE / OUTPATIENT CLINIC","id":"a624ayuy9wj5","geo_precision":"range","address":"554 SOUTH BELLVIEW","state":"AZ"},"type":"Feature","geometry":{"type":"Point","coordinates":[-111.815258,33.405484]}},{"properties":{"city":"PHOENIX","name":"SOUTHWEST BEHAVIORAL HEALTH SERVICES, INC","zip":"85040","geo_score":0.902,"capacity":14,"subtype":"LEVEL 3 BEHAVIORAL HEALTH RESIDENTIAL","id":"a624ayqptoap","geo_precision":"range","address":"4015 SOUTH 7TH STREET","state":"AZ"},"type":"Feature","geometry":{"type":"Point","coordinates":[-112.064602,33.410338]}},{"properties":{"city":"SCOTTSDALE","name":"THE NEW FOUNDATION","zip":"85257","geo_score":0.731,"capacity":12,"subtype":"JUVENILE GROUP HOME","id":"a624ayuxxnzl","geo_precision":"street","address":"1200 NORTH 77TH STREET","state":"AZ"},"type":"Feature","geometry":{"type":"Point","coordinates":[-111.913745,33.462041]}},{"properties":{"city":"YUMA","name":"CHILD &amp; FAMILY SERVICES OF YUMA, INC","zip":"85364","geo_score":0.916,"capacity":12,"subtype":"JUVENILE GROUP HOME","id":"a624ayvhbge6","geo_precision":"range","address":"257 SOUTH 3RD AVENUE","state":"AZ"},"type":"Feature","geometry":{"type":"Point","coordinates":[-114.623358,32.722315]}},{"properties":{"city":"GLOBE","name":"HORIZON HUMAN SERVICES - HAGEN HILL","zip":"85501","geo_score":0.603,"capacity":12,"subtype":"LEVEL 2 RESIDENTIAL/ OUTPATIENT CLINIC","id":"a624aytvuxdx","geo_precision":"zip","address":"415 WEST BASELINE SPUR","state":"AZ"},"type":"Feature","geometry":{"type":"Point","coordinates":[-110.820944,33.394778]}},{"properties":{"city":"COTTONWOOD","name":"VERDE VALLEY GUIDANCE CLINIC","zip":"86326","geo_score":0.537,"capacity":12,"subtype":"LEVEL 2 RESIDENTIAL","id":"a624aylb5fam","geo_precision":"street","address":"8 EAST COTTONWOOD STREET, BUILDING B","state":"AZ"},"type":"Feature","geometry":{"type":"Point","coordinates":[-111.977164,34.695413]}},{"properties":{"city":"BENSON","name":"COMMUNITY BRIDGES, INC - DESERT SUNRISE","zip":"85602","geo_score":0.946,"capacity":12,"subtype":"LEVEL 2 RESIDENTIAL","id":"a624ayis76wv","geo_precision":"range","address":"648 WEST UNION STREET","state":"AZ"},"type":"Feature","geometry":{"type":"Point","coordinates":[-110.309143,31.962661]}},{"properties":{"city":"PAGE","name":"COMMUNITY BEHAVIORAL HEALTH SERVICES, INC","zip":"86040","geo_score":0.577,"capacity":12,"subtype":"LEVEL 4 RURAL SUBSTANCE ABUSE TRANSITION","id":"a624ayipc6qq","geo_precision":"street","address":"32 NORTH 10TH AVENUE, SUITE 5","state":"AZ"},"type":"Feature","geometry":{"type":"Point","coordinates":[-111.452394,36.92357]}},{"properties":{"city":"FLAGSTAFF","name":"SEQUELCARE OF ARIZONA","zip":"86004","geo_score":0.963,"capacity":12,"subtype":"JUVENILE GROUP HOME","id":"a624ayhfwgtn","geo_precision":"range","address":"8800 NORTH MARY'S DRIVE","state":"AZ"},"type":"Feature","geometry":{"type":"Point","coordinates":[-111.531241,35.264756]}},{"properties":{"city":"ARIZONA CITY","name":"PARK PLACE OUTREACH &amp; COUNSELING CENTERS, INC","zip":"85123","geo_score":0.485,"capacity":12,"subtype":"JUVENILE GROUP HOME","id":"a624ayvm6y1f","geo_precision":"street","address":"13626 DEL RIO DRIVE","state":"AZ"},"type":"Feature","geometry":{"type":"Point","coordinates":[-109.845436,31.944999]}},{"properties":{"city":"PARKER","name":"COLORADO RIVER REGIONAL CRISIS SHELTER","zip":"85344","geo_score":0.429,"capacity":12,"subtype":"LEV 4 SHELTER FOR VICTIMS OF DV","id":"a624ayndm271","geo_precision":"street","address":"CONFIDENTIAL PURSUANT TO A.R.S. 36-3009","state":"AZ"},"type":"Feature","geometry":{"type":"Point","coordinates":[-114.185107,34.232708]}},{"properties":{"city":"COTTONWOOD","name":"NORTHERN ARIZONA HEALTHCARE CORP","zip":"86326","geo_score":0.911,"capacity":11,"subtype":"LEVEL 1 PSYCH HOSPITAL","id":"a624aypdydsu","geo_precision":"range","address":"269 SOUTH CANDY LANE","state":"AZ"},"type":"Feature","geometry":{"type":"Point","coordinates":[-112.031583,34.735301]}},{"properties":{"city":"PHOENIX","name":"PHOENIX CHILDREN'S HOSPITAL","zip":"85016","geo_score":0.813,"capacity":11,"subtype":"LEVEL 1 PSYCH HOSPTIAL/OUTPATIENT CLINIC","id":"a624aykeexja","geo_precision":"range","address":"1919 EAST THOMAS","state":"AZ"},"type":"Feature","geometry":{"type":"Point","coordinates":[-112.040973,33.480273]}},{"properties":{"city":"SCOTTSDALE","name":"DEVEREUX ARIZONA - RESPITE #4","zip":"85254","geo_score":1.0,"capacity":11,"subtype":"JUVENILE GROUP HOME","id":"a624aytlzt48","geo_precision":"range","address":"6429 EAST EUGIE TERRACE","state":"AZ"},"type":"Feature","geometry":{"type":"Point","coordinates":[-111.942757,33.606268]}},{"properties":{"city":"CASA GRANDE","name":"HORIZON HUMAN SERVICES","zip":"85122","geo_score":0.902,"capacity":10,"subtype":"LEVEL 2 RESIDENTIAL","id":"a624aynx8rd5","geo_precision":"range","address":"2271 SOUTH PEART ROAD","state":"AZ"},"type":"Feature","geometry":{"type":"Point","coordinates":[-111.722922,32.859207]}},{"properties":{"city":"TUCSON","name":"SENDERO DE SONORA","zip":"85716","geo_score":0.737,"capacity":10,"subtype":"JUVENILE GROUP HOME","id":"a624ayrjcc5j","geo_precision":"range","address":"2502 NORTH DODGE, STE #160","state":"AZ"},"type":"Feature","geometry":{"type":"Point","coordinates":[-110.913894,32.222659]}},{"properties":{"city":"KINGMAN","name":"MOHAVE MENTAL HEALTH CLINIC, INC","zip":"86409","geo_score":1.0,"capacity":10,"subtype":"LEVEL 3 BEHAVIORAL HEALTH RESIDENTIAL","id":"a624ayq1q01h","geo_precision":"range","address":"1080 SHELDON AVENUE","state":"AZ"},"type":"Feature","geometry":{"type":"Point","coordinates":[-114.040526,35.220751]}},{"properties":{"city":"WICKENBURG","name":"DAKOTA","zip":"85390","geo_score":0.805,"capacity":10,"subtype":"LEVEL 4 TRANSITIONAL AGENCY","id":"a624ayjwbhu0","geo_precision":"street","address":"1655 NORTH TEGNER STREET","state":"AZ"},"type":"Feature","geometry":{"type":"Point","coordinates":[-112.740807,33.986236]}},{"properties":{"city":"TUCSON","name":"LA PALOMA FAMILY SERVICES, INC","zip":"85712","geo_score":1.0,"capacity":10,"subtype":"JUVENILE GROUP HOME","id":"a624ayp42a3k","geo_precision":"range","address":"1654 NORTH ROSEMONT BOULEVARD","state":"AZ"},"type":"Feature","geometry":{"type":"Point","coordinates":[-110.884096,32.24262]}},{"properties":{"city":"PHOENIX","name":"BACK TO LIFE, INC","zip":"85027","geo_score":0.902,"capacity":10,"subtype":"JUVENILE GROUP HOME","id":"a624ayp8ecjf","geo_precision":"range","address":"1495 WEST MOHAWK LANE","state":"AZ"},"type":"Feature","geometry":{"type":"Point","coordinates":[-112.092601,33.674607]}},{"properties":{"city":"PEORIA","name":"SOUTHWEST KEY PROGRAMS / STONEVIEW","zip":"85345","geo_score":0.916,"capacity":10,"subtype":"LEVEL 4 TRANSITIONAL AGENCY","id":"a624ayri5kvc","geo_precision":"range","address":"9663 NORTH 83RD DRIVE","state":"AZ"},"type":"Feature","geometry":{"type":"Point","coordinates":[-112.238471,33.572597]}},{"properties":{"city":"PHOENIX","name":"EBONY HOUSE, INC / ELBA HOUSE","zip":"85042","geo_score":0.916,"capacity":10,"subtype":"LEVEL 2 RESIDENTIAL","id":"a624ayicku7y","geo_precision":"range","address":"8646 SOUTH 14TH STREET","state":"AZ"},"type":"Feature","geometry":{"type":"Point","coordinates":[-112.053068,33.367865]}},{"properties":{"city":"TUCSON","name":"CASA DE TUCSON, L L C","zip":"85741","geo_score":1.0,"capacity":10,"subtype":"JUVENILE GROUP HOME","id":"a624ayju0hkp","geo_precision":"range","address":"3700 WEST GAILEY DRIVE","state":"AZ"},"type":"Feature","geometry":{"type":"Point","coordinates":[-111.044824,32.340575]}},{"properties":{"city":"MESA","name":"THE U-TURN FOUNDATION / KEEP RIGHT","zip":"85204","geo_score":1.0,"capacity":10,"subtype":"JUVENILE GROUP HOME","id":"a624ayppsp2y","geo_precision":"range","address":"1820 SOUTH LOS ALAMOS","state":"AZ"},"type":"Feature","geometry":{"type":"Point","coordinates":[-111.766077,33.382468]}},{"properties":{"city":"PEORIA","name":"SOUTHWEST KEY PROGRAMS / NORTHERN","zip":"85345","geo_score":0.916,"capacity":10,"subtype":"LEVEL 4 TRANSITIONAL AGENCY","id":"a624aypzauow","geo_precision":"range","address":"8398 NORTH 98TH LANE","state":"AZ"},"type":"Feature","geometry":{"type":"Point","coordinates":[-112.271822,33.557826]}},{"properties":{"city":"SAHUARITA","name":"THE OASIS HOME, L L C","zip":"85629","geo_score":1.0,"capacity":10,"subtype":"LEVEL 2 RESIDENTIAL","id":"a624aypvhhao","geo_precision":"range","address":"78 EAST VIA TERESITA","state":"AZ"},"type":"Feature","geometry":{"type":"Point","coordinates":[-110.970637,31.978616]}},{"properties":{"city":"CASA GRANDE","name":"CASA GRANDE REGIONAL MEDICAL CENTER","zip":"85222","geo_score":0.737,"capacity":10,"subtype":"LEVEL 1 PSYCH HOSPITAL","id":"a624ayg0gqyt","geo_precision":"street","address":"1800 EAST FLORENCE BOULEVARD","state":"AZ"},"type":"Feature","geometry":{"type":"Point","coordinates":[-111.731375,32.87956]}},{"properties":{"city":"PHOENIX","name":"SOUTHWEST BEHAVIORAL HEALTH SERVICES, INC - TOBY","zip":"85004","geo_score":1.0,"capacity":10,"subtype":"LEVEL 2 RESIDENTIAL","id":"a624ayi9gbqg","geo_precision":"range","address":"313 EAST WILLETTA STREET","state":"AZ"},"type":"Feature","geometry":{"type":"Point","coordinates":[-112.069221,33.463937]}},{"properties":{"city":"TUCSON","name":"LA PALOMA FAMILY SERVICES, INC","zip":"85711","geo_score":0.902,"capacity":10,"subtype":"JUVENILE GROUP HOME","id":"a624ayoxk4t3","geo_precision":"range","address":"5457 EAST 6TH STREET","state":"AZ"},"type":"Feature","geometry":{"type":"Point","coordinates":[-110.87661,32.228036]}},{"properties":{"city":"PEORIA","name":"GRACE OF SERENITY LIVING, INC","zip":"85345","geo_score":0.916,"capacity":10,"subtype":"JUVENILE GROUP HOME","id":"a624aykpf5lr","geo_precision":"range","address":"8340 NORTH 86TH LANE","state":"AZ"},"type":"Feature","geometry":{"type":"Point","coordinates":[-112.245792,33.557031]}},{"properties":{"city":"PHOENIX","name":"YOUTH DEVELOPMENT INSTITUTE - PORTLAND HOUSE I","zip":"85006","geo_score":1.0,"capacity":10,"subtype":"JUVENILE GROUP HOME","id":"a624ayjgkpw4","geo_precision":"range","address":"1921 EAST PORTLAND STREET","state":"AZ"},"type":"Feature","geometry":{"type":"Point","coordinates":[-112.040799,33.460491]}},{"properties":{"city":"PHOENIX","name":"GRACE OF SERENITY LIVING, INC","zip":"85040","geo_score":1.0,"capacity":10,"subtype":"LEVEL 2 RESIDENTIAL","id":"a624ayimw9vr","geo_precision":"range","address":"2950 EAST ROESER ROAD","state":"AZ"},"type":"Feature","geometry":{"type":"Point","coordinates":[-112.016758,33.399683]}},{"properties":{"city":"MESA","name":"THE U - TURN FOUNDATION","zip":"85206","geo_score":1.0,"capacity":10,"subtype":"JUVENILE GROUP HOME","id":"a624ayubiw6x","geo_precision":"range","address":"4005 EAST EDGEWOOD AVENUE","state":"AZ"},"type":"Feature","geometry":{"type":"Point","coordinates":[-111.74468,33.399507]}},{"properties":{"city":"GLENDALE","name":"SOUTHWEST KEY PROGRAMS / CLAREMONT","zip":"85303","geo_score":1.0,"capacity":10,"subtype":"LEVEL 4 TRANSITIONAL AGENCY","id":"a624ayiek6b1","geo_precision":"range","address":"7580 WEST CLAREMONT STREET","state":"AZ"},"type":"Feature","geometry":{"type":"Point","coordinates":[-112.223035,33.528474]}},{"properties":{"city":"MESA","name":"R M B H S VINCENT HOUSE","zip":"85207","geo_score":0.71,"capacity":10,"subtype":"JUVENILE GROUP HOME","id":"a624ayrf8suf","geo_precision":"street","address":"1320 NORTH VINCENT CIRCLE","state":"AZ"},"type":"Feature","geometry":{"type":"Point","coordinates":[-111.623118,33.440813]}},{"properties":{"city":"TUCSON","name":"MIRASOL, INC","zip":"85730","geo_score":0.829,"capacity":10,"subtype":"LEVEL 1 SUB-ACUTE","id":"a624ayvbkyqt","geo_precision":"range","address":"10490 EAST ESCALANTE","state":"AZ"},"type":"Feature","geometry":{"type":"Point","coordinates":[-110.768583,32.177208]}},{"properties":{"city":"GLENDALE","name":"SOUTHWEST KEY PROGRAMS","zip":"85303","geo_score":1.0,"capacity":10,"subtype":"LEVEL 4 TRANSITIONAL AGENCY","id":"a624ayirtmt4","geo_precision":"range","address":"7685 WEST SAN MIGUEL AVE","state":"AZ"},"type":"Feature","geometry":{"type":"Point","coordinates":[-112.224939,33.519453]}},{"properties":{"city":"PRESCOTT VALLEY","name":"SEQUELCARE OF ARIZONA","zip":"86314","geo_score":0.947,"capacity":10,"subtype":"LEVEL 3 BEHAVIORAL HEALTH RESIDENTIAL","id":"a624ayrhi4h4","geo_precision":"range","address":"3160 NORTH PINE VIEW DRIVE","state":"AZ"},"type":"Feature","geometry":{"type":"Point","coordinates":[-112.342604,34.58862]}},{"properties":{"city":"GILBERT","name":"EUREKA IMPERIAL RESIDENCE","zip":"85295","geo_score":0.902,"capacity":10,"subtype":"LEVEL 2 RESIDENTIAL","id":"a624ayj7rkzn","geo_precision":"range","address":"1740 SOUTH HERITAGE DRIVE","state":"AZ"},"type":"Feature","geometry":{"type":"Point","coordinates":[-111.772136,33.318379]}},{"properties":{"city":"GOODYEAR","name":"SIMS BEHAVIORAL CARE HOME","zip":"85338","geo_score":1.0,"capacity":10,"subtype":"LEVEL 2 RESIDENTIAL","id":"a624ayuvt94h","geo_precision":"range","address":"16575 WEST ROOSEVELT STREET","state":"AZ"},"type":"Feature","geometry":{"type":"Point","coordinates":[-112.415052,33.456869]}},{"properties":{"city":"TUCSON","name":"INTERMOUNTAIN CENTERS FOR HUMAN DEVELOPMENT","zip":"85749","geo_score":1.0,"capacity":10,"subtype":"JUVENILE GROUP HOMES","id":"a624ayfv81dh","geo_precision":"range","address":"4025 NORTH DRAKE PLACE","state":"AZ"},"type":"Feature","geometry":{"type":"Point","coordinates":[-110.762013,32.280505]}},{"properties":{"city":"TUCSON","name":"LA PALOMA FAMILY SERVICES INC/ MENNINGER HOUSE","zip":"85705","geo_score":0.854,"capacity":10,"subtype":"JUVENILE GROUP HOME","id":"a624ayfqknf8","geo_precision":"range","address":"240 W NAVAJO","state":"AZ"},"type":"Feature","geometry":{"type":"Point","coordinates":[-110.975301,32.266337]}},{"properties":{"city":"TUCSON","name":"CHALET HOUSE NORTH","zip":"85704","geo_score":0.93,"capacity":10,"subtype":"LEVEL 2 RESIDENTIAL","id":"a624ayuwgbt7","geo_precision":"range","address":"6633 N AMAHL CIRCLE","state":"AZ"},"type":"Feature","geometry":{"type":"Point","coordinates":[-111.009138,32.327187]}},{"properties":{"city":"ANTHEM","name":"UNITED YOUTH AND FAMILY SERVICES","zip":"85086","geo_score":1.0,"capacity":10,"subtype":"JUVENILE GROUP HOME","id":"a624ayfikquk","geo_precision":"range","address":"4431 WEST MOSS SPRINGS ROAD","state":"AZ"},"type":"Feature","geometry":{"type":"Point","coordinates":[-112.153637,33.866309]}},{"properties":{"city":"PHOENIX","name":"ARIZONA HEALTH CARE CONTRACT MANAGEMENT SERVICES,","zip":"85020","geo_score":0.745,"capacity":9,"subtype":"LEVEL 2 RESIDENTIAL","id":"a624ayrqbqyx","geo_precision":"range","address":"1018 EAST EL CAMINITO","state":"AZ"},"type":"Feature","geometry":{"type":"Point","coordinates":[-112.060457,33.558849]}},{"properties":{"city":"CASA GRANDE","name":"HORIZON HUMAN SERVICES","zip":"85122","geo_score":0.902,"capacity":9,"subtype":"LEVEL 2 RESIDENTIAL","id":"a624ayftskfg","geo_precision":"range","address":"2269 SOUTH PEART ROAD","state":"AZ"},"type":"Feature","geometry":{"type":"Point","coordinates":[-111.722922,32.85922]}},{"properties":{"city":"GILBERT","name":"TILDA MANOR, INC","zip":"85298","geo_score":0.585,"capacity":9,"subtype":"LEVEL 2 RESIDENTIAL","id":"a624ayp92tv0","geo_precision":"city","address":"5985 SOUTH MACK COURT","state":"AZ"},"type":"Feature","geometry":{"type":"Point","coordinates":[-111.746321,33.310304]}},{"properties":{"city":"SCOTTSDALE","name":"DEVEREUX ARIZONA - RESPITE # 5","zip":"85254","geo_score":1.0,"capacity":9,"subtype":"JUVENILE GROUP HOME","id":"a624ayhslw7s","geo_precision":"range","address":"6439 EAST EUGIE TERRACE","state":"AZ"},"type":"Feature","geometry":{"type":"Point","coordinates":[-111.942572,33.606267]}},{"properties":{"city":"DEWEY","name":"MINGUS MOUNTAIN ESTATE RESIDENTIAL CENTER, INC","zip":"86327","geo_score":0.935,"capacity":9,"subtype":"JUVENILE GROUP HOME","id":"a624aylvxfa1","geo_precision":"range","address":"100 DEWEY ROAD","state":"AZ"},"type":"Feature","geometry":{"type":"Point","coordinates":[-112.246772,34.53974]}},{"properties":{"city":"PHOENIX","name":"BACK TO LIFE, INC","zip":"85029","geo_score":0.819,"capacity":9,"subtype":"JUVENILE GROUP HOME","id":"a624ayg04ip5","geo_precision":"range","address":"12613 NORTH 36TH LANE","state":"AZ"},"type":"Feature","geometry":{"type":"Point","coordinates":[-112.13537,33.600873]}},{"properties":{"city":"MESA","name":"R M B H S PLATA HOUSE","zip":"85212","geo_score":1.0,"capacity":9,"subtype":"JUVENILE GROUP HOME","id":"a624ayr2mzgk","geo_precision":"range","address":"7956 EAST PLATA AVE","state":"AZ"},"type":"Feature","geometry":{"type":"Point","coordinates":[-111.663517,33.361769]}},{"properties":{"city":"GILBERT","name":"HANDICAPPED EDUCATIONAL LEARNING PROGRAM","zip":"85295","geo_score":0.708,"capacity":9,"subtype":"LEVEL 2 RESIDENTIAL","id":"a624aygmthyd","geo_precision":"street","address":"1216 EAST JULIAN DRIVE","state":"AZ"},"type":"Feature","geometry":{"type":"Point","coordinates":[-111.774812,33.292766]}},{"properties":{"city":"GILBERT","name":"ARIZONA BEHAVIORAL CARE HOMES, LLC","zip":"85295","geo_score":0.902,"capacity":9,"subtype":"LEVEL 2 RESIDENTIAL","id":"a624ayl0238f","geo_precision":"range","address":"230 EAST FRANCES LANE","state":"AZ"},"type":"Feature","geometry":{"type":"Point","coordinates":[-111.784376,33.292571]}},{"properties":{"city":"TUCSON","name":"MIRASOL, INC","zip":"85718","geo_score":0.505,"capacity":9,"subtype":"LEVEL 1 SUB-ACUTE","id":"a624ayiyggd0","geo_precision":"street","address":"1515 EAST KLEINDALE","state":"AZ"},"type":"Feature","geometry":{"type":"Point","coordinates":[-110.919097,32.304012]}},{"properties":{"city":"PAYSON","name":"COMMUNITY BRIDGES, INC - PAYSON STABILIZATION","zip":"85541","geo_score":0.912,"capacity":9,"subtype":"LEVEL 4 RURAL SUBSTANCE ABUSE TRANSITION","id":"a624ayrifroq","geo_precision":"range","address":"803 WEST MAIN STREET","state":"AZ"},"type":"Feature","geometry":{"type":"Point","coordinates":[-111.344638,34.232789]}},{"properties":{"city":"BISBEE","name":"WOMEN'S TRANSITION PROJECT, INC ( W T P)","zip":"85603","geo_score":0.599,"capacity":9,"subtype":"LEVEL 2 RESIDENTIAL","id":"a624aytt6yrs","geo_precision":"zip","address":"240 O'HARA AVENUE","state":"AZ"},"type":"Feature","geometry":{"type":"Point","coordinates":[-109.898407,31.414267]}},{"properties":{"city":"GLOBE","name":"COMMUNITY BRIDGES, INC","zip":"85501","geo_score":0.589,"capacity":9,"subtype":"LEVEL 4 RURAL SUBSTANCE ABUSE TRANSITION","id":"a624ayokagsp","geo_precision":"range","address":"5734 EAST HOPE DRIVE","state":"AZ"},"type":"Feature","geometry":{"type":"Point","coordinates":[-110.772397,33.376534]}},{"properties":{"city":"BENSON","name":"COMMUNITY BRIDGES, INC - BENSON STABILIZATION AND","zip":"85602","geo_score":0.909,"capacity":9,"subtype":"LEVEL 4 RURAL SUBSTANCE ABUSE TRANSITION","id":"a624aypvy89q","geo_precision":"range","address":"646 UNION STREET","state":"AZ"},"type":"Feature","geometry":{"type":"Point","coordinates":[-110.309119,31.962661]}},{"properties":{"city":"MESA","name":"A NEW LEAF, INC - EAST VALLEY RESPITE","zip":"85201","geo_score":0.912,"capacity":9,"subtype":"LEVEL 3 BEHAVIORAL HEALTH RESIDENTIAL","id":"a624ayj300rr","geo_precision":"range","address":"149 NORTH MESA DRIVE","state":"AZ"},"type":"Feature","geometry":{"type":"Point","coordinates":[-111.822916,33.418113]}},{"properties":{"city":"TUCSON","name":"INTERMOUNTAIN CENTERS FOR HUMAN DEVELOPMENT","zip":"85749","geo_score":1.0,"capacity":8,"subtype":"JUVENILE GROUP HOME","id":"a624ayitrhw7","geo_precision":"range","address":"8571 EAST TANQUE VERDE ROAD","state":"AZ"},"type":"Feature","geometry":{"type":"Point","coordinates":[-110.809766,32.258077]}},{"properties":{"city":"PAGE","name":"TSE'NANI' A HI' RAINBOW BRIDGE RESIDENTIAL TREATME","zip":"86040","geo_score":0.76,"capacity":8,"subtype":"LEVEL 2 RESIDENTIAL","id":"a624ayt9iek5","geo_precision":"street","address":"467 VISTA AVENUE","state":"AZ"},"type":"Feature","geometry":{"type":"Point","coordinates":[-111.463671,36.918397]}},{"properties":{"city":"PHOENIX","name":"NEW ARIZONA FAMILY, INC / SITE V I I I","zip":"85040","geo_score":1.0,"capacity":8,"subtype":"LEVEL 2 RESIDENTIAL","id":"a624aymmvmz0","geo_precision":"range","address":"302 EAST SOUTHERN AVENUE","state":"AZ"},"type":"Feature","geometry":{"type":"Point","coordinates":[-112.070103,33.392246]}},{"properties":{"city":"PHOENIX","name":"OASIS CARE LIVING, L L C","zip":"85041","geo_score":0.916,"capacity":8,"subtype":"JUVENILE GROUP HOME","id":"a624ayot1nui","geo_precision":"range","address":"6917 SOUTH 11TH DRIVE","state":"AZ"},"type":"Feature","geometry":{"type":"Point","coordinates":[-112.086698,33.383409]}},{"properties":{"city":"TUCSON","name":"ZAREPHATH INC","zip":"85706","geo_score":0.922,"capacity":8,"subtype":"JUVENILE GROUP HOME","id":"a624aypkvy3m","geo_precision":"range","address":"5230 SOUTH MISSIONDALE ROAD","state":"AZ"},"type":"Feature","geometry":{"type":"Point","coordinates":[-110.968974,32.157107]}},{"properties":{"city":"TUCSON","name":"ZAREPHATH INC","zip":"85745","geo_score":1.0,"capacity":8,"subtype":"JUVENILE GROUP HOME","id":"a624ayh83et1","geo_precision":"range","address":"2194 WEST PAINTED SUNSET CIRCLE","state":"AZ"},"type":"Feature","geometry":{"type":"Point","coordinates":[-111.010193,32.259001]}},{"properties":{"city":"MESA","name":"R M B H S NAVARRO HOUSE","zip":"85209","geo_score":1.0,"capacity":8,"subtype":"JUVENILE GROUP HOME","id":"a624ayhim0y4","geo_precision":"range","address":"7416 EAST NAVARRO AVE","state":"AZ"},"type":"Feature","geometry":{"type":"Point","coordinates":[-111.674852,33.367064]}},{"properties":{"city":"PHOENIX","name":"NEW ARIZONA FAMILY, INC","zip":"85008","geo_score":0.916,"capacity":8,"subtype":"LEVEL 2 RESIDENTIAL","id":"a624ayvuebd2","geo_precision":"range","address":"2019 N 25TH PLACE","state":"AZ"},"type":"Feature","geometry":{"type":"Point","coordinates":[-112.02662,33.469546]}},{"properties":{"city":"GLENDALE","name":"ARIZONA HEALTH CARE CONTRACT MANAGEMENT SERVICES","zip":"85303","geo_score":0.805,"capacity":8,"subtype":"LEVEL 2 RESIDENTIAL","id":"a624ayouhjbm","geo_precision":"range","address":"4301 WEST WINDROSE DRIVE","state":"AZ"},"type":"Feature","geometry":{"type":"Point","coordinates":[-112.151304,33.601453]}},{"properties":{"city":"MESA","name":"NEW ARIZONA FAMILY, INC / SITE I V - B","zip":"85210","geo_score":0.927,"capacity":8,"subtype":"LEVEL 2 RESIDENTIAL","id":"a624aykinyg1","geo_precision":"range","address":"619 WEST SOUTHERN","state":"AZ"},"type":"Feature","geometry":{"type":"Point","coordinates":[-111.844551,33.393268]}},{"properties":{"city":"PHOENIX","name":"ARIZONA HEALTH CARE CONTRACT MANAGEMENT SERVICES I","zip":"85021","geo_score":1.0,"capacity":8,"subtype":"LEVEL 2 RESIDENTIAL","id":"a624aykzm8ud","geo_precision":"range","address":"2022 WEST STATE AVENUE","state":"AZ"},"type":"Feature","geometry":{"type":"Point","coordinates":[-112.102937,33.544413]}},{"properties":{"city":"WICKENBURG","name":"REMUDA RANCH CENTER FOR ANOREXIA AND BULIMA, INC","zip":"85390","geo_score":1.0,"capacity":8,"subtype":"LEVEL 1 RESIDENTIAL TREATMENT CENTER","id":"a624ayjuar5p","geo_precision":"range","address":"56851 NORTH VULTURE MINE ROAD","state":"AZ"},"type":"Feature","geometry":{"type":"Point","coordinates":[-112.771951,33.998153]}},{"properties":{"city":"EL MIRAGE","name":"NEW HORIZON YOUTH HOME, INC ROSEWOOD HOUSE","zip":"85335","geo_score":0.849,"capacity":8,"subtype":"JUVENILE GROUP HOME","id":"a624aysp0s7v","geo_precision":"range","address":"11836 WEST ROSEWOOD","state":"AZ"},"type":"Feature","geometry":{"type":"Point","coordinates":[-112.314292,33.600052]}},{"properties":{"city":"MESA","name":"TILDA MANOR, INC","zip":"85208","geo_score":0.805,"capacity":8,"subtype":"LEVEL 2 RESIDENTIAL","id":"a624ayp9kh8n","geo_precision":"street","address":"3228 EAST ISABELLA AVE","state":"AZ"},"type":"Feature","geometry":{"type":"Point","coordinates":[-111.614446,33.384887]}},{"properties":{"city":"MESA","name":"R M B H S SOMERSET HOUSE","zip":"85206","geo_score":1.0,"capacity":8,"subtype":"JUVENILE GROUP HOME","id":"a624ayrsc00f","geo_precision":"range","address":"1533 SOUTH SOMERSET CIRCLE","state":"AZ"},"type":"Feature","geometry":{"type":"Point","coordinates":[-111.710252,33.388298]}},{"properties":{"city":"MESA","name":"R M B H S CHATSWORTH HOUSE","zip":"85212","geo_score":1.0,"capacity":8,"subtype":"JUVENILE GROUP HOME","id":"a624ayt595kc","geo_precision":"range","address":"3138 SOUTH CHATSWORTH CIRCLE","state":"AZ"},"type":"Feature","geometry":{"type":"Point","coordinates":[-111.614767,33.358759]}},{"properties":{"city":"MESA","name":"R M B H S RENATA HOUSE","zip":"85212","geo_score":0.854,"capacity":8,"subtype":"JUVENILE GROUP HOME","id":"a624ayqyewa0","geo_precision":"street","address":"11329 EAST RENATA AVE","state":"AZ"},"type":"Feature","geometry":{"type":"Point","coordinates":[-111.58904,33.343165]}},{"properties":{"city":"MESA","name":"R M B H S MEDINA HOUSE","zip":"85208","geo_score":0.805,"capacity":8,"subtype":"JUVENILE GROUP HOME","id":"a624aytypru9","geo_precision":"street","address":"7444 EAST MEDINA AVE","state":"AZ"},"type":"Feature","geometry":{"type":"Point","coordinates":[-111.683745,33.372931]}},{"properties":{"city":"MESA","name":"R M B H S LAKEVIEW HOUSE","zip":"85209","geo_score":0.878,"capacity":8,"subtype":"JUVENILE GROUP HOME","id":"a624ayvfec1g","geo_precision":"range","address":"7005 EAST LAKEVIEW AVE","state":"AZ"},"type":"Feature","geometry":{"type":"Point","coordinates":[-111.679976,33.375779]}},{"properties":{"city":"PHOENIX","name":"UNITED YOUTH AND FAMILY SERVICES","zip":"85085","geo_score":0.916,"capacity":8,"subtype":"JUVENILE GROUP HOME","id":"a624ayui7yvl","geo_precision":"range","address":"33016 NORTH 24TH LANE","state":"AZ"},"type":"Feature","geometry":{"type":"Point","coordinates":[-112.11269,33.78487]}},{"properties":{"city":"TUCSON","name":"COPE COMMUNITY SERVICES, INC","zip":"85704","geo_score":0.93,"capacity":8,"subtype":"LEVEL 2 RESIDENTIAL","id":"a624ayrzy5lo","geo_precision":"range","address":"7020 NORTH ANTONIETTA DRIVE","state":"AZ"},"type":"Feature","geometry":{"type":"Point","coordinates":[-110.973345,32.335331]}},{"properties":{"city":"PHOENIX","name":"BACK TO LIFE, INC","zip":"85035","geo_score":1.0,"capacity":8,"subtype":"JUVENILE GROUP HOME","id":"a624ayrdm5ps","geo_precision":"range","address":"5915 WEST ROANOKE AVENUE","state":"AZ"},"type":"Feature","geometry":{"type":"Point","coordinates":[-112.186735,33.47863]}},{"properties":{"city":"MESA","name":"NEW ARIZONA FAMILY, INC  - SITE I V - A","zip":"85210","geo_score":1.0,"capacity":8,"subtype":"LEVEL 2 RESIDENTIAL","id":"a624aykvl8ho","geo_precision":"range","address":"621 WEST SOUTHERN AVENUE","state":"AZ"},"type":"Feature","geometry":{"type":"Point","coordinates":[-111.844588,33.393268]}},{"properties":{"city":"PHOENIX","name":"ARIZONA HEALTH CARE CONTRACT MANAGEMENT SERVICES I","zip":"85015","geo_score":1.0,"capacity":8,"subtype":"LEVEL 2 RESIDENTIAL","id":"a624aylsllet","geo_precision":"range","address":"2208 WEST KEIM DRIVE","state":"AZ"},"type":"Feature","geometry":{"type":"Point","coordinates":[-112.106367,33.527325]}},{"properties":{"city":"DEWEY","name":"SEQUELCARE OF ARIZONA","zip":"86327","geo_score":0.902,"capacity":8,"subtype":"JUVENILE GROUP HOME","id":"a624ayraivgv","geo_precision":"range","address":"9435 SMOKI TRAIL","state":"AZ"},"type":"Feature","geometry":{"type":"Point","coordinates":[-112.303457,34.524924]}},{"properties":{"city":"MESA","name":"ZAREPHATH INC","zip":"85209","geo_score":1.0,"capacity":8,"subtype":"JUVENILE GROUP HOME","id":"a624aygd4136","geo_precision":"range","address":"7247 EAST MILAGRO AVE","state":"AZ"},"type":"Feature","geometry":{"type":"Point","coordinates":[-111.677844,33.370837]}},{"properties":{"city":"LAKESIDE","name":"SAN TAN BEHAVIORAL HEALTH SERVICES, L L C","zip":"85929","geo_score":0.679,"capacity":8,"subtype":"JUVENILE GROUP HOME","id":"a624aypq8gmg","geo_precision":"street","address":"655 SOUTH LAKE ROAD","state":"AZ"},"type":"Feature","geometry":{"type":"Point","coordinates":[-110.004486,34.180011]}},{"properties":{"city":"PHOENIX","name":"ARIZONA HEALTH CARE CONTRACT MANAGEMENT HAYWARD","zip":"85051","geo_score":0.927,"capacity":8,"subtype":"LEVEL 2 RESIDENTIAL","id":"a624ayilcde1","geo_precision":"range","address":"7722 NORTH 42ND AVENUE","state":"AZ"},"type":"Feature","geometry":{"type":"Point","coordinates":[-112.149932,33.550568]}},{"properties":{"city":"WILLCOX","name":"SUMMER HAWK","zip":"85643","geo_score":0.68,"capacity":8,"subtype":"JUVENILE GROUP HOME","id":"a624ayken3ue","geo_precision":"street","address":"4197 EAST SHELTON ROAD","state":"AZ"},"type":"Feature","geometry":{"type":"Point","coordinates":[-109.738002,32.021608]}},{"properties":{"city":"GILBERT","name":"STEP TWO RECOVERY CENTER","zip":"85298","geo_score":0.585,"capacity":8,"subtype":"LEVEL 4 TRANSITIONAL AGENCY","id":"a624aypbljgm","geo_precision":"street","address":"3771 EAST BROOKS FARM ROAD","state":"AZ"},"type":"Feature","geometry":{"type":"Point","coordinates":[-111.697751,33.245115]}},{"properties":{"city":"TUCSON","name":"INTERMOUNTAIN CENTERS FOR HUMAN DEVELOPMENT","zip":"85715","geo_score":0.927,"capacity":8,"subtype":"JUVENILE GROUP HOME","id":"a624ayhvkdfu","geo_precision":"range","address":"1310 N SPEEDWAY PLACE","state":"AZ"},"type":"Feature","geometry":{"type":"Point","coordinates":[-110.812926,32.237367]}},{"properties":{"city":"APACHE JUNCTION","name":"ZAREPHATH INC","zip":"85119","geo_score":0.516,"capacity":8,"subtype":"HB 2113 JUVENILE GROUP HOME/OPC","id":"a624ayk46dta","geo_precision":"street","address":"1701 SOUTH CACTUS ROAD","state":"AZ"},"type":"Feature","geometry":{"type":"Point","coordinates":[-108.2708,32.782835]}},{"properties":{"city":"PRESCOTT","name":"WEST YAVAPAI GUIDANCE CLINIC / HADDON HOUSE","zip":"86301","geo_score":0.628,"capacity":8,"subtype":"LEVEL 2 RESIDENTIAL","id":"a624ayp2h0go","geo_precision":"street","address":"711 HILLSIDE","state":"AZ"},"type":"Feature","geometry":{"type":"Point","coordinates":[-112.429946,34.557247]}},{"properties":{"city":"PHOENIX","name":"NEW ARIZONA FAMILY, INC","zip":"85013","geo_score":0.927,"capacity":8,"subtype":"LEVEL 2 RESIDENTIAL","id":"a624aytsf77l","geo_precision":"range","address":"119 WEST HIGHLAND","state":"AZ"},"type":"Feature","geometry":{"type":"Point","coordinates":[-112.075443,33.505678]}},{"properties":{"city":"PHOENIX","name":"ARIZONA HEALTH CARE CONTRACT MANAGEMENT SERVICES","zip":"85019","geo_score":0.916,"capacity":8,"subtype":"LEVEL 2 RESIDENTIAL","id":"a624ayu1s4ao","geo_precision":"range","address":"5344 NORTH 40TH LANE","state":"AZ"},"type":"Feature","geometry":{"type":"Point","coordinates":[-112.14675,33.515986]}},{"properties":{"city":"PHOENIX","name":"GRACE OF SERENITY LIVING, INC","zip":"85041","geo_score":0.916,"capacity":8,"subtype":"JUVENILE GROUP HOME","id":"a624ayip3vwh","geo_precision":"range","address":"6620 SOUTH 26TH DRIVE","state":"AZ"},"type":"Feature","geometry":{"type":"Point","coordinates":[-112.114865,33.385551]}},{"properties":{"city":"FLAGSTAFF","name":"THE GUIDANCE CENTER, INC - INVERRARY HOUSE","zip":"86004","geo_score":0.977,"capacity":8,"subtype":"LEVEL 2 RESIDENTIAL","id":"a624aykmlkli","geo_precision":"range","address":"1411 NORTH INVERRARY WAY","state":"AZ"},"type":"Feature","geometry":{"type":"Point","coordinates":[-111.593642,35.195079]}},{"properties":{"city":"HEREFORD","name":"MARY'S MISSION AND DEVELOPMENT CENTER","zip":"85615","geo_score":0.688,"capacity":8,"subtype":"JUVENILE GROUP HOME","id":"a624aykxz8fe","geo_precision":"street","address":"8360 SOUTH HIGHWAY 92","state":"AZ"},"type":"Feature","geometry":{"type":"Point","coordinates":[-110.174149,31.379923]}},{"properties":{"city":"FLAGSTAFF","name":"SEQUELCARE OF ARIZONA","zip":"86004","geo_score":1.0,"capacity":8,"subtype":"JUVENILE GROUP HOME","id":"a624ayj6eesj","geo_precision":"range","address":"6070 EAST TREADWAY TRAIL","state":"AZ"},"type":"Feature","geometry":{"type":"Point","coordinates":[-111.541946,35.291504]}},{"properties":{"city":"CHANDLER","name":"JOY HEALTH CARE, INC","zip":"85249","geo_score":0.955,"capacity":8,"subtype":"LEVEL 2 RESIDENTIAL","id":"a624ayp4cuqi","geo_precision":"range","address":"4482 EAST COUNTY DOWN","state":"AZ"},"type":"Feature","geometry":{"type":"Point","coordinates":[-111.764063,33.209289]}},{"properties":{"city":"SCOTTSDALE","name":"DEVEREUX ARIZONA - RESPITE #3","zip":"85254","geo_score":1.0,"capacity":8,"subtype":"JUVENILE GROUP HOME","id":"a624ayos4j27","geo_precision":"range","address":"6421 EAST EUGIE TERRACE","state":"AZ"},"type":"Feature","geometry":{"type":"Point","coordinates":[-111.942905,33.606269]}},{"properties":{"city":"PHOENIX","name":"NEW ARIZONA FAMILY, INC/ N A  F I 11","zip":"85018","geo_score":1.0,"capacity":8,"subtype":"LEVEL 2 RESIDENTIAL","id":"a624aykybwtz","geo_precision":"range","address":"3249 EAST PINCHOT AVENUE","state":"AZ"},"type":"Feature","geometry":{"type":"Point","coordinates":[-112.011929,33.482341]}},{"properties":{"city":"LAKESIDE","name":"SAN TAN BEHAVIROAL HEALTH SERVICES, L L C","zip":"85929","geo_score":0.565,"capacity":8,"subtype":"JUVENILE GROUP HOME","id":"a624ayrye9ru","geo_precision":"street","address":"1277 HUMMINGBIRD","state":"AZ"},"type":"Feature","geometry":{"type":"Point","coordinates":[-109.926927,34.117757]}},{"properties":{"city":"TUCSON","name":"UNIVERSITY MEDICAL CENTER","zip":"85724","geo_score":0.805,"capacity":8,"subtype":"LEVEL 1 PSYCH HOSPITAL","id":"a624aytrty4s","geo_precision":"range","address":"1501 NORTH CAMPBELL AVENUE","state":"AZ"},"type":"Feature","geometry":{"type":"Point","coordinates":[-110.943978,32.240653]}},{"properties":{"city":"TUCSON","name":"NEW HORIZONS B H S, INC","zip":"85730","geo_score":1.0,"capacity":8,"subtype":"LEVEL 2 RESIDENTIAL","id":"a624ayo9umvd","geo_precision":"range","address":"6871 EAST NELSON DRIVE","state":"AZ"},"type":"Feature","geometry":{"type":"Point","coordinates":[-110.845984,32.18781]}},{"properties":{"city":"KINGMAN","name":"MOHAVE MENTAL HEALTH CLINIC, INC","zip":"86409","geo_score":1.0,"capacity":8,"subtype":"LEVEL 2 RESIDENTIAL","id":"a624aym6p2b9","geo_precision":"range","address":"1091 CALUMET AVENUE","state":"AZ"},"type":"Feature","geometry":{"type":"Point","coordinates":[-114.040367,35.220038]}},{"properties":{"city":"PHOENIX","name":"HELPING HEARTS RESIDENTAIL FACILITIES, L L C","zip":"85016","geo_score":1.0,"capacity":8,"subtype":"LEVEL 3 BEHAVIORAL HEALTH RESIDENTIAL","id":"a624aygvplqh","geo_precision":"range","address":"1808 EAST MEADOWBROOK AVENUE","state":"AZ"},"type":"Feature","geometry":{"type":"Point","coordinates":[-112.042647,33.503805]}},{"properties":{"city":"DRAGOON","name":"ESTRELLA VISTA RANCH, LLC","zip":"85609","geo_score":0.43,"capacity":8,"subtype":"JUVENILE GROUP HOME","id":"a624ayuhrnb7","geo_precision":"street","address":"4911 EAST SILK WIND BOULEVARD","state":"AZ"},"type":"Feature","geometry":{"type":"Point","coordinates":[-109.830955,31.865284]}},{"properties":{"city":"PHOENIX","name":"DESTINY SOBER LIVING","zip":"85015","geo_score":0.927,"capacity":8,"subtype":"LEVEL 2 RESIDENTIAL","id":"a624ayux3sy9","geo_precision":"range","address":"5306 NORTH 17TH AVE","state":"AZ"},"type":"Feature","geometry":{"type":"Point","coordinates":[-112.095605,33.515311]}},{"properties":{"city":"PRESCOTT VALLEY","name":"SEQUELCARE OF ARIZONA","zip":"86314","geo_score":0.973,"capacity":8,"subtype":"LEVEL 3 BEHAVIORAL HEALTH RESIDENTIAL","id":"a624aylbt5pn","geo_precision":"range","address":"8070 PRESCOTT ROAD","state":"AZ"},"type":"Feature","geometry":{"type":"Point","coordinates":[-112.324266,34.5932]}},{"properties":{"city":"TUCSON","name":"LA FRONTERA CENTER, INC - MOUNTAIN ROSE RANCH","zip":"85742","geo_score":1.0,"capacity":8,"subtype":"LEVEL 2 RESIDENTIAL","id":"a624ayhdqwx9","geo_precision":"range","address":"10841 NORTH THORNYDALE ROAD","state":"AZ"},"type":"Feature","geometry":{"type":"Point","coordinates":[-111.046926,32.403332]}},{"properties":{"city":"CASA GRANDE","name":"COMMUNITY PROVIDER OF ENRICHMENT SERVICES, INC","zip":"85294","geo_score":0.902,"capacity":8,"subtype":"JUVENILE GROUP HOME","id":"a624aylbceq0","geo_precision":"range","address":"14921 WEST CAMDON DRIVE","state":"AZ"},"type":"Feature","geometry":{"type":"Point","coordinates":[-111.727756,32.989239]}},{"properties":{"city":"MESA","name":"SAN TAN BEHAVIORAL HEALTH SERVICES, L L C","zip":"85207","geo_score":0.805,"capacity":8,"subtype":"JUVENILE GROUP HOME","id":"a624aytv6udp","geo_precision":"range","address":"9648 EAST JACOB CIRCLE","state":"AZ"},"type":"Feature","geometry":{"type":"Point","coordinates":[-111.62361,33.379632]}},{"properties":{"city":"MESA","name":"R M B H S COGDELL HOUSE","zip":"85215","geo_score":0.941,"capacity":8,"subtype":"JUVENILE GROUP HOME","id":"a624ayps7reo","geo_precision":"range","address":"6661 HERMOSA VISTA DRIVE","state":"AZ"},"type":"Feature","geometry":{"type":"Point","coordinates":[-111.686114,33.459128]}},{"properties":{"city":"PHOENIX","name":"BARAKA HOUSE, L L C","zip":"85051","geo_score":1.0,"capacity":8,"subtype":"LEVEL 2 RESIDENTIAL","id":"a624ayswbl6t","geo_precision":"range","address":"3740 WEST CARON STREET","state":"AZ"},"type":"Feature","geometry":{"type":"Point","coordinates":[-112.139855,33.568518]}},{"properties":{"city":"QUEEN CREEK","name":"YAJCIN, L L C","zip":"85140","geo_score":0.522,"capacity":8,"subtype":"JUVENILE GROUP HOME","id":"a624ayn9c8c5","geo_precision":"street","address":"1609 EAST HEATHER DRIVE","state":"AZ"},"type":"Feature","geometry":{"type":"Point","coordinates":[-109.723073,32.806432]}},{"properties":{"city":"DEWEY","name":"SEQUELCARE OF ARIZONA","zip":"86327","geo_score":0.935,"capacity":8,"subtype":"LEVEL 2 RESIDENTIAL","id":"a624ayvoiank","geo_precision":"range","address":"14410 EAST BLUE RIDGE ROAD","state":"AZ"},"type":"Feature","geometry":{"type":"Point","coordinates":[-112.212857,34.517995]}},{"properties":{"city":"CHANDLER","name":"NEW HORIZON YOUTH HOMES, INC","zip":"85225","geo_score":1.0,"capacity":7,"subtype":"JUVENILE GROUP HOME","id":"a624ayq49ag7","geo_precision":"range","address":"2504 EAST COMMONWEALTH CIRCLE","state":"AZ"},"type":"Feature","geometry":{"type":"Point","coordinates":[-111.797859,33.303845]}},{"properties":{"city":"TUCSON","name":"INTERMOUNTAIN CENTERS FOR HUMAN DEVELOPMENT","zip":"85716","geo_score":0.824,"capacity":7,"subtype":"LEVEL 2 RESIDENTIAL","id":"a624ayro7oir","geo_precision":"range","address":"3626 EAST LEE STREET BUILDING 1","state":"AZ"},"type":"Feature","geometry":{"type":"Point","coordinates":[-110.915563,32.241581]}},{"properties":{"city":"PEORIA","name":"NEW HORIZON YOUTH HOMES, INC - HORIZON HOUSE","zip":"85345","geo_score":0.916,"capacity":7,"subtype":"JUVENILE GROUP HOME","id":"a624ayv5lfrl","geo_precision":"range","address":"8731 NORTH 83RD DRIVE","state":"AZ"},"type":"Feature","geometry":{"type":"Point","coordinates":[-112.238394,33.562096]}},{"properties":{"city":"CHANDLER","name":"NEW HORIZON YOUTH HOMES, INC - PARK HOUSE","zip":"85225","geo_score":1.0,"capacity":7,"subtype":"JUVENILE GROUP HOME","id":"a624ayuwfq2b","geo_precision":"range","address":"795 WEST PARK AVENUE","state":"AZ"},"type":"Feature","geometry":{"type":"Point","coordinates":[-111.85358,33.322609]}},{"properties":{"city":"CHANDLER","name":"NEW HORIZON YOUTH HOME, INC - STOTTLER HOUSE","zip":"85225","geo_score":0.947,"capacity":7,"subtype":"JUVENILE GROUP HOME","id":"a624aykzsaks","geo_precision":"range","address":"760 EAST STOTTLER","state":"AZ"},"type":"Feature","geometry":{"type":"Point","coordinates":[-111.827662,33.332938]}},{"properties":{"city":"PHOENIX","name":"CASA DE AMIGAS","zip":"85015","geo_score":0.7,"capacity":7,"subtype":"LEVEL 2 RESIDENTIAL","id":"a624ayj52mot","geo_precision":"street","address":"1648 WEST COLTER STREET BLDG 1,2 &amp; 3","state":"AZ"},"type":"Feature","geometry":{"type":"Point","coordinates":[-112.091197,33.513117]}},{"properties":{"city":"EL MIRAGE","name":"UNITY GROUP HOMES, LLC","zip":"85335","geo_score":0.902,"capacity":7,"subtype":"JUVENILE GROUP HOME","id":"a624ayna0j8j","geo_precision":"range","address":"12406 WEST SURREY AVE","state":"AZ"},"type":"Feature","geometry":{"type":"Point","coordinates":[-112.327072,33.606144]}},{"properties":{"city":"ARIZONA CITY","name":"PARK PLACE OUTREACH &amp; COUNSELING CENTERS, INC","zip":"85223","geo_score":0.805,"capacity":7,"subtype":"JUVENILE GROUP HOME","id":"a624ayu2imni","geo_precision":"street","address":"11140 WEST COVE DRIVE","state":"AZ"},"type":"Feature","geometry":{"type":"Point","coordinates":[-111.687774,32.739523]}},{"properties":{"city":"TUCSON","name":"LA PALOMA FAMILY SERVICES, INC","zip":"85705","geo_score":0.488,"capacity":7,"subtype":"JUVENILE GROUP HOME","id":"a624ayu4v82q","geo_precision":"street","address":"870 W MIRACLE MILE, BLDG B","state":"AZ"},"type":"Feature","geometry":{"type":"Point","coordinates":[-110.984483,32.261018]}},{"properties":{"city":"QUEEN CREEK","name":"ANGELS OF HOPE RESIDENTIAL CARE HOMES","zip":"85240","geo_score":0.595,"capacity":7,"subtype":"LEVEL 2 RESIDENTIAL","id":"a624ayj8pfkb","geo_precision":"zip","address":"483 WEST GASCON ROAD","state":"AZ"},"type":"Feature","geometry":{"type":"Point","coordinates":[-111.82264,33.422269]}},{"properties":{"city":"PRESCOTT VALLEY","name":"MINGUS MOUNTAIN ESTATE RESIDENTIAL CENTER, INC","zip":"86314","geo_score":1.0,"capacity":7,"subtype":"JUVENILE GROUP HOME","id":"a624ayq71c0e","geo_precision":"range","address":"3801 NORTH ROBERT ROAD","state":"AZ"},"type":"Feature","geometry":{"type":"Point","coordinates":[-112.321425,34.597692]}},{"properties":{"city":"PHOENIX","name":"UNITED YOUTH AND FAMILY SERVICES","zip":"85085","geo_score":1.0,"capacity":7,"subtype":"JUVENILE GROUP HOME","id":"a624ays30c4x","geo_precision":"range","address":"2430 WEST WHITE FEATHER LANE","state":"AZ"},"type":"Feature","geometry":{"type":"Point","coordinates":[-112.111443,33.739042]}},{"properties":{"city":"MESA","name":"R M B H S OPAL HOUSE","zip":"85212","geo_score":0.806,"capacity":7,"subtype":"JUVENILE GROUP HOME","id":"a624ayspnnlk","geo_precision":"street","address":"3760 SOUTH OPAL","state":"AZ"},"type":"Feature","geometry":{"type":"Point","coordinates":[-111.590686,33.350172]}},{"properties":{"city":"TUCSON","name":"COPE COMMUNITY SERVICES, INC","zip":"85704","geo_score":0.93,"capacity":7,"subtype":"LEVEL 2 RESIDENTIAL","id":"a624ayv1c272","geo_precision":"range","address":"1331 WEST GIACONDA WAY","state":"AZ"},"type":"Feature","geometry":{"type":"Point","coordinates":[-110.993429,32.334192]}},{"properties":{"city":"PEORIA","name":"NEW HORIZON YOUTH HOMES, INC","zip":"85345","geo_score":0.935,"capacity":7,"subtype":"JUVENILE GROUP HOME","id":"a624ayg0e3yj","geo_precision":"range","address":"6726 WEST CHOLLA","state":"AZ"},"type":"Feature","geometry":{"type":"Point","coordinates":[-112.203339,33.588962]}},{"properties":{"city":"PHOENIX","name":"BARAKA HOUSE, L L C","zip":"85029","geo_score":0.829,"capacity":6,"subtype":"LEVEL 2 RESIDENTIAL","id":"a624ayg6c29w","geo_precision":"range","address":"13619 NORTH 36TH AVENUE","state":"AZ"},"type":"Feature","geometry":{"type":"Point","coordinates":[-112.136428,33.609716]}},{"properties":{"city":"GOODYEAR","name":"SUCCESSFUL JOURNEYS, L L C","zip":"85395","geo_score":0.709,"capacity":6,"subtype":"LEVEL 3 BEHAVIORAL HEALTH RESIDENTIAL","id":"a624ayh7a39w","geo_precision":"street","address":"4434 NORTH 153RD LANE","state":"AZ"},"type":"Feature","geometry":{"type":"Point","coordinates":[-112.388536,33.497147]}},{"properties":{"city":"MESA","name":"R M B H S ARVADA HOUSE","zip":"85205","geo_score":0.916,"capacity":6,"subtype":"JUVENILE GROUP HOME","id":"a624ayutyscp","geo_precision":"range","address":"1024 NORTH ARVADA","state":"AZ"},"type":"Feature","geometry":{"type":"Point","coordinates":[-111.714,33.434132]}},{"properties":{"city":"TUCSON","name":"SAGUARO HOUSE","zip":"85711","geo_score":1.0,"capacity":6,"subtype":"JUVENILE GROUP HOME","id":"a624ayq4yumd","geo_precision":"range","address":"5120 EAST ALBERTA DRIVE","state":"AZ"},"type":"Feature","geometry":{"type":"Point","coordinates":[-110.883361,32.226596]}},{"properties":{"city":"MESA","name":"MARC CENTER OF MESA, INC","zip":"85204","geo_score":1.0,"capacity":6,"subtype":"LEVEL 2 RESIDENTIAL","id":"a624ayuz854a","geo_precision":"range","address":"2624 EAST DRAGOON AVENUE","state":"AZ"},"type":"Feature","geometry":{"type":"Point","coordinates":[-111.774877,33.403554]}},{"properties":{"city":"TUCSON","name":"SUPPORTED LIVING SYSTEMS, INC / PIMA HOUSE","zip":"85716","geo_score":1.0,"capacity":6,"subtype":"JUVENILE GROUP HOME","id":"a624ayfqroh1","geo_precision":"range","address":"3327 EAST BROADWAY BOULEVARD","state":"AZ"},"type":"Feature","geometry":{"type":"Point","coordinates":[-110.921102,32.221574]}},{"properties":{"city":"TUCSON","name":"LA FRONTERA CENTER, INC / THORNYDALE RANCH","zip":"85742","geo_score":1.0,"capacity":6,"subtype":"LEVEL 2 RESIDENTIAL","id":"a624ayhfm7nc","geo_precision":"range","address":"10845 NORTH THORNYDALE ROAD","state":"AZ"},"type":"Feature","geometry":{"type":"Point","coordinates":[-111.046926,32.403405]}},{"properties":{"city":"TUCSON","name":"ARIZONA RESIDENTIAL CARE, L L C","zip":"85705","geo_score":0.919,"capacity":6,"subtype":"LEVEL 2 RESIDENTIAL","id":"a624aynqkpai","geo_precision":"range","address":"2226 NORTH AVENIDA EL CAPITAN","state":"AZ"},"type":"Feature","geometry":{"type":"Point","coordinates":[-110.96485,32.248472]}},{"properties":{"city":"PHOENIX","name":"BARAKA HOUSE I I I, LLC","zip":"85053","geo_score":0.927,"capacity":6,"subtype":"LEVEL 2 RESIDENTIAL","id":"a624aykjaxil","geo_precision":"range","address":"15402 NORTH 29TH AVENUE","state":"AZ"},"type":"Feature","geometry":{"type":"Point","coordinates":[-112.120295,33.625388]}},{"properties":{"city":"MESA","name":"A NEW LEAF, INC - AUTUMN HOUSE LABOR OF LOVE","zip":"85203","geo_score":0.293,"capacity":6,"subtype":"LEV 4 SHELTER FOR VICTIMS OF DV","id":"a624ayid09v0","geo_precision":"street","address":"CONFIDENTIAL PURSUANT TO A.R.S. 36-3009","state":"AZ"},"type":"Feature","geometry":{"type":"Point","coordinates":[-111.669323,33.306544]}},{"properties":{"city":"BULLHEAD CITY","name":"WESTCARE ARIZONA - SAGE HOUSE","zip":"86442","geo_score":0.852,"capacity":6,"subtype":"JUVENILE GROUP HOME","id":"a624aytgtovy","geo_precision":"range","address":"1800 RIO VISTA DRIVE","state":"AZ"},"type":"Feature","geometry":{"type":"Point","coordinates":[-114.583549,35.108404]}},{"properties":{"city":"PHOENIX","name":"YOUTH DEVELOPMENT INSTITUTE - PORTLAND HOUSE I I","zip":"85006","geo_score":1.0,"capacity":6,"subtype":"JUVENILE GROUP HOME","id":"a624aysfzl20","geo_precision":"range","address":"1927 EAST PORTLAND STREET","state":"AZ"},"type":"Feature","geometry":{"type":"Point","coordinates":[-112.040689,33.46049]}},{"properties":{"city":"MESA","name":"TILDA MANOR, INC","zip":"85207","geo_score":0.837,"capacity":6,"subtype":"LEVEL 2 RESIDENTIAL","id":"a624ayko487f","geo_precision":"range","address":"1404 NORTH ANANEA STREET","state":"AZ"},"type":"Feature","geometry":{"type":"Point","coordinates":[-111.667928,33.440821]}},{"properties":{"city":"TUCSON","name":"SUPPORTED LIVING SYSTEMS, INC / SIERRA HOUSE","zip":"85712","geo_score":0.941,"capacity":6,"subtype":"JUVENILE GROUP HOME","id":"a624aylin7w7","geo_precision":"range","address":"5752 EAST WAVERLY DRIVE","state":"AZ"},"type":"Feature","geometry":{"type":"Point","coordinates":[-110.869512,32.246619]}},{"properties":{"city":"GILBERT","name":"TILDA MANOR, INC","zip":"85297","geo_score":0.912,"capacity":6,"subtype":"LEVEL 2 RESIDENTIAL","id":"a624ayl5b84c","geo_precision":"range","address":"3583 EAST WILDHORSE DRIVE","state":"AZ"},"type":"Feature","geometry":{"type":"Point","coordinates":[-111.713242,33.288954]}},{"properties":{"city":"EL MIRAGE","name":"ALL ABOUT KIDS","zip":"85335","geo_score":0.902,"capacity":6,"subtype":"JUVENILE GROUP HOME","id":"a624ayiv3u5r","geo_precision":"range","address":"12116 WEST DAHLIA DRIVE","state":"AZ"},"type":"Feature","geometry":{"type":"Point","coordinates":[-112.321515,33.602281]}},{"properties":{"city":"TUCSON","name":"SUPPORTED LIVING SYSTEMS, INC/KACHINA HOUSE","zip":"85711","geo_score":0.902,"capacity":6,"subtype":"JUVENILE GROUP HOME","id":"a624ayvkg60k","geo_precision":"range","address":"5626 EAST 2ND STREET","state":"AZ"},"type":"Feature","geometry":{"type":"Point","coordinates":[-110.872559,32.234356]}},{"properties":{"city":"TUCSON","name":"CPES / ENDEAVORS","zip":"85719","geo_score":0.947,"capacity":6,"subtype":"LEVEL 2 RESIDENTIAL","id":"a624ayg7703b","geo_precision":"range","address":"1516 EAST DRACHMAN","state":"AZ"},"type":"Feature","geometry":{"type":"Point","coordinates":[-110.949547,32.23962]}},{"properties":{"city":"TUCSON","name":"LA FRONTERA CENTER, INC / CASA ALEGRE","zip":"85713","geo_score":0.956,"capacity":6,"subtype":"LEVEL 2 RESIDENTIAL","id":"a624ayutq3uf","geo_precision":"range","address":"1441 SOUTH NO LE HACE","state":"AZ"},"type":"Feature","geometry":{"type":"Point","coordinates":[-111.027753,32.203638]}},{"properties":{"city":"TUCSON","name":"SUPPORTED LIVING SYSTEMS, AZTEC HOUSE","zip":"85711","geo_score":0.902,"capacity":6,"subtype":"JUVENILE GROUP HOME","id":"a624ayh87xxj","geo_precision":"range","address":"5501 EAST 8TH STREET","state":"AZ"},"type":"Feature","geometry":{"type":"Point","coordinates":[-110.875243,32.225575]}},{"properties":{"city":"TUCSON","name":"CPES / GRANDE","zip":"85704","geo_score":0.93,"capacity":6,"subtype":"LEVEL 2 RESIDENTIAL","id":"a624aylqbpmu","geo_precision":"range","address":"5548 NORTH GRANDE AVENUE","state":"AZ"},"type":"Feature","geometry":{"type":"Point","coordinates":[-110.990241,32.308887]}},{"properties":{"city":"SURPRISE","name":"SIERRA RESIDENTIAL CARE HOME, L L C","zip":"85374","geo_score":0.725,"capacity":6,"subtype":"JUVENILE GROUP HOME","id":"a624ayr5idjk","geo_precision":"street","address":"18224 NORTH 168TH AVENUE","state":"AZ"},"type":"Feature","geometry":{"type":"Point","coordinates":[-112.420073,33.644382]}},{"properties":{"city":"TEMPE","name":"FSL PATHWAYS, INC ASSISTED GROUP LIVING PROG","zip":"85282","geo_score":1.0,"capacity":5,"subtype":"LEVEL 2 RESIDENTIAL","id":"a624ayig1048","geo_precision":"range","address":"925 WEST FOGAL WAY","state":"AZ"},"type":"Feature","geometry":{"type":"Point","coordinates":[-111.951712,33.387914]}},{"properties":{"city":"GLENDALE","name":"FSL PATHWAYS, INC ASSISTED GROUP LIVING PROGRAM","zip":"85303","geo_score":0.958,"capacity":5,"subtype":"LEVEL 2 RESIDENTIAL","id":"a624aymwhjf9","geo_precision":"range","address":"7145 W SIERRA VISTA DRIVE","state":"AZ"},"type":"Feature","geometry":{"type":"Point","coordinates":[-112.213199,33.531628]}},{"properties":{"city":"PEORIA","name":"FSL PATHWAYS, INC/ ASSISTED GROUP LIVING PROGRAM","zip":"85345","geo_score":1.0,"capacity":5,"subtype":"LEVEL 2 RESIDENTIAL","id":"a624ayvh78ps","geo_precision":"range","address":"7808 WEST CHERRY HILLS DRIVE","state":"AZ"},"type":"Feature","geometry":{"type":"Point","coordinates":[-112.227009,33.593609]}},{"properties":{"city":"GLENDALE","name":"FSL PATHWAYS, INC ASSISTED GROUP LIVIN/ PECK HOUSE","zip":"85305","geo_score":1.0,"capacity":5,"subtype":"LEVEL 2 RESIDENTIAL","id":"a624ayonl5d7","geo_precision":"range","address":"8963 W PECK DRIVE","state":"AZ"},"type":"Feature","geometry":{"type":"Point","coordinates":[-112.252233,33.527469]}},{"properties":{"city":"TUCSON","name":"PASCUA YAQUI TRIBE CENTERED SPIRIT PROGRAM - B H","zip":"85741","geo_score":1.0,"capacity":5,"subtype":"JUVENILE GROUP HOME","id":"a624ayrbs1hj","geo_precision":"range","address":"2861 WEST VIA HACIENDA","state":"AZ"},"type":"Feature","geometry":{"type":"Point","coordinates":[-111.028274,32.322442]}},{"properties":{"city":"PHOENIX","name":"FSL PATHWAYS, INC / ASST GROUP LIVG/SURREY HOUSE","zip":"85029","geo_score":0.873,"capacity":5,"subtype":"LEVEL 3 BEHAVIORAL HEALTH RESIDENTIAL","id":"a624ays68gmx","geo_precision":"range","address":"3367 W SURRAY AVENUE","state":"AZ"},"type":"Feature","geometry":{"type":"Point","coordinates":[-112.130723,33.604409]}},{"properties":{"city":"GLENDALE","name":"FSL PATHWAYS, INC / RIOS HOUSE","zip":"85306","geo_score":0.927,"capacity":5,"subtype":"LEVEL 3 BEHAVIORAL HEALTH RESIDENTIAL","id":"a624ayoex6h9","geo_precision":"range","address":"14633 NORTH 55TH AVE","state":"AZ"},"type":"Feature","geometry":{"type":"Point","coordinates":[-112.177099,33.617919]}},{"properties":{"city":"CASA GRANDE","name":"NATIONAL MENTOR HEALTHCARE, L L C - ARIZONA MENTOR","zip":"85222","geo_score":0.932,"capacity":5,"subtype":"LEVEL 2 RESIDENTIAL","id":"a624ayjt9pkb","geo_precision":"range","address":"621 WEST RACINE LOOP","state":"AZ"},"type":"Feature","geometry":{"type":"Point","coordinates":[-111.763624,32.905375]}},{"properties":{"city":"PHOENIX","name":"C D H FOUNDATION","zip":"85044","geo_score":0.83,"capacity":5,"subtype":"JUVENILE GROUP HOME","id":"a624ayns4evn","geo_precision":"range","address":"14854 SOUTH 46TH STREET","state":"AZ"},"type":"Feature","geometry":{"type":"Point","coordinates":[-111.984236,33.311109]}},{"properties":{"city":"PHOENIX","name":"PRATS RESIDENTIAL BEHAVIORAL HEALTH AGENCY, L L C","zip":"85032","geo_score":0.819,"capacity":5,"subtype":"LEVEL 2 RESIDENTIAL","id":"a624ayjrso84","geo_precision":"range","address":"13603 NORTH 30TH STREET","state":"AZ"},"type":"Feature","geometry":{"type":"Point","coordinates":[-112.017597,33.609827]}},{"properties":{"city":"CHANDLER","name":"NATIONAL MENTOR HEALTHCARE, LLC DBA ARIZONA MENTOR","zip":"85225","geo_score":1.0,"capacity":5,"subtype":"LEVEL 2 RESIDENTIAL","id":"a624aygx0wv3","geo_precision":"range","address":"874 SOUTH SUNSET COURT","state":"AZ"},"type":"Feature","geometry":{"type":"Point","coordinates":[-111.851657,33.292565]}},{"properties":{"city":"TEMPE","name":"NATIONAL MENTOR HEALTHCARE, LLC DBA ARIZONA MENTOR","zip":"85282","geo_score":1.0,"capacity":5,"subtype":"LEVEL 2 RESIDENTIAL","id":"a624ayhla2o5","geo_precision":"range","address":"1316 EAST VERLEA DRIVE","state":"AZ"},"type":"Feature","geometry":{"type":"Point","coordinates":[-111.916714,33.403398]}},{"properties":{"city":"PHOENIX","name":"NATIONAL MENTOR HEALTHCARE, L L C - ARIZONA MENTOR","zip":"85037","geo_score":0.941,"capacity":5,"subtype":"LEVEL 2 RESIDENTIAL","id":"a624ayn43xuh","geo_precision":"range","address":"8439 WEST MEADOWBROOK","state":"AZ"},"type":"Feature","geometry":{"type":"Point","coordinates":[-112.241394,33.503665]}},{"properties":{"city":"PHOENIX","name":"UNITED YOUTH &amp; FAMILY SERVICES","zip":"85085","geo_score":0.916,"capacity":5,"subtype":"JUVENILE GROUP HOME","id":"a624ayq9k93d","geo_precision":"range","address":"27818 NORTH 24TH LANE","state":"AZ"},"type":"Feature","geometry":{"type":"Point","coordinates":[-112.112562,33.736758]}},{"properties":{"city":"TUCSON","name":"CASA DE TUCSON, L L C","zip":"85741","geo_score":1.0,"capacity":5,"subtype":"JUVENILE GROUP HOME","id":"a624ayt3dedm","geo_precision":"range","address":"5055 WEST PIMA FARMS ROAD","state":"AZ"},"type":"Feature","geometry":{"type":"Point","coordinates":[-111.073439,32.352025]}},{"properties":{"city":"CASA GRANDE","name":"GRANDE CHALET HOUSE","zip":"85122","geo_score":0.902,"capacity":5,"subtype":"LEVEL 2 RESIDENTIAL","id":"a624ayl7oh0c","geo_precision":"range","address":"2557 NORTH LUPITA PLACE","state":"AZ"},"type":"Feature","geometry":{"type":"Point","coordinates":[-111.725114,32.929544]}},{"properties":{"city":"PHOENIX","name":"NATIONAL MENTOR HEALTHCARE, L L C","zip":"85037","geo_score":1.0,"capacity":5,"subtype":"LEVEL 2 RESIDENTIAL","id":"a624aypvqai0","geo_precision":"range","address":"9225 WEST ELM STREET","state":"AZ"},"type":"Feature","geometry":{"type":"Point","coordinates":[-112.258726,33.506278]}},{"properties":{"city":"TEMPE","name":"FSL PATHWAYS INC / WATSON HOUSE","zip":"85283","geo_score":0.924,"capacity":5,"subtype":"LEVEL 2 RESIDENTIAL","id":"a624ayfvcu8h","geo_precision":"range","address":"916 EAST WATSON DRIVE","state":"AZ"},"type":"Feature","geometry":{"type":"Point","coordinates":[-111.927879,33.369441]}},{"properties":{"city":"MESA","name":"FSL PATHWAYS, INC  ASSSISTED GROUP LIVING PROGRAM","zip":"85201","geo_score":0.805,"capacity":5,"subtype":"LEVEL 2 RESIDENTIAL","id":"a624ayq5umfk","geo_precision":"range","address":"613 W PLATA AVE","state":"AZ"},"type":"Feature","geometry":{"type":"Point","coordinates":[-111.847937,33.361925]}},{"properties":{"city":"PHOENIX","name":"BACK TO LIFE, INC","zip":"85033","geo_score":0.927,"capacity":5,"subtype":"JUVENILE GROUP HOME","id":"a624aynj8uak","geo_precision":"range","address":"3301 NORTH 63RD AVENUE","state":"AZ"},"type":"Feature","geometry":{"type":"Point","coordinates":[-112.195072,33.485462]}},{"properties":{"city":"PHOENIX","name":"VISION GROUP HOME","zip":"85041","geo_score":0.548,"capacity":5,"subtype":"JUVENILE GROUP HOME","id":"a624ayvbepzb","geo_precision":"street","address":"714 WEST SAINT KATERI DRIVE","state":"AZ"},"type":"Feature","geometry":{"type":"Point","coordinates":[-112.066161,33.385469]}},{"properties":{"city":"PHOENIX","name":"FSL PATHWAYS, INC / HAYWARD HOUSE","zip":"85051","geo_score":1.0,"capacity":5,"subtype":"JUVENILE GROUP HOME","id":"a624aypwpo2y","geo_precision":"range","address":"4023 WEST HAYWARD AVENUE","state":"AZ"},"type":"Feature","geometry":{"type":"Point","coordinates":[-112.145314,33.550203]}},{"properties":{"city":"MESA","name":"NEW HORIZON THERAPEUTIC CARE, L L C","zip":"85204","geo_score":0.932,"capacity":5,"subtype":"JUVENILE GROUP HOME","id":"a624aygelubq","geo_precision":"range","address":"2719 EAST INVERNESS STREET","state":"AZ"},"type":"Feature","geometry":{"type":"Point","coordinates":[-111.773714,33.382673]}},{"properties":{"city":"PEORIA","name":"DESERT WINDS BEHAVIORAL HEALTH, LLC","zip":"85382","geo_score":1.0,"capacity":5,"subtype":"LEVEL 3 BEHAVIORAL HEALTH RESIDENTIAL","id":"a624ayhxurs2","geo_precision":"range","address":"9410 WEST ROSS AVENUE","state":"AZ"},"type":"Feature","geometry":{"type":"Point","coordinates":[-112.261199,33.673871]}},{"properties":{"city":"CHANDLER","name":"SIMS BEHAVIORAL HEALTH, L L C","zip":"85248","geo_score":1.0,"capacity":5,"subtype":"LEVEL 2 RESIDENTIAL","id":"a624ayrkvh74","geo_precision":"range","address":"3530 SOUTH HOLLYHOCK PLACE","state":"AZ"},"type":"Feature","geometry":{"type":"Point","coordinates":[-111.883497,33.253695]}},{"properties":{"city":"PHOENIX","name":"PROFESSIONAL PEARLS HOME CARE","zip":"85035","geo_score":0.955,"capacity":5,"subtype":"LEVEL 3 BEHAVIORAL HEALTH RESIDENTIAL","id":"a624ayjr3upi","geo_precision":"range","address":"6151 WEST MONTE VISTA ROAD","state":"AZ"},"type":"Feature","geometry":{"type":"Point","coordinates":[-112.191649,33.471088]}},{"properties":{"city":"YUMA","name":"COMMUNITY PROVIDER OF ENRICHMENT SERVICES","zip":"85364","geo_score":1.0,"capacity":5,"subtype":"LEVEL 2 RESIDENTIAL","id":"a624aylgo1ex","geo_precision":"range","address":"1905 WEST DEL PLATA LANE","state":"AZ"},"type":"Feature","geometry":{"type":"Point","coordinates":[-114.642795,32.689295]}},{"properties":{"city":"GLENDALE","name":"ARIZONA HEALTH CARE CONTRACT MANAGEMENT SERVICES","zip":"85306","geo_score":1.0,"capacity":5,"subtype":"LEVEL 2 RESIDENTIAL","id":"a624ayuag9ee","geo_precision":"range","address":"6627 WEST KINGS AVENUE","state":"AZ"},"type":"Feature","geometry":{"type":"Point","coordinates":[-112.202095,33.634165]}},{"properties":{"city":"PHOENIX","name":"ARIZONA HEALTH CARE CONTRACT MANAGEMENT IRONWOOD","zip":"85051","geo_score":0.927,"capacity":5,"subtype":"LEVEL 2 RESIDENTIAL","id":"a624aysiirsz","geo_precision":"range","address":"10010 NORTH 36TH AVENUE","state":"AZ"},"type":"Feature","geometry":{"type":"Point","coordinates":[-112.136133,33.576149]}},{"properties":{"city":"CHANDLER","name":"NATIONAL MENTOR HEALTHCARE, L L C","zip":"85249","geo_score":0.805,"capacity":5,"subtype":"LEVEL 2 RESIDENTIAL","id":"a624ayjfp3e4","geo_precision":"range","address":"3046 EAST KINGBIRD PLACE","state":"AZ"},"type":"Feature","geometry":{"type":"Point","coordinates":[-111.788718,33.273256]}},{"properties":{"city":"PHOENIX","name":"FSL PATHWAYS, INC / GARDEN HOUSE","zip":"85029","geo_score":0.902,"capacity":5,"subtype":"LEVEL 2 RESIDENTIAL","id":"a624ayj04xlb","geo_precision":"range","address":"3927 WEST GARDEN DRIVE","state":"AZ"},"type":"Feature","geometry":{"type":"Point","coordinates":[-112.143196,33.587947]}},{"properties":{"city":"CASA GRANDE","name":"NATIONAL MENTOR HEALTHCARE, L L C / ARIZONA MENTOR","zip":"85222","geo_score":0.844,"capacity":5,"subtype":"LEVEL 2 RESIDENTIAL","id":"a624ayh3jym9","geo_precision":"range","address":"1668 MELISSA","state":"AZ"},"type":"Feature","geometry":{"type":"Point","coordinates":[-111.715593,32.875286]}},{"properties":{"city":"GLENDALE","name":"NATIONAL MENTOR HEALTHCARE, L L C / ARIZONA MENTOR","zip":"85308","geo_score":0.916,"capacity":5,"subtype":"LEVEL 2 RESIDENTIAL","id":"a624ayn1fhfk","geo_precision":"range","address":"18244 NORTH 39TH DRIVE","state":"AZ"},"type":"Feature","geometry":{"type":"Point","coordinates":[-112.144546,33.653573]}},{"properties":{"city":"MESA","name":"NATIONAL MENTOR HEALTHCARE, L L C / ARIZONA MENTOR","zip":"85208","geo_score":0.71,"capacity":5,"subtype":"LEVEL 2 RESIDENTIAL","id":"a624ayn64bgc","geo_precision":"street","address":"7561 EAST KEATS","state":"AZ"},"type":"Feature","geometry":{"type":"Point","coordinates":[-111.670397,33.377854]}},{"properties":{"city":"APACHE JUNCTION","name":"NATIONAL MENTOR HEALTHCARE, L L C - ARIZONA MENTOR","zip":"85220","geo_score":0.863,"capacity":5,"subtype":"LEVEL 2 RESIDENTIAL","id":"a624ays8xuyv","geo_precision":"range","address":"1918 SOUTH OCOTILLO","state":"AZ"},"type":"Feature","geometry":{"type":"Point","coordinates":[-111.570414,33.398626]}},{"properties":{"city":"PHOENIX","name":"FSL PATHWAYS, INC /  HEARN HOUSE","zip":"85053","geo_score":0.927,"capacity":5,"subtype":"LEVEL 2 RESIDENTIAL","id":"a624ayl186wz","geo_precision":"range","address":"3615 WEST HEARN","state":"AZ"},"type":"Feature","geometry":{"type":"Point","coordinates":[-112.136546,33.614634]}},{"properties":{"city":"PHOENIX","name":"NATIONAL MENTOR HEALTHCARE, LLC DBA ARIZONA MENTOR","zip":"85037","geo_score":0.916,"capacity":5,"subtype":"LEVEL 2 RESIDENTIAL","id":"a624ayp9x38z","geo_precision":"range","address":"2413 NORTH 92ND LANE","state":"AZ"},"type":"Feature","geometry":{"type":"Point","coordinates":[-112.258074,33.476394]}},{"properties":{"city":"PHOENIX","name":"OASIS CARE LIVING, L L C","zip":"85042","geo_score":0.916,"capacity":5,"subtype":"JUVENILE GROUP HOME","id":"a624ayjxn2d4","geo_precision":"range","address":"6434 SOUTH 17TH PLACE","state":"AZ"},"type":"Feature","geometry":{"type":"Point","coordinates":[-112.04396,33.387536]}},{"properties":{"city":"PHOENIX","name":"FSL PATHWAYS, INC / MEADOWBROOK HOUSE","zip":"85037","geo_score":1.0,"capacity":5,"subtype":"LEVEL 2 RESIDENTIAL","id":"a624ayh90vtm","geo_precision":"range","address":"8719 WEST MEADOWBROOK AVENUE","state":"AZ"},"type":"Feature","geometry":{"type":"Point","coordinates":[-112.247275,33.503178]}},{"properties":{"city":"MESA","name":"MARC CENTER OF MESA, INC","zip":"85213","geo_score":0.961,"capacity":5,"subtype":"LEVEL 2 RESIDENTIAL","id":"a624ayuwqups","geo_precision":"range","address":"2664 EAST HERMOSA VISTA DRIVE","state":"AZ"},"type":"Feature","geometry":{"type":"Point","coordinates":[-111.773816,33.459129]}},{"properties":{"city":"PHOENIX","name":"FSL PATHWAYS, INC/ASSISTED GROUP LIVING PROGRAM","zip":"85029","geo_score":0.902,"capacity":5,"subtype":"LEVEL 3 BEHAVIORAL HEALTH RESIDENTIAL","id":"a624aykajjch","geo_precision":"range","address":"3126 W COLUMBINE DRIVE","state":"AZ"},"type":"Feature","geometry":{"type":"Point","coordinates":[-112.125958,33.599295]}},{"properties":{"city":"PHOENIX","name":"HELPING HEARTS RESIDENTIAL FACILITIES I, L L C","zip":"85021","geo_score":0.629,"capacity":5,"subtype":"LEVEL 3 BEHAVIORAL HEALTH RESIDENTIAL","id":"a624aytg5xrq","geo_precision":"street","address":"9606 NORTH 12TH AVENUE UNIT #2","state":"AZ"},"type":"Feature","geometry":{"type":"Point","coordinates":[-112.088984,33.542088]}},{"properties":{"city":"MESA","name":"TURNING POINT YOUTH FACILITY","zip":"85208","geo_score":0.805,"capacity":5,"subtype":"JUVENILE GROUP HOME","id":"a624ayv7oru6","geo_precision":"street","address":"11411 EAST BROADWAY ROAD","state":"AZ"},"type":"Feature","geometry":{"type":"Point","coordinates":[-111.598046,33.407832]}},{"properties":{"city":"LAVEEN","name":"ZENITH","zip":"85339","geo_score":0.855,"capacity":5,"subtype":"JUVENILE GROUP HOME","id":"a624aymlsxe3","geo_precision":"range","address":"3518 WEST THURMAN ROAD","state":"AZ"},"type":"Feature","geometry":{"type":"Point","coordinates":[-112.135885,33.362489]}},{"properties":{"city":"PHOENIX","name":"FAYS HOUSE 1,2,3 L L C","zip":"85041","geo_score":0.916,"capacity":5,"subtype":"JUVENILE GROUP HOME","id":"a624aygm30qd","geo_precision":"range","address":"7623 SOUTH 4TH AVE","state":"AZ"},"type":"Feature","geometry":{"type":"Point","coordinates":[-112.079066,33.376929]}},{"properties":{"city":"GLENDALE","name":"A TURNING POINT FOR ARIZONA'S CHILDREN","zip":"85302","geo_score":1.0,"capacity":5,"subtype":"JUVENILE GROUP HOME","id":"a624ayqbyify","geo_precision":"range","address":"4541 WEST CHERYL DRIVE","state":"AZ"},"type":"Feature","geometry":{"type":"Point","coordinates":[-112.157301,33.579084]}},{"properties":{"city":"PHOENIX","name":"FSL PATHWAYS INC- ASSISTED GROUP LIVING PROGRAM","zip":"85032","geo_score":0.732,"capacity":5,"subtype":"LEVEL 2 RESIDENTIAL","id":"a624ayhnj0su","geo_precision":"range","address":"14214 NORTH 20TH WAY","state":"AZ"},"type":"Feature","geometry":{"type":"Point","coordinates":[-112.038893,33.61584]}},{"properties":{"city":"ARIZONA CITY","name":"NATIONAL MENTOR HEALTHCARE, LLC DBA ARIZONA MENTOR","zip":"85223","geo_score":0.967,"capacity":5,"subtype":"LEVEL 2 RESIDENTIAL","id":"a624ayhy89ei","geo_precision":"range","address":"8428 WEST ROYAL BLACKHEATH","state":"AZ"},"type":"Feature","geometry":{"type":"Point","coordinates":[-111.658039,32.750438]}},{"properties":{"city":"PHOENIX","name":"UNITED YOUTH AND FAMILY SERVICES","zip":"85086","geo_score":0.819,"capacity":5,"subtype":"JUVENILE GROUP HOME","id":"a624ayryf4ps","geo_precision":"range","address":"35005 NORTH 27TH LANE","state":"AZ"},"type":"Feature","geometry":{"type":"Point","coordinates":[-112.118836,33.801749]}},{"properties":{"city":"PHOENIX","name":"FSL PATHWAYS, INC  ASSISTED GROUP LIVING PROGRAM","zip":"85029","geo_score":0.819,"capacity":5,"subtype":"LEVEL 3 BEHAVIORAL HEALTH RESIDENTIAL","id":"a624aypc2q5c","geo_precision":"range","address":"13629 NORTH 21ST DRIVE","state":"AZ"},"type":"Feature","geometry":{"type":"Point","coordinates":[-112.104859,33.608595]}},{"properties":{"city":"GLENDALE","name":"ARIZONA HEALTH CARE CONTRACT MANAGEMENT SERVICES I","zip":"85303","geo_score":0.912,"capacity":5,"subtype":"LEVEL 2 RESIDENTIAL","id":"a624aynhxjks","geo_precision":"range","address":"6835 WEST OREGON","state":"AZ"},"type":"Feature","geometry":{"type":"Point","coordinates":[-112.206954,33.513667]}},{"properties":{"city":"TUCSON","name":"THE CHALET HOUSE EAST","zip":"85715","geo_score":0.927,"capacity":5,"subtype":"LEVEL 2 RESIDENTIAL","id":"a624ayuoyiko","geo_precision":"range","address":"8855 EAST CALLE BOGOTA","state":"AZ"},"type":"Feature","geometry":{"type":"Point","coordinates":[-110.803871,32.241764]}},{"properties":{"city":"PHOENIX","name":"FSL PATHWAYS, INC/ ASST GRP LIVING PGM/EVANS HOUSE","zip":"85053","geo_score":1.0,"capacity":5,"subtype":"LEVEL 3 BEHAVIORAL HEALTH RESIDENTIAL","id":"a624ayonktw8","geo_precision":"range","address":"3916 WEST EVANS DRIVE","state":"AZ"},"type":"Feature","geometry":{"type":"Point","coordinates":[-112.143435,33.617189]}},{"properties":{"city":"PHOENIX","name":"NATIONAL MENTOR HEALTHCARE, L L C DBA ARIZONA MENT","zip":"85037","geo_score":1.0,"capacity":5,"subtype":"LEVEL 2 RESIDENTIAL","id":"a624ayut0mbv","geo_precision":"range","address":"9131 WEST CAMBRIDGE AVENUE","state":"AZ"},"type":"Feature","geometry":{"type":"Point","coordinates":[-112.256213,33.476583]}},{"properties":{"city":"TUCSON","name":"SUPPORTED LIVING SYSTEMS, INC","zip":"85711","geo_score":0.902,"capacity":5,"subtype":"LEVEL 2 RESIDENTIAL","id":"a624ayq74u8z","geo_precision":"range","address":"4454 EAST 3RD STREET","state":"AZ"},"type":"Feature","geometry":{"type":"Point","coordinates":[-110.897552,32.232558]}},{"properties":{"city":"PHOENIX","name":"NATIONAL MENTOR HEALTHCARE, L L C / ARIZONA MENTOR","zip":"85037","geo_score":1.0,"capacity":5,"subtype":"LEVEL 2 RESIDENTIAL","id":"a624ayin9mvg","geo_precision":"range","address":"9287 WEST BELVOIR ROAD","state":"AZ"},"type":"Feature","geometry":{"type":"Point","coordinates":[-112.26069,33.473681]}},{"properties":{"city":"GLENDALE","name":"BACK TO LIFE, INC","zip":"85308","geo_score":0.927,"capacity":5,"subtype":"JUVENILE GROUP HOME","id":"a624ayneeoqc","geo_precision":"range","address":"20011 NORTH 77TH AVENUE","state":"AZ"},"type":"Feature","geometry":{"type":"Point","coordinates":[-112.223572,33.666015]}},{"properties":{"city":"PHOENIX","name":"HELPING HEARTS RESIDENTIAL FACILITIES - 12TH AVE","zip":"85021","geo_score":0.643,"capacity":5,"subtype":"LEVEL 3 BEHAVIORAL HEALTH RESIDENTIAL","id":"a624ayuhqrbd","geo_precision":"street","address":"9606 NORTH 12TH AVENUE, UNIT 1","state":"AZ"},"type":"Feature","geometry":{"type":"Point","coordinates":[-112.076075,33.555876]}},{"properties":{"city":"PHOENIX","name":"EMMARIE BEHAVIORAL HOME CARE","zip":"85041","geo_score":1.0,"capacity":5,"subtype":"LEVEL 2 RESIDENTIAL","id":"a624aygjf9s6","geo_precision":"range","address":"2926 WEST WAYLAND DRIVE","state":"AZ"},"type":"Feature","geometry":{"type":"Point","coordinates":[-112.12175,33.394287]}},{"properties":{"city":"ARIZONA CITY","name":"ARIZONA'S PINAL COUNTY YOUTH AT CABABI HOUSE","zip":"85123","geo_score":0.434,"capacity":5,"subtype":"JUVENILE GROUP HOME","id":"a624aygbkbsn","geo_precision":"street","address":"14643 SOUTH CABABI ROAD","state":"AZ"},"type":"Feature","geometry":{"type":"Point","coordinates":[-109.88139,31.995988]}},{"properties":{"city":"CHANDLER","name":"THE CEDAR SANCTUARY, L L C DBA DESERT CEDAR BEHAV","zip":"85248","geo_score":1.0,"capacity":5,"subtype":"LEVEL 3 BEHAVIORAL HEALTH RESIDENTIAL","id":"a624aykeji8h","geo_precision":"range","address":"2264 WEST OLIVE WAY","state":"AZ"},"type":"Feature","geometry":{"type":"Point","coordinates":[-111.880198,33.247937]}},{"properties":{"city":"MARICOPA","name":"NEW HORIZON THERAPEUTIC CARE, L L C","zip":"85138","geo_score":0.503,"capacity":5,"subtype":"JUVENILE GROUP HOME","id":"a624ayg2f662","geo_precision":"street","address":"41105 WEST COLTIN WAY","state":"AZ"},"type":"Feature","geometry":{"type":"Point","coordinates":[-112.033545,32.893426]}},{"properties":{"city":"PHOENIX","name":"OUR CHILDREN OUR FUTURE LLC","zip":"85017","geo_score":0.927,"capacity":5,"subtype":"JUVENILE GROUP HOME","id":"a624ays5us1n","geo_precision":"range","address":"6811 NORTH 32ND AVE","state":"AZ"},"type":"Feature","geometry":{"type":"Point","coordinates":[-112.128199,33.536519]}},{"properties":{"city":"TUCSON","name":"TRINITY HOME LLC","zip":"85706","geo_score":0.605,"capacity":5,"subtype":"LEVEL 2 RESIDENTIAL","id":"a624ayhrpupk","geo_precision":"zip","address":"2384 EAST CAMINO MALCOTE","state":"AZ"},"type":"Feature","geometry":{"type":"Point","coordinates":[-111.060649,31.902583]}},{"properties":{"city":"TUCSON","name":"CATHOLIC COMMUNITY SERVICES OF SOUTHERN ARIZONA","zip":"85711","geo_score":0.902,"capacity":5,"subtype":"JUVENILE GROUP HOME","id":"a624ayux955r","geo_precision":"range","address":"5138 EAST 2ND STREET","state":"AZ"},"type":"Feature","geometry":{"type":"Point","coordinates":[-110.883277,32.234377]}},{"properties":{"city":"PEORIA","name":"FSL PATHWAYS INC- ASSISTED GROUP LIVING PROGRAM","zip":"85345","geo_score":1.0,"capacity":5,"subtype":"LEVEL 2 RESIDENTIAL","id":"a624ayo71nc2","geo_precision":"range","address":"8744 WEST ALICE AVENUE","state":"AZ"},"type":"Feature","geometry":{"type":"Point","coordinates":[-112.247181,33.562749]}},{"properties":{"city":"PHOENIX","name":"ARIZONA HEALTH CARE CONTRACT MANAGEMENT SERVICES","zip":"85023","geo_score":0.717,"capacity":5,"subtype":"LEVEL 2 RESIDENTIAL","id":"a624ayo9p5f0","geo_precision":"street","address":"3048 WEST CROCUS AVENUE","state":"AZ"},"type":"Feature","geometry":{"type":"Point","coordinates":[-112.11394,33.614571]}},{"properties":{"city":"SCOTTSDALE","name":"SOUTHWEST BEHAVIORAL HEALTH SERVICES, INC","zip":"85257","geo_score":0.859,"capacity":5,"subtype":"LEVEL 2 RESIDENTIAL","id":"a624ayutgd64","geo_precision":"range","address":"7626 EAST SHERIDAN","state":"AZ"},"type":"Feature","geometry":{"type":"Point","coordinates":[-111.916976,33.475008]}},{"properties":{"city":"LAVEEN","name":"NATIONAL MENTOR HEALTH, L L C - ARIZONA MENTOR","zip":"85339","geo_score":0.83,"capacity":5,"subtype":"LEVEL 2 RESIDENTIAL","id":"a624aysg0wvf","geo_precision":"range","address":"7223 SOUTH 71ST LANE","state":"AZ"},"type":"Feature","geometry":{"type":"Point","coordinates":[-112.212743,33.38101]}},{"properties":{"city":"GLENDALE","name":"NATIONAL MENTOR HEALTHCARE, L L C DBA ARIZONA MENT","zip":"85305","geo_score":0.61,"capacity":5,"subtype":"LEVEL 2 RESIDENTIAL","id":"a624ayjhy31f","geo_precision":"street","address":"8851 WEST NORTHVIEW AVENUE","state":"AZ"},"type":"Feature","geometry":{"type":"Point","coordinates":[-112.237236,33.542451]}},{"properties":{"city":"PHOENIX","name":"FSL PATHWAYS, INC/ CABOT HOUSE","zip":"85032","geo_score":0.902,"capacity":5,"subtype":"LEVEL 2 RESIDENTIAL","id":"a624ayilcw73","geo_precision":"range","address":"2420 EAST JOHN CABOT ROAD","state":"AZ"},"type":"Feature","geometry":{"type":"Point","coordinates":[-112.029701,33.649268]}},{"properties":{"city":"PHOENIX","name":"MAKING A DIFFERENCE","zip":"85042","geo_score":0.916,"capacity":5,"subtype":"JUVENILE GROUP HOME","id":"a624ayfzxpqb","geo_precision":"range","address":"6437 SOUTH 21ST PLACE","state":"AZ"},"type":"Feature","geometry":{"type":"Point","coordinates":[-112.035477,33.388666]}},{"properties":{"city":"COOLIDGE","name":"FOUNDATION FOR ARIZONA'S YOUTH, L L C","zip":"85128","geo_score":0.61,"capacity":5,"subtype":"JUVENILE GROUP HOME","id":"a624aysu80ta","geo_precision":"street","address":"1404 SOUTH 7TH STREET","state":"AZ"},"type":"Feature","geometry":{"type":"Point","coordinates":[-111.528691,32.962548]}},{"properties":{"city":"PHOENIX","name":"VISION GROUP HOME","zip":"85041","geo_score":0.935,"capacity":5,"subtype":"JUVENILE GROUP HOME","id":"a624ayry97ot","geo_precision":"range","address":"2917 WEST BOWKER","state":"AZ"},"type":"Feature","geometry":{"type":"Point","coordinates":[-112.12155,33.396529]}},{"properties":{"city":"LAVEEN","name":"NATIONAL MENTOR HEALTHCARE, L L C","zip":"85339","geo_score":0.83,"capacity":5,"subtype":"LEVEL 2 RESIDENTIAL","id":"a624aymxhuly","geo_precision":"range","address":"5621 SOUTH 51ST DRIVE","state":"AZ"},"type":"Feature","geometry":{"type":"Point","coordinates":[-112.169126,33.394667]}},{"properties":{"city":"YUMA","name":"COMMUNITY PROVIDER OF ENRICHMENT SERVICES","zip":"85364","geo_score":0.68,"capacity":5,"subtype":"LEVEL 2 RESIDENTIAL","id":"a624aylb0amc","geo_precision":"street","address":"2907 WEST 28TH PLACE","state":"AZ"},"type":"Feature","geometry":{"type":"Point","coordinates":[-114.641216,32.675365]}},{"properties":{"city":"TUCSON","name":"CPES / VERACRUZ","zip":"85713","geo_score":0.931,"capacity":4,"subtype":"JUVENILE GROUP HOME","id":"a624ayrgls68","geo_precision":"range","address":"2104 VERA CRUZ VISTA","state":"AZ"},"type":"Feature","geometry":{"type":"Point","coordinates":[-110.941245,32.189947]}},{"properties":{"city":"TUCSON","name":"SOUTHERN ARIZONA MENTAL HEALTH CORPORATION","zip":"85716","geo_score":0.614,"capacity":4,"subtype":"LEVEL 1 SUB-ACUTE / OUTPATIENT CLINIC","id":"a624ayirxm68","geo_precision":"street","address":"2502 NORTH DODGE BOULEVARD, SUITE 190","state":"AZ"},"type":"Feature","geometry":{"type":"Point","coordinates":[-110.913899,32.221573]}},{"properties":{"city":"CHANDLER","name":"ALL ABOUT KIDS","zip":"85249","geo_score":0.764,"capacity":4,"subtype":"JUVENILE GROUP HOME","id":"a624aykf411f","geo_precision":"street","address":"2510 EAST YELLOWSTONE","state":"AZ"},"type":"Feature","geometry":{"type":"Point","coordinates":[-111.803834,33.247422]}},{"properties":{"city":"MESA","name":"ARIZONA HEALTH CARE CONTRACT MANAGEMENT SERVICES","zip":"85203","geo_score":0.902,"capacity":4,"subtype":"LEVEL 2 RESIDENTIAL","id":"a624ayg4vezo","geo_precision":"range","address":"1829 EAST 2ND STREET","state":"AZ"},"type":"Feature","geometry":{"type":"Point","coordinates":[-111.792051,33.418967]}},{"properties":{"city":"QUEEN CREEK","name":"FEATHERS OF FLIGHT, L L C","zip":"85143","geo_score":0.415,"capacity":4,"subtype":"JUVENILE GROUP HOME","id":"a624ayfnrw82","geo_precision":"street","address":"30872 NORTH ROYAL OAK WAY","state":"AZ"},"type":"Feature","geometry":{"type":"Point","coordinates":[-110.840772,33.406543]}},{"properties":{"city":"MESA","name":"MARC CENTER OF MESA, INC","zip":"85206","geo_score":1.0,"capacity":4,"subtype":"LEVEL 2 RESIDENTIAL","id":"a624ayt2ilpn","geo_precision":"range","address":"4154 EAST ALDER AVENUE","state":"AZ"},"type":"Feature","geometry":{"type":"Point","coordinates":[-111.742143,33.414222]}},{"properties":{"city":"MESA","name":"MARC CENTER OF MESA, INC","zip":"85215","geo_score":1.0,"capacity":4,"subtype":"LEVEL 2 RESIDENTIAL","id":"a624aylhba0u","geo_precision":"range","address":"6433 EAST QUARTZ STREET","state":"AZ"},"type":"Feature","geometry":{"type":"Point","coordinates":[-111.691889,33.474589]}},{"properties":{"city":"MESA","name":"MARC CENTER OF MESA, INC - MILLETT","zip":"85204","geo_score":1.0,"capacity":4,"subtype":"LEVEL 2 RESIDENTIAL","id":"a624ayp41omk","geo_precision":"range","address":"918 EAST MILLETT AVE","state":"AZ"},"type":"Feature","geometry":{"type":"Point","coordinates":[-111.811435,33.399701]}},{"properties":{"city":"PHOENIX","name":"TOBY HOUSE INC/ BETHANY HOUSE","zip":"85019","geo_score":0.916,"capacity":4,"subtype":"LEVEL 2 RESIDENTIAL","id":"a624ayi3q701","geo_precision":"range","address":"5734 NORTH 41ST DRIVE","state":"AZ"},"type":"Feature","geometry":{"type":"Point","coordinates":[-112.147855,33.52101]}},{"properties":{"city":"PHOENIX","name":"COMMUNITY CONNECTIONS, L L C","zip":"85023","geo_score":0.916,"capacity":4,"subtype":"LEVEL 2 RESIDENTIAL","id":"a624ayi6a3oi","geo_precision":"range","address":"18215 NORTH 11TH DRIVE","state":"AZ"},"type":"Feature","geometry":{"type":"Point","coordinates":[-112.087684,33.651182]}},{"properties":{"city":"TUCSON","name":"ESTHER CLAYTON","zip":"85713","geo_score":0.872,"capacity":3,"subtype":"ADULT THERAPEUTIC FOSTER HOME","id":"a624ayto83uk","geo_precision":"range","address":"3715 EAST 25TH STREET","state":"AZ"},"type":"Feature","geometry":{"type":"Point","coordinates":[-110.913216,32.203836]}},{"properties":{"city":"PHOENIX","name":"HAY'S HOUSE","zip":"85032","geo_score":0.902,"capacity":3,"subtype":"ADULT THERAPEUTIC FOSTER HOME","id":"a624ayutmg1b","geo_precision":"range","address":"3540 EAST CAMPO BELLO DRIVE","state":"AZ"},"type":"Feature","geometry":{"type":"Point","coordinates":[-112.006299,33.644618]}},{"properties":{"city":"TUCSON","name":"NEEMA, LLC","zip":"85730","geo_score":1.0,"capacity":3,"subtype":"LEVEL 3 BEHAVIORAL HEALTH RESIDENTIAL","id":"a624ayg4xrr3","geo_precision":"range","address":"6607 EAST HAWK DRIVE","state":"AZ"},"type":"Feature","geometry":{"type":"Point","coordinates":[-110.851697,32.18026]}},{"properties":{"city":"TUCSON","name":"THE RANCH","zip":"85736","geo_score":1.0,"capacity":3,"subtype":"ADULT THERAPEUTIC FOSTER HOME","id":"a624aym5294z","geo_precision":"range","address":"9264 SOUTH WILT BANK ROAD","state":"AZ"},"type":"Feature","geometry":{"type":"Point","coordinates":[-111.255404,32.08167]}},{"properties":{"city":"TUCSON","name":"THE JACKSON HOUSE","zip":"85710","geo_score":0.851,"capacity":3,"subtype":"ADULT THERAPEUTIC FOSTER HOME","id":"a624ayqpm1uj","geo_precision":"range","address":"8240 EAST 18TH STREET","state":"AZ"},"type":"Feature","geometry":{"type":"Point","coordinates":[-110.81631,32.210534]}},{"properties":{"city":"AVONDALE","name":"CECELIA HILL","zip":"85392","geo_score":0.805,"capacity":3,"subtype":"ADULT THERAPEUTIC FOSTER HOME","id":"a624ays5cj2r","geo_precision":"street","address":"13772 WEST EARLL DRIVE","state":"AZ"},"type":"Feature","geometry":{"type":"Point","coordinates":[-112.290008,33.482616]}},{"properties":{"city":"GLENDALE","name":"CAROLYN K SIMMONS DBA A NEW HOPE BEHAVIORAL HEALTH","zip":"85302","geo_score":0.927,"capacity":3,"subtype":"LEVEL 2 RESIDENTIAL","id":"a624ayj71dje","geo_precision":"range","address":"9646 NORTH 47 AVE","state":"AZ"},"type":"Feature","geometry":{"type":"Point","coordinates":[-112.160245,33.573418]}},{"properties":{"city":"TUCSON","name":"MABUHAY","zip":"85757","geo_score":0.493,"capacity":3,"subtype":"ADULT THERAPEUTIC FOSTER HOME","id":"a624ayq5y7gw","geo_precision":"street","address":"7151 SOUTH VALLEY STREAM DRIVE","state":"AZ"},"type":"Feature","geometry":{"type":"Point","coordinates":[-110.994222,32.148775]}},{"properties":{"city":"TUCSON","name":"CASA ESPERANZA","zip":"85730","geo_score":0.977,"capacity":3,"subtype":"ADULT THERAPEUTIC FOSTER HOME","id":"a624ayrjakgz","geo_precision":"range","address":"10285 EAST SKY CASTLE WAY","state":"AZ"},"type":"Feature","geometry":{"type":"Point","coordinates":[-110.772838,32.180527]}},{"properties":{"city":"PHOENIX","name":"NEW HOPE FOR LIVING, INC - I I","zip":"85051","geo_score":0.607,"capacity":3,"subtype":"LEVEL 2 RESIDENTIAL","id":"a624ayl3108j","geo_precision":"street","address":"3228 WEST GLENDALE AVENUE, SUITE 135","state":"AZ"},"type":"Feature","geometry":{"type":"Point","coordinates":[-112.112216,33.538618]}},{"properties":{"city":"TUCSON","name":"MWANGAZA RESIDENTIAL CARE, L L C","zip":"85706","geo_score":0.451,"capacity":3,"subtype":"LEVEL 2 RESIDENTIAL","id":"a624ayg4engc","geo_precision":"street","address":"2234 EAST CALLE SIERRA DEL MANANTIAL","state":"AZ"},"type":"Feature","geometry":{"type":"Point","coordinates":[-111.021016,32.128575]}},{"properties":{"city":"CHANDLER","name":"FAMILY SUPPORT CARE RESIDENTIAL GROUP HOME, LLC","zip":"85224","geo_score":0.967,"capacity":3,"subtype":"LEVEL 2 RESIDENTIAL","id":"a624ayfk7zr9","geo_precision":"range","address":"1209 WEST BOSTON STREET","state":"AZ"},"type":"Feature","geometry":{"type":"Point","coordinates":[-111.862422,33.301818]}},{"properties":{"city":"TUCSON","name":"A Z I HOUSE, LLC","zip":"85747","geo_score":0.683,"capacity":3,"subtype":"LEVEL 2 RESIDENTIAL","id":"a624ayoqy5hg","geo_precision":"zip","address":"5986 SOUTH JAKEMP TRAIL","state":"AZ"},"type":"Feature","geometry":{"type":"Point","coordinates":[-110.727183,32.098362]}},{"properties":{"city":"PEORIA","name":"MUTWOL FAMILY ADULT THERAPEUTIC CARE","zip":"85345","geo_score":1.0,"capacity":3,"subtype":"ADULT THERAPEUTIC FOSTER HOME","id":"a624ayji0dxy","geo_precision":"range","address":"7445 WEST CHERYL DRIVE","state":"AZ"},"type":"Feature","geometry":{"type":"Point","coordinates":[-112.218996,33.5778]}},{"properties":{"city":"TUCSON","name":"THE COMFORT HOME","zip":"85711","geo_score":1.0,"capacity":3,"subtype":"LEVEL 2 RESIDENTIAL","id":"a624ayujy6cl","geo_precision":"range","address":"5818 EAST ROSEWOOD STREET","state":"AZ"},"type":"Feature","geometry":{"type":"Point","coordinates":[-110.868497,32.232537]}},{"properties":{"city":"TUCSON","name":"TINA TONY RESIDENTIAL CARE","zip":"85756","geo_score":0.435,"capacity":3,"subtype":"LEVEL 2 RESIDENTIAL","id":"a624ays4ivsl","geo_precision":"street","address":"5907 EAST SANDERLING DRIVE","state":"AZ"},"type":"Feature","geometry":{"type":"Point","coordinates":[-110.857558,32.258685]}},{"properties":{"city":"TUCSON","name":"SHANTI HOUSE","zip":"85710","geo_score":0.87,"capacity":3,"subtype":"ADULT THERAPEUTIC FOSTER HOME","id":"a624ayvxv87a","geo_precision":"range","address":"8001 EAST TIMROD","state":"AZ"},"type":"Feature","geometry":{"type":"Point","coordinates":[-110.82154,32.215987]}},{"properties":{"city":"PHOENIX","name":"BRETT A CALABRO","zip":"85029","geo_score":0.815,"capacity":3,"subtype":"ADULT THERAPEUTIC FOSTER HOME","id":"a624ayqy7rhc","geo_precision":"range","address":"4002 WEST SHARON","state":"AZ"},"type":"Feature","geometry":{"type":"Point","coordinates":[-112.144364,33.60921]}},{"properties":{"city":"TUCSON","name":"KAYE HASPEL-HUNT","zip":"85735","geo_score":1.0,"capacity":3,"subtype":"ADULT THERAPEUTIC FOSTER HOME","id":"a624ayg4v87p","geo_precision":"range","address":"8770 WEST BOPP ROAD","state":"AZ"},"type":"Feature","geometry":{"type":"Point","coordinates":[-111.154165,32.177191]}},{"properties":{"city":"TUCSON","name":"CPES / LANDINGS","zip":"85706","geo_score":0.922,"capacity":3,"subtype":"LEVEL 2 RESIDENTIAL","id":"a624ayng3pjm","geo_precision":"range","address":"4225 EAST FRANKFORT STRAVENUE","state":"AZ"},"type":"Feature","geometry":{"type":"Point","coordinates":[-110.902612,32.150188]}},{"properties":{"city":"TUCSON","name":"JUSTIN FINYOM","zip":"85710","geo_score":0.488,"capacity":3,"subtype":"ADULT THERAPEUTIC FOSTER HOME","id":"a624aytxu03g","geo_precision":"street","address":"7648 EAST OCOTILLO OVERLOOK DRIVE","state":"AZ"},"type":"Feature","geometry":{"type":"Point","coordinates":[-110.824235,32.301688]}},{"properties":{"city":"TUCSON","name":"THE BELL VIEW HOME","zip":"85715","geo_score":0.927,"capacity":3,"subtype":"ADULT THERAPEUTIC FOSTER HOME","id":"a624aygb80ui","geo_precision":"range","address":"9140 EAST BELLEVUE STREET","state":"AZ"},"type":"Feature","geometry":{"type":"Point","coordinates":[-110.796387,32.237189]}},{"properties":{"city":"GLENDALE","name":"MUCO FAMILY ADULT THERAPEUTIC FOSTER CARE","zip":"85303","geo_score":1.0,"capacity":3,"subtype":"ADULT THERAPEUTIC FOSTER HOME","id":"a624aytg6u9k","geo_precision":"range","address":"7193 WEST LAMAR ROAD","state":"AZ"},"type":"Feature","geometry":{"type":"Point","coordinates":[-112.215045,33.535167]}},{"properties":{"city":"PHOENIX","name":"NATIONAL MENTOR HEALTHCARE, LLC","zip":"85032","geo_score":0.849,"capacity":3,"subtype":"LEVEL 2 RESIDENTIAL","id":"a624aymx3z32","geo_precision":"range","address":"3843 EAST LARKSPUR","state":"AZ"},"type":"Feature","geometry":{"type":"Point","coordinates":[-111.998607,33.601445]}},{"properties":{"city":"BENSON","name":"SOUTHEASTERN ARIZONA BEHAVIORAL HEALTH SERVICE INC","zip":"85602","geo_score":0.629,"capacity":3,"subtype":"ADULT THERAPEUTIC FOSTER HOME","id":"a624aym2izl2","geo_precision":"zip","address":"1193 BASYL LANE","state":"AZ"},"type":"Feature","geometry":{"type":"Point","coordinates":[-110.49314,32.427572]}},{"properties":{"city":"PHOENIX","name":"7TH PLACE","zip":"85022","geo_score":0.78,"capacity":3,"subtype":"ADULT THERAPEUTIC FOSTER HOME","id":"a624ays7z6kw","geo_precision":"street","address":"14802 NORTH 7TH PLACE","state":"AZ"},"type":"Feature","geometry":{"type":"Point","coordinates":[-112.064738,33.621282]}},{"properties":{"city":"CHANDLER","name":"ODEL BURNES SR","zip":"85286","geo_score":0.915,"capacity":3,"subtype":"ADULT THERAPEUTIC FOSTER HOME","id":"a624ayk9qupp","geo_precision":"range","address":"3268 EAST GOLDFINCH WAY","state":"AZ"},"type":"Feature","geometry":{"type":"Point","coordinates":[-111.784303,33.266947]}},{"properties":{"city":"PHOENIX","name":"SERENITY SERVICES, LLC","zip":"85051","geo_score":0.912,"capacity":3,"subtype":"LEVEL 2 RESIDENTIAL","id":"a624ayvlq3cv","geo_precision":"range","address":"4038 WEST PURDUE","state":"AZ"},"type":"Feature","geometry":{"type":"Point","coordinates":[-112.146425,33.573721]}},{"properties":{"city":"TUCSON","name":"AMALIA URIAS","zip":"85741","geo_score":1.0,"capacity":3,"subtype":"ADULT THERAPEUTIC FOSTER HOME","id":"a624ayshvyzo","geo_precision":"range","address":"7343 NORTH PILGRIM PLACE","state":"AZ"},"type":"Feature","geometry":{"type":"Point","coordinates":[-111.035626,32.340061]}},{"properties":{"city":"VAIL","name":"ETHEL SUE VINES","zip":"85641","geo_score":0.617,"capacity":3,"subtype":"ADULT THERAPEUTIC FOSTER HOME","id":"a624aygd2bcd","geo_precision":"street","address":"13218 EAST MINETA RIDGE DRIVE","state":"AZ"},"type":"Feature","geometry":{"type":"Point","coordinates":[-110.767929,31.955938]}},{"properties":{"city":"MESA","name":"PATRICIA ANN GARRETT","zip":"85212","geo_score":1.0,"capacity":3,"subtype":"ADULT THERAPEUTIC FOSTER HOME","id":"a624ayjtx2is","geo_precision":"range","address":"3140 SOUTH TOBIN CIRCLE","state":"AZ"},"type":"Feature","geometry":{"type":"Point","coordinates":[-111.603213,33.358513]}},{"properties":{"city":"BENSON","name":"CARING CONNECTIONS FOR SPECIAL NEEDS, L L C","zip":"85602","geo_score":0.848,"capacity":3,"subtype":"JUVENILE GROUP HOME","id":"a624ayurazm2","geo_precision":"range","address":"505 EAST 5TH STREET","state":"AZ"},"type":"Feature","geometry":{"type":"Point","coordinates":[-110.291794,31.966229]}},{"properties":{"city":"PHOENIX","name":"MOUNTAIN TOP BEHAVIORAL HEALTH SERVICES, L L C","zip":"85041","geo_score":1.0,"capacity":3,"subtype":"LEVEL 2 RESIDENTIAL","id":"a624ayrresjc","geo_precision":"range","address":"3331 WEST FRAKTUR ROAD","state":"AZ"},"type":"Feature","geometry":{"type":"Point","coordinates":[-112.130273,33.39538]}},{"properties":{"city":"TUCSON","name":"NEW BEGINNINGS TREATMENT CENTER, INC","zip":"85705","geo_score":0.919,"capacity":3,"subtype":"JUVENILE GROUP HOME","id":"a624ayss2nzk","geo_precision":"range","address":"3235 NORTH STONE AVENUE","state":"AZ"},"type":"Feature","geometry":{"type":"Point","coordinates":[-110.972047,32.265305]}},{"properties":{"city":"PHOENIX","name":"MASTER CARE, INC","zip":"85085","geo_score":0.68,"capacity":3,"subtype":"LEVEL 2 RESIDENTIAL","id":"a624ayjqcozn","geo_precision":"street","address":"28809 NORTH 25TH GLEN","state":"AZ"},"type":"Feature","geometry":{"type":"Point","coordinates":[-112.11455,33.739832]}},{"properties":{"city":"PHOENIX","name":"NATIONAL MENTOR HEALTHCARE, LLC","zip":"85032","geo_score":0.625,"capacity":3,"subtype":"LEVEL 2 RESIDENTIAL","id":"a624ayiws2lz","geo_precision":"street","address":"12002 NORTH 28TH STREET","state":"AZ"},"type":"Feature","geometry":{"type":"Point","coordinates":[-112.021813,33.596872]}},{"properties":{"city":"LAVEEN","name":"COVENANT CARE LLC","zip":"85339","geo_score":0.913,"capacity":3,"subtype":"LEVEL 3 BEHAVIORAL HEALTH RESIDENTIAL","id":"a624ayq34n2j","geo_precision":"range","address":"6920 WEST CARSON ROAD","state":"AZ"},"type":"Feature","geometry":{"type":"Point","coordinates":[-112.208627,33.382755]}},{"properties":{"city":"PHOENIX","name":"BESCARE HOME, L L C","zip":"85041","geo_score":1.0,"capacity":3,"subtype":"LEVEL 2 RESIDENTIAL","id":"a624ayl69ske","geo_precision":"range","address":"2759 WEST GRENADINE ROAD","state":"AZ"},"type":"Feature","geometry":{"type":"Point","coordinates":[-112.119029,33.398752]}},{"properties":{"city":"TUCSON","name":"MILDRED DOLBY","zip":"85715","geo_score":0.927,"capacity":2,"subtype":"ADULT THERAPEUTIC FOSTER HOME","id":"a624ayg11z70","geo_precision":"range","address":"8622 EAST MABEL PLACE","state":"AZ"},"type":"Feature","geometry":{"type":"Point","coordinates":[-110.809158,32.238681]}},{"properties":{"city":"TUCSON","name":"C P E S/ MANZANITA","zip":"85713","geo_score":0.872,"capacity":2,"subtype":"LEVEL 2 RESIDENTIAL","id":"a624aypcpv8w","geo_precision":"range","address":"331-2 WEST 24TH STREET","state":"AZ"},"type":"Feature","geometry":{"type":"Point","coordinates":[-110.973265,32.204652]}},{"properties":{"city":"TUCSON","name":"JUANITA HAMMONS","zip":"85730","geo_score":1.0,"capacity":2,"subtype":"ADULT THERAPEUTIC FOSTER HOME","id":"a624ayle67tt","geo_precision":"range","address":"8125 EAST VICTORIA DRIVE","state":"AZ"},"type":"Feature","geometry":{"type":"Point","coordinates":[-110.81892,32.180289]}},{"properties":{"city":"NEW RIVER","name":"KELLY'S ADULT THERAPEUTIC FOSTER HOME","zip":"85087","geo_score":0.916,"capacity":2,"subtype":"ADULT THERAPEUTIC FOSTER HOME","id":"a624ayqqqhxl","geo_precision":"range","address":"42631 NORTH 43RD DRIVE","state":"AZ"},"type":"Feature","geometry":{"type":"Point","coordinates":[-112.152943,33.871841]}},{"properties":{"city":"TUCSON","name":"CPES / COOL HOUSE","zip":"85711","geo_score":0.916,"capacity":2,"subtype":"LEVEL 2 RESIDENTIAL","id":"a624aymhe8nr","geo_precision":"range","address":"4873 EAST 12TH STREET","state":"AZ"},"type":"Feature","geometry":{"type":"Point","coordinates":[-110.887991,32.220491]}},{"properties":{"city":"SCOTTSDALE","name":"BANNER PSYCHIATRIC CENTER","zip":"85251","geo_score":1.0,"capacity":1,"subtype":"LEVEL 1 SUB-ACUTE","id":"a624ayphyza3","geo_precision":"street","address":"7575 EAST EARLL DRIVE, BUILDING 500","state":"AZ"},"type":"Feature","geometry":{"type":"Point","coordinates":[-111.94475,33.484063]}},{"properties":{"city":"PHOENIX","name":"FOSTERING FAMILY HOME","zip":"85029","geo_score":0.878,"capacity":1,"subtype":"ADULT THERAPEUTIC FOSTER HOME","id":"a624ayufyhle","geo_precision":"range","address":"3113 WEST SHANGRI LA ROAD","state":"AZ"},"type":"Feature","geometry":{"type":"Point","coordinates":[-112.125677,33.588244]}}],"is_temporal":false,"author":{"url":"","metadata":"","contact_name":"","contact_address":"","source":"","contact_phone":""},"source":"","pagination":{"sort":null,"start":0,"total":396,"limit":1000000},"state":"complete","tags":"arizona,behavioral,health,inpatient,mental","published":"2014-08-10T12:39:12-04:00","id":91150}