{"type":"FeatureCollection","data_type":"Dataset","url_type":null,"permissions":[{"permissions":{"download":true,"view":true},"group_id":"everyone"}],"classification":null,"title":"Book2","count":198,"stream_id":91192,"contributor":{"url":"http://geocommons.com/users/21817","name":"therlack"},"data_attributes":null,"calculation_params":null,"icon_link":null,"link":"http://geocommons.com/overlays/91192.json","extent":[-122.684,26.2129,-71.2015,47.4323],"geometry_types":["point"],"unique_name":null,"name":"Book2","feature_count":198,"description":"","next_feature":null,"is_raster":false,"short_classification":"Y","stats":{},"features":[{"properties":{"zip":"01803","geo_score":0.714,"id":"a675jkcxpm52","geo_precision":"zip"},"type":"Feature","geometry":{"type":"Point","coordinates":[-71.201539,42.504844]}},{"properties":{"zip":"01803","geo_score":0.714,"id":"a675jkit0wkp","geo_precision":"zip"},"type":"Feature","geometry":{"type":"Point","coordinates":[-71.201539,42.504844]}},{"properties":{"zip":"01803","geo_score":0.714,"id":"a675jkfldtdm","geo_precision":"zip"},"type":"Feature","geometry":{"type":"Point","coordinates":[-71.201539,42.504844]}},{"properties":{"zip":"02451","geo_score":0.714,"id":"a675jkj9vlkb","geo_precision":"zip"},"type":"Feature","geometry":{"type":"Point","coordinates":[-71.24505,42.398588]}},{"properties":{"zip":"03064","geo_score":0.714,"id":"a675jkdnmr54","geo_precision":"zip"},"type":"Feature","geometry":{"type":"Point","coordinates":[-71.628611,42.774237]}},{"properties":{"zip":"06611","geo_score":0.714,"id":"a675jkfy3u6k","geo_precision":"zip"},"type":"Feature","geometry":{"type":"Point","coordinates":[-73.161223,41.24093]}},{"properties":{"zip":"06611","geo_score":0.714,"id":"a675jkfdfc81","geo_precision":"zip"},"type":"Feature","geometry":{"type":"Point","coordinates":[-73.161223,41.24093]}},{"properties":{"zip":"07014","geo_score":0.714,"id":"a675jkix7ldm","geo_precision":"zip"},"type":"Feature","geometry":{"type":"Point","coordinates":[-74.140977,40.828989]}},{"properties":{"zip":"07093","geo_score":0.714,"id":"a675jkawpxgk","geo_precision":"zip"},"type":"Feature","geometry":{"type":"Point","coordinates":[-74.003751,40.792045]}},{"properties":{"zip":"07094","geo_score":0.714,"id":"a675jk592sz8","geo_precision":"zip"},"type":"Feature","geometry":{"type":"Point","coordinates":[-74.056035,40.78885]}},{"properties":{"zip":"10018","geo_score":0.714,"id":"a675jkhx2hp6","geo_precision":"zip"},"type":"Feature","geometry":{"type":"Point","coordinates":[-73.993172,40.755332]}},{"properties":{"zip":"11753","geo_score":0.714,"id":"a675jkflbx5n","geo_precision":"zip"},"type":"Feature","geometry":{"type":"Point","coordinates":[-73.601772,40.754757]}},{"properties":{"zip":"14221","geo_score":0.714,"id":"a675jk8707bb","geo_precision":"zip"},"type":"Feature","geometry":{"type":"Point","coordinates":[-78.677529,42.964781]}},{"properties":{"zip":"15090","geo_score":0.714,"id":"a675jkajmnbd","geo_precision":"zip"},"type":"Feature","geometry":{"type":"Point","coordinates":[-80.024817,40.434436]}},{"properties":{"zip":"15203","geo_score":0.714,"id":"a675jk70n576","geo_precision":"zip"},"type":"Feature","geometry":{"type":"Point","coordinates":[-79.979914,40.425369]}},{"properties":{"zip":"15203","geo_score":0.714,"id":"a675jkj8pjhw","geo_precision":"zip"},"type":"Feature","geometry":{"type":"Point","coordinates":[-79.979914,40.425369]}},{"properties":{"zip":"17552","geo_score":0.714,"id":"a675jkhrygwi","geo_precision":"zip"},"type":"Feature","geometry":{"type":"Point","coordinates":[-76.531634,40.162317]}},{"properties":{"zip":"19087","geo_score":0.714,"id":"a675jke5f9hx","geo_precision":"zip"},"type":"Feature","geometry":{"type":"Point","coordinates":[-75.404358,40.050942]}},{"properties":{"zip":"20170","geo_score":0.714,"id":"a675jk8bmmaa","geo_precision":"zip"},"type":"Feature","geometry":{"type":"Point","coordinates":[-77.367457,38.983887]}},{"properties":{"zip":"20170","geo_score":0.714,"id":"a675jk7eqdq6","geo_precision":"zip"},"type":"Feature","geometry":{"type":"Point","coordinates":[-77.367457,38.983887]}},{"properties":{"zip":"20910","geo_score":0.714,"id":"a675jkgj4jd7","geo_precision":"zip"},"type":"Feature","geometry":{"type":"Point","coordinates":[-77.019977,39.00511]}},{"properties":{"zip":"21601","geo_score":0.714,"id":"a675jk5cesjj","geo_precision":"zip"},"type":"Feature","geometry":{"type":"Point","coordinates":[-76.071886,38.783449]}},{"properties":{"zip":"21601","geo_score":0.714,"id":"a675jkcabyt1","geo_precision":"zip"},"type":"Feature","geometry":{"type":"Point","coordinates":[-76.071886,38.783449]}},{"properties":{"zip":"23452","geo_score":0.714,"id":"a675jk7dvx5s","geo_precision":"zip"},"type":"Feature","geometry":{"type":"Point","coordinates":[-76.100489,36.829593]}},{"properties":{"zip":"24244","geo_score":0.714,"id":"a675jk5o7yrf","geo_precision":"zip"},"type":"Feature","geometry":{"type":"Point","coordinates":[-82.703771,36.776487]}},{"properties":{"zip":"24244","geo_score":0.714,"id":"a675jkb9w6so","geo_precision":"zip"},"type":"Feature","geometry":{"type":"Point","coordinates":[-82.703771,36.776487]}},{"properties":{"zip":"28217","geo_score":0.714,"id":"a675jkcmdssp","geo_precision":"zip"},"type":"Feature","geometry":{"type":"Point","coordinates":[-80.963642,35.133618]}},{"properties":{"zip":"28655","geo_score":0.714,"id":"a675jkj8y6lz","geo_precision":"zip"},"type":"Feature","geometry":{"type":"Point","coordinates":[-81.657318,35.693463]}},{"properties":{"zip":"30303","geo_score":0.714,"id":"a675jkiepfkw","geo_precision":"zip"},"type":"Feature","geometry":{"type":"Point","coordinates":[-84.392026,33.752456]}},{"properties":{"zip":"30303","geo_score":0.714,"id":"a675jkcsact5","geo_precision":"zip"},"type":"Feature","geometry":{"type":"Point","coordinates":[-84.392026,33.752456]}},{"properties":{"zip":"30309","geo_score":0.714,"id":"a675jkda9vyj","geo_precision":"zip"},"type":"Feature","geometry":{"type":"Point","coordinates":[-84.387726,33.797854]}},{"properties":{"zip":"30309","geo_score":0.714,"id":"a675jkkddxyu","geo_precision":"zip"},"type":"Feature","geometry":{"type":"Point","coordinates":[-84.387726,33.797854]}},{"properties":{"zip":"30309","geo_score":0.714,"id":"a675jk4k9xla","geo_precision":"zip"},"type":"Feature","geometry":{"type":"Point","coordinates":[-84.387726,33.797854]}},{"properties":{"zip":"30309","geo_score":0.714,"id":"a675jk7p8rns","geo_precision":"zip"},"type":"Feature","geometry":{"type":"Point","coordinates":[-84.387726,33.797854]}},{"properties":{"zip":"32801","geo_score":0.714,"id":"a675jke74653","geo_precision":"zip"},"type":"Feature","geometry":{"type":"Point","coordinates":[-81.373291,28.545179]}},{"properties":{"zip":"32801","geo_score":0.714,"id":"a675jkhedy1r","geo_precision":"zip"},"type":"Feature","geometry":{"type":"Point","coordinates":[-81.373291,28.545179]}},{"properties":{"zip":"32801","geo_score":0.714,"id":"a675jk6n4ucc","geo_precision":"zip"},"type":"Feature","geometry":{"type":"Point","coordinates":[-81.373291,28.545179]}},{"properties":{"zip":"32801","geo_score":0.714,"id":"a675jk4yni6y","geo_precision":"zip"},"type":"Feature","geometry":{"type":"Point","coordinates":[-81.373291,28.545179]}},{"properties":{"zip":"32801","geo_score":0.714,"id":"a675jk83a8ye","geo_precision":"zip"},"type":"Feature","geometry":{"type":"Point","coordinates":[-81.373291,28.545179]}},{"properties":{"zip":"32801","geo_score":0.714,"id":"a675jk3zjkky","geo_precision":"zip"},"type":"Feature","geometry":{"type":"Point","coordinates":[-81.373291,28.545179]}},{"properties":{"zip":"33309","geo_score":0.714,"id":"a675jk70sofs","geo_precision":"zip"},"type":"Feature","geometry":{"type":"Point","coordinates":[-80.249771,26.212861]}},{"properties":{"zip":"33309","geo_score":0.714,"id":"a675jkcjiylm","geo_precision":"zip"},"type":"Feature","geometry":{"type":"Point","coordinates":[-80.249771,26.212861]}},{"properties":{"zip":"33309","geo_score":0.714,"id":"a675jkdeyozm","geo_precision":"zip"},"type":"Feature","geometry":{"type":"Point","coordinates":[-80.249771,26.212861]}},{"properties":{"zip":"33602","geo_score":0.714,"id":"a675jkdbitnr","geo_precision":"zip"},"type":"Feature","geometry":{"type":"Point","coordinates":[-82.461517,27.950898]}},{"properties":{"zip":"33602","geo_score":0.714,"id":"a675jkk569xk","geo_precision":"zip"},"type":"Feature","geometry":{"type":"Point","coordinates":[-82.461517,27.950898]}},{"properties":{"zip":"33602","geo_score":0.714,"id":"a675jkdxdphj","geo_precision":"zip"},"type":"Feature","geometry":{"type":"Point","coordinates":[-82.461517,27.950898]}},{"properties":{"zip":"33602","geo_score":0.714,"id":"a675jk6z0owh","geo_precision":"zip"},"type":"Feature","geometry":{"type":"Point","coordinates":[-82.461517,27.950898]}},{"properties":{"zip":"33602","geo_score":0.714,"id":"a675jkj6myhs","geo_precision":"zip"},"type":"Feature","geometry":{"type":"Point","coordinates":[-82.461517,27.950898]}},{"properties":{"zip":"43228","geo_score":0.714,"id":"a675jkdmk764","geo_precision":"zip"},"type":"Feature","geometry":{"type":"Point","coordinates":[-83.142133,39.95173]}},{"properties":{"zip":"43231","geo_score":0.714,"id":"a675jk5f93zv","geo_precision":"zip"},"type":"Feature","geometry":{"type":"Point","coordinates":[-82.933811,40.084463]}},{"properties":{"zip":"43231","geo_score":0.714,"id":"a675jkbz10hw","geo_precision":"zip"},"type":"Feature","geometry":{"type":"Point","coordinates":[-82.933811,40.084463]}},{"properties":{"zip":"43231","geo_score":0.714,"id":"a675jk8p8tlw","geo_precision":"zip"},"type":"Feature","geometry":{"type":"Point","coordinates":[-82.933811,40.084463]}},{"properties":{"zip":"43231","geo_score":0.714,"id":"a675jk73f5ae","geo_precision":"zip"},"type":"Feature","geometry":{"type":"Point","coordinates":[-82.933811,40.084463]}},{"properties":{"zip":"44240","geo_score":0.714,"id":"a675jk5l6kl6","geo_precision":"zip"},"type":"Feature","geometry":{"type":"Point","coordinates":[-81.340663,41.201723]}},{"properties":{"zip":"48124","geo_score":0.714,"id":"a675jkiwntl6","geo_precision":"zip"},"type":"Feature","geometry":{"type":"Point","coordinates":[-83.242577,42.299302]}},{"properties":{"zip":"48917","geo_score":0.714,"id":"a675jk849fgz","geo_precision":"zip"},"type":"Feature","geometry":{"type":"Point","coordinates":[-84.620815,42.739202]}},{"properties":{"zip":"53189","geo_score":0.714,"id":"a675jkby4fbe","geo_precision":"zip"},"type":"Feature","geometry":{"type":"Point","coordinates":[-88.296321,42.95163]}},{"properties":{"zip":"53201","geo_score":0.714,"id":"a675jkdhgpk9","geo_precision":"zip"},"type":"Feature","geometry":{"type":"Point","coordinates":[-87.958409,43.011264]}},{"properties":{"zip":"59803","geo_score":0.714,"id":"a675jkip6c23","geo_precision":"zip"},"type":"Feature","geometry":{"type":"Point","coordinates":[-113.987645,46.811758]}},{"properties":{"zip":"59803","geo_score":0.714,"id":"a675jkcdsuku","geo_precision":"zip"},"type":"Feature","geometry":{"type":"Point","coordinates":[-113.987645,46.811758]}},{"properties":{"zip":"59803","geo_score":0.714,"id":"a675jkbaanju","geo_precision":"zip"},"type":"Feature","geometry":{"type":"Point","coordinates":[-113.987645,46.811758]}},{"properties":{"zip":"59808","geo_score":0.714,"id":"a675jkabr7k9","geo_precision":"zip"},"type":"Feature","geometry":{"type":"Point","coordinates":[-114.061856,46.977603]}},{"properties":{"zip":"60005","geo_score":0.714,"id":"a675jkkdkw53","geo_precision":"zip"},"type":"Feature","geometry":{"type":"Point","coordinates":[-87.883073,42.060928]}},{"properties":{"zip":"60005","geo_score":0.714,"id":"a675jkjlvohy","geo_precision":"zip"},"type":"Feature","geometry":{"type":"Point","coordinates":[-87.883073,42.060928]}},{"properties":{"zip":"60005","geo_score":0.714,"id":"a675jkc3zshn","geo_precision":"zip"},"type":"Feature","geometry":{"type":"Point","coordinates":[-87.883073,42.060928]}},{"properties":{"zip":"60604","geo_score":0.714,"id":"a675jk65xxlp","geo_precision":"zip"},"type":"Feature","geometry":{"type":"Point","coordinates":[-87.68732,41.811929]}},{"properties":{"zip":"60606","geo_score":0.714,"id":"a675jk80dw0c","geo_precision":"zip"},"type":"Feature","geometry":{"type":"Point","coordinates":[-87.68732,41.811929]}},{"properties":{"zip":"60616","geo_score":0.714,"id":"a675jkcbi66k","geo_precision":"zip"},"type":"Feature","geometry":{"type":"Point","coordinates":[-87.68732,41.811929]}},{"properties":{"zip":"60616","geo_score":0.714,"id":"a675jk7pryc8","geo_precision":"zip"},"type":"Feature","geometry":{"type":"Point","coordinates":[-87.68732,41.811929]}},{"properties":{"zip":"60616","geo_score":0.714,"id":"a675jkguja9a","geo_precision":"zip"},"type":"Feature","geometry":{"type":"Point","coordinates":[-87.68732,41.811929]}},{"properties":{"zip":"60616","geo_score":0.714,"id":"a675jkidu5la","geo_precision":"zip"},"type":"Feature","geometry":{"type":"Point","coordinates":[-87.68732,41.811929]}},{"properties":{"zip":"60616","geo_score":0.714,"id":"a675jkdv585h","geo_precision":"zip"},"type":"Feature","geometry":{"type":"Point","coordinates":[-87.68732,41.811929]}},{"properties":{"zip":"60616","geo_score":0.714,"id":"a675jk4gok3x","geo_precision":"zip"},"type":"Feature","geometry":{"type":"Point","coordinates":[-87.68732,41.811929]}},{"properties":{"zip":"60616","geo_score":0.714,"id":"a675jkeo4nts","geo_precision":"zip"},"type":"Feature","geometry":{"type":"Point","coordinates":[-87.68732,41.811929]}},{"properties":{"zip":"60616","geo_score":0.714,"id":"a675jkezscff","geo_precision":"zip"},"type":"Feature","geometry":{"type":"Point","coordinates":[-87.68732,41.811929]}},{"properties":{"zip":"60616","geo_score":0.714,"id":"a675jkiw1syb","geo_precision":"zip"},"type":"Feature","geometry":{"type":"Point","coordinates":[-87.68732,41.811929]}},{"properties":{"zip":"60616","geo_score":0.714,"id":"a675jkep8jkp","geo_precision":"zip"},"type":"Feature","geometry":{"type":"Point","coordinates":[-87.68732,41.811929]}},{"properties":{"zip":"60616","geo_score":0.714,"id":"a675jkcs1680","geo_precision":"zip"},"type":"Feature","geometry":{"type":"Point","coordinates":[-87.68732,41.811929]}},{"properties":{"zip":"60616","geo_score":0.714,"id":"a675jkip8tj6","geo_precision":"zip"},"type":"Feature","geometry":{"type":"Point","coordinates":[-87.68732,41.811929]}},{"properties":{"zip":"60616","geo_score":0.714,"id":"a675jkj5k8zw","geo_precision":"zip"},"type":"Feature","geometry":{"type":"Point","coordinates":[-87.68732,41.811929]}},{"properties":{"zip":"66210","geo_score":0.714,"id":"a675jk4qqgwa","geo_precision":"zip"},"type":"Feature","geometry":{"type":"Point","coordinates":[-94.714336,38.927256]}},{"properties":{"zip":"66210","geo_score":0.714,"id":"a675jkk2mble","geo_precision":"zip"},"type":"Feature","geometry":{"type":"Point","coordinates":[-94.714336,38.927256]}},{"properties":{"zip":"66210","geo_score":0.714,"id":"a675jk736bhk","geo_precision":"zip"},"type":"Feature","geometry":{"type":"Point","coordinates":[-94.714336,38.927256]}},{"properties":{"zip":"66210","geo_score":0.714,"id":"a675jk9s64kr","geo_precision":"zip"},"type":"Feature","geometry":{"type":"Point","coordinates":[-94.714336,38.927256]}},{"properties":{"zip":"66210","geo_score":0.714,"id":"a675jkju5x6u","geo_precision":"zip"},"type":"Feature","geometry":{"type":"Point","coordinates":[-94.714336,38.927256]}},{"properties":{"zip":"66615","geo_score":0.714,"id":"a675jkcckvyq","geo_precision":"zip"},"type":"Feature","geometry":{"type":"Point","coordinates":[-95.854169,39.055155]}},{"properties":{"zip":"66615","geo_score":0.714,"id":"a675jki7i527","geo_precision":"zip"},"type":"Feature","geometry":{"type":"Point","coordinates":[-95.854169,39.055155]}},{"properties":{"zip":"72634","geo_score":0.714,"id":"a675jkcmqnon","geo_precision":"zip"},"type":"Feature","geometry":{"type":"Point","coordinates":[-92.541274,36.221181]}},{"properties":{"zip":"75027","geo_score":0.714,"id":"a675jk5smh2z","geo_precision":"zip"},"type":"Feature","geometry":{"type":"Point","coordinates":[-97.116282,33.20743]}},{"properties":{"zip":"75027","geo_score":0.714,"id":"a675jkaw7g4v","geo_precision":"zip"},"type":"Feature","geometry":{"type":"Point","coordinates":[-97.116282,33.20743]}},{"properties":{"zip":"75027","geo_score":0.714,"id":"a675jkgyuv8z","geo_precision":"zip"},"type":"Feature","geometry":{"type":"Point","coordinates":[-97.116282,33.20743]}},{"properties":{"zip":"75027","geo_score":0.714,"id":"a675jk5ky1mb","geo_precision":"zip"},"type":"Feature","geometry":{"type":"Point","coordinates":[-97.116282,33.20743]}},{"properties":{"zip":"75027","geo_score":0.714,"id":"a675jkij60sd","geo_precision":"zip"},"type":"Feature","geometry":{"type":"Point","coordinates":[-97.116282,33.20743]}},{"properties":{"zip":"75027","geo_score":0.714,"id":"a675jk909f1q","geo_precision":"zip"},"type":"Feature","geometry":{"type":"Point","coordinates":[-97.116282,33.20743]}},{"properties":{"zip":"75027","geo_score":0.714,"id":"a675jkgwh9fg","geo_precision":"zip"},"type":"Feature","geometry":{"type":"Point","coordinates":[-97.116282,33.20743]}},{"properties":{"zip":"75027","geo_score":0.714,"id":"a675jkjaz5q2","geo_precision":"zip"},"type":"Feature","geometry":{"type":"Point","coordinates":[-97.116282,33.20743]}},{"properties":{"zip":"75027","geo_score":0.714,"id":"a675jk6v7u5l","geo_precision":"zip"},"type":"Feature","geometry":{"type":"Point","coordinates":[-97.116282,33.20743]}},{"properties":{"zip":"75027","geo_score":0.714,"id":"a675jk80ecp6","geo_precision":"zip"},"type":"Feature","geometry":{"type":"Point","coordinates":[-97.116282,33.20743]}},{"properties":{"zip":"75027","geo_score":0.714,"id":"a675jkfop4ml","geo_precision":"zip"},"type":"Feature","geometry":{"type":"Point","coordinates":[-97.116282,33.20743]}},{"properties":{"zip":"75027","geo_score":0.714,"id":"a675jk7u3wyc","geo_precision":"zip"},"type":"Feature","geometry":{"type":"Point","coordinates":[-97.116282,33.20743]}},{"properties":{"zip":"75027","geo_score":0.714,"id":"a675jkbj5uxn","geo_precision":"zip"},"type":"Feature","geometry":{"type":"Point","coordinates":[-97.116282,33.20743]}},{"properties":{"zip":"75027","geo_score":0.714,"id":"a675jke35cw6","geo_precision":"zip"},"type":"Feature","geometry":{"type":"Point","coordinates":[-97.116282,33.20743]}},{"properties":{"zip":"75027","geo_score":0.714,"id":"a675jk9fyqf5","geo_precision":"zip"},"type":"Feature","geometry":{"type":"Point","coordinates":[-97.116282,33.20743]}},{"properties":{"zip":"75027","geo_score":0.714,"id":"a675jkhsie2b","geo_precision":"zip"},"type":"Feature","geometry":{"type":"Point","coordinates":[-97.116282,33.20743]}},{"properties":{"zip":"75027","geo_score":0.714,"id":"a675jk5mc3pk","geo_precision":"zip"},"type":"Feature","geometry":{"type":"Point","coordinates":[-97.116282,33.20743]}},{"properties":{"zip":"75027","geo_score":0.714,"id":"a675jkh2e9sb","geo_precision":"zip"},"type":"Feature","geometry":{"type":"Point","coordinates":[-97.116282,33.20743]}},{"properties":{"zip":"75027","geo_score":0.714,"id":"a675jkkcfalz","geo_precision":"zip"},"type":"Feature","geometry":{"type":"Point","coordinates":[-97.116282,33.20743]}},{"properties":{"zip":"75027","geo_score":0.714,"id":"a675jkdqq9o5","geo_precision":"zip"},"type":"Feature","geometry":{"type":"Point","coordinates":[-97.116282,33.20743]}},{"properties":{"zip":"75027","geo_score":0.714,"id":"a675jk6oiqlu","geo_precision":"zip"},"type":"Feature","geometry":{"type":"Point","coordinates":[-97.116282,33.20743]}},{"properties":{"zip":"75027","geo_score":0.714,"id":"a675jkcws8f7","geo_precision":"zip"},"type":"Feature","geometry":{"type":"Point","coordinates":[-97.116282,33.20743]}},{"properties":{"zip":"75027","geo_score":0.714,"id":"a675jkh9yugr","geo_precision":"zip"},"type":"Feature","geometry":{"type":"Point","coordinates":[-97.116282,33.20743]}},{"properties":{"zip":"75027","geo_score":0.714,"id":"a675jkdrmve8","geo_precision":"zip"},"type":"Feature","geometry":{"type":"Point","coordinates":[-97.116282,33.20743]}},{"properties":{"zip":"75027","geo_score":0.714,"id":"a675jkighlsa","geo_precision":"zip"},"type":"Feature","geometry":{"type":"Point","coordinates":[-97.116282,33.20743]}},{"properties":{"zip":"75027","geo_score":0.714,"id":"a675jk9t3c52","geo_precision":"zip"},"type":"Feature","geometry":{"type":"Point","coordinates":[-97.116282,33.20743]}},{"properties":{"zip":"75027","geo_score":0.714,"id":"a675jk438ief","geo_precision":"zip"},"type":"Feature","geometry":{"type":"Point","coordinates":[-97.116282,33.20743]}},{"properties":{"zip":"75027","geo_score":0.714,"id":"a675jkinsqgk","geo_precision":"zip"},"type":"Feature","geometry":{"type":"Point","coordinates":[-97.116282,33.20743]}},{"properties":{"zip":"75027","geo_score":0.714,"id":"a675jke1clir","geo_precision":"zip"},"type":"Feature","geometry":{"type":"Point","coordinates":[-97.116282,33.20743]}},{"properties":{"zip":"75247","geo_score":0.714,"id":"a675jkccjhdq","geo_precision":"zip"},"type":"Feature","geometry":{"type":"Point","coordinates":[-96.752254,32.660247]}},{"properties":{"zip":"78702","geo_score":0.714,"id":"a675jkeeve9t","geo_precision":"zip"},"type":"Feature","geometry":{"type":"Point","coordinates":[-97.713581,30.264115]}},{"properties":{"zip":"80112","geo_score":0.714,"id":"a675jkjstq5t","geo_precision":"zip"},"type":"Feature","geometry":{"type":"Point","coordinates":[-104.862194,39.581238]}},{"properties":{"zip":"80112","geo_score":0.714,"id":"a675jk884b3c","geo_precision":"zip"},"type":"Feature","geometry":{"type":"Point","coordinates":[-104.862194,39.581238]}},{"properties":{"zip":"80112","geo_score":0.714,"id":"a675jkc1u9f8","geo_precision":"zip"},"type":"Feature","geometry":{"type":"Point","coordinates":[-104.862194,39.581238]}},{"properties":{"zip":"80112","geo_score":0.714,"id":"a675jkbl53fg","geo_precision":"zip"},"type":"Feature","geometry":{"type":"Point","coordinates":[-104.862194,39.581238]}},{"properties":{"zip":"80112","geo_score":0.714,"id":"a675jkbf60c0","geo_precision":"zip"},"type":"Feature","geometry":{"type":"Point","coordinates":[-104.862194,39.581238]}},{"properties":{"zip":"80112","geo_score":0.714,"id":"a675jki250jg","geo_precision":"zip"},"type":"Feature","geometry":{"type":"Point","coordinates":[-104.862194,39.581238]}},{"properties":{"zip":"80202","geo_score":0.714,"id":"a675jkblnrsx","geo_precision":"zip"},"type":"Feature","geometry":{"type":"Point","coordinates":[-104.996553,39.760189]}},{"properties":{"zip":"80202","geo_score":0.714,"id":"a675jk8ich3i","geo_precision":"zip"},"type":"Feature","geometry":{"type":"Point","coordinates":[-104.996553,39.760189]}},{"properties":{"zip":"84332","geo_score":0.714,"id":"a675jkgd1vso","geo_precision":"zip"},"type":"Feature","geometry":{"type":"Point","coordinates":[-111.915564,41.797849]}},{"properties":{"zip":"84332","geo_score":0.714,"id":"a675jk7xqyru","geo_precision":"zip"},"type":"Feature","geometry":{"type":"Point","coordinates":[-111.915564,41.797849]}},{"properties":{"zip":"84332","geo_score":0.714,"id":"a675jkf3pwyu","geo_precision":"zip"},"type":"Feature","geometry":{"type":"Point","coordinates":[-111.915564,41.797849]}},{"properties":{"zip":"84332","geo_score":0.714,"id":"a675jkgiilr6","geo_precision":"zip"},"type":"Feature","geometry":{"type":"Point","coordinates":[-111.915564,41.797849]}},{"properties":{"zip":"84606","geo_score":0.714,"id":"a675jkho50kn","geo_precision":"zip"},"type":"Feature","geometry":{"type":"Point","coordinates":[-111.635353,40.218905]}},{"properties":{"zip":"85260","geo_score":0.714,"id":"a675jkbhwaoj","geo_precision":"zip"},"type":"Feature","geometry":{"type":"Point","coordinates":[-112.18717,33.276539]}},{"properties":{"zip":"85260","geo_score":0.714,"id":"a675jkhi4s1z","geo_precision":"zip"},"type":"Feature","geometry":{"type":"Point","coordinates":[-112.18717,33.276539]}},{"properties":{"zip":"85260","geo_score":0.714,"id":"a675jk9odm01","geo_precision":"zip"},"type":"Feature","geometry":{"type":"Point","coordinates":[-112.18717,33.276539]}},{"properties":{"zip":"85260","geo_score":0.714,"id":"a675jk6o09jo","geo_precision":"zip"},"type":"Feature","geometry":{"type":"Point","coordinates":[-112.18717,33.276539]}},{"properties":{"zip":"85260","geo_score":0.714,"id":"a675jke43smt","geo_precision":"zip"},"type":"Feature","geometry":{"type":"Point","coordinates":[-112.18717,33.276539]}},{"properties":{"zip":"85260","geo_score":0.714,"id":"a675jkc1e0rb","geo_precision":"zip"},"type":"Feature","geometry":{"type":"Point","coordinates":[-112.18717,33.276539]}},{"properties":{"zip":"85260","geo_score":0.714,"id":"a675jkk1y60m","geo_precision":"zip"},"type":"Feature","geometry":{"type":"Point","coordinates":[-112.18717,33.276539]}},{"properties":{"zip":"85260","geo_score":0.714,"id":"a675jkbl07vq","geo_precision":"zip"},"type":"Feature","geometry":{"type":"Point","coordinates":[-112.18717,33.276539]}},{"properties":{"zip":"85260","geo_score":0.714,"id":"a675jkee4ife","geo_precision":"zip"},"type":"Feature","geometry":{"type":"Point","coordinates":[-112.18717,33.276539]}},{"properties":{"zip":"85260","geo_score":0.714,"id":"a675jkfbearj","geo_precision":"zip"},"type":"Feature","geometry":{"type":"Point","coordinates":[-112.18717,33.276539]}},{"properties":{"zip":"85260","geo_score":0.714,"id":"a675jkfe6sxo","geo_precision":"zip"},"type":"Feature","geometry":{"type":"Point","coordinates":[-112.18717,33.276539]}},{"properties":{"zip":"85260","geo_score":0.714,"id":"a675jk4au2s7","geo_precision":"zip"},"type":"Feature","geometry":{"type":"Point","coordinates":[-112.18717,33.276539]}},{"properties":{"zip":"85260","geo_score":0.714,"id":"a675jk88fl56","geo_precision":"zip"},"type":"Feature","geometry":{"type":"Point","coordinates":[-112.18717,33.276539]}},{"properties":{"zip":"85260","geo_score":0.714,"id":"a675jkddjnb4","geo_precision":"zip"},"type":"Feature","geometry":{"type":"Point","coordinates":[-112.18717,33.276539]}},{"properties":{"zip":"85260","geo_score":0.714,"id":"a675jkhrgsu7","geo_precision":"zip"},"type":"Feature","geometry":{"type":"Point","coordinates":[-112.18717,33.276539]}},{"properties":{"zip":"85260","geo_score":0.714,"id":"a675jk43nxru","geo_precision":"zip"},"type":"Feature","geometry":{"type":"Point","coordinates":[-112.18717,33.276539]}},{"properties":{"zip":"85260","geo_score":0.714,"id":"a675jk713ap0","geo_precision":"zip"},"type":"Feature","geometry":{"type":"Point","coordinates":[-112.18717,33.276539]}},{"properties":{"zip":"85260","geo_score":0.714,"id":"a675jk6wh54g","geo_precision":"zip"},"type":"Feature","geometry":{"type":"Point","coordinates":[-112.18717,33.276539]}},{"properties":{"zip":"85260","geo_score":0.714,"id":"a675jk4ycxn0","geo_precision":"zip"},"type":"Feature","geometry":{"type":"Point","coordinates":[-112.18717,33.276539]}},{"properties":{"zip":"85260","geo_score":0.714,"id":"a675jkcufy0w","geo_precision":"zip"},"type":"Feature","geometry":{"type":"Point","coordinates":[-112.18717,33.276539]}},{"properties":{"zip":"85260","geo_score":0.714,"id":"a675jkjflyql","geo_precision":"zip"},"type":"Feature","geometry":{"type":"Point","coordinates":[-112.18717,33.276539]}},{"properties":{"zip":"85260","geo_score":0.714,"id":"a675jkhoisch","geo_precision":"zip"},"type":"Feature","geometry":{"type":"Point","coordinates":[-112.18717,33.276539]}},{"properties":{"zip":"85260","geo_score":0.714,"id":"a675jkj6o4n5","geo_precision":"zip"},"type":"Feature","geometry":{"type":"Point","coordinates":[-112.18717,33.276539]}},{"properties":{"zip":"85260","geo_score":0.714,"id":"a675jk6ci6wg","geo_precision":"zip"},"type":"Feature","geometry":{"type":"Point","coordinates":[-112.18717,33.276539]}},{"properties":{"zip":"85260","geo_score":0.714,"id":"a675jkdke4ti","geo_precision":"zip"},"type":"Feature","geometry":{"type":"Point","coordinates":[-112.18717,33.276539]}},{"properties":{"zip":"85260","geo_score":0.714,"id":"a675jkiq88lx","geo_precision":"zip"},"type":"Feature","geometry":{"type":"Point","coordinates":[-112.18717,33.276539]}},{"properties":{"zip":"85260","geo_score":0.714,"id":"a675jkfqevcg","geo_precision":"zip"},"type":"Feature","geometry":{"type":"Point","coordinates":[-112.18717,33.276539]}},{"properties":{"zip":"85260","geo_score":0.714,"id":"a675jkcjkcxp","geo_precision":"zip"},"type":"Feature","geometry":{"type":"Point","coordinates":[-112.18717,33.276539]}},{"properties":{"zip":"85260","geo_score":0.714,"id":"a675jk7p2clw","geo_precision":"zip"},"type":"Feature","geometry":{"type":"Point","coordinates":[-112.18717,33.276539]}},{"properties":{"zip":"89016","geo_score":0.714,"id":"a675jk9yo5e7","geo_precision":"zip"},"type":"Feature","geometry":{"type":"Point","coordinates":[-114.972061,35.927901]}},{"properties":{"zip":"89119","geo_score":0.714,"id":"a675jkieamml","geo_precision":"zip"},"type":"Feature","geometry":{"type":"Point","coordinates":[-115.148313,36.089022]}},{"properties":{"zip":"90014","geo_score":0.714,"id":"a675jkei19zk","geo_precision":"zip"},"type":"Feature","geometry":{"type":"Point","coordinates":[-118.298662,33.786594]}},{"properties":{"zip":"90071","geo_score":0.714,"id":"a675jkh143hz","geo_precision":"zip"},"type":"Feature","geometry":{"type":"Point","coordinates":[-118.298662,33.786594]}},{"properties":{"zip":"91361","geo_score":0.714,"id":"a675jkk7ihxt","geo_precision":"zip"},"type":"Feature","geometry":{"type":"Point","coordinates":[-118.82193,34.137015]}},{"properties":{"zip":"91361","geo_score":0.714,"id":"a675jk6ecrvm","geo_precision":"zip"},"type":"Feature","geometry":{"type":"Point","coordinates":[-118.82193,34.137015]}},{"properties":{"zip":"92103","geo_score":0.714,"id":"a675jkfpn0hv","geo_precision":"zip"},"type":"Feature","geometry":{"type":"Point","coordinates":[-117.170517,32.746085]}},{"properties":{"zip":"92821","geo_score":0.714,"id":"a675jkcoq9ei","geo_precision":"zip"},"type":"Feature","geometry":{"type":"Point","coordinates":[-117.769442,33.640302]}},{"properties":{"zip":"92821","geo_score":0.714,"id":"a675jkd83gyr","geo_precision":"zip"},"type":"Feature","geometry":{"type":"Point","coordinates":[-117.769442,33.640302]}},{"properties":{"zip":"92821","geo_score":0.714,"id":"a675jka4ep28","geo_precision":"zip"},"type":"Feature","geometry":{"type":"Point","coordinates":[-117.769442,33.640302]}},{"properties":{"zip":"92821","geo_score":0.714,"id":"a675jk897pcw","geo_precision":"zip"},"type":"Feature","geometry":{"type":"Point","coordinates":[-117.769442,33.640302]}},{"properties":{"zip":"92821","geo_score":0.714,"id":"a675jka5otv3","geo_precision":"zip"},"type":"Feature","geometry":{"type":"Point","coordinates":[-117.769442,33.640302]}},{"properties":{"zip":"92821","geo_score":0.714,"id":"a675jkg6dbmq","geo_precision":"zip"},"type":"Feature","geometry":{"type":"Point","coordinates":[-117.769442,33.640302]}},{"properties":{"zip":"92821","geo_score":0.714,"id":"a675jkcvj4q7","geo_precision":"zip"},"type":"Feature","geometry":{"type":"Point","coordinates":[-117.769442,33.640302]}},{"properties":{"zip":"92821","geo_score":0.714,"id":"a675jk7pkckj","geo_precision":"zip"},"type":"Feature","geometry":{"type":"Point","coordinates":[-117.769442,33.640302]}},{"properties":{"zip":"92821","geo_score":0.714,"id":"a675jk5vd9w2","geo_precision":"zip"},"type":"Feature","geometry":{"type":"Point","coordinates":[-117.769442,33.640302]}},{"properties":{"zip":"92821","geo_score":0.714,"id":"a675jk667iob","geo_precision":"zip"},"type":"Feature","geometry":{"type":"Point","coordinates":[-117.769442,33.640302]}},{"properties":{"zip":"92821","geo_score":0.714,"id":"a675jkhaqmgn","geo_precision":"zip"},"type":"Feature","geometry":{"type":"Point","coordinates":[-117.769442,33.640302]}},{"properties":{"zip":"92821","geo_score":0.714,"id":"a675jk8r8a4p","geo_precision":"zip"},"type":"Feature","geometry":{"type":"Point","coordinates":[-117.769442,33.640302]}},{"properties":{"zip":"92821","geo_score":0.714,"id":"a675jk7xoyfh","geo_precision":"zip"},"type":"Feature","geometry":{"type":"Point","coordinates":[-117.769442,33.640302]}},{"properties":{"zip":"92821","geo_score":0.714,"id":"a675jkczvq18","geo_precision":"zip"},"type":"Feature","geometry":{"type":"Point","coordinates":[-117.769442,33.640302]}},{"properties":{"zip":"92821","geo_score":0.714,"id":"a675jkdi652g","geo_precision":"zip"},"type":"Feature","geometry":{"type":"Point","coordinates":[-117.769442,33.640302]}},{"properties":{"zip":"92821","geo_score":0.714,"id":"a675jkgndmf4","geo_precision":"zip"},"type":"Feature","geometry":{"type":"Point","coordinates":[-117.769442,33.640302]}},{"properties":{"zip":"92821","geo_score":0.714,"id":"a675jk6ivu6o","geo_precision":"zip"},"type":"Feature","geometry":{"type":"Point","coordinates":[-117.769442,33.640302]}},{"properties":{"zip":"92821","geo_score":0.714,"id":"a675jk65gjwc","geo_precision":"zip"},"type":"Feature","geometry":{"type":"Point","coordinates":[-117.769442,33.640302]}},{"properties":{"zip":"92821","geo_score":0.714,"id":"a675jk7yklfb","geo_precision":"zip"},"type":"Feature","geometry":{"type":"Point","coordinates":[-117.769442,33.640302]}},{"properties":{"zip":"92821","geo_score":0.714,"id":"a675jkjynwo9","geo_precision":"zip"},"type":"Feature","geometry":{"type":"Point","coordinates":[-117.769442,33.640302]}},{"properties":{"zip":"92821","geo_score":0.714,"id":"a675jkatqaou","geo_precision":"zip"},"type":"Feature","geometry":{"type":"Point","coordinates":[-117.769442,33.640302]}},{"properties":{"zip":"92821","geo_score":0.714,"id":"a675jk6vetgf","geo_precision":"zip"},"type":"Feature","geometry":{"type":"Point","coordinates":[-117.769442,33.640302]}},{"properties":{"zip":"94043","geo_score":0.714,"id":"a675jk6e7aa8","geo_precision":"zip"},"type":"Feature","geometry":{"type":"Point","coordinates":[-121.705327,37.189396]}},{"properties":{"zip":"94089","geo_score":0.714,"id":"a675jkarv32v","geo_precision":"zip"},"type":"Feature","geometry":{"type":"Point","coordinates":[-121.705327,37.189396]}},{"properties":{"zip":"94105","geo_score":0.714,"id":"a675jk8dbjfg","geo_precision":"zip"},"type":"Feature","geometry":{"type":"Point","coordinates":[-122.395631,37.789595]}},{"properties":{"zip":"95827","geo_score":0.714,"id":"a675jk9z3wvg","geo_precision":"zip"},"type":"Feature","geometry":{"type":"Point","coordinates":[-121.322653,38.552752]}},{"properties":{"zip":"97209","geo_score":0.714,"id":"a675jk51mt6o","geo_precision":"zip"},"type":"Feature","geometry":{"type":"Point","coordinates":[-122.683826,45.53199]}},{"properties":{"zip":"97209","geo_score":0.714,"id":"a675jkep01of","geo_precision":"zip"},"type":"Feature","geometry":{"type":"Point","coordinates":[-122.683826,45.53199]}},{"properties":{"zip":"98121","geo_score":0.714,"id":"a675jk5a22tl","geo_precision":"zip"},"type":"Feature","geometry":{"type":"Point","coordinates":[-121.803388,47.432251]}},{"properties":{"zip":"98121","geo_score":0.714,"id":"a675jk5knolj","geo_precision":"zip"},"type":"Feature","geometry":{"type":"Point","coordinates":[-121.803388,47.432251]}}],"is_temporal":false,"author":{"url":"","metadata":"","contact_name":"","contact_address":"","source":"","contact_phone":""},"source":"","pagination":{"sort":null,"start":0,"total":198,"limit":1000000},"state":"complete","tags":"locations,test","published":"2014-08-10T12:43:46-04:00","id":91192}