{"type":"FeatureCollection","data_type":"Dataset","url_type":null,"permissions":[{"permissions":{"download":true,"view":true},"group_id":"everyone"}],"classification":null,"title":"Choice","count":184,"stream_id":91426,"contributor":{"url":"http://geocommons.com/users/21850","name":"kellerj3"},"data_attributes":null,"calculation_params":null,"icon_link":null,"link":"http://geocommons.com/overlays/91426.json","extent":[-157.922,19.6406,-68.7053,61.1958],"geometry_types":["point"],"unique_name":null,"name":"Choice","feature_count":184,"description":"","next_feature":null,"is_raster":false,"short_classification":"Y","stats":{},"features":[{"properties":{"city":"WHITEHALL","zip":"18052","ssl":"ALLENTOWN, PA","region":"USA","sslcode":"ABE","geo_score":0.745,"country description":"UNITED STATES","id":"a6mdaz0m6xnf","geo_precision":"zip","state":"PA"},"type":"Feature","geometry":{"type":"Point","coordinates":[-75.47435,40.645653]}},{"properties":{"city":"ABILENE","zip":"79602","ssl":"ABILENE, TX","region":"USA","sslcode":"ABI","geo_score":0.857,"country description":"UNITED STATES","id":"a6mdaz0l5y6b","geo_precision":"zip","state":"TX"},"type":"Feature","geometry":{"type":"Point","coordinates":[-99.694283,32.342605]}},{"properties":{"city":"ALBUQUERQUE","zip":"87106","ssl":"ALBUQUERQUE, NM","region":"USA","sslcode":"ABQ","geo_score":0.857,"country description":"UNITED STATES","id":"a6mdayxco4ee","geo_precision":"zip","state":"NM"},"type":"Feature","geometry":{"type":"Point","coordinates":[-106.489592,35.04319]}},{"properties":{"city":"ADEL","zip":"31620","ssl":"ADEL, GA","region":"USA","sslcode":"ADE","geo_score":0.762,"country description":"UNITED STATES","id":"a6mdaz1arvfe","geo_precision":"zip","state":"GA"},"type":"Feature","geometry":{"type":"Point","coordinates":[-83.357103,31.190193]}},{"properties":{"city":"ALBANY","zip":"12205","ssl":"ALBANY, NY","region":"USA","sslcode":"ALB","geo_score":0.735,"country description":"UNITED STATES","id":"a6mdayzvngsn","geo_precision":"zip","state":"NY"},"type":"Feature","geometry":{"type":"Point","coordinates":[-73.8629,42.743966]}},{"properties":{"city":"WATERLOO","zip":"50707","ssl":"WATERLOO, IA","region":"USA","sslcode":"ALO","geo_score":0.732,"country description":"UNITED STATES","id":"a6mdaz1xp2hl","geo_precision":"zip","state":"IA"},"type":"Feature","geometry":{"type":"Point","coordinates":[-92.240183,42.455266]}},{"properties":{"city":"AMARILLO","zip":"79118","ssl":"AMARILLO, TX","region":"USA","sslcode":"AMA","geo_score":0.739,"country description":"UNITED STATES","id":"a6mdaz2db13m","geo_precision":"zip","state":"TX"},"type":"Feature","geometry":{"type":"Point","coordinates":[-101.817965,35.05311]}},{"properties":{"city":"ANCHORAGE","zip":"99503","ssl":"ANCHORAGE, AK","region":"USA","sslcode":"ANC","geo_score":0.732,"country description":"UNITED STATES","id":"a6mdaz980hbv","geo_precision":"zip","state":"AK"},"type":"Feature","geometry":{"type":"Point","coordinates":[-149.941389,61.195833]}},{"properties":{"city":"DUNCANSVILLE","zip":"16635","ssl":"ALTOONA, PA","region":"USA","sslcode":"AOO","geo_score":0.738,"country description":"UNITED STATES","id":"a6mdaz90wmen","geo_precision":"zip","state":"PA"},"type":"Feature","geometry":{"type":"Point","coordinates":[-78.43307,40.433406]}},{"properties":{"city":"KENNESAW","zip":"30144","ssl":"ATLANTA, GA","region":"USA","sslcode":"ATL","geo_score":0.857,"country description":"UNITED STATES","id":"a6mdaz6c7e6k","geo_precision":"zip","state":"GA"},"type":"Feature","geometry":{"type":"Point","coordinates":[-84.597433,34.03384]}},{"properties":{"city":"AUSTIN","zip":"78721","ssl":"AUSTIN, TX","region":"USA","sslcode":"AUS","geo_score":0.857,"country description":"UNITED STATES","id":"a6mdayyizq0m","geo_precision":"zip","state":"TX"},"type":"Feature","geometry":{"type":"Point","coordinates":[-97.684781,30.268684]}},{"properties":{"city":"PLYMOUTH","zip":"18651","ssl":"SCRANTON/WILKES-BARRE, PA","region":"USA","sslcode":"AVP","geo_score":0.786,"country description":"UNITED STATES","id":"a6mdayyuy7bn","geo_precision":"zip","state":"PA"},"type":"Feature","geometry":{"type":"Point","coordinates":[-75.926587,41.244804]}},{"properties":{"city":"KALAMAZOO","zip":"49048","ssl":"KALAMAZOO, MI","region":"USA","sslcode":"AZO","geo_score":0.857,"country description":"UNITED STATES","id":"a6mdayu7fdjc","geo_precision":"zip","state":"MI"},"type":"Feature","geometry":{"type":"Point","coordinates":[-85.588195,42.274887]}},{"properties":{"city":"ELKRIDGE","zip":"21075","ssl":"BALTIMORE, MD","region":"USA","sslcode":"BAL","geo_score":0.857,"country description":"UNITED STATES","id":"a6mdayxbyp3w","geo_precision":"zip","state":"MD"},"type":"Feature","geometry":{"type":"Point","coordinates":[-76.753093,39.205756]}},{"properties":{"city":"BRADFORD","zip":"16701","ssl":"BRADFORD, PA","region":"USA","sslcode":"BFD","geo_score":0.714,"country description":"UNITED STATES","id":"a6mdaz7owgna","geo_precision":"zip","state":"PA"},"type":"Feature","geometry":{"type":"Point","coordinates":[-78.53169,41.942842]}},{"properties":{"city":"BAKERSFIELD","zip":"93308","ssl":"BAKERSFIELD, CA","region":"USA","sslcode":"BFL","geo_score":0.727,"country description":"UNITED STATES","id":"a6mdayvlv6vb","geo_precision":"zip","state":"CA"},"type":"Feature","geometry":{"type":"Point","coordinates":[-119.083159,35.383292]}},{"properties":{"city":"BANGOR","zip":"04401","ssl":"BANGOR, ME","region":"USA","sslcode":"BGR","geo_score":0.714,"country description":"UNITED STATES","id":"a6mdaz5oanh0","geo_precision":"zip","state":"ME"},"type":"Feature","geometry":{"type":"Point","coordinates":[-68.705312,44.838681]}},{"properties":{"city":"BIRMINGHAM","zip":"35209","ssl":"BIRMINGHAM, AL","region":"USA","sslcode":"BHM","geo_score":0.729,"country description":"UNITED STATES","id":"a6mdaz73c4su","geo_precision":"zip","state":"AL"},"type":"Feature","geometry":{"type":"Point","coordinates":[-86.800823,33.471773]}},{"properties":{"city":"BILLINGS","zip":"59101","ssl":"BILLINGS, MT","region":"USA","sslcode":"BIL","geo_score":0.714,"country description":"UNITED STATES","id":"a6mdayuru1ks","geo_precision":"zip","state":"MT"},"type":"Feature","geometry":{"type":"Point","coordinates":[-108.414855,45.81912]}},{"properties":{"city":"BISMARCK","zip":"58501","ssl":"BISMARCK, ND","region":"USA","sslcode":"BIS","geo_score":0.857,"country description":"UNITED STATES","id":"a6mdaz57q8e6","geo_precision":"zip","state":"ND"},"type":"Feature","geometry":{"type":"Point","coordinates":[-100.502724,46.981207]}},{"properties":{"city":"BOISE","zip":"83709","ssl":"BOISE, ID","region":"USA","sslcode":"BOI","geo_score":0.857,"country description":"UNITED STATES","id":"a6mdayuaupof","geo_precision":"zip","state":"ID"},"type":"Feature","geometry":{"type":"Point","coordinates":[-116.276002,43.558127]}},{"properties":{"city":"CAMBRIDGE","zip":"02138","ssl":"BOSTON, MA","region":"USA","sslcode":"BOS","geo_score":0.857,"country description":"UNITED STATES","id":"a6mdaz53gjv5","geo_precision":"zip","state":"MA"},"type":"Feature","geometry":{"type":"Point","coordinates":[-71.132947,42.380442]}},{"properties":{"city":"RANDOLPH","zip":"02368","ssl":"BRAINTREE, MA","region":"USA","sslcode":"BRT","geo_score":0.802,"country description":"UNITED STATES","id":"a6mdaz1b7c95","geo_precision":"zip","state":"MA"},"type":"Feature","geometry":{"type":"Point","coordinates":[-71.061993,42.197322]}},{"properties":{"city":"PORT ALLEN","zip":"70767","ssl":"BATON ROUGE, LA","region":"USA","sslcode":"BTR","geo_score":0.746,"country description":"UNITED STATES","id":"a6mdayuvmv8w","geo_precision":"zip","state":"LA"},"type":"Feature","geometry":{"type":"Point","coordinates":[-91.274554,30.491024]}},{"properties":{"city":"WILLISTON","zip":"05495","ssl":"BURLINGTON, VT","region":"USA","sslcode":"BTV","geo_score":0.857,"country description":"UNITED STATES","id":"a6mdayxyc0zj","geo_precision":"zip","state":"VT"},"type":"Feature","geometry":{"type":"Point","coordinates":[-73.026735,44.430096]}},{"properties":{"city":"CHEEKTOWAGA","zip":"14225","ssl":"BUFFALO, NY","region":"USA","sslcode":"BUF","geo_score":0.727,"country description":"UNITED STATES","id":"a6mdaz0m2q7h","geo_precision":"zip","state":"NY"},"type":"Feature","geometry":{"type":"Point","coordinates":[-78.789754,42.785337]}},{"properties":{"city":"LEXINGTON","zip":"29072","ssl":"COLUMBIA, SC","region":"USA","sslcode":"CAE","geo_score":0.73,"country description":"UNITED STATES","id":"a6mdayvuh4x3","geo_precision":"zip","state":"SC"},"type":"Feature","geometry":{"type":"Point","coordinates":[-81.238433,33.932093]}},{"properties":{"city":"COCOA","zip":"32926","ssl":"COCOA BEACH, FL","region":"USA","sslcode":"CCB","geo_score":0.857,"country description":"UNITED STATES","id":"a6mdaz2iowa8","geo_precision":"zip","state":"FL"},"type":"Feature","geometry":{"type":"Point","coordinates":[-80.799662,28.386561]}},{"properties":{"city":"CHATTANOOGA","zip":"37416","ssl":"CHATTANOOGA, TN","region":"USA","sslcode":"CHA","geo_score":0.732,"country description":"UNITED STATES","id":"a6mdaz22s9kz","geo_precision":"zip","state":"TN"},"type":"Feature","geometry":{"type":"Point","coordinates":[-85.155788,35.123128]}},{"properties":{"city":"CHICAGO","zip":"60607","ssl":"CHICAGO (DWTN), IL","region":"USA","sslcode":"CHD","geo_score":0.857,"country description":"UNITED STATES","id":"a6mdaz6vas3l","geo_precision":"zip","state":"IL"},"type":"Feature","geometry":{"type":"Point","coordinates":[-87.81381,41.928881]}},{"properties":{"city":"WOODDALE","zip":"60191","ssl":"CHICAGO (APRT), IL","region":"USA","sslcode":"CHI","geo_score":0.857,"country description":"UNITED STATES","id":"a6mdayzp72jo","geo_precision":"zip","state":"IL"},"type":"Feature","geometry":{"type":"Point","coordinates":[-88.088716,41.839679]}},{"properties":{"city":"NORTH CHARLESTON","zip":"29418","ssl":"CHARLESTON, SC","region":"USA","sslcode":"CHS","geo_score":0.733,"country description":"UNITED STATES","id":"a6mdaz0ybabh","geo_precision":"zip","state":"SC"},"type":"Feature","geometry":{"type":"Point","coordinates":[-80.074534,32.933784]}},{"properties":{"city":"CEDAR RAPIDS","zip":"52404","ssl":"CEDAR RAPIDS, IA","region":"USA","sslcode":"CID","geo_score":0.714,"country description":"UNITED STATES","id":"a6mdaz5m0awj","geo_precision":"zip","state":"IA"},"type":"Feature","geometry":{"type":"Point","coordinates":[-91.646565,41.850563]}},{"properties":{"city":"FAIRFIELD","zip":"45014","ssl":"CINCINNATI, OH","region":"USA","sslcode":"CIN","geo_score":0.714,"country description":"UNITED STATES","id":"a6mdayxjq63g","geo_precision":"zip","state":"OH"},"type":"Feature","geometry":{"type":"Point","coordinates":[-84.569668,39.337834]}},{"properties":{"city":"BROOKLYN HEIGHTS","zip":"44131","ssl":"CLEVELAND, OH","region":"USA","sslcode":"CLE","geo_score":0.733,"country description":"UNITED STATES","id":"a6mdayutw62z","geo_precision":"zip","state":"OH"},"type":"Feature","geometry":{"type":"Point","coordinates":[-81.604569,41.387831]}},{"properties":{"city":"CHARLOTTE","zip":"28273","ssl":"CHARLOTTE, NC","region":"USA","sslcode":"CLT","geo_score":0.857,"country description":"UNITED STATES","id":"a6mdaz6mfye2","geo_precision":"zip","state":"NC"},"type":"Feature","geometry":{"type":"Point","coordinates":[-80.933793,35.128678]}},{"properties":{"city":"EDISON","zip":"08837","ssl":"CENTRAL, NJ (EDISON)","region":"USA","sslcode":"CNJ","geo_score":0.745,"country description":"UNITED STATES","id":"a6mdaz3wyfl3","geo_precision":"zip","state":"NJ"},"type":"Feature","geometry":{"type":"Point","coordinates":[-74.398206,40.513993]}},{"properties":{"city":"COLUMBUS","zip":"43204","ssl":"COLUMBUS, OH","region":"USA","sslcode":"COL","geo_score":0.729,"country description":"UNITED STATES","id":"a6mdaz5nnd4r","geo_precision":"zip","state":"OH"},"type":"Feature","geometry":{"type":"Point","coordinates":[-83.072408,39.965619]}},{"properties":{"city":"CORPUS CHRISTI","zip":"78406","ssl":"CORPUS CHRISTI, TX","region":"USA","sslcode":"COR","geo_score":0.725,"country description":"UNITED STATES","id":"a6mdaz823q39","geo_precision":"zip","state":"TX"},"type":"Feature","geometry":{"type":"Point","coordinates":[-97.539716,27.784471]}},{"properties":{"city":"COLORADO SPRINGS","zip":"80907","ssl":"COLORADO SPRINGS, CO","region":"USA","sslcode":"COS","geo_score":0.743,"country description":"UNITED STATES","id":"a6mdayxer50h","geo_precision":"zip","state":"CO"},"type":"Feature","geometry":{"type":"Point","coordinates":[-104.81942,38.873604]}},{"properties":{"city":"CASPER","zip":"82601","ssl":"CASPER, WY","region":"USA","sslcode":"CPR","geo_score":0.752,"country description":"UNITED STATES","id":"a6mdayzew7rg","geo_precision":"zip","state":"WY"},"type":"Feature","geometry":{"type":"Point","coordinates":[-106.342805,42.898577]}},{"properties":{"city":"ELKVIEW","zip":"25071","ssl":"CHARLESTON, WV","region":"USA","sslcode":"CRW","geo_score":0.714,"country description":"UNITED STATES","id":"a6mdayyy5yhm","geo_precision":"zip","state":"WV"},"type":"Feature","geometry":{"type":"Point","coordinates":[-81.42651,38.46232]}},{"properties":{"city":"COLUMBUS","zip":"31904","ssl":"COLUMBUS, GA","region":"USA","sslcode":"CSG","geo_score":0.732,"country description":"UNITED STATES","id":"a6mdazab14yh","geo_precision":"zip","state":"GA"},"type":"Feature","geometry":{"type":"Point","coordinates":[-84.982987,32.487642]}},{"properties":{"city":"WAUSAU","zip":"54401","ssl":"WAUSAU, WI","region":"USA","sslcode":"CWA","geo_score":0.714,"country description":"UNITED STATES","id":"a6mdaz5xa6dn","geo_precision":"zip","state":"WI"},"type":"Feature","geometry":{"type":"Point","coordinates":[-89.527342,45.003857]}},{"properties":{"city":"Cheyenne","zip":"82007","ssl":"CHEYENNE, WY","region":"USA","sslcode":"CYS","geo_score":0.857,"country description":"UNITED STATES","id":"a6mdayxoepb3","geo_precision":"zip","state":"WY"},"type":"Feature","geometry":{"type":"Point","coordinates":[-104.666476,41.209351]}},{"properties":{"city":"Carrollton","zip":"75006","ssl":"DALLAS, TX","region":"USA","sslcode":"DAL","geo_score":0.714,"country description":"UNITED STATES","id":"a6mdayyjk3yx","geo_precision":"zip","state":"TX"},"type":"Feature","geometry":{"type":"Point","coordinates":[-96.927505,32.981512]}},{"properties":{"city":"DAYTON","zip":"45414","ssl":"DAYTON, OH","region":"USA","sslcode":"DAY","geo_score":0.725,"country description":"UNITED STATES","id":"a6mdaz6lpz79","geo_precision":"zip","state":"OH"},"type":"Feature","geometry":{"type":"Point","coordinates":[-84.199386,39.857835]}},{"properties":{"city":"STERLING","zip":"20166","ssl":"WASHINGTON, DC","region":"USA","sslcode":"DC","geo_score":0.857,"country description":"UNITED STATES","id":"a6mdayzftqy8","geo_precision":"zip","state":"VA"},"type":"Feature","geometry":{"type":"Point","coordinates":[-77.472333,38.981387]}},{"properties":{"city":"BELTSVILLE","zip":"20705","ssl":"BELTSVILLE, MD","region":"USA","sslcode":"DCA","geo_score":0.8,"country description":"UNITED STATES","id":"a6mdayvplrl3","geo_precision":"zip","state":"MD"},"type":"Feature","geometry":{"type":"Point","coordinates":[-76.895529,39.043443]}},{"properties":{"city":"DENVER","zip":"80216","ssl":"DENVER, CO","region":"USA","sslcode":"DEN","geo_score":0.857,"country description":"UNITED STATES","id":"a6mdaz2zx3yi","geo_precision":"zip","state":"CO"},"type":"Feature","geometry":{"type":"Point","coordinates":[-104.942034,39.777036]}},{"properties":{"city":"TROY","zip":"48083","ssl":"DETROIT, MI","region":"USA","sslcode":"DET","geo_score":0.857,"country description":"UNITED STATES","id":"a6mdaz7iytn3","geo_precision":"zip","state":"MI"},"type":"Feature","geometry":{"type":"Point","coordinates":[-83.119206,42.555985]}},{"properties":{"city":"DULUTH","zip":"55806","ssl":"DULUTH, MN","region":"USA","sslcode":"DLH","geo_score":0.738,"country description":"UNITED STATES","id":"a6mdaz45tu3o","geo_precision":"zip","state":"MN"},"type":"Feature","geometry":{"type":"Point","coordinates":[-92.343802,46.800775]}},{"properties":{"city":"DURANGO","zip":"81301","ssl":"DURANGO, CO","region":"USA","sslcode":"DRO","geo_score":0.714,"country description":"UNITED STATES","id":"a6mdayyf36bc","geo_precision":"zip","state":"CO"},"type":"Feature","geometry":{"type":"Point","coordinates":[-107.846455,37.390279]}},{"properties":{"city":"DES MOINES","zip":"50313","ssl":"DES MOINES, IA","region":"USA","sslcode":"DSM","geo_score":0.74,"country description":"UNITED STATES","id":"a6mdaz2b1x7o","geo_precision":"zip","state":"IA"},"type":"Feature","geometry":{"type":"Point","coordinates":[-93.629663,41.6786]}},{"properties":{"city":"DAVENPORT","zip":"52802","ssl":"DAVENPORT, IA","region":"USA","sslcode":"DVN","geo_score":0.857,"country description":"UNITED STATES","id":"a6mdayvl8qt6","geo_precision":"zip","state":"IA"},"type":"Feature","geometry":{"type":"Point","coordinates":[-90.623887,41.497582]}},{"properties":{"city":"EL PASO","zip":"79925","ssl":"EL PASO, TX","region":"USA","sslcode":"ELP","geo_score":0.757,"country description":"UNITED STATES","id":"a6mdayy4mmir","geo_precision":"zip","state":"TX"},"type":"Feature","geometry":{"type":"Point","coordinates":[-106.38054,31.787886]}},{"properties":{"city":"ERIE","zip":"16501","ssl":"ERIE, PA","region":"USA","sslcode":"ERI","geo_score":0.857,"country description":"UNITED STATES","id":"a6mdayyr00ns","geo_precision":"zip","state":"PA"},"type":"Feature","geometry":{"type":"Point","coordinates":[-80.087341,42.087337]}},{"properties":{"city":"EUGENE","zip":"97402","ssl":"EUGENE, OR","region":"USA","sslcode":"EUG","geo_score":0.857,"country description":"UNITED STATES","id":"a6mdayz7nwga","geo_precision":"zip","state":"OR"},"type":"Feature","geometry":{"type":"Point","coordinates":[-123.073186,44.033642]}},{"properties":{"city":"EVANSVILLE","zip":"47715","ssl":"EVANSVILLE, IN","region":"USA","sslcode":"EVV","geo_score":0.857,"country description":"UNITED STATES","id":"a6mdaz272twx","geo_precision":"zip","state":"IN"},"type":"Feature","geometry":{"type":"Point","coordinates":[-87.489212,37.984202]}},{"properties":{"city":"FARGO","zip":"58102","ssl":"FARGO, ND","region":"USA","sslcode":"FAR","geo_score":0.74,"country description":"UNITED STATES","id":"a6mdaz4vsbjl","geo_precision":"zip","state":"ND"},"type":"Feature","geometry":{"type":"Point","coordinates":[-96.86286,46.922466]}},{"properties":{"city":"SPRINGDALE","zip":"72764","ssl":"FAYETTEVILLE, AR","region":"USA","sslcode":"FAY","geo_score":0.821,"country description":"UNITED STATES","id":"a6mdaz2wsa6a","geo_precision":"zip","state":"AR"},"type":"Feature","geometry":{"type":"Point","coordinates":[-93.93492,36.176187]}},{"properties":{"city":"KALISPELL","zip":"59901","ssl":"KALISPELL, MT","region":"USA","sslcode":"FCA","geo_score":0.731,"country description":"UNITED STATES","id":"a6mdayy38j22","geo_precision":"zip","state":"MT"},"type":"Feature","geometry":{"type":"Point","coordinates":[-114.33291,48.218016]}},{"properties":{"city":"FLAGSTAFF","zip":"86001","ssl":"FLAGSTAFF, AZ","region":"USA","sslcode":"FLG","geo_score":0.73,"country description":"UNITED STATES","id":"a6mdaz7thxqd","geo_precision":"zip","state":"AZ"},"type":"Feature","geometry":{"type":"Point","coordinates":[-111.40821,35.205012]}},{"properties":{"city":"POMPANO BEACH","zip":"33069","ssl":"FT. LAUDERDALE, FL","region":"USA","sslcode":"FLL","geo_score":0.75,"country description":"UNITED STATES","id":"a6mdaytzif9x","geo_precision":"zip","state":"FL"},"type":"Feature","geometry":{"type":"Point","coordinates":[-80.191713,26.206194]}},{"properties":{"city":"FORT MYERS","zip":"33905","ssl":"FT. MEYERS, FL","region":"USA","sslcode":"FMY","geo_score":0.766,"country description":"UNITED STATES","id":"a6mdaz3tnuc1","geo_precision":"zip","state":"FL"},"type":"Feature","geometry":{"type":"Point","coordinates":[-81.797584,26.680904]}},{"properties":{"city":"FRESNO","zip":"93727","ssl":"FRESNO, CA","region":"USA","sslcode":"FNO","geo_score":0.714,"country description":"UNITED STATES","id":"a6mdaz5zpdec","geo_precision":"zip","state":"CA"},"type":"Feature","geometry":{"type":"Point","coordinates":[-119.700696,36.787728]}},{"properties":{"city":"FLINT","zip":"48504","ssl":"FLINT, MI","region":"USA","sslcode":"FNT","geo_score":0.857,"country description":"UNITED STATES","id":"a6mdaz1vfe21","geo_precision":"zip","state":"MI"},"type":"Feature","geometry":{"type":"Point","coordinates":[-83.697666,43.020626]}},{"properties":{"city":"FORT WAYNE","zip":"46808","ssl":"FT. WAYNE, IN","region":"USA","sslcode":"FWA","geo_score":0.857,"country description":"UNITED STATES","id":"a6mdaz3y60j2","geo_precision":"zip","state":"IN"},"type":"Feature","geometry":{"type":"Point","coordinates":[-85.184121,41.093898]}},{"properties":{"city":"GRAND JUNCTION","zip":"81501","ssl":"GRAND JUNCTION, CO","region":"USA","sslcode":"GJT","geo_score":0.725,"country description":"UNITED STATES","id":"a6mdaz1xhgw0","geo_precision":"zip","state":"CO"},"type":"Feature","geometry":{"type":"Point","coordinates":[-108.472035,39.070259]}},{"properties":{"city":"GREEN BAY","zip":"54313","ssl":"GREEN BAY, WI","region":"USA","sslcode":"GRB","geo_score":0.857,"country description":"UNITED STATES","id":"a6mdaz6w8qky","geo_precision":"zip","state":"WI"},"type":"Feature","geometry":{"type":"Point","coordinates":[-87.99597,44.54964]}},{"properties":{"city":"WYOMING","zip":"49548","ssl":"GRAND RAPIDS, MI","region":"USA","sslcode":"GRR","geo_score":0.727,"country description":"UNITED STATES","id":"a6mdaz5l5yl6","geo_precision":"zip","state":"MI"},"type":"Feature","geometry":{"type":"Point","coordinates":[-85.615175,42.864793]}},{"properties":{"city":"KERNERSVILLE","zip":"27284","ssl":"GREENSBORO, NC","region":"USA","sslcode":"GSO","geo_score":0.726,"country description":"UNITED STATES","id":"a6mdaz65b6ux","geo_precision":"zip","state":"NC"},"type":"Feature","geometry":{"type":"Point","coordinates":[-80.118933,36.04847]}},{"properties":{"city":"GREER","zip":"29650","ssl":"GREENVILLE, SC","region":"USA","sslcode":"GSP","geo_score":0.857,"country description":"UNITED STATES","id":"a6mdaz3cu8ms","geo_precision":"zip","state":"SC"},"type":"Feature","geometry":{"type":"Point","coordinates":[-82.368415,34.948738]}},{"properties":{"city":"GREAT FALLS","zip":"59404","ssl":"GREAT FALLS, MT","region":"USA","sslcode":"GTF","geo_score":0.857,"country description":"UNITED STATES","id":"a6mdaz4lbq5b","geo_precision":"zip","state":"MT"},"type":"Feature","geometry":{"type":"Point","coordinates":[-111.391407,47.554109]}},{"properties":{"city":"CAMP HILL","zip":"17011","ssl":"HARRISBURG, PA","region":"USA","sslcode":"HBG","geo_score":0.778,"country description":"UNITED STATES","id":"a6mdayvhhgpw","geo_precision":"zip","state":"PA"},"type":"Feature","geometry":{"type":"Point","coordinates":[-76.92053,40.230368]}},{"properties":{"city":"HARTFORD","zip":"06114","ssl":"HARTFORD, CT","region":"USA","sslcode":"HFD","geo_score":0.857,"country description":"UNITED STATES","id":"a6mdayuodwyu","geo_precision":"zip","state":"CT"},"type":"Feature","geometry":{"type":"Point","coordinates":[-72.672237,41.747399]}},{"properties":{"city":"HELENA","zip":"59601","ssl":"HELENA, MT","region":"USA","sslcode":"HLN","geo_score":0.714,"country description":"UNITED STATES","id":"a6mdaz5jbv84","geo_precision":"zip","state":"MT"},"type":"Feature","geometry":{"type":"Point","coordinates":[-111.751926,46.721605]}},{"properties":{"city":"HONOLULU","zip":"96817","ssl":"HONOLULU, HI","region":"USA","sslcode":"HNL","geo_score":0.857,"country description":"UNITED STATES","id":"a6mdaz7vmeqc","geo_precision":"zip","state":"HI"},"type":"Feature","geometry":{"type":"Point","coordinates":[-157.922303,21.65098]}},{"properties":{"city":"HOUSTON","zip":"77018","ssl":"HOUSTON, TX","region":"USA","sslcode":"HOU","geo_score":0.798,"country description":"UNITED STATES","id":"a6mdaz7uwl9s","geo_precision":"zip","state":"TX"},"type":"Feature","geometry":{"type":"Point","coordinates":[-95.515219,29.925501]}},{"properties":{"city":"MCALLEN","zip":"78503","ssl":"HARLINGEN, TX","region":"USA","sslcode":"HRL","geo_score":0.857,"country description":"UNITED STATES","id":"a6mdaz1tccpe","geo_precision":"zip","state":"TX"},"type":"Feature","geometry":{"type":"Point","coordinates":[-98.33773,26.182171]}},{"properties":{"city":"HUNTSVILLE","zip":"35810","ssl":"HUNTSVILLE, AL","region":"USA","sslcode":"HSV","geo_score":0.729,"country description":"UNITED STATES","id":"a6mdaz7sq1hg","geo_precision":"zip","state":"AL"},"type":"Feature","geometry":{"type":"Point","coordinates":[-86.508324,34.816757]}},{"properties":{"city":"WEST HAVEN","zip":"06516","ssl":"NEW HAVEN, CT","region":"USA","sslcode":"HVN","geo_score":0.794,"country description":"UNITED STATES","id":"a6mdaz2w0ids","geo_precision":"zip","state":"CT"},"type":"Feature","geometry":{"type":"Point","coordinates":[-72.970659,41.242319]}},{"properties":{"city":"ALEXANDRIA","zip":"22312","ssl":"ARLINGTON, VA","region":"USA","sslcode":"IAD","geo_score":0.757,"country description":"UNITED STATES","id":"a6mdayx11388","geo_precision":"zip","state":"VA"},"type":"Feature","geometry":{"type":"Point","coordinates":[-77.156091,38.81928]}},{"properties":{"city":"IDAHO FALLS","zip":"83401","ssl":"IDAHO FALLS, ID","region":"USA","sslcode":"IDA","geo_score":0.753,"country description":"UNITED STATES","id":"a6mdaz0bpxjs","geo_precision":"zip","state":"ID"},"type":"Feature","geometry":{"type":"Point","coordinates":[-112.036637,43.382693]}},{"properties":{"city":"WILMINGTON","zip":"28405","ssl":"WILMINGTON, NC","region":"USA","sslcode":"ILM","geo_score":0.743,"country description":"UNITED STATES","id":"a6mdaz6d6fsi","geo_precision":"zip","state":"NC"},"type":"Feature","geometry":{"type":"Point","coordinates":[-77.818594,34.272392]}},{"properties":{"city":"INDIANAPOLIS","zip":"46225","ssl":"INDIANAPOLIS, IN","region":"USA","sslcode":"IND","geo_score":0.857,"country description":"UNITED STATES","id":"a6mdaz4gzmvi","geo_precision":"zip","state":"IN"},"type":"Feature","geometry":{"type":"Point","coordinates":[-86.167886,39.743793]}},{"properties":{"city":"WILLIAMSPORT","zip":"17701","ssl":"WILLIAMSPORT, PA","region":"USA","sslcode":"IPT","geo_score":0.762,"country description":"UNITED STATES","id":"a6mdaywl8tvd","geo_precision":"zip","state":"PA"},"type":"Feature","geometry":{"type":"Point","coordinates":[-77.057191,41.293688]}},{"properties":{"city":"ORANGE","zip":"92865","ssl":"IRVINE, CA","region":"USA","sslcode":"IRV","geo_score":0.857,"country description":"UNITED STATES","id":"a6mdaz82g27b","geo_precision":"zip","state":"CA"},"type":"Feature","geometry":{"type":"Point","coordinates":[-117.769442,33.640302]}},{"properties":{"city":"HILO","zip":"96720","ssl":"HILO, HI","region":"USA","sslcode":"ITO","geo_score":0.735,"country description":"UNITED STATES","id":"a6mdaz5juoj1","geo_precision":"zip","state":"HI"},"type":"Feature","geometry":{"type":"Point","coordinates":[-155.095,19.744722]}},{"properties":{"city":"JACKSONVILLE","zip":"32207","ssl":"JACKSONVILLE, FL","region":"USA","sslcode":"JAX","geo_score":0.738,"country description":"UNITED STATES","id":"a6mdayxs3l6a","geo_precision":"zip","state":"FL"},"type":"Feature","geometry":{"type":"Point","coordinates":[-81.609537,30.296351]}},{"properties":{"city":"PEARL","zip":"39208","ssl":"JACKSON, MS","region":"USA","sslcode":"JKM","geo_score":0.796,"country description":"UNITED STATES","id":"a6mdaz5fu73q","geo_precision":"zip","state":"MS"},"type":"Feature","geometry":{"type":"Point","coordinates":[-90.123142,32.246814]}},{"properties":{"city":"LENEXA","zip":"66215","ssl":"KANSAS CITY, MO","region":"USA","sslcode":"KC","geo_score":0.714,"country description":"UNITED STATES","id":"a6mdaz7vphz1","geo_precision":"zip","state":"KS"},"type":"Feature","geometry":{"type":"Point","coordinates":[-94.823852,39.007227]}},{"properties":{"city":"ALCOA","zip":"37701","ssl":"KNOXVILLE, TN","region":"USA","sslcode":"KNX","geo_score":0.724,"country description":"UNITED STATES","id":"a6mdayw7ge03","geo_precision":"zip","state":"TN"},"type":"Feature","geometry":{"type":"Point","coordinates":[-83.983238,35.797583]}},{"properties":{"city":"KAILUA KONA","zip":"96740","ssl":"KAILUA, HI","region":"USA","sslcode":"KOA","geo_score":0.8,"country description":"UNITED STATES","id":"a6mdaz77lkz5","geo_precision":"zip","state":"HI"},"type":"Feature","geometry":{"type":"Point","coordinates":[-155.995556,19.640556]}},{"properties":{"city":"GARDENA","zip":"90247","ssl":"LOS ANGELES, CA","region":"USA","sslcode":"LA","geo_score":0.757,"country description":"UNITED STATES","id":"a6mdaz93v3yd","geo_precision":"zip","state":"CA"},"type":"Feature","geometry":{"type":"Point","coordinates":[-118.303407,33.923348]}},{"properties":{"city":"POTTERVILLE","zip":"48876","ssl":"LANSING, MI","region":"USA","sslcode":"LAN","geo_score":0.857,"country description":"UNITED STATES","id":"a6mdaz5cmxwp","geo_precision":"zip","state":"MI"},"type":"Feature","geometry":{"type":"Point","coordinates":[-84.729716,42.643807]}},{"properties":{"city":"LAS VEGAS","zip":"89118","ssl":"LAS VEGAS, NV","region":"USA","sslcode":"LAS","geo_score":0.75,"country description":"UNITED STATES","id":"a6mdayzpxujc","geo_precision":"zip","state":"NV"},"type":"Feature","geometry":{"type":"Point","coordinates":[-115.23083,36.018028]}},{"properties":{"city":"LUBBOCK","zip":"79401","ssl":"LUBBOCK, TX","region":"USA","sslcode":"LBB","geo_score":0.714,"country description":"UNITED STATES","id":"a6mdaz9u3fa3","geo_precision":"zip","state":"TX"},"type":"Feature","geometry":{"type":"Point","coordinates":[-101.844052,33.446754]}},{"properties":{"city":"NORTH PLATT","zip":"69101","ssl":"NORTH PLATTE, NE","region":"USA","sslcode":"LBF","geo_score":0.844,"country description":"UNITED STATES","id":"a6mdaz2syctm","geo_precision":"zip","state":"NE"},"type":"Feature","geometry":{"type":"Point","coordinates":[-100.74907,41.102555]}},{"properties":{"city":"SULPHUR","zip":"70663","ssl":"LAKE CHARLES, LA","region":"USA","sslcode":"LCH","geo_score":0.732,"country description":"UNITED STATES","id":"a6mdaz9yykvv","geo_precision":"zip","state":"LA"},"type":"Feature","geometry":{"type":"Point","coordinates":[-93.340989,30.11382]}},{"properties":{"city":"LEXINGTON","zip":"40511","ssl":"LEXINGTON, KY","region":"USA","sslcode":"LEX","geo_score":0.857,"country description":"UNITED STATES","id":"a6mdayx1c6r0","geo_precision":"zip","state":"KY"},"type":"Feature","geometry":{"type":"Point","coordinates":[-84.492226,38.132747]}},{"properties":{"city":"HAUPPAUGE","zip":"11788","ssl":"LONG ISLAND, NY","region":"USA","sslcode":"LI","geo_score":0.714,"country description":"UNITED STATES","id":"a6mdaz5lyyfb","geo_precision":"zip","state":"NY"},"type":"Feature","geometry":{"type":"Point","coordinates":[-73.200669,40.855931]}},{"properties":{"city":"LITTLE ROCK","zip":"72209","ssl":"LITTLE ROCK, AR","region":"USA","sslcode":"LIT","geo_score":0.857,"country description":"UNITED STATES","id":"a6mdaz88kzb6","geo_precision":"zip","state":"AR"},"type":"Feature","geometry":{"type":"Point","coordinates":[-92.368649,34.674055]}},{"properties":{"city":"LOUISVILLE","zip":"40213","ssl":"LOUISVILLE, KY","region":"USA","sslcode":"LOU","geo_score":0.766,"country description":"UNITED STATES","id":"a6mdayv8whrr","geo_precision":"zip","state":"KY"},"type":"Feature","geometry":{"type":"Point","coordinates":[-85.693016,38.17757]}},{"properties":{"city":"LAREDO","zip":"78041","ssl":"LAREDO,TX","region":"USA","sslcode":"LRD","geo_score":0.857,"country description":"UNITED STATES","id":"a6mdaz98r0oa","geo_precision":"zip","state":"TX"},"type":"Feature","geometry":{"type":"Point","coordinates":[-99.475079,27.556714]}},{"properties":{"city":"MIDLAND","zip":"79711","ssl":"MIDLAND/ODESSA, TX","region":"USA","sslcode":"MAF","geo_score":0.857,"country description":"UNITED STATES","id":"a6mdaz60jint","geo_precision":"zip","state":"TX"},"type":"Feature","geometry":{"type":"Point","coordinates":[-102.031726,31.869259]}},{"properties":{"city":"MANASSAS","zip":"20110","ssl":"MANASSAS, VA","region":"USA","sslcode":"MAN","geo_score":0.857,"country description":"UNITED STATES","id":"a6mdaz4o1lk7","geo_precision":"zip","state":"VA"},"type":"Feature","geometry":{"type":"Point","coordinates":[-77.487762,38.749207]}},{"properties":{"city":"MACON","zip":"31211","ssl":"MACON, GA","region":"USA","sslcode":"MCN","geo_score":0.857,"country description":"UNITED STATES","id":"a6mdayycd87f","geo_precision":"zip","state":"GA"},"type":"Feature","geometry":{"type":"Point","coordinates":[-83.607363,32.866987]}},{"properties":{"city":"MEMPHIS","zip":"38134","ssl":"MEMPHIS, TN","region":"USA","sslcode":"MEM","geo_score":0.714,"country description":"UNITED STATES","id":"a6mdaz0msze9","geo_precision":"zip","state":"TN"},"type":"Feature","geometry":{"type":"Point","coordinates":[-89.873975,35.204533]}},{"properties":{"city":"MCALLEN","zip":"78503","ssl":"MCALLEN, TX","region":"USA","sslcode":"MFE","geo_score":0.857,"country description":"UNITED STATES","id":"a6mdaz3dn3gp","geo_precision":"zip","state":"TX"},"type":"Feature","geometry":{"type":"Point","coordinates":[-98.33773,26.182171]}},{"properties":{"city":"MONTOGOMERY","zip":"36108","ssl":"MONTGOMERY, AL","region":"USA","sslcode":"MGM","geo_score":0.766,"country description":"UNITED STATES","id":"a6mdaywq6tzw","geo_precision":"zip","state":"AL"},"type":"Feature","geometry":{"type":"Point","coordinates":[-86.395528,32.395693]}},{"properties":{"city":"MANCHESTER","zip":"03109","ssl":"MANCHESTER, NH","region":"USA","sslcode":"MHT","geo_score":0.857,"country description":"UNITED STATES","id":"a6mdaz9im7pi","geo_precision":"zip","state":"NH"},"type":"Feature","geometry":{"type":"Point","coordinates":[-71.405283,42.970084]}},{"properties":{"city":"MIAMI","zip":"33179","ssl":"MIAMI, FL","region":"USA","sslcode":"MIA","geo_score":0.857,"country description":"UNITED STATES","id":"a6mdaz6oy9wu","geo_precision":"zip","state":"FL"},"type":"Feature","geometry":{"type":"Point","coordinates":[-80.179804,25.958396]}},{"properties":{"city":"MILWAUKEE","zip":"53208","ssl":"MILWAUKEE, WI","region":"USA","sslcode":"MIL","geo_score":0.857,"country description":"UNITED STATES","id":"a6mdaz5kodhf","geo_precision":"zip","state":"WI"},"type":"Feature","geometry":{"type":"Point","coordinates":[-87.963536,43.045962]}},{"properties":{"city":"JACKSON","zip":"38305","ssl":"JACKSON, TN","region":"USA","sslcode":"MKL","geo_score":0.857,"country description":"UNITED STATES","id":"a6mdaz1x7jhu","geo_precision":"zip","state":"TN"},"type":"Feature","geometry":{"type":"Point","coordinates":[-88.835682,35.652446]}},{"properties":{"city":"MOBILE","zip":"36618","ssl":"MOBILE, AL","region":"USA","sslcode":"MOB","geo_score":0.857,"country description":"UNITED STATES","id":"a6mdaz3vd6nn","geo_precision":"zip","state":"AL"},"type":"Feature","geometry":{"type":"Point","coordinates":[-88.149001,30.681689]}},{"properties":{"city":"MINOT","zip":"58701","ssl":"MINOT, ND","region":"USA","sslcode":"MOT","geo_score":0.726,"country description":"UNITED STATES","id":"a6mdayx8gizp","geo_precision":"zip","state":"ND"},"type":"Feature","geometry":{"type":"Point","coordinates":[-101.295718,48.051953]}},{"properties":{"city":"GWINN","zip":"49841","ssl":"MARQUETTE, MI","region":"USA","sslcode":"MQT","geo_score":0.714,"country description":"UNITED STATES","id":"a6mdaz48mnuy","geo_precision":"zip","state":"MI"},"type":"Feature","geometry":{"type":"Point","coordinates":[-87.406806,46.420772]}},{"properties":{"city":"MADISON","zip":"53716","ssl":"MADISON, WI","region":"USA","sslcode":"MSN","geo_score":0.714,"country description":"UNITED STATES","id":"a6mdaz57a8xf","geo_precision":"zip","state":"WI"},"type":"Feature","geometry":{"type":"Point","coordinates":[-89.246227,43.051664]}},{"properties":{"city":"EDINA","zip":"55439","ssl":"MINNEAPOLIS, MN","region":"USA","sslcode":"MSP","geo_score":0.74,"country description":"UNITED STATES","id":"a6mdaz2ln663","geo_precision":"zip","state":"MN"},"type":"Feature","geometry":{"type":"Point","coordinates":[-93.375277,44.874414]}},{"properties":{"city":"ST ROSE","zip":"70087","ssl":"NEW ORLEANS, LA","region":"USA","sslcode":"MSY","geo_score":0.81,"country description":"UNITED STATES","id":"a6mdaz0truba","geo_precision":"zip","state":"LA"},"type":"Feature","geometry":{"type":"Point","coordinates":[-90.354891,29.945998]}},{"properties":{"city":"NASHVILLE","zip":"37204","ssl":"NASHVILLE, TN","region":"USA","sslcode":"NAS","geo_score":0.746,"country description":"UNITED STATES","id":"a6mdaz1s2w48","geo_precision":"zip","state":"TN"},"type":"Feature","geometry":{"type":"Point","coordinates":[-86.766388,36.117003]}},{"properties":{"city":"NEWBURGH","zip":"12550","ssl":"NEWBURGH, NY","region":"USA","sslcode":"NEW","geo_score":0.714,"country description":"UNITED STATES","id":"a6mdayvdcyji","geo_precision":"zip","state":"NY"},"type":"Feature","geometry":{"type":"Point","coordinates":[-73.984028,41.558427]}},{"properties":{"city":"SECAUCUS","zip":"07094","ssl":"NORTHERN, NJ (SECAUCUS)","region":"USA","sslcode":"NJ","geo_score":0.857,"country description":"UNITED STATES","id":"a6mdaz954pxl","geo_precision":"zip","state":"NJ"},"type":"Feature","geometry":{"type":"Point","coordinates":[-74.056035,40.78885]}},{"properties":{"city":"LONG ISLAND CITY","zip":"11101","ssl":"NEW YORK, NY","region":"USA","sslcode":"NY","geo_score":0.857,"country description":"UNITED STATES","id":"a6mdayzu5ufd","geo_precision":"zip","state":"NY"},"type":"Feature","geometry":{"type":"Point","coordinates":[-73.934502,40.744622]}},{"properties":{"city":"WAILUKU","zip":"96793","ssl":"KAHULUI, HI","region":"USA","sslcode":"OGG","geo_score":0.796,"country description":"UNITED STATES","id":"a6mdaywue3pz","geo_precision":"zip","state":"HI"},"type":"Feature","geometry":{"type":"Point","coordinates":[-156.506944,20.858056]}},{"properties":{"city":"OKLAHOMA CITY","zip":"73179","ssl":"OKLAHOMA CITY, OK","region":"USA","sslcode":"OKC","geo_score":0.857,"country description":"UNITED STATES","id":"a6mdaywoe4di","geo_precision":"zip","state":"OK"},"type":"Feature","geometry":{"type":"Point","coordinates":[-97.6363,35.424819]}},{"properties":{"city":"CARTER LAKE","zip":"51510","ssl":"OMAHA, NE","region":"USA","sslcode":"OMA","geo_score":0.857,"country description":"UNITED STATES","id":"a6mdaz8nqc7p","geo_precision":"zip","state":"IA"},"type":"Feature","geometry":{"type":"Point","coordinates":[-95.91689,41.287335]}},{"properties":{"city":"ONTARIO","zip":"91761","ssl":"ONTARIO, CA","region":"USA","sslcode":"ONT","geo_score":0.857,"country description":"UNITED STATES","id":"a6mdaz4xrjm6","geo_precision":"zip","state":"CA"},"type":"Feature","geometry":{"type":"Point","coordinates":[-115.967051,34.839964]}},{"properties":{"city":"VIRGINIA BEACH","zip":"23455","ssl":"NORFOLK, VA","region":"USA","sslcode":"ORF","geo_score":0.714,"country description":"UNITED STATES","id":"a6mdayv7v4ue","geo_precision":"zip","state":"VA"},"type":"Feature","geometry":{"type":"Point","coordinates":[-76.129102,36.891814]}},{"properties":{"city":"ORLANDO","zip":"32837","ssl":"ORLANDO, FL","region":"USA","sslcode":"ORL","geo_score":0.857,"country description":"UNITED STATES","id":"a6mdaz4u1svy","geo_precision":"zip","state":"FL"},"type":"Feature","geometry":{"type":"Point","coordinates":[-81.433155,28.390234]}},{"properties":{"city":"PORTLAND","zip":"97220","ssl":"PORTLAND, OR","region":"USA","sslcode":"PDX","geo_score":0.74,"country description":"UNITED STATES","id":"a6mdayy0qf16","geo_precision":"zip","state":"OR"},"type":"Feature","geometry":{"type":"Point","coordinates":[-122.560371,45.552897]}},{"properties":{"city":"FOLCROFT","zip":"19032","ssl":"PHILADELPHIA, PA","region":"USA","sslcode":"PHL","geo_score":0.857,"country description":"UNITED STATES","id":"a6mdaz6iafyl","geo_precision":"zip","state":"PA"},"type":"Feature","geometry":{"type":"Point","coordinates":[-75.278829,39.895162]}},{"properties":{"city":"PHOENIX","zip":"85040","ssl":"PHOENIX, AZ","region":"USA","sslcode":"PHX","geo_score":0.857,"country description":"UNITED STATES","id":"a6mdaz6rvstr","geo_precision":"zip","state":"AZ"},"type":"Feature","geometry":{"type":"Point","coordinates":[-112.066878,33.367267]}},{"properties":{"city":"CREVE COEUR","zip":"61610","ssl":"PEORIA, IL","region":"USA","sslcode":"PIA","geo_score":0.743,"country description":"UNITED STATES","id":"a6mdaz8b2mls","geo_precision":"zip","state":"IL"},"type":"Feature","geometry":{"type":"Point","coordinates":[-89.604266,40.653094]}},{"properties":{"city":"SEWICKLEY","zip":"15143","ssl":"PITTSBURGH, PA","region":"USA","sslcode":"PIT","geo_score":0.762,"country description":"UNITED STATES","id":"a6mdaywahkkf","geo_precision":"zip","state":"PA"},"type":"Feature","geometry":{"type":"Point","coordinates":[-80.203671,40.562568]}},{"properties":{"city":"PENSACOLA","zip":"32514","ssl":"PENSACOLA, FL","region":"USA","sslcode":"PNS","geo_score":0.73,"country description":"UNITED STATES","id":"a6mdayvt7xv5","geo_precision":"zip","state":"FL"},"type":"Feature","geometry":{"type":"Point","coordinates":[-87.212471,30.510196]}},{"properties":{"city":"POPLAR BLUFF","zip":"63901","ssl":"POPLAR BLUFF, MO","region":"USA","sslcode":"POF","geo_score":0.714,"country description":"UNITED STATES","id":"a6mdayubruer","geo_precision":"zip","state":"MO"},"type":"Feature","geometry":{"type":"Point","coordinates":[-90.582894,36.752833]}},{"properties":{"city":"KENNEWICK","zip":"99336","ssl":"KENNEWICK, WA","region":"USA","sslcode":"PSC","geo_score":0.743,"country description":"UNITED STATES","id":"a6mdayykpd3q","geo_precision":"zip","state":"WA"},"type":"Feature","geometry":{"type":"Point","coordinates":[-119.223349,46.239302]}},{"properties":{"city":"PAWTUCKET","zip":"02860","ssl":"PROVIDENCE, RI","region":"USA","sslcode":"PVD","geo_score":0.857,"country description":"UNITED STATES","id":"a6mdaz7ijspz","geo_precision":"zip","state":"RI"},"type":"Feature","geometry":{"type":"Point","coordinates":[-71.392732,41.875149]}},{"properties":{"city":"PORTLAND","zip":"04101","ssl":"PORTLAND, ME","region":"USA","sslcode":"PWM","geo_score":0.746,"country description":"UNITED STATES","id":"a6mdaz511aab","geo_precision":"zip","state":"ME"},"type":"Feature","geometry":{"type":"Point","coordinates":[-70.281438,43.673415]}},{"properties":{"city":"REDDING","zip":"96002","ssl":"REDDING, CA","region":"USA","sslcode":"RDD","geo_score":0.857,"country description":"UNITED STATES","id":"a6mdaz4yspas","geo_precision":"zip","state":"CA"},"type":"Feature","geometry":{"type":"Point","coordinates":[-122.3076,40.624448]}},{"properties":{"city":"DURHAM","zip":"27703","ssl":"RALEIGH-DURHAM, NC","region":"USA","sslcode":"RDU","geo_score":0.732,"country description":"UNITED STATES","id":"a6mdaz81tliv","geo_precision":"zip","state":"NC"},"type":"Feature","geometry":{"type":"Point","coordinates":[-78.820562,35.981534]}},{"properties":{"city":"RICHMOND","zip":"23233","ssl":"RICHMOND, VA","region":"USA","sslcode":"RIC","geo_score":0.731,"country description":"UNITED STATES","id":"a6mdaz47etk8","geo_precision":"zip","state":"VA"},"type":"Feature","geometry":{"type":"Point","coordinates":[-77.662213,37.577369]}},{"properties":{"city":"SPARKS","zip":"89434","ssl":"RENO, NV","region":"USA","sslcode":"RNO","geo_score":0.857,"country description":"UNITED STATES","id":"a6mdaz2n8efm","geo_precision":"zip","state":"NV"},"type":"Feature","geometry":{"type":"Point","coordinates":[-119.716747,39.591728]}},{"properties":{"city":"ROANOKE","zip":"24012","ssl":"ROANOKE, VA","region":"USA","sslcode":"ROA","geo_score":0.735,"country description":"UNITED STATES","id":"a6mdaz7tqpth","geo_precision":"zip","state":"VA"},"type":"Feature","geometry":{"type":"Point","coordinates":[-79.865871,37.32597]}},{"properties":{"city":"ROCHESTER","zip":"14606","ssl":"ROCHESTER, NY","region":"USA","sslcode":"ROC","geo_score":0.857,"country description":"UNITED STATES","id":"a6mdayubkjiy","geo_precision":"zip","state":"NY"},"type":"Feature","geometry":{"type":"Point","coordinates":[-77.691577,43.173612]}},{"properties":{"city":"SACRAMENTO","zip":"95834","ssl":"SACRAMENTO, CA","region":"USA","sslcode":"SAC","geo_score":0.857,"country description":"UNITED STATES","id":"a6mdayznxak7","geo_precision":"zip","state":"CA"},"type":"Feature","geometry":{"type":"Point","coordinates":[-121.523566,38.584193]}},{"properties":{"city":"SAN ANTONIO","zip":"78247","ssl":"SAN ANTONIO, TX","region":"USA","sslcode":"SAT","geo_score":0.857,"country description":"UNITED STATES","id":"a6mdayvb1z71","geo_precision":"zip","state":"TX"},"type":"Feature","geometry":{"type":"Point","coordinates":[-98.461582,29.437532]}},{"properties":{"city":"SAVANNAH","zip":"31415","ssl":"SAVANNAH, GA","region":"USA","sslcode":"SAV","geo_score":0.857,"country description":"UNITED STATES","id":"a6mdaywqliuj","geo_precision":"zip","state":"GA"},"type":"Feature","geometry":{"type":"Point","coordinates":[-81.128865,32.075307]}},{"properties":{"city":"SANTA MARIA","zip":"93454","ssl":"SANTA MARIA, CA","region":"USA","sslcode":"SBP","geo_score":0.729,"country description":"UNITED STATES","id":"a6mdaz9h5pnr","geo_precision":"zip","state":"CA"},"type":"Feature","geometry":{"type":"Point","coordinates":[-120.291546,34.864702]}},{"properties":{"city":"SAN DIEGO","zip":"92126","ssl":"SAN DIEGO, CA","region":"USA","sslcode":"SD","geo_score":0.732,"country description":"UNITED STATES","id":"a6mdaz7zxrym","geo_precision":"zip","state":"CA"},"type":"Feature","geometry":{"type":"Point","coordinates":[-117.143923,32.915602]}},{"properties":{"city":"KENT","zip":"98032","ssl":"SEATTLE, WA","region":"USA","sslcode":"SEA","geo_score":0.736,"country description":"UNITED STATES","id":"a6mdaz78yuuv","geo_precision":"zip","state":"WA"},"type":"Feature","geometry":{"type":"Point","coordinates":[-122.312067,47.361489]}},{"properties":{"city":"HAYWARD","zip":"94545","ssl":"SAN FRANCISCO, CA","region":"USA","sslcode":"SF","geo_score":0.857,"country description":"UNITED STATES","id":"a6mdaza07oh9","geo_precision":"zip","state":"CA"},"type":"Feature","geometry":{"type":"Point","coordinates":[-122.092324,37.635482]}},{"properties":{"city":"SAN FRANCISCO","zip":"94107","ssl":"SAN FRANCISCO, CA (DWTN)","region":"USA","sslcode":"SFO","geo_score":0.857,"country description":"UNITED STATES","id":"a6mdaz4rc7o2","geo_precision":"zip","state":"CA"},"type":"Feature","geometry":{"type":"Point","coordinates":[-122.393681,37.769029]}},{"properties":{"city":"SPRINGFIELD","zip":"65802","ssl":"SPRINGFIELD, MO","region":"USA","sslcode":"SGF","geo_score":0.74,"country description":"UNITED STATES","id":"a6mdayz5iq40","geo_precision":"zip","state":"MO"},"type":"Feature","geometry":{"type":"Point","coordinates":[-93.362135,37.217827]}},{"properties":{"city":"ST. GEORGE","zip":"84790","ssl":"ST. GEORGE, UT","region":"USA","sslcode":"SGU","geo_score":0.818,"country description":"UNITED STATES","id":"a6mdayu431hn","geo_precision":"zip","state":"UT"},"type":"Feature","geometry":{"type":"Point","coordinates":[-113.558068,37.083098]}},{"properties":{"city":"SHREVEPORT","zip":"71109","ssl":"SHREVEPORT, LA","region":"USA","sslcode":"SHV","geo_score":0.729,"country description":"UNITED STATES","id":"a6mdaywsb6if","geo_precision":"zip","state":"LA"},"type":"Feature","geometry":{"type":"Point","coordinates":[-93.900182,32.449321]}},{"properties":{"city":"NEWARK","zip":"94560","ssl":"SAN JOSE, CA","region":"USA","sslcode":"SJC","geo_score":0.857,"country description":"UNITED STATES","id":"a6mdayv5suss","geo_precision":"zip","state":"CA"},"type":"Feature","geometry":{"type":"Point","coordinates":[-122.025352,37.534102]}},{"properties":{"city":"SAN ANGELO","zip":"76905","ssl":"SAN ANGELO, TX","region":"USA","sslcode":"SJT","geo_score":0.857,"country description":"UNITED STATES","id":"a6mdaz6vippt","geo_precision":"zip","state":"TX"},"type":"Feature","geometry":{"type":"Point","coordinates":[-100.301587,31.441909]}},{"properties":{"city":"SALT LAKE CITY","zip":"84104","ssl":"SALT LAKE CITY, UT","region":"USA","sslcode":"SLC","geo_score":0.857,"country description":"UNITED STATES","id":"a6mdayznz0h6","geo_precision":"zip","state":"UT"},"type":"Feature","geometry":{"type":"Point","coordinates":[-111.9841,40.747845]}},{"properties":{"city":"WESTCILLE","zip":"08093","ssl":"SOUTHERN, NJ (PENNSAUKEN)","region":"USA","sslcode":"SNJ","geo_score":0.796,"country description":"UNITED STATES","id":"a6mdaywn2431","geo_precision":"zip","state":"NJ"},"type":"Feature","geometry":{"type":"Point","coordinates":[-75.117675,39.856502]}},{"properties":{"city":"SIOUX FALLS","zip":"57107","ssl":"SIOUX FALLS, SD","region":"USA","sslcode":"SOU","geo_score":0.743,"country description":"UNITED STATES","id":"a6mdayzcvhdq","geo_precision":"zip","state":"SD"},"type":"Feature","geometry":{"type":"Point","coordinates":[-96.830608,43.562476]}},{"properties":{"city":"SPRINFIELD","zip":"62703","ssl":"SPRINGFIELD. IL","region":"USA","sslcode":"SPI","geo_score":0.75,"country description":"UNITED STATES","id":"a6mdaywpteve","geo_precision":"zip","state":"IL"},"type":"Feature","geometry":{"type":"Point","coordinates":[-89.65371,39.757273]}},{"properties":{"city":"SPOKANE","zip":"99224","ssl":"SPOKANE, WA","region":"USA","sslcode":"SPO","geo_score":0.857,"country description":"UNITED STATES","id":"a6mdaywqu5zl","geo_precision":"zip","state":"WA"},"type":"Feature","geometry":{"type":"Point","coordinates":[-117.551291,47.628858]}},{"properties":{"city":"WICHITA FALLS","zip":"76309","ssl":"WICHITA FALLS, TX","region":"USA","sslcode":"SPS","geo_score":0.857,"country description":"UNITED STATES","id":"a6mdayzk21yl","geo_precision":"zip","state":"TX"},"type":"Feature","geometry":{"type":"Point","coordinates":[-98.499781,33.892709]}},{"properties":{"city":"SANTA ROSA","zip":"95401","ssl":"SANTA ROSA, CA","region":"USA","sslcode":"SRA","geo_score":0.746,"country description":"UNITED STATES","id":"a6mdaz4yretf","geo_precision":"zip","state":"CA"},"type":"Feature","geometry":{"type":"Point","coordinates":[-122.851937,38.48519]}},{"properties":{"city":"ST LOUIS","zip":"63120","ssl":"ST. LOUIS, MO","region":"USA","sslcode":"STL","geo_score":0.714,"country description":"UNITED STATES","id":"a6mdayu6ezsg","geo_precision":"zip","state":"MO"},"type":"Feature","geometry":{"type":"Point","coordinates":[-90.275113,38.695884]}},{"properties":{"city":"E. SYRACUSE","zip":"13057","ssl":"SYRACUSE, NY","region":"USA","sslcode":"SYR","geo_score":0.73,"country description":"UNITED STATES","id":"a6mdaz26n629","geo_precision":"zip","state":"NY"},"type":"Feature","geometry":{"type":"Point","coordinates":[-76.030198,43.064511]}},{"properties":{"city":"TALLAHASSEE","zip":"32303","ssl":"TALLAHASSEE, FL","region":"USA","sslcode":"TLH","geo_score":0.857,"country description":"UNITED STATES","id":"a6mdaz05fgzg","geo_precision":"zip","state":"FL"},"type":"Feature","geometry":{"type":"Point","coordinates":[-84.247698,30.535698]}},{"properties":{"city":"TOLEDO","zip":"43615","ssl":"TOLEDO, OH","region":"USA","sslcode":"TOL","geo_score":0.743,"country description":"UNITED STATES","id":"a6mdaywxydrz","geo_precision":"zip","state":"OH"},"type":"Feature","geometry":{"type":"Point","coordinates":[-83.664659,41.653384]}},{"properties":{"city":"TOPEKA","zip":"66619","ssl":"TOPEKA, KS","region":"USA","sslcode":"TOP","geo_score":0.714,"country description":"UNITED STATES","id":"a6mdaz1f5q9f","geo_precision":"zip","state":"KS"},"type":"Feature","geometry":{"type":"Point","coordinates":[-95.690538,38.963335]}},{"properties":{"city":"TAMPA","zip":"33634","ssl":"TAMPA, FL","region":"USA","sslcode":"TPA","geo_score":0.857,"country description":"UNITED STATES","id":"a6mdaz1wrx6x","geo_precision":"zip","state":"FL"},"type":"Feature","geometry":{"type":"Point","coordinates":[-82.545466,28.002755]}},{"properties":{"city":"BLOUNTVILLE","zip":"37617","ssl":"TRI-CITIES, TN","region":"USA","sslcode":"TRI","geo_score":0.727,"country description":"UNITED STATES","id":"a6mdayu94x85","geo_precision":"zip","state":"TN"},"type":"Feature","geometry":{"type":"Point","coordinates":[-82.464313,36.516769]}},{"properties":{"city":"TULSA","zip":"74116","ssl":"TULSA, OK","region":"USA","sslcode":"TUL","geo_score":0.857,"country description":"UNITED STATES","id":"a6mdayzizi1l","geo_precision":"zip","state":"OK"},"type":"Feature","geometry":{"type":"Point","coordinates":[-95.817465,36.189944]}},{"properties":{"city":"TUCSON","zip":"85711","ssl":"TUSCON, AZ","region":"USA","sslcode":"TUS","geo_score":0.857,"country description":"UNITED STATES","id":"a6mdayvoceau","geo_precision":"zip","state":"AZ"},"type":"Feature","geometry":{"type":"Point","coordinates":[-110.883744,32.214075]}},{"properties":{"city":"TRAVERSE CITY","zip":"49686","ssl":"TRAVERSE CITY, MI","region":"USA","sslcode":"TVC","geo_score":0.857,"country description":"UNITED STATES","id":"a6mdaz0e9tw5","geo_precision":"zip","state":"MI"},"type":"Feature","geometry":{"type":"Point","coordinates":[-85.490673,44.784919]}},{"properties":{"city":"TYLER","zip":"75708","ssl":"TYLER, TX","region":"USA","sslcode":"TYR","geo_score":0.714,"country description":"UNITED STATES","id":"a6mdaz5ycsz5","geo_precision":"zip","state":"TX"},"type":"Feature","geometry":{"type":"Point","coordinates":[-95.195781,32.435702]}},{"properties":{"city":"NEWBURY PARK","zip":"91320","ssl":"VENTURA, CA","region":"USA","sslcode":"VEN","geo_score":0.857,"country description":"UNITED STATES","id":"a6mdayx18eqq","geo_precision":"zip","state":"CA"},"type":"Feature","geometry":{"type":"Point","coordinates":[-118.905874,34.175921]}},{"properties":{"city":"SUN VALLEY","zip":"91352","ssl":"VAN NUYS, CA","region":"USA","sslcode":"VNY","geo_score":0.74,"country description":"UNITED STATES","id":"a6mdaz6jdlvj","geo_precision":"zip","state":"CA"},"type":"Feature","geometry":{"type":"Point","coordinates":[-118.351746,34.261947]}},{"properties":{"city":"WICHITA","zip":"67211","ssl":"WICHITA, KS","region":"USA","sslcode":"WIT","geo_score":0.857,"country description":"UNITED STATES","id":"a6mdaz2849s6","geo_precision":"zip","state":"KS"},"type":"Feature","geometry":{"type":"Point","coordinates":[-97.312573,37.661]}},{"properties":{"city":"WOBURN","zip":"01801","ssl":"WOBURN, MA","region":"USA","sslcode":"WOB","geo_score":0.743,"country description":"UNITED STATES","id":"a6mdaz33vmck","geo_precision":"zip","state":"MA"},"type":"Feature","geometry":{"type":"Point","coordinates":[-71.128665,42.495928]}},{"properties":{"city":"ELMSFORD","zip":"10523","ssl":"WHITE PLAINS, NY","region":"USA","sslcode":"WPL","geo_score":0.857,"country description":"UNITED STATES","id":"a6mdaz6rtwi8","geo_precision":"zip","state":"NY"},"type":"Feature","geometry":{"type":"Point","coordinates":[-73.836784,41.058732]}},{"properties":{"city":"YUMA","zip":"85365","ssl":"YUMA, AZ","region":"USA","sslcode":"YUM","geo_score":0.857,"country description":"UNITED STATES","id":"a6mdayyd0i79","geo_precision":"zip","state":"AZ"},"type":"Feature","geometry":{"type":"Point","coordinates":[-114.490471,32.709332]}}],"is_temporal":false,"author":{"url":"","metadata":"","contact_name":"","contact_address":"","source":"","contact_phone":""},"source":"","pagination":{"sort":null,"start":0,"total":184,"limit":1000000},"state":"complete","tags":"","published":"2014-08-10T12:59:22-04:00","id":91426}