{"type":"FeatureCollection","data_type":"Dataset","url_type":null,"permissions":[{"permissions":{"download":true,"view":true},"group_id":"everyone"}],"classification":null,"title":"Alhambra Crime Map Jan 30-Feb 5","count":65,"stream_id":91565,"contributor":{"url":"http://geocommons.com/users/21900","name":"AlhambraS"},"data_attributes":null,"calculation_params":null,"icon_link":null,"link":"http://geocommons.com/overlays/91565.json","extent":[-118.158,34.0711,-118.109,34.1068],"geometry_types":["point"],"unique_name":null,"name":"Alhambra Crime Map Jan 30-Feb 5","feature_count":65,"description":"","next_feature":null,"is_raster":false,"short_classification":"Y","stats":{"code":{"max":6,"mean":4.15384615384615,"variance":3.10096153846154,"stdev":1.76095472356944,"min":1,"median":5},"date":{"max":"2011/02/05 00:00:00 -0500","mean":"2011/02/01 20:40:36 -0500","variance":30530968615.3846,"stdev":174731.132358789,"min":"2011/01/30 00:00:00 -0500","median":"2011/02/02 00:00:00 -0500"}},"features":[{"properties":{"city":"Alhambra, CA","code":6,"date":{"end_time":"2011/01/31 00:00:00 -0500","original":"30-Jan-11","granularity":"day","time":"2011/01/30 00:00:00 -0500"},"geo_score":0.829,"type of crime":"Disturbance of peace","id":"a673dg8xja1n","geo_precision":"city","address":"200 block of E. Alhambra","state":"California"},"type":"Feature","geometry":{"type":"Point","coordinates":[-118.127015,34.095287]}},{"properties":{"city":"Alhambra, CA","code":4,"date":{"end_time":"2011/01/31 00:00:00 -0500","original":"30-Jan-11","granularity":"day","time":"2011/01/30 00:00:00 -0500"},"geo_score":0.653,"type of crime":"Assault","id":"a673dgaasgm1","geo_precision":"street","address":"100 block of W. Main St.","state":"California"},"type":"Feature","geometry":{"type":"Point","coordinates":[-118.126868,34.09516]}},{"properties":{"city":"Alhambra, CA","code":4,"date":{"end_time":"2011/01/31 00:00:00 -0500","original":"30-Jan-11","granularity":"day","time":"2011/01/30 00:00:00 -0500"},"geo_score":0.5,"type of crime":"Assault","id":"a673dg6t5oy8","geo_precision":"street","address":"First St. and Main St.","state":"California"},"type":"Feature","geometry":{"type":"Point","coordinates":[-118.127906,34.094668]}},{"properties":{"city":"Alhambra, CA","code":6,"date":{"end_time":"2011/01/31 00:00:00 -0500","original":"30-Jan-11","granularity":"day","time":"2011/01/30 00:00:00 -0500"},"geo_score":0.5,"type of crime":"Disturbance of peace","id":"a673dgjq7r5h","geo_precision":"street","address":"300 block of N. First St.","state":"California"},"type":"Feature","geometry":{"type":"Point","coordinates":[-118.127906,34.094668]}},{"properties":{"city":"Alhambra, CA","code":4,"date":{"end_time":"2011/01/31 00:00:00 -0500","original":"30-Jan-11","granularity":"day","time":"2011/01/30 00:00:00 -0500"},"geo_score":0.653,"type of crime":"Assault","id":"a673dghwy59g","geo_precision":"street","address":"100 block of W. Main St.","state":"California"},"type":"Feature","geometry":{"type":"Point","coordinates":[-118.126868,34.09516]}},{"properties":{"city":"Alhambra, CA","code":1,"date":{"end_time":"2011/01/31 00:00:00 -0500","original":"30-Jan-11","granularity":"day","time":"2011/01/30 00:00:00 -0500"},"geo_score":0.543,"type of crime":"Hit and Run","id":"a673dgdg1dza","geo_precision":"street","address":"1200 block of s. Chapel","state":"California"},"type":"Feature","geometry":{"type":"Point","coordinates":[-118.123291,34.09612]}},{"properties":{"city":"Alhambra, CA","code":2,"date":{"end_time":"2011/01/31 00:00:00 -0500","original":"30-Jan-11","granularity":"day","time":"2011/01/30 00:00:00 -0500"},"geo_score":0.549,"type of crime":"Theft","id":"a673dg6ljvni","geo_precision":"street","address":"100 block of N. Atlantic","state":"California"},"type":"Feature","geometry":{"type":"Point","coordinates":[-118.134602,34.089262]}},{"properties":{"city":"Alhambra, CA","code":6,"date":{"end_time":"2011/01/31 00:00:00 -0500","original":"30-Jan-11","granularity":"day","time":"2011/01/30 00:00:00 -0500"},"geo_score":0.829,"type of crime":"Disturbance of peace","id":"a673dgeo1ipg","geo_precision":"city","address":"2800 block of W. Alhambra","state":"California"},"type":"Feature","geometry":{"type":"Point","coordinates":[-118.127015,34.095287]}},{"properties":{"city":"Alhambra, CA","code":4,"date":{"end_time":"2011/01/31 00:00:00 -0500","original":"30-Jan-11","granularity":"day","time":"2011/01/30 00:00:00 -0500"},"geo_score":0.519,"type of crime":"Assault","id":"a673dg9ibh7f","geo_precision":"street","address":"2200 block of W. Valley","state":"California"},"type":"Feature","geometry":{"type":"Point","coordinates":[-118.121893,34.078633]}},{"properties":{"city":"Alhambra, CA","code":6,"date":{"end_time":"2011/01/31 00:00:00 -0500","original":"30-Jan-11","granularity":"day","time":"2011/01/30 00:00:00 -0500"},"geo_score":0.524,"type of crime":"Disturbance of peace","id":"a673dgbk1dd4","geo_precision":"street","address":"100 block of S. Olive","state":"California"},"type":"Feature","geometry":{"type":"Point","coordinates":[-118.135858,34.09156]}},{"properties":{"city":"Alhambra, CA","code":2,"date":{"end_time":"2011/01/31 00:00:00 -0500","original":"30-Jan-11","granularity":"day","time":"2011/01/30 00:00:00 -0500"},"geo_score":0.558,"type of crime":"Theft","id":"a673dg6rpbim","geo_precision":"street","address":"100 block of S. Fremont","state":"California"},"type":"Feature","geometry":{"type":"Point","coordinates":[-118.152076,34.095231]}},{"properties":{"city":"Alhambra, CA","code":4,"date":{"end_time":"2011/02/01 00:00:00 -0500","original":"31-Jan-11","granularity":"day","time":"2011/01/31 00:00:00 -0500"},"geo_score":0.462,"type of crime":"Assault","id":"a673dgd4ywho","geo_precision":"street","address":"Valley and Almansor","state":"California"},"type":"Feature","geometry":{"type":"Point","coordinates":[-118.120994,34.097937]}},{"properties":{"city":"Alhambra, CA","code":5,"date":{"end_time":"2011/02/01 00:00:00 -0500","original":"31-Jan-11","granularity":"day","time":"2011/01/31 00:00:00 -0500"},"geo_score":0.633,"type of crime":"Vandalism","id":"a673dg642xcz","geo_precision":"range","address":"1800 block of Marguerita","state":"California"},"type":"Feature","geometry":{"type":"Point","coordinates":[-118.138128,34.07296]}},{"properties":{"city":"Alhambra, CA","code":5,"date":{"end_time":"2011/02/01 00:00:00 -0500","original":"31-Jan-11","granularity":"day","time":"2011/01/31 00:00:00 -0500"},"geo_score":0.571,"type of crime":"Vandalism","id":"a673dga1o7ho","geo_precision":"range","address":"1200 block of Fourth St","state":"California"},"type":"Feature","geometry":{"type":"Point","coordinates":[-118.126821,34.080693]}},{"properties":{"city":"Alhambra, CA","code":2,"date":{"end_time":"2011/02/01 00:00:00 -0500","original":"31-Jan-11","granularity":"day","time":"2011/01/31 00:00:00 -0500"},"geo_score":0.653,"type of crime":"Theft","id":"a673dgaliq46","geo_precision":"street","address":"500 block of W. Main St","state":"California"},"type":"Feature","geometry":{"type":"Point","coordinates":[-118.126868,34.09516]}},{"properties":{"city":"Alhambra, CA","code":5,"date":{"end_time":"2011/02/01 00:00:00 -0500","original":"31-Jan-11","granularity":"day","time":"2011/01/31 00:00:00 -0500"},"geo_score":0.286,"type of crime":"Vandalism","id":"a673dgkgqmjh","geo_precision":"street","address":"2400 S. Winthrop Dr.","state":"California"},"type":"Feature","geometry":{"type":"Point","coordinates":[-118.158306,34.086368]}},{"properties":{"city":"Alhambra, CA","code":1,"date":{"end_time":"2011/02/01 00:00:00 -0500","original":"31-Jan-11","granularity":"day","time":"2011/01/31 00:00:00 -0500"},"geo_score":0.437,"type of crime":"Hit and Run","id":"a673dgjoe9lt","geo_precision":"street","address":"Valley and Garfield","state":"California"},"type":"Feature","geometry":{"type":"Point","coordinates":[-118.121893,34.078633]}},{"properties":{"city":"Alhambra, CA","code":1,"date":{"end_time":"2011/02/01 00:00:00 -0500","original":"31-Jan-11","granularity":"day","time":"2011/01/31 00:00:00 -0500"},"geo_score":0.462,"type of crime":"Hit and Run","id":"a673dghxao23","geo_precision":"street","address":"Fremont and Mission","state":"California"},"type":"Feature","geometry":{"type":"Point","coordinates":[-118.152076,34.095231]}},{"properties":{"city":"Alhambra, CA","code":4,"date":{"end_time":"2011/02/02 00:00:00 -0500","original":"1-Feb-11","granularity":"day","time":"2011/02/01 00:00:00 -0500"},"geo_score":0.653,"type of crime":"Assault","id":"a673dgiw1qg5","geo_precision":"street","address":"300 block of W. Main St","state":"California"},"type":"Feature","geometry":{"type":"Point","coordinates":[-118.126868,34.09516]}},{"properties":{"city":"Alhambra, CA","code":1,"date":{"end_time":"2011/02/02 00:00:00 -0500","original":"1-Feb-11","granularity":"day","time":"2011/02/01 00:00:00 -0500"},"geo_score":0.325,"type of crime":"Hit and Run","id":"a673dgas4wej","geo_precision":"street","address":"2500 W. Valley","state":"California"},"type":"Feature","geometry":{"type":"Point","coordinates":[-118.1243,34.078499]}},{"properties":{"city":"Alhambra, CA","code":6,"date":{"end_time":"2011/02/02 00:00:00 -0500","original":"1-Feb-11","granularity":"day","time":"2011/02/01 00:00:00 -0500"},"geo_score":0.586,"type of crime":"Disturbance of peace","id":"a673dg9pcpjx","geo_precision":"street","address":"500 block of S. Granada","state":"California"},"type":"Feature","geometry":{"type":"Point","coordinates":[-118.123582,34.106849]}},{"properties":{"city":"Alhambra, CA","code":2,"date":{"end_time":"2011/02/02 00:00:00 -0500","original":"1-Feb-11","granularity":"day","time":"2011/02/01 00:00:00 -0500"},"geo_score":0.571,"type of crime":"Theft","id":"a673dgct9nh9","geo_precision":"street","address":"800 block of S. Ramona","state":"California"},"type":"Feature","geometry":{"type":"Point","coordinates":[-118.123697,34.071149]}},{"properties":{"city":"Alhambra, CA","code":2,"date":{"end_time":"2011/02/02 00:00:00 -0500","original":"1-Feb-11","granularity":"day","time":"2011/02/01 00:00:00 -0500"},"geo_score":0.558,"type of crime":"Theft","id":"a673dgj9n8mj","geo_precision":"street","address":"100 block of S. Raymond","state":"California"},"type":"Feature","geometry":{"type":"Point","coordinates":[-118.145008,34.091496]}},{"properties":{"city":"Alhambra, CA","code":5,"date":{"end_time":"2011/02/02 00:00:00 -0500","original":"1-Feb-11","granularity":"day","time":"2011/02/01 00:00:00 -0500"},"geo_score":0.357,"type of crime":"Vandalism","id":"a673dg5v0f1z","geo_precision":"street","address":"1800 block of S. Third","state":"California"},"type":"Feature","geometry":{"type":"Point","coordinates":[-118.130391,34.094135]}},{"properties":{"city":"Alhambra, CA","code":2,"date":{"end_time":"2011/02/02 00:00:00 -0500","original":"1-Feb-11","granularity":"day","time":"2011/02/01 00:00:00 -0500"},"geo_score":0.571,"type of crime":"Theft","id":"a673dghhicx0","geo_precision":"street","address":"1000 block of E. Clay","state":"California"},"type":"Feature","geometry":{"type":"Point","coordinates":[-118.114263,34.094415]}},{"properties":{"city":"Alhambra, CA","code":5,"date":{"end_time":"2011/02/02 00:00:00 -0500","original":"1-Feb-11","granularity":"day","time":"2011/02/01 00:00:00 -0500"},"geo_score":0.5,"type of crime":"Vandalism","id":"a673dgiv3bmv","geo_precision":"street","address":"1700 block of S. Palm","state":"California"},"type":"Feature","geometry":{"type":"Point","coordinates":[-118.145187,34.091499]}},{"properties":{"city":"Alhambra, CA","code":2,"date":{"end_time":"2011/02/02 00:00:00 -0500","original":"1-Feb-11","granularity":"day","time":"2011/02/01 00:00:00 -0500"},"geo_score":0.524,"type of crime":"Theft","id":"a673dglcrcvh","geo_precision":"street","address":"1700 block of S. Olive","state":"California"},"type":"Feature","geometry":{"type":"Point","coordinates":[-118.135858,34.09156]}},{"properties":{"city":"Alhambra, CA","code":6,"date":{"end_time":"2011/02/02 00:00:00 -0500","original":"1-Feb-11","granularity":"day","time":"2011/02/01 00:00:00 -0500"},"geo_score":0.549,"type of crime":"Disturbance of peace","id":"a673dgb2qo57","geo_precision":"street","address":"600 block of N. Atlantic","state":"California"},"type":"Feature","geometry":{"type":"Point","coordinates":[-118.134602,34.089262]}},{"properties":{"city":"Alhambra, CA","code":5,"date":{"end_time":"2011/02/02 00:00:00 -0500","original":"1-Feb-11","granularity":"day","time":"2011/02/01 00:00:00 -0500"},"geo_score":0.357,"type of crime":"Vandalism","id":"a673dg6f0438","geo_precision":"street","address":"100 block of S. First","state":"California"},"type":"Feature","geometry":{"type":"Point","coordinates":[-118.127906,34.094668]}},{"properties":{"city":"Alhambra, CA","code":4,"date":{"end_time":"2011/02/02 00:00:00 -0500","original":"1-Feb-11","granularity":"day","time":"2011/02/01 00:00:00 -0500"},"geo_score":0.519,"type of crime":"Assault","id":"a673dgj0f32t","geo_precision":"street","address":"1000 block of W. Valley","state":"California"},"type":"Feature","geometry":{"type":"Point","coordinates":[-118.121893,34.078633]}},{"properties":{"city":"Alhambra, CA","code":6,"date":{"end_time":"2011/02/02 00:00:00 -0500","original":"1-Feb-11","granularity":"day","time":"2011/02/01 00:00:00 -0500"},"geo_score":0.366,"type of crime":"Disturbance of peace","id":"a673dglamopd","geo_precision":"street","address":"200 block of E. Commonwealth","state":"California"},"type":"Feature","geometry":{"type":"Point","coordinates":[-118.124746,34.092132]}},{"properties":{"city":"Alhambra, CA","code":1,"date":{"end_time":"2011/02/02 00:00:00 -0500","original":"1-Feb-11","granularity":"day","time":"2011/02/01 00:00:00 -0500"},"geo_score":0.527,"type of crime":"Hit and Run","id":"a673dgf0dize","geo_precision":"street","address":"Fremont and Valley","state":"California"},"type":"Feature","geometry":{"type":"Point","coordinates":[-118.152076,34.095231]}},{"properties":{"city":"Alhambra, CA","code":5,"date":{"end_time":"2011/02/03 00:00:00 -0500","original":"2-Feb-11","granularity":"day","time":"2011/02/02 00:00:00 -0500"},"geo_score":0.651,"type of crime":"Vandalism","id":"a673dg7j1s9y","geo_precision":"range","address":"1300 block of Commonwealth","state":"California"},"type":"Feature","geometry":{"type":"Point","coordinates":[-118.137059,34.087418]}},{"properties":{"city":"Alhambra, CA","code":6,"date":{"end_time":"2011/02/03 00:00:00 -0500","original":"2-Feb-11","granularity":"day","time":"2011/02/02 00:00:00 -0500"},"geo_score":0.524,"type of crime":"Disturbance of peace","id":"a673dgkga42t","geo_precision":"street","address":"800 block of S. Olive","state":"California"},"type":"Feature","geometry":{"type":"Point","coordinates":[-118.135858,34.09156]}},{"properties":{"city":"Alhambra, CA","code":2,"date":{"end_time":"2011/02/03 00:00:00 -0500","original":"2-Feb-11","granularity":"day","time":"2011/02/02 00:00:00 -0500"},"geo_score":0.531,"type of crime":"Theft","id":"a673dg6zs6ip","geo_precision":"street","address":"1400 block of W. Pine","state":"California"},"type":"Feature","geometry":{"type":"Point","coordinates":[-118.133752,34.104562]}},{"properties":{"city":"Alhambra, CA","code":6,"date":{"end_time":"2011/02/03 00:00:00 -0500","original":"2-Feb-11","granularity":"day","time":"2011/02/02 00:00:00 -0500"},"geo_score":0.539,"type of crime":"Disturbance of peace","id":"a673dg9y3j8h","geo_precision":"street","address":"Commonwealth and Fremont","state":"California"},"type":"Feature","geometry":{"type":"Point","coordinates":[-118.124746,34.092132]}},{"properties":{"city":"Alhambra, CA","code":6,"date":{"end_time":"2011/02/03 00:00:00 -0500","original":"2-Feb-11","granularity":"day","time":"2011/02/02 00:00:00 -0500"},"geo_score":0.543,"type of crime":"Disturbance of peace","id":"a673dg6m1qqa","geo_precision":"street","address":"First and Main St","state":"California"},"type":"Feature","geometry":{"type":"Point","coordinates":[-118.126868,34.09516]}},{"properties":{"city":"Alhambra, CA","code":5,"date":{"end_time":"2011/02/03 00:00:00 -0500","original":"2-Feb-11","granularity":"day","time":"2011/02/02 00:00:00 -0500"},"geo_score":0.653,"type of crime":"Vandalism","id":"a673dglypxrl","geo_precision":"street","address":"2800 block of W. Main St","state":"California"},"type":"Feature","geometry":{"type":"Point","coordinates":[-118.126868,34.09516]}},{"properties":{"city":"Alhambra, CA","code":1,"date":{"end_time":"2011/02/03 00:00:00 -0500","original":"2-Feb-11","granularity":"day","time":"2011/02/02 00:00:00 -0500"},"geo_score":0.469,"type of crime":"Hit and Run","id":"a673dg96nct6","geo_precision":"street","address":"Garfield and Huntington","state":"California"},"type":"Feature","geometry":{"type":"Point","coordinates":[-118.155481,34.09748]}},{"properties":{"city":"Alhambra, CA","code":2,"date":{"end_time":"2011/02/04 00:00:00 -0500","original":"3-Feb-11","granularity":"day","time":"2011/02/03 00:00:00 -0500"},"geo_score":0.653,"type of crime":"Theft","id":"a673dgltvp2y","geo_precision":"street","address":"100 block of W. Main St.","state":"California"},"type":"Feature","geometry":{"type":"Point","coordinates":[-118.126868,34.09516]}},{"properties":{"city":"Alhambra, CA","code":4,"date":{"end_time":"2011/02/04 00:00:00 -0500","original":"3-Feb-11","granularity":"day","time":"2011/02/03 00:00:00 -0500"},"geo_score":0.586,"type of crime":"Assault","id":"a673dgfikeo6","geo_precision":"street","address":"100 block of S. Granada","state":"California"},"type":"Feature","geometry":{"type":"Point","coordinates":[-118.123582,34.106849]}},{"properties":{"city":"Alhambra, CA","code":5,"date":{"end_time":"2011/02/04 00:00:00 -0500","original":"3-Feb-11","granularity":"day","time":"2011/02/03 00:00:00 -0500"},"geo_score":0.5,"type of crime":"Vandalism","id":"a673dgaxc6vh","geo_precision":"street","address":"900 block of S. New","state":"California"},"type":"Feature","geometry":{"type":"Point","coordinates":[-118.108674,34.084168]}},{"properties":{"city":"Alhambra, CA","code":2,"date":{"end_time":"2011/02/04 00:00:00 -0500","original":"3-Feb-11","granularity":"day","time":"2011/02/03 00:00:00 -0500"},"geo_score":0.558,"type of crime":"Theft","id":"a673dgi49rmq","geo_precision":"street","address":"1200 block of S. Fremont","state":"California"},"type":"Feature","geometry":{"type":"Point","coordinates":[-118.152076,34.095231]}},{"properties":{"city":"Alhambra, CA","code":2,"date":{"end_time":"2011/02/04 00:00:00 -0500","original":"3-Feb-11","granularity":"day","time":"2011/02/03 00:00:00 -0500"},"geo_score":0.357,"type of crime":"Theft","id":"a673dg7tljdh","geo_precision":"street","address":"1200 block of S. Second","state":"California"},"type":"Feature","geometry":{"type":"Point","coordinates":[-118.128941,34.094182]}},{"properties":{"city":"Alhambra, CA","code":3,"date":{"end_time":"2011/02/04 00:00:00 -0500","original":"3-Feb-11","granularity":"day","time":"2011/02/03 00:00:00 -0500"},"geo_score":0.531,"type of crime":"Grand Theft","id":"a673dg7nttvp","geo_precision":"street","address":"300 block of E. Main","state":"California"},"type":"Feature","geometry":{"type":"Point","coordinates":[-118.126868,34.09516]}},{"properties":{"city":"Alhambra, CA","code":6,"date":{"end_time":"2011/02/04 00:00:00 -0500","original":"3-Feb-11","granularity":"day","time":"2011/02/03 00:00:00 -0500"},"geo_score":0.486,"type of crime":"Disturbance of peace","id":"a673dggj5lbg","geo_precision":"street","address":"Main and Almansor","state":"California"},"type":"Feature","geometry":{"type":"Point","coordinates":[-118.120994,34.097937]}},{"properties":{"city":"Alhambra, CA","code":5,"date":{"end_time":"2011/02/04 00:00:00 -0500","original":"3-Feb-11","granularity":"day","time":"2011/02/03 00:00:00 -0500"},"geo_score":0.607,"type of crime":"Vandalism","id":"a673dggt3rew","geo_precision":"street","address":"900 block of N. Curtis","state":"California"},"type":"Feature","geometry":{"type":"Point","coordinates":[-118.137312,34.083098]}},{"properties":{"city":"Alhambra, CA","code":6,"date":{"end_time":"2011/02/04 00:00:00 -0500","original":"3-Feb-11","granularity":"day","time":"2011/02/03 00:00:00 -0500"},"geo_score":0.403,"type of crime":"Disturbance of peace","id":"a673dghjditg","geo_precision":"street","address":"Third and Valley","state":"California"},"type":"Feature","geometry":{"type":"Point","coordinates":[-118.121893,34.078633]}},{"properties":{"city":"Alhambra, CA","code":6,"date":{"end_time":"2011/02/05 00:00:00 -0500","original":"4-Feb-11","granularity":"day","time":"2011/02/04 00:00:00 -0500"},"geo_score":0.357,"type of crime":"Disturbance of peace","id":"a673dggqudp9","geo_precision":"street","address":"100 block of S. First","state":"California"},"type":"Feature","geometry":{"type":"Point","coordinates":[-118.127906,34.094668]}},{"properties":{"city":"Alhambra, CA","code":6,"date":{"end_time":"2011/02/05 00:00:00 -0500","original":"4-Feb-11","granularity":"day","time":"2011/02/04 00:00:00 -0500"},"geo_score":0.519,"type of crime":"Disturbance of peace","id":"a673dgbqdx2x","geo_precision":"street","address":"1700 block of W. Valley","state":"California"},"type":"Feature","geometry":{"type":"Point","coordinates":[-118.121893,34.078633]}},{"properties":{"city":"Alhambra, CA","code":6,"date":{"end_time":"2011/02/05 00:00:00 -0500","original":"4-Feb-11","granularity":"day","time":"2011/02/04 00:00:00 -0500"},"geo_score":0.5,"type of crime":"Disturbance of peace","id":"a673dg7uscva","geo_precision":"street","address":"Almansor and Shorb","state":"California"},"type":"Feature","geometry":{"type":"Point","coordinates":[-118.120994,34.097937]}},{"properties":{"city":"Alhambra, CA","code":4,"date":{"end_time":"2011/02/05 00:00:00 -0500","original":"4-Feb-11","granularity":"day","time":"2011/02/04 00:00:00 -0500"},"geo_score":0.531,"type of crime":"Assault","id":"a673dgcfg742","geo_precision":"street","address":"1700 block of W. Main","state":"California"},"type":"Feature","geometry":{"type":"Point","coordinates":[-118.126868,34.09516]}},{"properties":{"city":"Alhambra, CA","code":6,"date":{"end_time":"2011/02/05 00:00:00 -0500","original":"4-Feb-11","granularity":"day","time":"2011/02/04 00:00:00 -0500"},"geo_score":0.558,"type of crime":"Disturbance of peace","id":"a673dggnnqxo","geo_precision":"street","address":"300 block of S. Fremont","state":"California"},"type":"Feature","geometry":{"type":"Point","coordinates":[-118.152076,34.095231]}},{"properties":{"city":"Alhambra, CA","code":6,"date":{"end_time":"2011/02/05 00:00:00 -0500","original":"4-Feb-11","granularity":"day","time":"2011/02/04 00:00:00 -0500"},"geo_score":0.357,"type of crime":"Disturbance of peace","id":"a673dg9zgvst","geo_precision":"street","address":"800 block of N. First","state":"California"},"type":"Feature","geometry":{"type":"Point","coordinates":[-118.127906,34.094668]}},{"properties":{"city":"Alhambra, CA","code":5,"date":{"end_time":"2011/02/05 00:00:00 -0500","original":"4-Feb-11","granularity":"day","time":"2011/02/04 00:00:00 -0500"},"geo_score":0.286,"type of crime":"Vandalism","id":"a673dgd898id","geo_precision":"street","address":"200 block of N. Marguerita","state":"California"},"type":"Feature","geometry":{"type":"Point","coordinates":[-118.138265,34.087409]}},{"properties":{"city":"Alhambra, CA","code":5,"date":{"end_time":"2011/02/05 00:00:00 -0500","original":"4-Feb-11","granularity":"day","time":"2011/02/04 00:00:00 -0500"},"geo_score":0.357,"type of crime":"Vandalism","id":"a673dg9cg97x","geo_precision":"street","address":"200 block of S. First","state":"California"},"type":"Feature","geometry":{"type":"Point","coordinates":[-118.127906,34.094668]}},{"properties":{"city":"Alhambra, CA","code":6,"date":{"end_time":"2011/02/06 00:00:00 -0500","original":"5-Feb-11","granularity":"day","time":"2011/02/05 00:00:00 -0500"},"geo_score":0.653,"type of crime":"Disturbance of peace","id":"a673dg6db5pf","geo_precision":"street","address":"100 block of W. Main St.","state":"California"},"type":"Feature","geometry":{"type":"Point","coordinates":[-118.126868,34.09516]}},{"properties":{"city":"Alhambra, CA","code":6,"date":{"end_time":"2011/02/06 00:00:00 -0500","original":"5-Feb-11","granularity":"day","time":"2011/02/05 00:00:00 -0500"},"geo_score":0.514,"type of crime":"Disturbance of peace","id":"a673dgalmqwq","geo_precision":"street","address":"Garfield and Main","state":"California"},"type":"Feature","geometry":{"type":"Point","coordinates":[-118.126868,34.09516]}},{"properties":{"city":"Alhambra, CA","code":3,"date":{"end_time":"2011/02/06 00:00:00 -0500","original":"5-Feb-11","granularity":"day","time":"2011/02/05 00:00:00 -0500"},"geo_score":0.597,"type of crime":"Grand Theft","id":"a673dgiuzurf","geo_precision":"street","address":"900 block of N. Monterey","state":"California"},"type":"Feature","geometry":{"type":"Point","coordinates":[-118.121918,34.09214]}},{"properties":{"city":"Alhambra, CA","code":6,"date":{"end_time":"2011/02/06 00:00:00 -0500","original":"5-Feb-11","granularity":"day","time":"2011/02/05 00:00:00 -0500"},"geo_score":0.558,"type of crime":"Disturbance of peace","id":"a673dgire8vb","geo_precision":"street","address":"500 block of S. Marengo","state":"California"},"type":"Feature","geometry":{"type":"Point","coordinates":[-118.142007,34.090174]}},{"properties":{"city":"Alhambra, CA","code":2,"date":{"end_time":"2011/02/06 00:00:00 -0500","original":"5-Feb-11","granularity":"day","time":"2011/02/05 00:00:00 -0500"},"geo_score":0.531,"type of crime":"Theft","id":"a673dgi3nk4p","geo_precision":"street","address":"200 block of E. Main","state":"California"},"type":"Feature","geometry":{"type":"Point","coordinates":[-118.126868,34.09516]}},{"properties":{"city":"Alhambra, CA","code":4,"date":{"end_time":"2011/02/06 00:00:00 -0500","original":"5-Feb-11","granularity":"day","time":"2011/02/05 00:00:00 -0500"},"geo_score":0.597,"type of crime":"Assault","id":"a673dga8k7k4","geo_precision":"street","address":"1200 block of S. Monterey","state":"California"},"type":"Feature","geometry":{"type":"Point","coordinates":[-118.121918,34.09214]}},{"properties":{"city":"Alhambra, CA","code":4,"date":{"end_time":"2011/02/06 00:00:00 -0500","original":"5-Feb-11","granularity":"day","time":"2011/02/05 00:00:00 -0500"},"geo_score":0.597,"type of crime":"Assault","id":"a673dgbogwva","geo_precision":"street","address":"800 block of S. Almansor","state":"California"},"type":"Feature","geometry":{"type":"Point","coordinates":[-118.120994,34.097937]}},{"properties":{"city":"Alhambra, CA","code":6,"date":{"end_time":"2011/02/06 00:00:00 -0500","original":"5-Feb-11","granularity":"day","time":"2011/02/05 00:00:00 -0500"},"geo_score":0.629,"type of crime":"Disturbance of peace","id":"a673dgjih8sl","geo_precision":"street","address":"800 block of S. Winthrop","state":"California"},"type":"Feature","geometry":{"type":"Point","coordinates":[-118.158306,34.086368]}},{"properties":{"city":"Alhambra, CA","code":4,"date":{"end_time":"2011/02/06 00:00:00 -0500","original":"5-Feb-11","granularity":"day","time":"2011/02/05 00:00:00 -0500"},"geo_score":0.549,"type of crime":"Assault","id":"a673dg76z8ye","geo_precision":"street","address":"500 block of N. Atlantic","state":"California"},"type":"Feature","geometry":{"type":"Point","coordinates":[-118.134602,34.089262]}}],"is_temporal":true,"author":{"url":"","metadata":"","contact_name":"","contact_address":"","source":"","contact_phone":""},"source":"","pagination":{"sort":null,"start":0,"total":65,"limit":1000000},"state":"complete","tags":"alhambra,and,assault,auto,crime,disturbance,grand,hit,of,peace,run,theft,vandalism","published":"2014-08-10T13:13:30-04:00","id":91565}