{"type":"FeatureCollection","data_type":"Dataset","url_type":null,"permissions":[{"permissions":{"download":true,"view":true},"group_id":"everyone"}],"classification":null,"title":"FarmLocations","count":140,"stream_id":93248,"contributor":{"url":"http://geocommons.com/users/10505","name":"smithcollegegis"},"data_attributes":null,"calculation_params":null,"icon_link":null,"link":"http://geocommons.com/overlays/93248.json","extent":[-115.474,0.0,0.0,62.0485],"geometry_types":["point"],"unique_name":null,"name":"FarmLocations","feature_count":140,"description":"","next_feature":null,"is_raster":false,"short_classification":"Y","stats":{"latitude":{"max":62.048531,"mean":42.1044321642857,"variance":26.6505744338635,"stdev":5.16241943606517,"min":0.0,"median":42.446969},"longitude":{"max":0.0,"mean":-70.8801712428571,"variance":184.311968483429,"stdev":13.5761544070266,"min":-115.474373,"median":-72.590795}},"features":[{"properties":{"Name":"Annie's Garden and Gift Store","City":"Amherst","latitude":42.425162,"desc_":"515 Sunderland Road, Amherst, MA","Phone":"413-549-6359","Link":"www.anniesgardenstore.com","State":"MA","color":null,"longitude":-72.538603,"id":"a62dt35561xx","Address":"515 Sunderland Road"},"type":"Feature","geometry":{"type":"Point","coordinates":[-72.538603,42.425162]}},{"properties":{"Name":"Brookfield Farm","City":"Amherst","latitude":42.315458,"desc_":"24 Hulst Road, Amherst, MA","Phone":"413-253-7991","Link":"www.brookfieldfarm.org","State":"MA","color":null,"longitude":-72.47682,"id":"a62dt2swlnpn","Address":"24 Hulst Road"},"type":"Feature","geometry":{"type":"Point","coordinates":[-72.47682,42.315458]}},{"properties":{"Name":"Cowls Lumber and Sawmill","City":"Amherst","latitude":42.414129,"desc_":"125 Sunderland Road, Amherst, MA","Phone":"413-549-0001","Link":"www.cowls.com","State":"MA","color":null,"longitude":-72.532016,"id":"a62dt2uo5ugu","Address":"125 Sunderland Road"},"type":"Feature","geometry":{"type":"Point","coordinates":[-72.532016,42.414129]}},{"properties":{"Name":"J &amp; J Farms","City":"Amherst","latitude":42.405047,"desc_":"324 Meadow Street, Amherst, MA","Phone":"413-549-1877","Link":null,"State":"MA","color":null,"longitude":-72.54236,"id":"a62dt32fvxd7","Address":"324 Meadow Street"},"type":"Feature","geometry":{"type":"Point","coordinates":[-72.54236,42.405047]}},{"properties":{"Name":"Simple Gifts Farms","City":"Amherst","latitude":42.406842,"desc_":"1089 North Pleasant Street, Amherst, MA","Phone":"413-323-9608","Link":null,"State":"MA","color":null,"longitude":-72.529758,"id":"a62dt33o0vse","Address":"1089 North Pleasant Street"},"type":"Feature","geometry":{"type":"Point","coordinates":[-72.529758,42.406842]}},{"properties":{"Name":"Apple Valley Galloways","City":"Ashfield","latitude":42.555817,"desc_":"1739 Hawley Road, Ashfield, MA","Phone":"413-628-4773","Link":null,"State":"MA","color":null,"longitude":-72.850845,"id":"a62dt35vwndy","Address":"1739 Hawley Road"},"type":"Feature","geometry":{"type":"Point","coordinates":[-72.850845,42.555817]}},{"properties":{"Name":"Cozie Nook Homestead","City":"Ashfield","latitude":42.545438,"desc_":"112 Stroeheker Road, Ashfield, MA","Phone":"413-628-3254","Link":null,"State":"MA","color":null,"longitude":-72.803829,"id":"a62dt2su1upq","Address":"112 Stroeheker Road"},"type":"Feature","geometry":{"type":"Point","coordinates":[-72.803829,42.545438]}},{"properties":{"Name":"Raspberry Patch Farm","City":"Ashfield","latitude":42.52425,"desc_":"80 March Road, Ashfield, MA","Phone":"413-834-1681","Link":"sworcester@eaglebrook.org","State":"MA","color":null,"longitude":-72.789711,"id":"a62dt2yv2gfu","Address":"80 March Road"},"type":"Feature","geometry":{"type":"Point","coordinates":[-72.789711,42.52425]}},{"properties":{"Name":"Sangha Farm","City":"Ashfield","latitude":42.50944,"desc_":"188 Creamery Road, Ashfield, MA","Phone":"413-628-0026","Link":null,"State":"MA","color":null,"longitude":-72.783441,"id":"a62dt2u492se","Address":"188 Creamery Road"},"type":"Feature","geometry":{"type":"Point","coordinates":[-72.783441,42.50944]}},{"properties":{"Name":"Steady Lane Farm","City":"Ashfield","latitude":42.522648,"desc_":"144 Steady Lane, Ashfield, MA","Phone":"413-628-4689","Link":"www.steadylanefarm.com","State":"MA","color":null,"longitude":-72.804871,"id":"a62dt32vdrhe","Address":"144 Steady Lane"},"type":"Feature","geometry":{"type":"Point","coordinates":[-72.804871,42.522648]}},{"properties":{"Name":"Stone Meadow Gardens","City":"Ashfield","latitude":42.50338,"desc_":"241 Dyer Road, Ashfield, MA","Phone":"413-628-3959","Link":"smgdaylilies@verizon.com","State":"MA","color":null,"longitude":-72.81122,"id":"a62dt31huwnn","Address":"241 Dyer Road"},"type":"Feature","geometry":{"type":"Point","coordinates":[-72.81122,42.50338]}},{"properties":{"Name":"Whitney Acre Farms","City":"Ashfield","latitude":42.52724,"desc_":"535 Main Street, Ashfield, MA","Phone":"413-628-3279","Link":"fwhitney@whitneyacres.com","State":"MA","color":null,"longitude":-72.79672,"id":"a62dt3658275","Address":"535 Main Street"},"type":"Feature","geometry":{"type":"Point","coordinates":[-72.79672,42.52724]}},{"properties":{"Name":"Hartman's Herb Farm","City":"Barre","latitude":42.423841,"desc_":"1026 Old Dana Road, Barre, MA","Phone":"978-355-2015","Link":"www.hartmansherbfarm.com","State":"MA","color":null,"longitude":-72.1826,"id":"a62dt2zqbdce","Address":"1026 Old Dana Road"},"type":"Feature","geometry":{"type":"Point","coordinates":[-72.1826,42.423841]}},{"properties":{"Name":"Shattuck's Sugar House","City":"Belchertown","latitude":42.311905,"desc_":"34 Kopec Avenue, Belchertown, MA","Phone":"413-323-7639","Link":"sha-tuck6@charter.net","State":"MA","color":null,"longitude":-72.404729,"id":"a62dt31k3dal","Address":"34 Kopec Avenue"},"type":"Feature","geometry":{"type":"Point","coordinates":[-72.404729,42.311905]}},{"properties":{"Name":"River-Maple Farm, Inc.","City":"Bernardston","latitude":42.687591,"desc_":"250 Brattleboro Road, Bernardston, MA","Phone":"413-648-9767","Link":null,"State":"MA","color":null,"longitude":-72.547615,"id":"a62dt32h3sh0","Address":"250 Brattleboro Road"},"type":"Feature","geometry":{"type":"Point","coordinates":[-72.547615,42.687591]}},{"properties":{"Name":"Silvery Moon Farm","City":"Bernardston","latitude":42.671893,"desc_":"4 Brattleboro Road, Bernardston, MA","Phone":"413-648-9580","Link":"www.silverymoonfarm.com","State":"MA","color":null,"longitude":-72.554376,"id":"a62dt2tqhjzr","Address":"4 Brattleboro Road"},"type":"Feature","geometry":{"type":"Point","coordinates":[-72.554376,42.671893]}},{"properties":{"Name":"Walnut Hill Farm","City":"Blandford","latitude":42.17386,"desc_":"Gibbs Road, Blandford, MA","Phone":"413-562-4916","Link":"walnutmetalroofing@verizon.net","State":"MA","color":null,"longitude":-73.02254,"id":"a62dt35ed54c","Address":"Gibbs Road"},"type":"Feature","geometry":{"type":"Point","coordinates":[-73.02254,42.17386]}},{"properties":{"Name":"River Rock Farm","City":"Brimfield","latitude":42.099682,"desc_":"81 Five Bridge Road, Brimfield, MA","Phone":"413-245-0249","Link":"www.riverrockfarm.com","State":"MA","color":null,"longitude":-72.158113,"id":"a62dt2y5fmu3","Address":"81 Five Bridge Road"},"type":"Feature","geometry":{"type":"Point","coordinates":[-72.158113,42.099682]}},{"properties":{"Name":"The Atherton Farm","City":"Buckland","latitude":42.57844,"desc_":"147 Ashfield Road, Buckland, MA","Phone":"413-625-2659","Link":null,"State":"MA","color":null,"longitude":-72.79994,"id":"a62dt32xsni3","Address":"147 Ashfield Road"},"type":"Feature","geometry":{"type":"Point","coordinates":[-72.79994,42.57844]}},{"properties":{"Name":"Johnson Hill Farm","City":"Buckland","latitude":42.591881,"desc_":"51 Hog Hollow Road, Buckland, MA","Phone":"413-625-6439","Link":"www.lavenderland.com","State":"MA","color":null,"longitude":-72.791672,"id":"a62dt2tfaau5","Address":"51 Hog Hollow Road"},"type":"Feature","geometry":{"type":"Point","coordinates":[-72.791672,42.591881]}},{"properties":{"Name":"Bear Mountain Farm","City":"Charlemont","latitude":42.644905,"desc_":"55 South Heath Road, Charlemont, MA","Phone":"413-339-0018","Link":null,"State":"MA","color":null,"longitude":-72.851355,"id":"a62dt35j740z","Address":"55 South Heath Road"},"type":"Feature","geometry":{"type":"Point","coordinates":[-72.851355,42.644905]}},{"properties":{"Name":"Blue Heron Farm","City":"Charlemont","latitude":42.648076,"desc_":"8 Warner Hill Road, Charlemont, MA","Phone":"413-339-4045","Link":"www.blueheronfarm.com","State":"MA","color":null,"longitude":-72.865054,"id":"a62dt2x40z7e","Address":"8 Warner Hill Road"},"type":"Feature","geometry":{"type":"Point","coordinates":[-72.865054,42.648076]}},{"properties":{"Name":"The Farmstead at Mine Brook","City":"Charlemont","latitude":42.643886,"desc_":"8 Mountain Road, Charlemont, MA","Phone":"413-339-8500","Link":"www.goatrising.com","State":"MA","color":null,"longitude":-72.865795,"id":"a62dt31pisq6","Address":"8 Mountain Road"},"type":"Feature","geometry":{"type":"Point","coordinates":[-72.865795,42.643886]}},{"properties":{"Name":"Wilder Brook Farm","City":"Charlemont","latitude":42.62809,"desc_":"399 West Oxbow Road, Charlemont, MA","Phone":"413-625-6967","Link":null,"State":"MA","color":null,"longitude":-72.870132,"id":"a62dt2uu0nib","Address":"399 West Oxbow Road"},"type":"Feature","geometry":{"type":"Point","coordinates":[-72.870132,42.62809]}},{"properties":{"Name":"Muddy Brook Farm","City":"Amherst","latitude":42.319962,"desc_":"200 Bay Road, Amherst, MA","Phone":"413-2537772","Link":"draftz@aol.com","State":"MA","color":null,"longitude":-72.51762,"id":"a62dt308y6m8","Address":"200 Bay Road"},"type":"Feature","geometry":{"type":"Point","coordinates":[-72.51762,42.319962]}},{"properties":{"Name":"Chester Hill Winery","City":"Chester","latitude":42.308645,"desc_":"47 Lyon Hill Road, Chester, MA","Phone":"413-354-2340","Link":"www.blueberrywine.com","State":"MA","color":null,"longitude":-72.939424,"id":"a62dt2snntgo","Address":"47 Lyon Hill Road"},"type":"Feature","geometry":{"type":"Point","coordinates":[-72.939424,42.308645]}},{"properties":{"Name":"Kelso Homestead","City":"Chester","latitude":42.278881,"desc_":"207 Bromley Road, Chester, MA","Phone":"413-354-6315","Link":null,"State":"MA","color":null,"longitude":-72.979301,"id":"a62dt2s4m9r6","Address":"207 Bromley Road"},"type":"Feature","geometry":{"type":"Point","coordinates":[-72.979301,42.278881]}},{"properties":{"Name":"McKinstry's Market Garden","City":"Chicopee","latitude":42.179871,"desc_":"753 Montgomery Street, Chicopee, MA","Phone":"413-536-2043","Link":null,"State":"MA","color":null,"longitude":-72.590795,"id":"a62dt2whcuw8","Address":"753 Montgomery Street"},"type":"Feature","geometry":{"type":"Point","coordinates":[-72.590795,42.179871]}},{"properties":{"Name":"Hager Bros. Farm","City":"Colrain","latitude":42.676703,"desc_":"11 Merrifield Lane, Colrain, MA","Phone":"413-624-3200","Link":"hagersmp@mtdata.com","State":"MA","color":null,"longitude":-72.755372,"id":"a62dt37ju20q","Address":"11 Merrifield Lane"},"type":"Feature","geometry":{"type":"Point","coordinates":[-72.755372,42.676703]}},{"properties":{"Name":"Moonshine Design at Keldaby","City":"Colrain","latitude":42.675675,"desc_":"12 Heath Road, Colrain, MA","Phone":"413-624-3090","Link":"www.keldaby.com","State":"MA","color":null,"longitude":-72.735566,"id":"a62dt2z8agxg","Address":"12 Heath Road"},"type":"Feature","geometry":{"type":"Point","coordinates":[-72.735566,42.675675]}},{"properties":{"Name":"Pine Hill Orchards","City":"Colrain","latitude":42.650549,"desc_":"248 Greenfield Road, Colrain, MA","Phone":"413-624-3325","Link":"pinehil@hotmail.com","State":"MA","color":null,"longitude":-72.675895,"id":"a62dt2zraoma","Address":"248 Greenfield Road"},"type":"Feature","geometry":{"type":"Point","coordinates":[-72.675895,42.650549]}},{"properties":{"Name":"Shoestring Farm","City":"Colrain","latitude":42.713013,"desc_":"168 Ed Clark Road, Colrain, MA","Phone":"413-624-3358","Link":"www.shoestringfarm.net","State":"MA","color":null,"longitude":-72.76335,"id":"a62dt2tjis0u","Address":"168 Ed Clark Road"},"type":"Feature","geometry":{"type":"Point","coordinates":[-72.76335,42.713013]}},{"properties":{"Name":"West Branch Farm","City":"Colrain","latitude":42.673035,"desc_":"159 Adamsville Road, Colrain, MA","Phone":"413-624-0215","Link":null,"State":"MA","color":null,"longitude":-72.7295,"id":"a62dt3693rmv","Address":"159 Adamsville Road"},"type":"Feature","geometry":{"type":"Point","coordinates":[-72.7295,42.673035]}},{"properties":{"Name":"West County Hard Ciders","City":"Colrain","latitude":42.67271,"desc_":"Colrain, MA","Phone":"413-624-3481","Link":"www.ciderday.org","State":"MA","color":null,"longitude":-72.696899,"id":"a62dt31hiir6","Address":null},"type":"Feature","geometry":{"type":"Point","coordinates":[-72.696899,42.67271]}},{"properties":{"Name":"Natural Roots","City":"Conway","latitude":42.531409,"desc_":"888 Shelburne Falls Road, Conway, MA","Phone":"413-369-4269","Link":"csa@naturalroots.com","State":"MA","color":null,"longitude":-72.700712,"id":"a62dt31tt0h0","Address":"888 Shelburne Falls Road"},"type":"Feature","geometry":{"type":"Point","coordinates":[-72.700712,42.531409]}},{"properties":{"Name":"Ciesluk Farm Stand","City":"Deerfield","latitude":42.546575,"desc_":"564 Greenfield Road, Deerfield, MA","Phone":"413-772-0790","Link":"cieslukcorn@comcast.net","State":"MA","color":null,"longitude":-72.600898,"id":"a62dt35z5hdv","Address":"564 Greenfield Road"},"type":"Feature","geometry":{"type":"Point","coordinates":[-72.600898,42.546575]}},{"properties":{"Name":"The Bars Farm","City":"Deerfield","latitude":42.51686,"desc_":"146 Mill Village Road, Deerfield, MA","Phone":"413-772-0259","Link":null,"State":"MA","color":null,"longitude":-72.619047,"id":"a62dt37uxli4","Address":"146 Mill Village Road"},"type":"Feature","geometry":{"type":"Point","coordinates":[-72.619047,42.51686]}},{"properties":{"Name":"Williams Farm, Inc.","City":"Deerfield","latitude":42.545485,"desc_":"36 Old Main Street, Deerfield, MA","Phone":"413-773-5186","Link":"wfii@shaysnet.com","State":"MA","color":null,"longitude":-72.604276,"id":"a62dt30ao72w","Address":"36 Old Main Street"},"type":"Feature","geometry":{"type":"Point","coordinates":[-72.604276,42.545485]}},{"properties":{"Name":"VAL's Farm","City":"East Longmeadow","latitude":42.051518,"desc_":"81 Parker Street, East Longmeadow, MA","Phone":"413-525-1565","Link":null,"State":"MA","color":null,"longitude":-72.470534,"id":"a62dt2z6edtc","Address":"81 Parker Street"},"type":"Feature","geometry":{"type":"Point","coordinates":[-72.470534,42.051518]}},{"properties":{"Name":"Mountain View Farm","City":"Easthampton","latitude":42.263283,"desc_":"393 East Street, Easthampton, MA","Phone":"413-329-0211","Link":"mountainviewfarmer@hotmail","State":"MA","color":null,"longitude":-72.64969,"id":"a62dt2zsbjb5","Address":"393 East Street"},"type":"Feature","geometry":{"type":"Point","coordinates":[-72.64969,42.263283]}},{"properties":{"Name":"E. Cecchi Farms","City":"Feeding Hills","latitude":42.068616,"desc_":"1131 Springfield Street, Feeding Hills, MA","Phone":"413-786-2489","Link":null,"State":"MA","color":null,"longitude":-72.667317,"id":"a62dt31dtnnr","Address":"1131 Springfield Street"},"type":"Feature","geometry":{"type":"Point","coordinates":[-72.667317,42.068616]}},{"properties":{"Name":"Fini's Plant Farm","City":"Feeding Hills","latitude":42.090519,"desc_":"217 James Street, Feeding Hills, MA","Phone":"800-342-2205","Link":null,"State":"MA","color":null,"longitude":-72.654714,"id":"a62dt303epy0","Address":"217 James Street"},"type":"Feature","geometry":{"type":"Point","coordinates":[-72.654714,42.090519]}},{"properties":{"Name":"Godard's Red Hen Farm","City":"Florence","latitude":42.338567,"desc_":"592 Sylvester Road, Florence, MA","Phone":"413-586-2575","Link":"godard@comcast.net","State":"MA","color":null,"longitude":-72.72456,"id":"a62dt2uut47d","Address":"592 Sylvester Road"},"type":"Feature","geometry":{"type":"Point","coordinates":[-72.72456,42.338567]}},{"properties":{"Name":"Songline Emu Farm","City":"Gill","latitude":42.609425,"desc_":"66 French King Highway, Gill, MA","Phone":"413-863-2700","Link":"www.allaboutemu.com","State":"MA","color":null,"longitude":-72.541038,"id":"a62dt2sra03d","Address":"66 French King Highway"},"type":"Feature","geometry":{"type":"Point","coordinates":[-72.541038,42.609425]}},{"properties":{"Name":"Upinngil","City":"Gill","latitude":42.647423,"desc_":"411 Main Road, Gill, MA","Phone":"413-863-2297","Link":"pickens@crocker.com","State":"MA","color":null,"longitude":-72.488883,"id":"a62dt385tvvy","Address":"411 Main Road"},"type":"Feature","geometry":{"type":"Point","coordinates":[-72.488883,42.647423]}},{"properties":{"Name":"Breezy Acres Farm","City":"Granby","latitude":42.248936,"desc_":"25 Pleasant Street, Granby, MA","Phone":"413-467-3276","Link":null,"State":"MA","color":null,"longitude":-72.551452,"id":"a62dt2xcj5sw","Address":"25 Pleasant Street"},"type":"Feature","geometry":{"type":"Point","coordinates":[-72.551452,42.248936]}},{"properties":{"Name":"Dickinson Farm &amp; Greenhouses","City":"Granby","latitude":42.261987,"desc_":"309 East State Street (Route 202), Granby, MA","Phone":"413-467-3794","Link":null,"State":"MA","color":null,"longitude":-72.50637,"id":"a62dt34s7cpr","Address":"309 East State Street (Route 202)"},"type":"Feature","geometry":{"type":"Point","coordinates":[-72.50637,42.261987]}},{"properties":{"Name":"Red Fire Farm","City":"Granby","latitude":42.226149,"desc_":"7 Carver Street, Granby, MA","Phone":"413-467-SOIL","Link":"www.redfirefarm.com","State":"MA","color":null,"longitude":-72.49568,"id":"a62dt2wu1w6f","Address":"7 Carver Street"},"type":"Feature","geometry":{"type":"Point","coordinates":[-72.49568,42.226149]}},{"properties":{"Name":"Sapowsky Farms","City":"Granby","latitude":42.264462,"desc_":"436 East State Street (Route 202), Granby, MA","Phone":"413-467-7952","Link":"tsapowsky@the-spa.com","State":"MA","color":null,"longitude":-72.483572,"id":"a62dt2sr44zd","Address":"436 East State Street (Route 202)"},"type":"Feature","geometry":{"type":"Point","coordinates":[-72.483572,42.264462]}},{"properties":{"Name":"Gran-Val Scoop","City":"Granville","latitude":42.05227,"desc_":"233 Granby Road (Route 189), Granville, MA","Phone":"413-357-6632","Link":"www.gran-valscoop.com","State":"MA","color":null,"longitude":-72.858681,"id":"a62dt2zhr3oy","Address":"233 Granby Road (Route 189)"},"type":"Feature","geometry":{"type":"Point","coordinates":[-72.858681,42.05227]}},{"properties":{"Name":"Maple Corner Farm","City":"Granville","latitude":42.12292,"desc_":"794 Beech Hill Road, Granville, MA","Phone":"413-357-8829","Link":null,"State":"MA","color":null,"longitude":-72.95096,"id":"a62dt2u0xrtv","Address":"794 Beech Hill Road"},"type":"Feature","geometry":{"type":"Point","coordinates":[-72.95096,42.12292]}},{"properties":{"Name":"Mountain Orchard","City":"Granville","latitude":42.067341,"desc_":"668 Main Road, Granville, MA","Phone":"413-357-8877","Link":"eajensen@juno.com","State":"MA","color":null,"longitude":-72.877584,"id":"a62dt31y2khn","Address":"668 Main Road"},"type":"Feature","geometry":{"type":"Point","coordinates":[-72.877584,42.067341]}},{"properties":{"Name":"Bostrom Farm","City":"Greenfield","latitude":42.616,"desc_":"701 Colrain Road, Greenfield, MA","Phone":"413-772-3732","Link":"www.bostromfarm.com","State":"MA","color":null,"longitude":-72.632689,"id":"a62dt32z6g1l","Address":"701 Colrain Road"},"type":"Feature","geometry":{"type":"Point","coordinates":[-72.632689,42.616]}},{"properties":{"Name":"Glenbrook Gardens","City":"Greenfield","latitude":42.643381,"desc_":"56 Glenbrook Drive, Greenfield, MA","Phone":"413-773-8342","Link":null,"State":"MA","color":null,"longitude":-72.611648,"id":"a62dt35dahdl","Address":"56 Glenbrook Drive"},"type":"Feature","geometry":{"type":"Point","coordinates":[-72.611648,42.643381]}},{"properties":{"Name":"Martin's Farm","City":"Greenfield","latitude":42.626799,"desc_":"373 Plain Road, Greenfield, MA","Phone":"413-774-5631","Link":"www.martinsfarmrecycling.com","State":"MA","color":null,"longitude":-72.625789,"id":"a62dt2viwimi","Address":"373 Plain Road"},"type":"Feature","geometry":{"type":"Point","coordinates":[-72.625789,42.626799]}},{"properties":{"Name":"Webb Farm","City":"Greenfield","latitude":42.641925,"desc_":"683 Leyden Road, Greenfield, MA","Phone":"413-774-3470","Link":null,"State":"MA","color":null,"longitude":-72.607712,"id":"a62dt2w9pynb","Address":"683 Leyden Road"},"type":"Feature","geometry":{"type":"Point","coordinates":[-72.607712,42.641925]}},{"properties":{"Name":"Cook Farm","City":"Hadley","latitude":42.331696,"desc_":"129 South Maple Street, Hadley, MA","Phone":"413-584-2224","Link":"www.cookfarm.com","State":"MA","color":null,"longitude":-72.549736,"id":"a62dt2xb5tjv","Address":"129 South Maple Street"},"type":"Feature","geometry":{"type":"Point","coordinates":[-72.549736,42.331696]}},{"properties":{"Name":"Devine Farm, Inc.","City":"Hadley","latitude":42.396366,"desc_":"22 Roosevelt Street, Hadley, MA","Phone":"413-549-6953","Link":"m.fitzgibbon@worldnet.att.net","State":"MA","color":null,"longitude":-72.546657,"id":"a62dt32441xt","Address":"22 Roosevelt Street"},"type":"Feature","geometry":{"type":"Point","coordinates":[-72.546657,42.396366]}},{"properties":{"Name":"Food Bank Farm","City":"Hadley","latitude":42.333665,"desc_":"121 Bay Road, Hadley, MA","Phone":"413-582-0013","Link":"foodbankfarm@yahoo.com","State":"MA","color":null,"longitude":-72.581988,"id":"a62dt2we5lc7","Address":"121 Bay Road"},"type":"Feature","geometry":{"type":"Point","coordinates":[-72.581988,42.333665]}},{"properties":{"Name":"Garden of Delights","City":"Hadley","latitude":42.356297,"desc_":"20 Rocky Hill Road, Hadley, MA","Phone":"413-584-8970","Link":"smnorris@rcn.com","State":"MA","color":null,"longitude":-72.581287,"id":"a62dt2updk1j","Address":"20 Rocky Hill Road"},"type":"Feature","geometry":{"type":"Point","coordinates":[-72.581287,42.356297]}},{"properties":{"Name":"Lakeside PYO Strawberries","City":"Hadley","latitude":42.33992,"desc_":"Route 47, Hadley, MA","Phone":"413-237-2615","Link":null,"State":"MA","color":null,"longitude":-72.58902,"id":"a62dt2vzee2i","Address":"Route 47"},"type":"Feature","geometry":{"type":"Point","coordinates":[-72.58902,42.33992]}},{"properties":{"Name":"Mapleline Farm","City":"Hadley","latitude":42.410049,"desc_":"78 Comins Road, Hadley, MA","Phone":"413-549-6174","Link":"www.maplelinefarm.com","State":"MA","color":null,"longitude":-72.551137,"id":"a62dt36luxou","Address":"78 Comins Road"},"type":"Feature","geometry":{"type":"Point","coordinates":[-72.551137,42.410049]}},{"properties":{"Name":"North Hadley Sugar Shack","City":"Hadley","latitude":42.379876,"desc_":"181 River Drive, Hadley, MA","Phone":"413-585-8820","Link":"www.northhadleysugarshack.com","State":"MA","color":null,"longitude":-72.585049,"id":"a62dt33z2whj","Address":"181 River Drive"},"type":"Feature","geometry":{"type":"Point","coordinates":[-72.585049,42.379876]}},{"properties":{"Name":"The Kitchen Garden","City":"Hadley","latitude":42.33992,"desc_":"Norwottuck Rail Trail at West Street, Hadley, MA","Phone":"413-387-5163","Link":"www.kitchengardenfarm.com","State":"MA","color":null,"longitude":-72.58902,"id":"a62dt2xyygvc","Address":"Norwottuck Rail Trail at West Street"},"type":"Feature","geometry":{"type":"Point","coordinates":[-72.58902,42.33992]}},{"properties":{"Name":"Twenty Acre Farm","City":"Hadley","latitude":42.405329,"desc_":"351 River Drive (Route 47), Hadley, MA","Phone":"413-549-5708","Link":null,"State":"MA","color":null,"longitude":-72.564938,"id":"a62dt2w2uoe7","Address":"351 River Drive (Route 47)"},"type":"Feature","geometry":{"type":"Point","coordinates":[-72.564938,42.405329]}},{"properties":{"Name":"Twin Oaks Farm","City":"Hadley","latitude":42.389082,"desc_":"116 Stockbridge Street, Hadley, MA","Phone":"413-549-0016","Link":null,"State":"MA","color":null,"longitude":-72.546685,"id":"a62dt2x5nmpw","Address":"116 Stockbridge Street"},"type":"Feature","geometry":{"type":"Point","coordinates":[-72.546685,42.389082]}},{"properties":{"Name":"Chestnut Farms","City":"Hardwick","latitude":42.328288,"desc_":"404 Turkey Street, Hardwick, MA","Phone":"413-477-6656","Link":null,"State":"MA","color":null,"longitude":-72.215024,"id":"a62dt2vnnd2h","Address":"404 Turkey Street"},"type":"Feature","geometry":{"type":"Point","coordinates":[-72.215024,42.328288]}},{"properties":{"Name":"Golden Egg Farm","City":"Hardwick","latitude":42.337455,"desc_":"150 Lucas Road, Hardwick, MA","Phone":"413-477-8872","Link":"www.goldeneggfarm.com","State":"MA","color":null,"longitude":-72.208385,"id":"a62dt310yz7g","Address":"150 Lucas Road"},"type":"Feature","geometry":{"type":"Point","coordinates":[-72.208385,42.337455]}},{"properties":{"Name":"Hardwick Sugar Shack","City":"Hardwick","latitude":42.383551,"desc_":"572 Jackson Road, Hardwick, MA","Phone":"413-477-0932","Link":"www.hardwicksugarshack.com","State":"MA","color":null,"longitude":-72.189352,"id":"a62dt2wmfhri","Address":"572 Jackson Road"},"type":"Feature","geometry":{"type":"Point","coordinates":[-72.189352,42.383551]}},{"properties":{"Name":"Hardwick Vineyard and Winery","City":"Hardwick","latitude":42.34919,"desc_":"3305 Greenwich Road, Hardwick, MA","Phone":"413-967-7763","Link":"www.hardwickwinery.com","State":"MA","color":null,"longitude":-72.199211,"id":"a62dt2s8t7f2","Address":"3305 Greenwich Road"},"type":"Feature","geometry":{"type":"Point","coordinates":[-72.199211,42.34919]}},{"properties":{"Name":"Robinson Farm","City":"Hardwick","latitude":42.371425,"desc_":"201 Jackson Road, Hardwick, MA","Phone":"413-477-6988","Link":"www.robinsonfarm.com","State":"MA","color":null,"longitude":-72.190016,"id":"a62dt37khmvx","Address":"201 Jackson Road"},"type":"Feature","geometry":{"type":"Point","coordinates":[-72.190016,42.371425]}},{"properties":{"Name":"Burnt Hill Farm","City":"Heath","latitude":42.673069,"desc_":"118 Flagg Hill Road, Heath, MA","Phone":"413-337-4454","Link":"burnthillberries@aol.com","State":"MA","color":null,"longitude":-72.822144,"id":"a62dt35ab6n5","Address":"118 Flagg Hill Road"},"type":"Feature","geometry":{"type":"Point","coordinates":[-72.822144,42.673069]}},{"properties":{"Name":"Freeman Farm","City":"Heath","latitude":42.648075,"desc_":"20 Town Farm Road, Heath, MA","Phone":"413-337-4766","Link":null,"State":"MA","color":null,"longitude":-72.840083,"id":"a62dt328mfxq","Address":"20 Town Farm Road"},"type":"Feature","geometry":{"type":"Point","coordinates":[-72.840083,42.648075]}},{"properties":{"Name":"The Benson Place","City":"Heath","latitude":42.673069,"desc_":"182 Flagg Hill Road, Heath, MA","Phone":"413-337-5340","Link":"benplace@gis.net","State":"MA","color":null,"longitude":-72.822144,"id":"a62dt2x08pmt","Address":"182 Flagg Hill Road"},"type":"Feature","geometry":{"type":"Point","coordinates":[-72.822144,42.673069]}},{"properties":{"Name":"Winterberry Farm","City":"Leverett","latitude":42.434665,"desc_":"21 Teawaddle Hill Road, Leverett, MA","Phone":"413-548-3940","Link":"www.winterberryfarm.org","State":"MA","color":null,"longitude":-72.507117,"id":"a62dt2t4pfvr","Address":"21 Teawaddle Hill Road"},"type":"Feature","geometry":{"type":"Point","coordinates":[-72.507117,42.434665]}},{"properties":{"Name":"Bree-Z-Knoll","City":"Leyden","latitude":42.612367,"desc_":"160 North Country Road, Leyden, MA","Phone":"413-774-3757","Link":null,"State":"MA","color":null,"longitude":-72.599433,"id":"a62dt32wegp9","Address":"160 North Country Road"},"type":"Feature","geometry":{"type":"Point","coordinates":[-72.599433,42.612367]}},{"properties":{"Name":"Dancing Bear Farm","City":"Leyden","latitude":42.692506,"desc_":"181 Frizzell Hill, Leyden, MA","Phone":"413-774-2021","Link":"www.dancingbearfarm.com","State":"MA","color":null,"longitude":-72.605348,"id":"a62dt32cvxbu","Address":"181 Frizzell Hill"},"type":"Feature","geometry":{"type":"Point","coordinates":[-72.605348,42.692506]}},{"properties":{"Name":"Randall's Farm and Greenhouse","City":"Ludlow","latitude":42.179547,"desc_":"631 Center Street (Route 21), Ludlow, MA","Phone":"413-589-7071","Link":null,"State":"MA","color":null,"longitude":-72.471841,"id":"a62dt30udvs2","Address":"631 Center Street (Route 21)"},"type":"Feature","geometry":{"type":"Point","coordinates":[-72.471841,42.179547]}},{"properties":{"Name":"Koran's Farm","City":"Monson","latitude":42.09337,"desc_":"160 East Hill Road, Monson, MA","Phone":"413-267-3396","Link":null,"State":"MA","color":null,"longitude":-72.288776,"id":"a62dt31a5p5p","Address":"160 East Hill Road"},"type":"Feature","geometry":{"type":"Point","coordinates":[-72.288776,42.09337]}},{"properties":{"Name":"Echo Hill Orchards","City":"Monson","latitude":42.10773,"desc_":"101 Wilbraham Road, Monson, MA","Phone":"413-267-3303","Link":null,"State":"MA","color":null,"longitude":-72.347573,"id":"a62dt2uk7xqu","Address":"101 Wilbraham Road"},"type":"Feature","geometry":{"type":"Point","coordinates":[-72.347573,42.10773]}},{"properties":{"Name":"Brook's Bend Farm","City":"Montague","latitude":42.518139,"desc_":"119 Old Sunderland Road, Montague, MA","Phone":"413-367-2281","Link":null,"State":"MA","color":null,"longitude":-72.542716,"id":"a62dt375tvil","Address":"119 Old Sunderland Road"},"type":"Feature","geometry":{"type":"Point","coordinates":[-72.542716,42.518139]}},{"properties":{"Name":"Gardner Farm","City":"Montague","latitude":42.550394,"desc_":"442 Turners Falls Road, Montague, MA","Phone":"413-367-2021","Link":null,"State":"MA","color":null,"longitude":-72.53332,"id":"a62dt2ygvbdf","Address":"442 Turners Falls Road"},"type":"Feature","geometry":{"type":"Point","coordinates":[-72.53332,42.550394]}},{"properties":{"Name":"Old Depot Gardens","City":"Montague","latitude":42.543618,"desc_":"504 Turners Falls Road, Montague, MA","Phone":"413-367-2395","Link":"www.redfirefarm.com","State":"MA","color":null,"longitude":-72.535038,"id":"a62dt382yj5q","Address":"504 Turners Falls Road"},"type":"Feature","geometry":{"type":"Point","coordinates":[-72.535038,42.543618]}},{"properties":{"Name":"Ripley Farm Sugarhouse","City":"Montague","latitude":42.513238,"desc_":"11 West Chestnut Hill Road, Montague, MA","Phone":"413-367-2031","Link":null,"State":"MA","color":null,"longitude":-72.500392,"id":"a62dt2vchu5z","Address":"11 West Chestnut Hill Road"},"type":"Feature","geometry":{"type":"Point","coordinates":[-72.500392,42.513238]}},{"properties":{"Name":"Three Sisters Farm","City":"Montague","latitude":42.55952,"desc_":"Greenfield Road, Montague, MA","Phone":"413-774-3170","Link":"info@threesistersfarm.com","State":"MA","color":null,"longitude":-72.5507,"id":"a62dt34f7fsi","Address":"Greenfield Road"},"type":"Feature","geometry":{"type":"Point","coordinates":[-72.5507,42.55952]}},{"properties":{"Name":"Hamilton Orchards","City":"New Salem","latitude":42.488064,"desc_":"25 West Street, New Salem, MA","Phone":"978-544-6867","Link":"hamilton@crystal-mtn.com","State":"MA","color":null,"longitude":-72.345602,"id":"a62dt31ossk4","Address":"25 West Street"},"type":"Feature","geometry":{"type":"Point","coordinates":[-72.345602,42.488064]}},{"properties":{"Name":"New Salem Preserves","City":"New Salem","latitude":42.49376,"desc_":"67 South Main Street, New Salem, MA","Phone":"978-544-3437","Link":"carolbhillman@rcn.com","State":"MA","color":null,"longitude":-72.33111,"id":"a62dt306oziv","Address":"67 South Main Street"},"type":"Feature","geometry":{"type":"Point","coordinates":[-72.33111,42.49376]}},{"properties":{"Name":"Valley View Farm","City":"New Salem","latitude":42.533477,"desc_":"305 Wendell Road, New Salem, MA","Phone":"978-544-7834","Link":"cuneovalleyview@aol.com","State":"MA","color":null,"longitude":-72.356644,"id":"a62dt2ygqw5p","Address":"305 Wendell Road"},"type":"Feature","geometry":{"type":"Point","coordinates":[-72.356644,42.533477]}},{"properties":{"Name":"Hickory Dell Farm","City":"Northampton","latitude":42.30104,"desc_":"245 West Farms Road, Northampton, MA","Phone":"413-586-0031","Link":"www.hickorydell.com","State":"MA","color":null,"longitude":-72.716818,"id":"a62dt2xc7nsp","Address":"245 West Farms Road"},"type":"Feature","geometry":{"type":"Point","coordinates":[-72.716818,42.30104]}},{"properties":{"Name":"Sojourner Sheep","City":"Northampton","latitude":42.35274,"desc_":"North Farms Road, Northampton, MA","Phone":"413-586-4822","Link":"www.sojournersheep.com","State":"MA","color":null,"longitude":-72.6734,"id":"a62dt2ztwync","Address":"North Farms Road"},"type":"Feature","geometry":{"type":"Point","coordinates":[-72.6734,42.35274]}},{"properties":{"Name":"Chee Chee Mamook Farm","City":"Northfield","latitude":42.713036,"desc_":"341 Caldwell Road, Northfield, MA","Phone":"413-498-2160","Link":"www.cheecheemamook.com","State":"MA","color":null,"longitude":-72.458085,"id":"a62dt2wjnb9z","Address":"341 Caldwell Road"},"type":"Feature","geometry":{"type":"Point","coordinates":[-72.458085,42.713036]}},{"properties":{"Name":"Northfield Mount Hermon Farm","City":"Northfield","latitude":42.696121,"desc_":"Northfield, MA","Phone":"413-498-3467","Link":"www.nmhschool.org/farm/index.php","State":"MA","color":null,"longitude":-72.450691,"id":"a62dt2xvk891","Address":null},"type":"Feature","geometry":{"type":"Point","coordinates":[-72.450691,42.696121]}},{"properties":{"Name":"Northwoods Forest Products","City":"Northfield","latitude":42.645671,"desc_":"675 Gulf Road, Northfield, MA","Phone":"413-498-5335","Link":null,"State":"MA","color":null,"longitude":-72.413492,"id":"a62dt30s8gvw","Address":"675 Gulf Road"},"type":"Feature","geometry":{"type":"Point","coordinates":[-72.413492,42.645671]}},{"properties":{"Name":"Rock Ridge Farm","City":"Northfield","latitude":42.685068,"desc_":"2 Main Street, Northfield, MA","Phone":"413-498-5520","Link":null,"State":"MA","color":null,"longitude":-72.460148,"id":"a62dt2zxne1x","Address":"2 Main Street"},"type":"Feature","geometry":{"type":"Point","coordinates":[-72.460148,42.685068]}},{"properties":{"Name":"Heyes Forest Products","City":"Orange","latitude":42.563868,"desc_":"34 Daniel Shays Highway, Orange, MA","Phone":"978-544-8801","Link":"info@heyesforest.com","State":"MA","color":null,"longitude":-72.279747,"id":"a62dt2t9jfn5","Address":"34 Daniel Shays Highway"},"type":"Feature","geometry":{"type":"Point","coordinates":[-72.279747,42.563868]}},{"properties":{"Name":"Seeds of Solidarity Farm","City":"Orange","latitude":42.557118,"desc_":"165 Chestnut Hill Road, Orange, MA","Phone":"978-544-7564","Link":"www.seedsofsolidarity.org","State":"MA","color":null,"longitude":-72.342098,"id":"a62dt30k0dz1","Address":"165 Chestnut Hill Road"},"type":"Feature","geometry":{"type":"Point","coordinates":[-72.342098,42.557118]}},{"properties":{"Name":"Manda Farm","City":"Plainfield","latitude":42.502278,"desc_":"25 Pleasant Street, Plainfield, MA","Phone":"413-634-5333","Link":"www.mandafarm.com","State":"MA","color":null,"longitude":-72.897597,"id":"a62dt2u7hlb0","Address":"25 Pleasant Street"},"type":"Feature","geometry":{"type":"Point","coordinates":[-72.897597,42.502278]}},{"properties":{"Name":"Apex Orchards, Inc.","City":"Shelburne","latitude":42.619362,"desc_":"153 Peckville Road, Shelburne, MA","Phone":"413-625-2744","Link":null,"State":"MA","color":null,"longitude":-72.659784,"id":"a62dt2yvr46v","Address":"153 Peckville Road"},"type":"Feature","geometry":{"type":"Point","coordinates":[-72.659784,42.619362]}},{"properties":{"Name":"Foxbard Farm","City":"Shelburne","latitude":42.56599,"desc_":"400 Bardwells Ferry Road, Shelburne, MA","Phone":"413-625-4604","Link":"farmjam@msn.com","State":"MA","color":null,"longitude":-72.669178,"id":"a62dt370ooh4","Address":"400 Bardwells Ferry Road"},"type":"Feature","geometry":{"type":"Point","coordinates":[-72.669178,42.56599]}},{"properties":{"Name":"Foxfire Fiber &amp; Designs","City":"Shelburne","latitude":42.621268,"desc_":"135 Reynolds Road, Shelburne, MA","Phone":"413-625-6121","Link":"www.foxfirefiber.com","State":"MA","color":null,"longitude":-72.69368,"id":"a62dt2t73r4p","Address":"135 Reynolds Road"},"type":"Feature","geometry":{"type":"Point","coordinates":[-72.69368,42.621268]}},{"properties":{"Name":"Kenburn Orchards","City":"Shelburne","latitude":42.609621,"desc_":"1394 Mohawk Trail, Shelburne, MA","Phone":"413-625-6116","Link":"www.kenburnorchards.com","State":"MA","color":null,"longitude":-72.656234,"id":"a62dt2sd2isk","Address":"1394 Mohawk Trail"},"type":"Feature","geometry":{"type":"Point","coordinates":[-72.656234,42.609621]}},{"properties":{"Name":"Craigieburn Farm Alpacas","City":"Shutesbury","latitude":42.435495,"desc_":"243 W. Pelham Road, Shutesbury, MA","Phone":"413-253-4485","Link":"steve.rice@alpacas4u.com","State":"MA","color":null,"longitude":-72.434281,"id":"a62dt2xdidbh","Address":"243 W. Pelham Road"},"type":"Feature","geometry":{"type":"Point","coordinates":[-72.434281,42.435495]}},{"properties":{"Name":"Atlas Farm","City":"South Deerfield","latitude":53.34861,"desc_":"8 Pine Street, South Deerfield, MA","Phone":"413-665-6827","Link":"www.atlasfarm.com","State":"MA","color":null,"longitude":-6.31213,"id":"a62dt2ygcp3b","Address":"8 Pine Street"},"type":"Feature","geometry":{"type":"Point","coordinates":[-6.31213,53.34861]}},{"properties":{"Name":"Deerfield Farm","City":"South Deerfield","latitude":32.65274,"desc_":"218 Greenfield Road, South Deerfield, MA","Phone":"413-665-5025","Link":null,"State":"MA","color":null,"longitude":-115.474373,"id":"a62dt2zst9yh","Address":"218 Greenfield Road"},"type":"Feature","geometry":{"type":"Point","coordinates":[-115.474373,32.65274]}},{"properties":{"Name":"Enterprise Farm","City":"South Deerfield","latitude":42.474903,"desc_":"72 River Road, South Deerfield, MA","Phone":"413-665-8608","Link":null,"State":"MA","color":null,"longitude":-72.581115,"id":"a62dt2v74fvy","Address":"72 River Road"},"type":"Feature","geometry":{"type":"Point","coordinates":[-72.581115,42.474903]}},{"properties":{"Name":"M &amp; M's Green Valley Produce","City":"South Deerfield","latitude":42.509736,"desc_":"282 Greenfield Road, South Deerfield, MA","Phone":"413-665-8539","Link":"maryloumorawski@msn.com","State":"MA","color":null,"longitude":-72.604962,"id":"a62dt36m1wyz","Address":"282 Greenfield Road"},"type":"Feature","geometry":{"type":"Point","coordinates":[-72.604962,42.509736]}},{"properties":{"Name":"Massachusetts Woodlands Co-Op","City":"South Deerfield","latitude":42.476429,"desc_":"South Deerfield, MA","Phone":null,"Link":"www.masswoodlands.coop","State":"MA","color":null,"longitude":-72.608833,"id":"a62dt2v9mdtm","Address":null},"type":"Feature","geometry":{"type":"Point","coordinates":[-72.608833,42.476429]}},{"properties":{"Name":"Pine Nook Daylilies","City":"South Deerfield","latitude":42.506148,"desc_":"307 River Road, South Deerfield, MA","Phone":"413-665-7137","Link":"bcsjr@crocker.com","State":"MA","color":null,"longitude":-72.567779,"id":"a62dt33syeut","Address":"307 River Road"},"type":"Feature","geometry":{"type":"Point","coordinates":[-72.567779,42.506148]}},{"properties":{"Name":"Stockbridge Farm","City":"South Deerfield","latitude":42.484241,"desc_":"18 Stockbridge Road, South Deerfield, MA","Phone":"413-665-6918","Link":"www.stockbridgeherbs.com","State":"MA","color":null,"longitude":-72.633242,"id":"a62dt2w1t5gu","Address":"18 Stockbridge Road"},"type":"Feature","geometry":{"type":"Point","coordinates":[-72.633242,42.484241]}},{"properties":{"Name":"Warm Colors Apiary","City":"South Deerfield","latitude":53.338848,"desc_":"2 South Mill River Road, South Deerfield, MA","Phone":"413-665-4513","Link":"www.warmcolorsapiary.com","State":"MA","color":null,"longitude":-6.24957,"id":"a62dt2wl93mp","Address":"2 South Mill River Road"},"type":"Feature","geometry":{"type":"Point","coordinates":[-6.24957,53.338848]}},{"properties":{"Name":"Lukasik Game Farm","City":"South Hadley","latitude":42.330639,"desc_":"Pearl Street, South Hadley, MA","Phone":"413-534-5697","Link":"www.lukasikgamefarm.com","State":"MA","color":null,"longitude":-72.669922,"id":"a62dt309yn8x","Address":"Pearl Street"},"type":"Feature","geometry":{"type":"Point","coordinates":[-72.669922,42.330639]}},{"properties":{"Name":"Bashista Orchards","City":"Southampton","latitude":42.214066,"desc_":"160 East Street, Southampton, MA","Phone":"413-527-9091","Link":null,"State":"MA","color":null,"longitude":-72.699765,"id":"a62dt2v9nilv","Address":"160 East Street"},"type":"Feature","geometry":{"type":"Point","coordinates":[-72.699765,42.214066]}},{"properties":{"Name":"Cold Spring Chicken Ranch","City":"Southampton","latitude":42.258265,"desc_":"43 Cold Spring Road, Southampton, MA","Phone":"413-527-3753","Link":null,"State":"MA","color":null,"longitude":-72.729348,"id":"a62dt357v6u8","Address":"43 Cold Spring Road"},"type":"Feature","geometry":{"type":"Point","coordinates":[-72.729348,42.258265]}},{"properties":{"Name":"Calabrese Farms","City":"Southwick","latitude":42.063677,"desc_":"257 Feeding Hills Road, Southwick, MA","Phone":"413-569-6417","Link":null,"State":"MA","color":null,"longitude":-72.721868,"id":"a62dt330c8xi","Address":"257 Feeding Hills Road"},"type":"Feature","geometry":{"type":"Point","coordinates":[-72.721868,42.063677]}},{"properties":{"Name":"Harvest Moon Organics","City":"Southwick","latitude":42.016273,"desc_":"120 College Highway, Southwick, MA","Phone":"413-569-5243","Link":null,"State":"MA","color":null,"longitude":-72.792388,"id":"a62dt2we36ag","Address":"120 College Highway"},"type":"Feature","geometry":{"type":"Point","coordinates":[-72.792388,42.016273]}},{"properties":{"Name":"Riverland Farm","City":"Sunderland","latitude":42.446969,"desc_":"197 River Road, Sunderland, MA","Phone":"413-665-2041","Link":"www.riverlandfarm.com","State":"MA","color":null,"longitude":-72.5852,"id":"a62dt37j80ex","Address":"197 River Road"},"type":"Feature","geometry":{"type":"Point","coordinates":[-72.5852,42.446969]}},{"properties":{"Name":"Smiarowski Farm Stand","City":"Sunderland","latitude":42.441867,"desc_":"320 River Road, Sunderland, MA","Phone":"413-665-3830","Link":null,"State":"MA","color":null,"longitude":-72.583184,"id":"a62dt2tr0xui","Address":"320 River Road"},"type":"Feature","geometry":{"type":"Point","coordinates":[-72.583184,42.441867]}},{"properties":{"Name":"Warner Farm","City":"Sunderland","latitude":42.455306,"desc_":"159 Old Amherst Road, Sunderland, MA","Phone":"413-665-8331","Link":"wiseacre04@comcast.net","State":"MA","color":null,"longitude":-72.568633,"id":"a62dt2xdhhg5","Address":"159 Old Amherst Road"},"type":"Feature","geometry":{"type":"Point","coordinates":[-72.568633,42.455306]}},{"properties":{"Name":"King Creek Farm","City":"Ware","latitude":42.262192,"desc_":"337 Belchertown Road, Ware, MA","Phone":"413-687-3969","Link":"www.kingscreekfarm.com","State":"MA","color":null,"longitude":-72.282256,"id":"a62dt2yqbth5","Address":"337 Belchertown Road"},"type":"Feature","geometry":{"type":"Point","coordinates":[-72.282256,42.262192]}},{"properties":{"Name":"Chase Hill Farm","City":"Warwick","latitude":42.682736,"desc_":"74 Chase Hill Road, Warwick, MA","Phone":"978-544-6327","Link":null,"State":"MA","color":null,"longitude":-72.300001,"id":"a62dt2zymj2f","Address":"74 Chase Hill Road"},"type":"Feature","geometry":{"type":"Point","coordinates":[-72.300001,42.682736]}},{"properties":{"Name":"Diemand Farm","City":"Wendell","latitude":42.582896,"desc_":"124 Mormon Hollow Road, Wendell, MA","Phone":"978-544-3806","Link":null,"State":"MA","color":null,"longitude":-72.447981,"id":"a62dt2vn9ivi","Address":"124 Mormon Hollow Road"},"type":"Feature","geometry":{"type":"Point","coordinates":[-72.447981,42.582896]}},{"properties":{"Name":"Kosinski Farms","City":"Westfield","latitude":42.189573,"desc_":"420 Russellvill Road, Westfield, MA","Phone":"413-562-4643","Link":"www.kosinskifarms.com","State":"MA","color":null,"longitude":-72.761787,"id":"a62dt2zb6ejb","Address":"420 Russellvill Road"},"type":"Feature","geometry":{"type":"Point","coordinates":[-72.761787,42.189573]}},{"properties":{"Name":"Hanging Mountain Farm","City":"Westhampton","latitude":42.324828,"desc_":"188 North Road, Westhampton, MA","Phone":"413-527-0710","Link":"www.hangingmountainfarms.com","State":"MA","color":null,"longitude":-72.754487,"id":"a62dt36drikp","Address":"188 North Road"},"type":"Feature","geometry":{"type":"Point","coordinates":[-72.754487,42.324828]}},{"properties":{"Name":"Intervale Farm","City":"Westhampton","latitude":42.292195,"desc_":"106 South Road, Westhampton, MA","Phone":"413-527-5440","Link":"intervale5@comcast.net","State":"MA","color":null,"longitude":-72.774928,"id":"a62dt3899roc","Address":"106 South Road"},"type":"Feature","geometry":{"type":"Point","coordinates":[-72.774928,42.292195]}},{"properties":{"Name":"Outlook Farm","City":"Westhampton","latitude":42.287362,"desc_":"136 Main Road, Westhampton, MA","Phone":"413-529-9388","Link":null,"State":"MA","color":null,"longitude":-72.761325,"id":"a62dt378hjfe","Address":"136 Main Road"},"type":"Feature","geometry":{"type":"Point","coordinates":[-72.761325,42.287362]}},{"properties":{"Name":"Full Bloom Farm","City":"Whateley","latitude":0.0,"desc_":"Whateley, MA","Phone":"413-665-8008","Link":null,"State":"MA","color":null,"longitude":0.0,"id":"a62dt37szr75","Address":null},"type":"Feature","geometry":{"type":"Point","coordinates":[0.0,0.0]}},{"properties":{"Name":"Golonka Farm","City":"Whateley","latitude":42.415929,"desc_":"6 State Road, Whateley, MA","Phone":"413-247-3256","Link":null,"State":"MA","color":null,"longitude":-72.62147,"id":"a62dt2ypliuz","Address":"6 State Road"},"type":"Feature","geometry":{"type":"Point","coordinates":[-72.62147,42.415929]}},{"properties":{"Name":"Harvest Farm","City":"Whateley","latitude":42.432483,"desc_":"125 Long Plain Road, Whateley, MA","Phone":"413-665-2030","Link":null,"State":"MA","color":null,"longitude":-72.600288,"id":"a62dt30r0gxg","Address":"125 Long Plain Road"},"type":"Feature","geometry":{"type":"Point","coordinates":[-72.600288,42.432483]}},{"properties":{"Name":"J. M. Pasiecnik Farms","City":"Whateley","latitude":42.492967,"desc_":"207 River Road, Whateley, MA","Phone":"413-665-7659","Link":null,"State":"MA","color":null,"longitude":-72.570924,"id":"a62dt33dd5oh","Address":"207 River Road"},"type":"Feature","geometry":{"type":"Point","coordinates":[-72.570924,42.492967]}},{"properties":{"Name":"LaSalle Florists","City":"Whateley","latitude":42.431602,"desc_":"23 LaSalle Drive, Whateley, MA","Phone":"413-665-2653","Link":null,"State":"MA","color":null,"longitude":-72.623123,"id":"a62dt35yav8p","Address":"23 LaSalle Drive"},"type":"Feature","geometry":{"type":"Point","coordinates":[-72.623123,42.431602]}},{"properties":{"Name":"Long Plain Farm","City":"Whateley","latitude":19.2833,"desc_":"149 Christian Lane, Whateley, MA","Phone":"413-665-1210","Link":"longplainfarm1@cs.com","State":"MA","color":null,"longitude":-99.166702,"id":"a62dt2zsaw8x","Address":"149 Christian Lane"},"type":"Feature","geometry":{"type":"Point","coordinates":[-99.166702,19.2833]}},{"properties":{"Name":"Nasami Farm","City":"Whateley","latitude":19.191,"desc_":"128 North Street, Whateley, MA","Phone":"413-397-9922","Link":"www.newfs.org","State":"MA","color":null,"longitude":-99.023651,"id":"a62dt2sml1p1","Address":"128 North Street"},"type":"Feature","geometry":{"type":"Point","coordinates":[-99.023651,19.191]}},{"properties":{"Name":"Nourse Farms, Inc.","City":"Whateley","latitude":42.472515,"desc_":"41 River Road, Whateley, MA","Phone":"413-665-2658","Link":"www.noursefarms.com","State":"MA","color":null,"longitude":-72.583888,"id":"a62dt2txwnsm","Address":"41 River Road"},"type":"Feature","geometry":{"type":"Point","coordinates":[-72.583888,42.472515]}},{"properties":{"Name":"Quonquont Farm","City":"Whateley","latitude":53.389198,"desc_":"9 North Street, Whateley, MA","Phone":"413-575-4680","Link":"www.quonquont.com","State":"MA","color":null,"longitude":-6.2347,"id":"a62dt2tl5xt1","Address":"9 North Street"},"type":"Feature","geometry":{"type":"Point","coordinates":[-6.2347,53.389198]}},{"properties":{"Name":"W &amp; W Farms","City":"Whateley","latitude":62.048531,"desc_":"178 Long Plain Road, Whateley, MA","Phone":"413-665-3126","Link":null,"State":"MA","color":null,"longitude":-6.90999,"id":"a62dt2xj7yse","Address":"178 Long Plain Road"},"type":"Feature","geometry":{"type":"Point","coordinates":[-6.90999,62.048531]}},{"properties":{"Name":"Green Acres Fruit Farm","City":"Wilbraham","latitude":42.098487,"desc_":"868 Main Street, Wilbraham, MA","Phone":"413-596-3016","Link":null,"State":"MA","color":null,"longitude":-72.434833,"id":"a62dt2ssto1z","Address":"868 Main Street"},"type":"Feature","geometry":{"type":"Point","coordinates":[-72.434833,42.098487]}},{"properties":{"Name":"Rice Fruit Farm, Inc.","City":"Wilbraham","latitude":42.103614,"desc_":"757 Main Street, Wilbraham, MA","Phone":"413-596-4002","Link":null,"State":"MA","color":null,"longitude":-72.436078,"id":"a62dt2wj5uqb","Address":"757 Main Street"},"type":"Feature","geometry":{"type":"Point","coordinates":[-72.436078,42.103614]}},{"properties":{"Name":"Dufresne's Sugar House","City":"Williamsburg","latitude":42.41101,"desc_":"113 Goshen Road, Williamsburg, MA","Phone":"413-268-7509","Link":"sugarmaker@msn.com","State":"MA","color":null,"longitude":-72.758803,"id":"a62dt35632tk","Address":"113 Goshen Road"},"type":"Feature","geometry":{"type":"Point","coordinates":[-72.758803,42.41101]}},{"properties":{"Name":"Justamere Tree Farm","City":"Worthington","latitude":42.344987,"desc_":"248 Patterson Road, Worthington, MA","Phone":"413-238-5902","Link":"www.justameretreefarm.com","State":"MA","color":null,"longitude":-72.928272,"id":"a62dt310qqyq","Address":"248 Patterson Road"},"type":"Feature","geometry":{"type":"Point","coordinates":[-72.928272,42.344987]}},{"properties":{"Name":"Running Fox Farm","City":"Worthington","latitude":42.339193,"desc_":"74 Thrasher Hill Road, Worthington, MA","Phone":"413-238-0205","Link":"alan@wildlifegraphics.com","State":"MA","color":null,"longitude":-72.891813,"id":"a62dt313nhpj","Address":"74 Thrasher Hill Road"},"type":"Feature","geometry":{"type":"Point","coordinates":[-72.891813,42.339193]}}],"is_temporal":false,"author":{"url":"","metadata":"","contact_name":"","contact_address":"","source":"","contact_phone":""},"source":"","pagination":{"sort":null,"start":0,"total":140,"limit":1000000},"state":"complete","tags":"armstrong,farms,food","published":"2014-08-10T15:09:14-04:00","id":93248}