{"type":"FeatureCollection","data_type":"Dataset","url_type":null,"permissions":[{"permissions":{"download":true,"view":true},"group_id":"everyone"}],"classification":null,"title":"Haiti Radio Points","count":21,"stream_id":94248,"contributor":{"url":"http://geocommons.com/users/14653","name":"Guensmork"},"data_attributes":null,"calculation_params":null,"icon_link":null,"link":"http://geocommons.com/overlays/94248.json","extent":[-74.1239,18.1923,-72.8465,18.6502],"geometry_types":["point"],"unique_name":null,"name":"Haiti Radio Points","feature_count":21,"description":"Les stations radiophoniques des Gonaives","next_feature":null,"is_raster":false,"short_classification":"Y","stats":{},"features":[{"properties":{"Responsabl":"Guyto Mathieu","Tel":"36 12 66 05","Town":"Petit Goave","Media":"Radio Preference FM","id":"a63p8ddjfwlz"},"type":"Feature","geometry":{"type":"Point","coordinates":[-72.8641739168462,18.431734600119]}},{"properties":{"Responsabl":"Yves Antoine LINDOR","Tel":"38 23 05 17","Town":"Petit Goave","Media":"Radio Essentielle","id":"a63p8d3on5bm"},"type":"Feature","geometry":{"type":"Point","coordinates":[-72.8691667121782,18.4292329350504]}},{"properties":{"Responsabl":"Wallace FRANCILLON","Tel":"36 96 07 46","Town":"Petit Goave","Media":"Radio Oxygene FM","id":"a63p8d67a9ed"},"type":"Feature","geometry":{"type":"Point","coordinates":[-72.8591165080424,18.4325830030957]}},{"properties":{"Responsabl":"Adolphe Sony","Tel":"38 31 75 39","Town":"Petit Goave","Media":"Contact Fm","id":"a63p8de8z4mb"},"type":"Feature","geometry":{"type":"Point","coordinates":[-72.857999818694,18.4355608413581]}},{"properties":{"Responsabl":"Wilner St PREUX","Tel":"37 20 86 10","Town":"Petit Goave","Media":"Distinction 2000","id":"a63p8dbj51uv"},"type":"Feature","geometry":{"type":"Point","coordinates":[-72.8520441421691,18.4400275987518]}},{"properties":{"Responsabl":"Reginald DESAMEAUX","Tel":"34 16 11 87","Town":"Petit Goave","Media":"Top FM","id":"a63p8d3w4vny"},"type":"Feature","geometry":{"type":"Point","coordinates":[-72.8572553591284,18.4392831391862]}},{"properties":{"Responsabl":"Guyto Mathieu","Tel":"36 12 66 05","Town":"Petit Goave","Media":"Radio Sourire FM and Radio Authentique","id":"a63p8d9pu7lb"},"type":"Feature","geometry":{"type":"Point","coordinates":[-72.846460695427,18.4407720583174]}},{"properties":{"Responsabl":"Ewol Zamor","Tel":"28 10 11 40","Town":null,"Media":"Radio Monopole","id":"a63p8d9ymwbw"},"type":"Feature","geometry":{"type":"Point","coordinates":[-73.7479081719366,18.1951934591114]}},{"properties":{"Responsabl":"Raymond Clerge","Tel":"37 31 99 81","Town":"Les Cayes","Media":"Radio Macaya","id":"a63p8dglfws5"},"type":"Feature","geometry":{"type":"Point","coordinates":[-73.751537412319,18.1944489995458]}},{"properties":{"Responsabl":"Jean Walter Duce","Tel":"37 07 90 64","Town":"Les Cayes","Media":"Radio Men Kontre","id":"a63p8dhgub82"},"type":"Feature","geometry":{"type":"Point","coordinates":[-73.7491179187307,18.1923086782946]}},{"properties":{"Responsabl":"Clerge Jn Maxo","Tel":"37 37 17 72","Town":"Cavaillon","Media":"Radio Lojik","id":"a63p8d213cws"},"type":"Feature","geometry":{"type":"Point","coordinates":[-73.6571771623777,18.3030470386793]}},{"properties":{"Responsabl":"Lecton Termissias","Tel":"37 61 13 42","Town":"4eme Section Pliche","Media":"Radio Voix Paysan Sud","id":"a63p8d2u5mo0"},"type":"Feature","geometry":{"type":"Point","coordinates":[-73.7375787954637,18.2717797369236]}},{"properties":{"Responsabl":"Mie Therese PACAUD","Tel":"37 35 66 25","Town":"Jeremie","Media":"Radio Tele Orbite","id":"a63p8dhvlzp2"},"type":"Feature","geometry":{"type":"Point","coordinates":[-74.1239276389965,18.6501962354297]}},{"properties":{"Responsabl":"Perre Kersain JOSEPH","Tel":"37 03 43 63","Town":"Jeremie","Media":"Radio Tet Ansanm","id":"a63p8da16env"},"type":"Feature","geometry":{"type":"Point","coordinates":[-74.1160723070283,18.6471413841087]}},{"properties":{"Responsabl":"Marc Antoine G Jean","Tel":"37 07 44 29","Town":"Jeremie","Media":"Radio Xaragua","id":"a63p8d3nifu2"},"type":"Feature","geometry":{"type":"Point","coordinates":[-74.0885786451397,18.6179020928939]}},{"properties":{"Responsabl":"Edwitch XAVIER","Tel":"37 13 96 01","Town":"Jeremie","Media":"Radio Tele ABC","id":"a63p8dd8s24m"},"type":"Feature","geometry":{"type":"Point","coordinates":[-74.0946883477816,18.625757424862]}},{"properties":{"Responsabl":"Roudy St Louis","Tel":"38 57 31 20","Town":"Jeremie","Media":"Radio C and D","id":"a63p8dg9jigr"},"type":"Feature","geometry":{"type":"Point","coordinates":[-74.1060349384023,18.6305579055093]}},{"properties":{"Responsabl":"Francisque Mayas","Tel":"36 33 11 16","Town":"Jeremie","Media":"Promo Magazine","id":"a63p8d69l71l"},"type":"Feature","geometry":{"type":"Point","coordinates":[-74.1221820096703,18.6449593474509]}},{"properties":{"Responsabl":"Michel Alex Felix","Tel":"34 36 68 51","Town":"Jeremie","Media":"Radio GrandAnse","id":"a63p8d7c5396"},"type":"Feature","geometry":{"type":"Point","coordinates":[-74.1125810483758,18.6427773107931]}},{"properties":{"Responsabl":"Daniel St Jean","Tel":"37 58 42 44","Town":"Jeremie","Media":"Radio Tele Jeremie Nouvelle","id":"a63p8dgfbvp8"},"type":"Feature","geometry":{"type":"Point","coordinates":[-74.1186907510177,18.6501962354297]}},{"properties":{"Responsabl":"Jean Anel DESROSIERS","Tel":"37 18 39 79","Town":"Beaumont","Media":"Radio La Prophetie","id":"a63p8d89demy"},"type":"Feature","geometry":{"type":"Point","coordinates":[-74.1118214219995,18.6362759247874]}}],"is_temporal":false,"author":{"url":"","metadata":"","contact_name":"","contact_address":"","source":"","contact_phone":""},"source":"","pagination":{"sort":null,"start":0,"total":21,"limit":1000000},"state":"complete","tags":"citizen,haiti","published":"2011-02-18T17:00:00Z","id":94248}