{"type":"FeatureCollection","data_type":"Dataset","url_type":null,"permissions":[{"permissions":{"download":true,"view":true},"group_id":"everyone"}],"classification":null,"title":"Green Bank Locations","count":7,"stream_id":95290,"contributor":{"url":"http://geocommons.com/users/2856","name":"kertug"},"data_attributes":null,"calculation_params":null,"icon_link":null,"link":"http://geocommons.com/overlays/95290.json","extent":[-97.7834,29.729,-95.4128,30.266],"geometry_types":["point"],"unique_name":null,"name":"Green Bank Locations","feature_count":7,"description":"Green Bank TX Branch locations and deposits","next_feature":null,"is_raster":false,"short_classification":"Y","stats":{"deposits":{"max":221053,"mean":73338.5714285714,"variance":7646575026.61905,"stdev":87444.6969611025,"min":0,"median":39663}},"features":[{"properties":{"city":"Houston","zip":"77024","geo_score":0.805,"id":"a65v69tze1ts","geo_precision":"range","address":"109 North Post Oak Lane","deposits":221053},"type":"Feature","geometry":{"type":"Point","coordinates":[-95.457497,29.767505]}},{"properties":{"city":"Houston","zip":"77024","geo_score":0.805,"id":"a65v69ignqj6","geo_precision":"range","address":"8611 Memorial Drive","deposits":0},"type":"Feature","geometry":{"type":"Point","coordinates":[-95.457053,29.773217]}},{"properties":{"city":"Houston","zip":"77056","geo_score":0.849,"id":"a65v69gvt6ty","geo_precision":"range","address":"5018 San Felipe","deposits":92064},"type":"Feature","geometry":{"type":"Point","coordinates":[-95.461565,29.750257]}},{"properties":{"city":"Houston","zip":"77098","geo_score":0.902,"id":"a65v69qepy8v","geo_precision":"range","address":"4000 Greenbriar Street","deposits":156850},"type":"Feature","geometry":{"type":"Point","coordinates":[-95.412849,29.730449]}},{"properties":{"city":"Houston","zip":"77098","geo_score":0.902,"id":"a65v69q90rlo","geo_precision":"range","address":"4101 Greenbriar street","deposits":0},"type":"Feature","geometry":{"type":"Point","coordinates":[-95.412825,29.729004]}},{"properties":{"city":"Spring","zip":"77380","geo_score":0.53,"id":"a65v69qb87pe","geo_precision":"street","address":"9595 Six Pines Drive","deposits":39663},"type":"Feature","geometry":{"type":"Point","coordinates":[-95.461738,30.154491]}},{"properties":{"city":"Austin","zip":"78746","geo_score":0.705,"id":"a65v69qutwtz","geo_precision":"range","address":"901 South Mopac Expressway","deposits":3740},"type":"Feature","geometry":{"type":"Point","coordinates":[-97.783371,30.266001]}}],"is_temporal":false,"author":{"url":"","metadata":"","contact_name":"","contact_address":"","source":"","contact_phone":""},"source":"","pagination":{"sort":null,"start":0,"total":7,"limit":1000000},"state":"complete","tags":"bank,branch,deposits,green,locations","published":"2010-06-16T04:00:00Z","id":95290}