{"type":"FeatureCollection","data_type":"Dataset","url_type":null,"permissions":[{"permissions":{"download":true,"view":true},"group_id":"everyone"}],"classification":null,"title":"2007EarlyVotingPrecinctDistrict1","count":112,"stream_id":95839,"contributor":{"url":"http://geocommons.com/users/22486","name":"catchman86"},"data_attributes":null,"calculation_params":null,"icon_link":null,"link":"http://geocommons.com/overlays/95839.json","extent":[-82.5838,27.8697,-82.3314,28.1471],"geometry_types":["point"],"unique_name":null,"name":"2007EarlyVotingPrecinctDistrict1","feature_count":112,"description":"","next_feature":null,"is_raster":false,"short_classification":"Y","stats":{"district 1":{"max":248,"mean":39.3928571428571,"variance":2184.70913770914,"stdev":46.7408722394987,"min":0,"median":22}},"features":[{"properties":{"city":"Tampa","address1":"4702 W McCoy St","name":"Port Tampa Community Center","precinct":"101 - Early Voting","geo_score":0.768,"id":"a6gfhynkxhbb","geo_precision":"range","district 1":52,"state":"FL"},"type":"Feature","geometry":{"type":"Point","coordinates":[-82.524622,27.869731]}},{"properties":{"city":"Tampa","address1":"4702 W McCoy St","name":"Port Tampa Community Center","precinct":"103 - Early Voting","geo_score":0.768,"id":"a6gfhyev3rf9","geo_precision":"range","district 1":72,"state":"FL"},"type":"Feature","geometry":{"type":"Point","coordinates":[-82.524622,27.869731]}},{"properties":{"city":"Tampa","address1":"0  P O Box 130214","name":"Gandy Civic Association","precinct":"105 - Early Voting","geo_score":0.248,"id":"a6gfhydcocfn","geo_precision":"street","district 1":74,"state":"FL"},"type":"Feature","geometry":{"type":"Point","coordinates":[-82.583817,28.02106]}},{"properties":{"city":"Tampa","address1":"3600 W Ballast Point Blvd","name":"Peninsular Christian Church","precinct":"107 - Early Voting","geo_score":0.753,"id":"a6gfhyk7fobg","geo_precision":"range","district 1":67,"state":"FL"},"type":"Feature","geometry":{"type":"Point","coordinates":[-82.504177,27.89002]}},{"properties":{"city":"Tampa","address1":"6202 S MacDill Ave","name":"Victory Baptist Church","precinct":"108 - Early Voting","geo_score":0.805,"id":"a6gfhynovc81","geo_precision":"range","district 1":76,"state":"FL"},"type":"Feature","geometry":{"type":"Point","coordinates":[-82.494016,27.879146]}},{"properties":{"city":"Tampa","address1":"5212  Interbay Blvd","name":"Joe Abrahams Fitness &amp; Wellness Ctr","precinct":"109 - Early Voting","geo_score":0.805,"id":"a6gfhyiwlc39","geo_precision":"range","district 1":82,"state":"FL"},"type":"Feature","geometry":{"type":"Point","coordinates":[-82.483254,27.88998]}},{"properties":{"city":"Tampa","address1":"3616 W Gandy Blvd","name":"Elks Lodge 708","precinct":"111 - Early Voting","geo_score":0.805,"id":"a6gfhynj922g","geo_precision":"range","district 1":90,"state":"FL"},"type":"Feature","geometry":{"type":"Point","coordinates":[-82.504292,27.893692]}},{"properties":{"city":"Tampa","address1":"2515  Bayshore Blvd","name":"Bayshore Presbyterian Church","precinct":"112 - Early Voting","geo_score":0.805,"id":"a6gfhyr5xj5e","geo_precision":"range","district 1":103,"state":"FL"},"type":"Feature","geometry":{"type":"Point","coordinates":[-82.484643,27.924029]}},{"properties":{"city":"Tampa","address1":"4020 S Manhattan Ave","name":"Manhattan Avenue Church of Christ","precinct":"113 - Early Voting","geo_score":0.805,"id":"a6gfhypy1sid","geo_precision":"range","district 1":130,"state":"FL"},"type":"Feature","geometry":{"type":"Point","coordinates":[-82.518244,27.906511]}},{"properties":{"city":"Tampa","address1":"3910 S Manhattan Ave","name":"Jan K Platt  Regional Library","precinct":"115 - Early Voting","geo_score":0.805,"id":"a6gfhyo687i9","geo_precision":"range","district 1":67,"state":"FL"},"type":"Feature","geometry":{"type":"Point","coordinates":[-82.518036,27.907703]}},{"properties":{"city":"Tampa","address1":"4511 S Manhattan Ave","name":"Manhattan Ave United Methodist Chur","precinct":"116 - Early Voting","geo_score":0.805,"id":"a6gfhyg518r5","geo_precision":"range","district 1":82,"state":"FL"},"type":"Feature","geometry":{"type":"Point","coordinates":[-82.518445,27.900002]}},{"properties":{"city":"Tampa","address1":"4003 S Manhattan Ave","name":"Bel Mar Presbyterian Church","precinct":"117 - Early Voting","geo_score":0.805,"id":"a6gfhye8hozp","geo_precision":"range","district 1":187,"state":"FL"},"type":"Feature","geometry":{"type":"Point","coordinates":[-82.518202,27.906827]}},{"properties":{"city":"Tampa","address1":"3723 W Bay To Bay Blvd","name":"Palma Ceia United Methodist Church","precinct":"119 - Early Voting","geo_score":0.805,"id":"a6gfhyeamd63","geo_precision":"range","district 1":157,"state":"FL"},"type":"Feature","geometry":{"type":"Point","coordinates":[-82.504325,27.919765]}},{"properties":{"city":"Tampa","address1":"3511  Bay To Bay Blvd","name":"Palma Ceia Baptist Church","precinct":"121 - Early Voting","geo_score":0.782,"id":"a6gfhycynjfp","geo_precision":"range","district 1":90,"state":"FL"},"type":"Feature","geometry":{"type":"Point","coordinates":[-82.500573,27.91975]}},{"properties":{"city":"Tampa","address1":"2629  Bayshore Blvd","name":"Tampa Garden Center","precinct":"123 - Early Voting","geo_score":0.805,"id":"a6gfhypkpm40","geo_precision":"range","district 1":248,"state":"FL"},"type":"Feature","geometry":{"type":"Point","coordinates":[-82.486841,27.922503]}},{"properties":{"city":"Tampa","address1":"97  Biscayne Ave","name":"Davis Island Baptist Church","precinct":"125 - Early Voting","geo_score":0.805,"id":"a6gfhyd67p0h","geo_precision":"range","district 1":41,"state":"FL"},"type":"Feature","geometry":{"type":"Point","coordinates":[-82.454578,27.925519]}},{"properties":{"city":"Tampa","address1":"59  Columbia Dr","name":"Sandra Freedman Tennis Complex","precinct":"127 - Early Voting","geo_score":0.805,"id":"a6gfhym8g35v","geo_precision":"range","district 1":109,"state":"FL"},"type":"Feature","geometry":{"type":"Point","coordinates":[-82.456263,27.933454]}},{"properties":{"city":"Tampa","address1":"821 S Rome Ave","name":"Kate Jackson Community Center","precinct":"129 - Early Voting","geo_score":0.805,"id":"a6gfhygrf95t","geo_precision":"range","district 1":73,"state":"FL"},"type":"Feature","geometry":{"type":"Point","coordinates":[-82.476878,27.934868]}},{"properties":{"city":"Tampa","address1":"2418 W Swann Ave","name":"St John Greek Orthodox Church","precinct":"131 - Early Voting","geo_score":0.805,"id":"a6gfhyocmqit","geo_precision":"range","district 1":109,"state":"FL"},"type":"Feature","geometry":{"type":"Point","coordinates":[-82.484547,27.937398]}},{"properties":{"city":"Tampa","address1":"3511  Bay To Bay Blvd","name":"Palma Ceia Baptist Church","precinct":"133 - Early Voting","geo_score":0.782,"id":"a6gfhyspk75j","geo_precision":"range","district 1":95,"state":"FL"},"type":"Feature","geometry":{"type":"Point","coordinates":[-82.500573,27.91975]}},{"properties":{"city":"Tampa","address1":"501 S Dale Mabry Hwy","name":"Good Shepherd Lutheran Church","precinct":"135 - Early Voting","geo_score":0.805,"id":"a6gfhyh7qagb","geo_precision":"range","district 1":111,"state":"FL"},"type":"Feature","geometry":{"type":"Point","coordinates":[-82.50573,27.940303]}},{"properties":{"city":"Tampa","address1":"4311 W San Miguel St","name":"St Marys Episcopal Church","precinct":"137 - Early Voting","geo_score":0.805,"id":"a6gfhydtjvhk","geo_precision":"range","district 1":123,"state":"FL"},"type":"Feature","geometry":{"type":"Point","coordinates":[-82.516396,27.92479]}},{"properties":{"city":"Tampa","address1":"821 S Dale Mabry Hwy","name":"Christ the King Catholic Church","precinct":"139 - Early Voting","geo_score":0.805,"id":"a6gfhyhuqakh","geo_precision":"range","district 1":131,"state":"FL"},"type":"Feature","geometry":{"type":"Point","coordinates":[-82.505772,27.935495]}},{"properties":{"city":"Tampa","address1":"306 N Lincoln Ave","name":"Fellowship Masonic Lodge 265","precinct":"141 - Early Voting","geo_score":0.805,"id":"a6gfhyp6og0i","geo_precision":"range","district 1":28,"state":"FL"},"type":"Feature","geometry":{"type":"Point","coordinates":[-82.497402,27.947347]}},{"properties":{"city":"Tampa","address1":"3001 W De Leon St","name":"Jewish Center Towers","precinct":"145 - Early Voting","geo_score":0.805,"id":"a6gfhyrkopw5","geo_precision":"range","district 1":9,"state":"FL"},"type":"Feature","geometry":{"type":"Point","coordinates":[-82.491239,27.938663]}},{"properties":{"city":"Tampa","address1":"608 N Willow Ave","name":"Greater Tpa Showmens Association","precinct":"147 - Early Voting","geo_score":0.805,"id":"a6gfhyghvist","geo_precision":"range","district 1":0,"state":"FL"},"type":"Feature","geometry":{"type":"Point","coordinates":[-82.472622,27.94894]}},{"properties":{"city":"Tampa","address1":"2418 W Swann Ave","name":"St John Greek Orthodox Church","precinct":"149 - Early Voting","geo_score":0.805,"id":"a6gfhyok7qaq","geo_precision":"range","district 1":8,"state":"FL"},"type":"Feature","geometry":{"type":"Point","coordinates":[-82.484547,27.937398]}},{"properties":{"city":"Tampa","address1":"608 N Willow Ave","name":"Greater Tpa Showmens Association","precinct":"151 - Early Voting","geo_score":0.805,"id":"a6gfhyezrpe7","geo_precision":"range","district 1":21,"state":"FL"},"type":"Feature","geometry":{"type":"Point","coordinates":[-82.472622,27.94894]}},{"properties":{"city":"Tampa","address1":"821 S Rome Ave","name":"Kate Jackson Community Center","precinct":"153 - Early Voting","geo_score":0.805,"id":"a6gfhyh62lvk","geo_precision":"range","district 1":10,"state":"FL"},"type":"Feature","geometry":{"type":"Point","coordinates":[-82.476878,27.934868]}},{"properties":{"city":"Tampa","address1":"350 S Hyde Park Ave","name":"Holy Trinity Presbyterian Church","precinct":"155 - Early Voting","geo_score":0.805,"id":"a6gfhyoie0di","geo_precision":"range","district 1":6,"state":"FL"},"type":"Feature","geometry":{"type":"Point","coordinates":[-82.463934,27.941094]}},{"properties":{"city":"Tampa","address1":"821 S Rome Ave","name":"Kate Jackson Community Center","precinct":"157 - Early Voting","geo_score":0.805,"id":"a6gfhypfyn1o","geo_precision":"range","district 1":5,"state":"FL"},"type":"Feature","geometry":{"type":"Point","coordinates":[-82.476878,27.934868]}},{"properties":{"city":"Tampa","address1":"701  Channelside Dr","name":"The Florida Aquarium","precinct":"159 - Early Voting","geo_score":0.805,"id":"a6gfhyhp9jc4","geo_precision":"range","district 1":61,"state":"FL"},"type":"Feature","geometry":{"type":"Point","coordinates":[-82.446072,27.94421]}},{"properties":{"city":"Tampa","address1":"302 W Kennedy Blvd","name":"First Baptist Church of Tampa","precinct":"161 - Early Voting","geo_score":0.805,"id":"a6gfhypkuhs1","geo_precision":"range","district 1":1,"state":"FL"},"type":"Feature","geometry":{"type":"Point","coordinates":[-82.462782,27.945951]}},{"properties":{"city":"Tampa","address1":"400 E Harrison St","name":"Methodist Place Apartments","precinct":"163 - Early Voting","geo_score":0.805,"id":"a6gfhyggtyq7","geo_precision":"range","district 1":5,"state":"FL"},"type":"Feature","geometry":{"type":"Point","coordinates":[-82.45937,27.953146]}},{"properties":{"city":"Tampa","address1":"1207 N Jefferson St","name":"Greater Bethel Baptist Church","precinct":"165 - Early Voting","geo_score":0.805,"id":"a6gfhyoosdc6","geo_precision":"range","district 1":1,"state":"FL"},"type":"Feature","geometry":{"type":"Point","coordinates":[-82.456491,27.954812]}},{"properties":{"city":"Tampa","address1":"1006 W Cypress St","name":"Beulah Baptist Institutional Church","precinct":"167 - Early Voting","geo_score":0.805,"id":"a6gfhyhrahjc","geo_precision":"range","district 1":4,"state":"FL"},"type":"Feature","geometry":{"type":"Point","coordinates":[-82.470076,27.951981]}},{"properties":{"city":"Tampa","address1":"1006 W Cypress St","name":"Beulah Baptist Institutional Church","precinct":"169 - Early Voting","geo_score":0.805,"id":"a6gfhylgg346","geo_precision":"range","district 1":43,"state":"FL"},"type":"Feature","geometry":{"type":"Point","coordinates":[-82.470076,27.951981]}},{"properties":{"city":"Tampa","address1":"2606 W Grace St","name":"Mt Tabor MB Church","precinct":"171 - Early Voting","geo_score":0.805,"id":"a6gfhyfb955v","geo_precision":"range","district 1":0,"state":"FL"},"type":"Feature","geometry":{"type":"Point","coordinates":[-82.486191,27.952835]}},{"properties":{"city":"Tampa","address1":"2606 W Grace St","name":"Mt Tabor MB Church","precinct":"173 - Early Voting","geo_score":0.805,"id":"a6gfhyg96eh3","geo_precision":"range","district 1":1,"state":"FL"},"type":"Feature","geometry":{"type":"Point","coordinates":[-82.486191,27.952835]}},{"properties":{"city":"Tampa","address1":"306 N Lincoln Ave","name":"Fellowship Masonic Lodge 265","precinct":"175 - Early Voting","geo_score":0.805,"id":"a6gfhyh5n1if","geo_precision":"range","district 1":30,"state":"FL"},"type":"Feature","geometry":{"type":"Point","coordinates":[-82.497402,27.947347]}},{"properties":{"city":"Tampa","address1":"3810 W Kennedy Blvd","name":"USS Tampa Post #5  American Legion","precinct":"177 - Early Voting","geo_score":0.805,"id":"a6gfhyrfntx9","geo_precision":"range","district 1":6,"state":"FL"},"type":"Feature","geometry":{"type":"Point","coordinates":[-82.505889,27.944823]}},{"properties":{"city":"Tampa","address1":"305 N Manhattan Ave","name":"Westshore Baptist Church","precinct":"179 - Early Voting","geo_score":0.805,"id":"a6gfhyetq79n","geo_precision":"range","district 1":10,"state":"FL"},"type":"Feature","geometry":{"type":"Point","coordinates":[-82.518061,27.946754]}},{"properties":{"city":"Tampa","address1":"305 N Manhattan Ave","name":"Westshore Baptist Church","precinct":"183 - Early Voting","geo_score":0.805,"id":"a6gfhyrgzecx","geo_precision":"range","district 1":8,"state":"FL"},"type":"Feature","geometry":{"type":"Point","coordinates":[-82.518061,27.946754]}},{"properties":{"city":"Tampa","address1":"1615 N Hubert Ave","name":"Loretta Ingraham Community Center","precinct":"201 - Early Voting","geo_score":0.805,"id":"a6gfhys2nacz","geo_precision":"range","district 1":1,"state":"FL"},"type":"Feature","geometry":{"type":"Point","coordinates":[-82.515901,27.956729]}},{"properties":{"city":"Tampa","address1":"1615 N Hubert Ave","name":"Loretta Ingraham Community Center","precinct":"203 - Early Voting","geo_score":0.805,"id":"a6gfhyoj0s6s","geo_precision":"range","district 1":16,"state":"FL"},"type":"Feature","geometry":{"type":"Point","coordinates":[-82.515901,27.956729]}},{"properties":{"city":"Tampa","address1":"3005 W Columbus Dr","name":"West Tampa Convention Center","precinct":"205 - Early Voting","geo_score":0.805,"id":"a6gfhyoa2njs","geo_precision":"range","district 1":51,"state":"FL"},"type":"Feature","geometry":{"type":"Point","coordinates":[-82.491167,27.966717]}},{"properties":{"city":"Tampa","address1":"3005 W Columbus Dr","name":"West Tampa Convention Center","precinct":"206 - Early Voting","geo_score":0.805,"id":"a6gfhygtm3um","geo_precision":"range","district 1":4,"state":"FL"},"type":"Feature","geometry":{"type":"Point","coordinates":[-82.491167,27.966717]}},{"properties":{"city":"Tampa","address1":"1515 W Union St","name":"Mary Bethune High Rise","precinct":"207 - Early Voting","geo_score":0.805,"id":"a6gfhyew0kjl","geo_precision":"range","district 1":37,"state":"FL"},"type":"Feature","geometry":{"type":"Point","coordinates":[-82.474871,27.957788]}},{"properties":{"city":"Tampa","address1":"110 E Palm Ave","name":"Bob Gilbertson Central City YMCA","precinct":"209 - Early Voting","geo_score":0.805,"id":"a6gfhylphcne","geo_precision":"range","district 1":20,"state":"FL"},"type":"Feature","geometry":{"type":"Point","coordinates":[-82.460775,27.962269]}},{"properties":{"city":"Tampa","address1":"2708  Central Ave","name":"St James House of Prayer Episcopal","precinct":"213 - Early Voting","geo_score":0.778,"id":"a6gfhynjtila","geo_precision":"range","district 1":9,"state":"FL"},"type":"Feature","geometry":{"type":"Point","coordinates":[-82.455251,27.966932]}},{"properties":{"city":"Tampa","address1":"110 E Palm Ave","name":"Bob Gilbertson Central City YMCA","precinct":"214 - Early Voting","geo_score":0.805,"id":"a6gfhyt1rqwv","geo_precision":"range","district 1":4,"state":"FL"},"type":"Feature","geometry":{"type":"Point","coordinates":[-82.460775,27.962269]}},{"properties":{"city":"Tampa","address1":"815 W Orient St","name":"Smyrna Baptist Church","precinct":"215 - Early Voting","geo_score":0.805,"id":"a6gfhyjqtxzd","geo_precision":"range","district 1":1,"state":"FL"},"type":"Feature","geometry":{"type":"Point","coordinates":[-82.469917,27.980671]}},{"properties":{"city":"Tampa","address1":"815 W Orient St","name":"Smyrna Baptist Church","precinct":"217 - Early Voting","geo_score":0.805,"id":"a6gfhygh93yy","geo_precision":"range","district 1":40,"state":"FL"},"type":"Feature","geometry":{"type":"Point","coordinates":[-82.469917,27.980671]}},{"properties":{"city":"Tampa","address1":"2301 N Howard Ave","name":"Rey Park Center","precinct":"218 - Early Voting","geo_score":0.805,"id":"a6gfhyh1f3yc","geo_precision":"range","district 1":22,"state":"FL"},"type":"Feature","geometry":{"type":"Point","coordinates":[-82.482862,27.961548]}},{"properties":{"city":"Tampa","address1":"4120 N MacDill Ave","name":"St John Presbyterian Church","precinct":"219 - Early Voting","geo_score":0.805,"id":"a6gfhyiwoycz","geo_precision":"range","district 1":31,"state":"FL"},"type":"Feature","geometry":{"type":"Point","coordinates":[-82.493039,27.976964]}},{"properties":{"city":"Tampa","address1":"4414 N Grady Ave","name":"Gateway Baptist Church","precinct":"221 - Early Voting","geo_score":0.805,"id":"a6gfhys9c3bx","geo_precision":"range","district 1":1,"state":"FL"},"type":"Feature","geometry":{"type":"Point","coordinates":[-82.50953,27.981808]}},{"properties":{"city":"Tampa","address1":"5201 N Armenia Ave","name":"Revealing Truth Ministries","precinct":"223 - Early Voting","geo_score":0.805,"id":"a6gfhyf2avur","geo_precision":"range","district 1":14,"state":"FL"},"type":"Feature","geometry":{"type":"Point","coordinates":[-82.484457,27.993821]}},{"properties":{"city":"Tampa","address1":"3901  George Rd","name":"Skyway Football Complex","precinct":"225 - Early Voting","geo_score":0.612,"id":"a6gfhyhw413z","geo_precision":"street","district 1":2,"state":"FL"},"type":"Feature","geometry":{"type":"Point","coordinates":[-82.550619,27.974076]}},{"properties":{"city":"Tampa","address1":"5101 N Rome Ave","name":"Wellswood Baptist Church","precinct":"227 - Early Voting","geo_score":0.805,"id":"a6gfhys2c10n","geo_precision":"range","district 1":44,"state":"FL"},"type":"Feature","geometry":{"type":"Point","coordinates":[-82.476362,27.989485]}},{"properties":{"city":"Tampa","address1":"5103 N Central Ave","name":"St Paul Lutheran Church","precinct":"231 - Early Voting","geo_score":0.805,"id":"a6gfhys6t94j","geo_precision":"range","district 1":28,"state":"FL"},"type":"Feature","geometry":{"type":"Point","coordinates":[-82.455276,27.992464]}},{"properties":{"city":"Tampa","address1":"5800 N Central Ave","name":"Seminole Garden Club","precinct":"233 - Early Voting","geo_score":0.805,"id":"a6gfhymg4nb9","geo_precision":"range","district 1":10,"state":"FL"},"type":"Feature","geometry":{"type":"Point","coordinates":[-82.455329,27.99971]}},{"properties":{"city":"Tampa","address1":"5609 N Albany Ave","name":"St Chads Episcopal Church","precinct":"235 - Early Voting","geo_score":0.805,"id":"a6gfhyfihjm9","geo_precision":"range","district 1":10,"state":"FL"},"type":"Feature","geometry":{"type":"Point","coordinates":[-82.480305,27.998265]}},{"properties":{"city":"Tampa","address1":"6918 N Florida Ave","name":"American Legion Post 111","precinct":"237 - Early Voting","geo_score":0.805,"id":"a6gfhyix0mr2","geo_precision":"range","district 1":40,"state":"FL"},"type":"Feature","geometry":{"type":"Point","coordinates":[-82.45953,28.01102]}},{"properties":{"city":"Tampa","address1":"6815 N Rome Ave","name":"North Rome Baptist Church","precinct":"239 - Early Voting","geo_score":0.805,"id":"a6gfhyii0pzb","geo_precision":"range","district 1":14,"state":"FL"},"type":"Feature","geometry":{"type":"Point","coordinates":[-82.476121,28.009377]}},{"properties":{"city":"Tampa","address1":"2526 W Sligh Ave","name":"Support, Inc","precinct":"240 - Early Voting","geo_score":0.805,"id":"a6gfhyqv25ax","geo_precision":"range","district 1":55,"state":"FL"},"type":"Feature","geometry":{"type":"Point","coordinates":[-82.484581,28.010748]}},{"properties":{"city":"Tampa","address1":"8220 N Florida Ave","name":"J L Young Apartments","precinct":"241 - Early Voting","geo_score":0.805,"id":"a6gfhye735f7","geo_precision":"range","district 1":0,"state":"FL"},"type":"Feature","geometry":{"type":"Point","coordinates":[-82.459511,28.022761]}},{"properties":{"city":"Tampa","address1":"2526 W Sligh Ave","name":"Support, Inc","precinct":"242 - Early Voting","geo_score":0.805,"id":"a6gfhyp7nnrh","geo_precision":"range","district 1":0,"state":"FL"},"type":"Feature","geometry":{"type":"Point","coordinates":[-82.484581,28.010748]}},{"properties":{"city":"Tampa","address1":"724 W 109th Ave","name":"Forest Hills Community Center","precinct":"243 - Early Voting","geo_score":0.805,"id":"a6gfhyt94g4i","geo_precision":"range","district 1":50,"state":"FL"},"type":"Feature","geometry":{"type":"Point","coordinates":[-82.46488,28.047309]}},{"properties":{"city":"Tampa","address1":"2526 W Sligh Ave","name":"Support, Inc","precinct":"244 - Early Voting","geo_score":0.805,"id":"a6gfhyq1g2q6","geo_precision":"range","district 1":0,"state":"FL"},"type":"Feature","geometry":{"type":"Point","coordinates":[-82.484581,28.010748]}},{"properties":{"city":"Tampa","address1":"709 W Linebaugh Ave","name":"Forest Hills Presbyterian Church","precinct":"245 - Early Voting","geo_score":0.805,"id":"a6gfhydxt3ni","geo_precision":"range","district 1":35,"state":"FL"},"type":"Feature","geometry":{"type":"Point","coordinates":[-82.463672,28.039984]}},{"properties":{"city":"Tampa","address1":"6907 N Nebraska Ave","name":"St Francis Episcopal Church","precinct":"246 - Early Voting","geo_score":0.805,"id":"a6gfhysv7929","geo_precision":"range","district 1":2,"state":"FL"},"type":"Feature","geometry":{"type":"Point","coordinates":[-82.451303,28.010734]}},{"properties":{"city":"Tampa","address1":"10401 N Florida Ave","name":"Bethanie French Seventh Day Advn Ch","precinct":"247 - Early Voting","geo_score":0.805,"id":"a6gfhyrlbkmp","geo_precision":"range","district 1":2,"state":"FL"},"type":"Feature","geometry":{"type":"Point","coordinates":[-82.459434,28.04364]}},{"properties":{"city":"Tampa","address1":"10902 N Armenia Ave","name":"Discovery Christian Church","precinct":"249 - Early Voting","geo_score":0.805,"id":"a6gfhym65cvf","geo_precision":"range","district 1":78,"state":"FL"},"type":"Feature","geometry":{"type":"Point","coordinates":[-82.479727,28.048451]}},{"properties":{"city":"Tampa","address1":"10902 N Armenia Ave","name":"Discovery Christian Church","precinct":"250 - Early Voting","geo_score":0.805,"id":"a6gfhypu8pyf","geo_precision":"range","district 1":0,"state":"FL"},"type":"Feature","geometry":{"type":"Point","coordinates":[-82.479727,28.048451]}},{"properties":{"city":"Tampa","address1":"724 W 109th Ave","name":"Forest Hills Community Center","precinct":"251 - Early Voting","geo_score":0.805,"id":"a6gfhyk2cx2m","geo_precision":"range","district 1":0,"state":"FL"},"type":"Feature","geometry":{"type":"Point","coordinates":[-82.46488,28.047309]}},{"properties":{"city":"Tampa","address1":"2617  Corrine St","name":"Desoto Park","precinct":"301 - Early Voting","geo_score":0.776,"id":"a6gfhyh51dby","geo_precision":"range","district 1":0,"state":"FL"},"type":"Feature","geometry":{"type":"Point","coordinates":[-82.430044,27.948378]}},{"properties":{"city":"Tampa","address1":"2101  Lowe St","name":"Allen Temple AME Church","precinct":"303 - Early Voting","geo_score":0.805,"id":"a6gfhygqwxaf","geo_precision":"range","district 1":6,"state":"FL"},"type":"Feature","geometry":{"type":"Point","coordinates":[-82.447499,27.962403]}},{"properties":{"city":"Tampa","address1":"2511 E Columbus Dr","name":"New Mt Zion Baptist Church","precinct":"305 - Early Voting","geo_score":0.805,"id":"a6gfhyjyjtnj","geo_precision":"range","district 1":61,"state":"FL"},"type":"Feature","geometry":{"type":"Point","coordinates":[-82.431563,27.966799]}},{"properties":{"city":"Tampa","address1":"3724 N 54th St","name":"Grant Park","precinct":"307 - Early Voting","geo_score":0.721,"id":"a6gfhyh6zctc","geo_precision":"range","district 1":38,"state":"FL"},"type":"Feature","geometry":{"type":"Point","coordinates":[-82.395292,27.978215]}},{"properties":{"city":"Tampa","address1":"5300 E 14th Ave","name":"Oak Park Center","precinct":"308 - Early Voting","geo_score":0.732,"id":"a6gfhygymk6l","geo_precision":"range","district 1":0,"state":"FL"},"type":"Feature","geometry":{"type":"Point","coordinates":[-82.396568,27.964955]}},{"properties":{"city":"Tampa","address1":"3310 E Lake Ave","name":"Jackson Heights NFL YET Center","precinct":"309 - Early Voting","geo_score":0.805,"id":"a6gfhymg886w","geo_precision":"range","district 1":87,"state":"FL"},"type":"Feature","geometry":{"type":"Point","coordinates":[-82.423401,27.977801]}},{"properties":{"city":"Tampa","address1":"3515  Sarah St","name":"Wilbert Davis Brnch B&amp;G Clb Tpa Bay","precinct":"316 - Early Voting","geo_score":0.805,"id":"a6gfhyk7yjvq","geo_precision":"range","district 1":1,"state":"FL"},"type":"Feature","geometry":{"type":"Point","coordinates":[-82.438163,27.976134]}},{"properties":{"city":"Tampa","address1":"1200 E Lake Ave","name":"Ragan Park","precinct":"317 - Early Voting","geo_score":0.805,"id":"a6gfhyismcib","geo_precision":"range","district 1":16,"state":"FL"},"type":"Feature","geometry":{"type":"Point","coordinates":[-82.44708,27.977814]}},{"properties":{"city":"Tampa","address1":"801 E Hillsborough Ave","name":"Seminole Heights Baptist Church","precinct":"318 - Early Voting","geo_score":0.707,"id":"a6gfhyoeli4y","geo_precision":"street","district 1":11,"state":"FL"},"type":"Feature","geometry":{"type":"Point","coordinates":[-82.452187,27.996095]}},{"properties":{"city":"Tampa","address1":"801 E Hillsborough Ave","name":"Seminole Heights Baptist Church","precinct":"319 - Early Voting","geo_score":0.707,"id":"a6gfhygff4y6","geo_precision":"street","district 1":30,"state":"FL"},"type":"Feature","geometry":{"type":"Point","coordinates":[-82.452187,27.996095]}},{"properties":{"city":"Tampa","address1":"2607 E Dr Martin Luther King Jr Blvd","name":"College Hill Branch Library","precinct":"321 - Early Voting","geo_score":0.598,"id":"a6gfhyhk17lb","geo_precision":"street","district 1":93,"state":"FL"},"type":"Feature","geometry":{"type":"Point","coordinates":[-82.505386,27.981558]}},{"properties":{"city":"Tampa","address1":"5019 N 34th St","name":"Fair Oaks Recreation Center","precinct":"325 - Early Voting","geo_score":0.721,"id":"a6gfhyf0c2ur","geo_precision":"range","district 1":58,"state":"FL"},"type":"Feature","geometry":{"type":"Point","coordinates":[-82.422433,27.991501]}},{"properties":{"city":"Tampa","address1":"2510 E Hanna Ave","name":"Epiphany of Our Lord Church","precinct":"327 - Early Voting","geo_score":0.805,"id":"a6gfhylm3rbr","geo_precision":"range","district 1":48,"state":"FL"},"type":"Feature","geometry":{"type":"Point","coordinates":[-82.432509,28.003359]}},{"properties":{"city":"Tampa","address1":"6304 N 30th St","name":"Cathedral of Faith Church","precinct":"329 - Early Voting","geo_score":0.721,"id":"a6gfhysrchr2","geo_precision":"range","district 1":68,"state":"FL"},"type":"Feature","geometry":{"type":"Point","coordinates":[-82.426515,28.004156]}},{"properties":{"city":"Tampa","address1":"2510 E Hanna Ave","name":"Epiphany Of Our Lord Church","precinct":"330 - Early Voting","geo_score":0.805,"id":"a6gfhypuapzj","geo_precision":"range","district 1":0,"state":"FL"},"type":"Feature","geometry":{"type":"Point","coordinates":[-82.432509,28.003359]}},{"properties":{"city":"Tampa","address1":"2709 E Hanna Ave","name":"Hillsborough County Fire Rescue","precinct":"331 - Early Voting","geo_score":0.805,"id":"a6gfhyozwh8r","geo_precision":"range","district 1":10,"state":"FL"},"type":"Feature","geometry":{"type":"Point","coordinates":[-82.429558,28.003369]}},{"properties":{"city":"Tampa","address1":"6400 N 15th St","name":"Northeast United Methodist Church","precinct":"333 - Early Voting","geo_score":0.721,"id":"a6gfhyeim7qg","geo_precision":"range","district 1":12,"state":"FL"},"type":"Feature","geometry":{"type":"Point","coordinates":[-82.442976,28.00517]}},{"properties":{"city":"Tampa","address1":"6400 N 15th St","name":"Northeast United Methodist Church","precinct":"334 - Early Voting","geo_score":0.721,"id":"a6gfhyemnhop","geo_precision":"range","district 1":0,"state":"FL"},"type":"Feature","geometry":{"type":"Point","coordinates":[-82.442976,28.00517]}},{"properties":{"city":"Tampa","address1":"6907 N Nebraska Ave","name":"St Francis Episcopal Church","precinct":"335 - Early Voting","geo_score":0.805,"id":"a6gfhyni334v","geo_precision":"range","district 1":24,"state":"FL"},"type":"Feature","geometry":{"type":"Point","coordinates":[-82.451303,28.010734]}},{"properties":{"city":"Tampa","address1":"6111 N Central Ave","name":"Seminole Heights United Methodist","precinct":"336 - Early Voting","geo_score":0.805,"id":"a6gfhyjo3hyz","geo_precision":"range","district 1":5,"state":"FL"},"type":"Feature","geometry":{"type":"Point","coordinates":[-82.455374,28.002545]}},{"properties":{"city":"Tampa","address1":"8608 N 12th St","name":"George Bartholomew Recreation Ctr","precinct":"337 - Early Voting","geo_score":0.721,"id":"a6gfhyqdrnay","geo_precision":"range","district 1":2,"state":"FL"},"type":"Feature","geometry":{"type":"Point","coordinates":[-82.447309,28.027922]}},{"properties":{"city":"Tampa","address1":"1611 E Bougainvillea","name":"New Life Pentecostal Church of God","precinct":"338 - Early Voting","geo_score":0.753,"id":"a6gfhysyg1lj","geo_precision":"range","district 1":9,"state":"FL"},"type":"Feature","geometry":{"type":"Point","coordinates":[-82.441392,28.043578]}},{"properties":{"city":"Tampa","address1":"8116 N 37th St","name":"Temple Crest Community Center","precinct":"339 - Early Voting","geo_score":0.721,"id":"a6gfhys27f8x","geo_precision":"range","district 1":6,"state":"FL"},"type":"Feature","geometry":{"type":"Point","coordinates":[-82.418028,28.021968]}},{"properties":{"city":"Tampa","address1":"201 E Yukon St","name":"Firemens Benevolent Assoc. Hall","precinct":"340 - Early Voting","geo_score":0.805,"id":"a6gfhyimmpo2","geo_precision":"range","district 1":4,"state":"FL"},"type":"Feature","geometry":{"type":"Point","coordinates":[-82.458727,28.029048]}},{"properties":{"city":"Tampa","address1":"8718 N 46th St","name":"Bible Based Fellowship Church","precinct":"341 - Early Voting","geo_score":0.721,"id":"a6gfhyf32b9i","geo_precision":"range","district 1":23,"state":"FL"},"type":"Feature","geometry":{"type":"Point","coordinates":[-82.409933,28.031678]}},{"properties":{"city":"Tampa","address1":"5030 E Busch Blvd","name":"Temple Terrace United Methodist Ch","precinct":"343 - Early Voting","geo_score":0.805,"id":"a6gfhyoo79fa","geo_precision":"range","district 1":17,"state":"FL"},"type":"Feature","geometry":{"type":"Point","coordinates":[-82.399643,28.032632]}},{"properties":{"city":"Tampa","address1":"8608 N 12th St","name":"George Bartholomew Recreation Ctr","precinct":"344 - Early Voting","geo_score":0.721,"id":"a6gfhyfi2foq","geo_precision":"range","district 1":10,"state":"FL"},"type":"Feature","geometry":{"type":"Point","coordinates":[-82.447309,28.027922]}},{"properties":{"city":"Tampa","address1":"2202 E Busch Blvd","name":"First Church Of God","precinct":"345 - Early Voting","geo_score":0.805,"id":"a6gfhys5mfih","geo_precision":"range","district 1":14,"state":"FL"},"type":"Feature","geometry":{"type":"Point","coordinates":[-82.434619,28.032553]}},{"properties":{"city":"Tampa","address1":"11001 N 15th St","name":"Copeland Park","precinct":"347 - Early Voting","geo_score":0.721,"id":"a6gfhyjhgq3n","geo_precision":"range","district 1":29,"state":"FL"},"type":"Feature","geometry":{"type":"Point","coordinates":[-82.442876,28.050939]}},{"properties":{"city":"Tampa","address1":"4202 E Fowler Ave","name":"USF Marshall Center","precinct":"353 - Early Voting","geo_score":0.805,"id":"a6gfhykjoc83","geo_precision":"range","district 1":0,"state":"FL"},"type":"Feature","geometry":{"type":"Point","coordinates":[-82.413973,28.054459]}},{"properties":{"city":"Tampa","address1":"16221  Compton Dr","name":"New Tampa Family YMCA","precinct":"357 - Early Voting","geo_score":0.805,"id":"a6gfhyr6k4ai","geo_precision":"range","district 1":27,"state":"FL"},"type":"Feature","geometry":{"type":"Point","coordinates":[-82.387093,28.101352]}},{"properties":{"city":"Tampa","address1":"16101  Compton Dr","name":"Compton Park Recreation Center","precinct":"358 - Early Voting","geo_score":0.805,"id":"a6gfhypabmfb","geo_precision":"range","district 1":23,"state":"FL"},"type":"Feature","geometry":{"type":"Point","coordinates":[-82.387424,28.100268]}},{"properties":{"city":"Tampa","address1":"5340  Primrose Lake Cir","name":"St Andrews Presbyterian Church","precinct":"359 - Early Voting","geo_score":0.805,"id":"a6gfhyshsm9y","geo_precision":"range","district 1":56,"state":"FL"},"type":"Feature","geometry":{"type":"Point","coordinates":[-82.380781,28.125459]}},{"properties":{"city":"Tampa","address1":"10001  Cross Creek Blvd","name":"New Tampa Regional Library","precinct":"361 - Early Voting","geo_score":0.805,"id":"a6gfhynhlvj2","geo_precision":"range","district 1":160,"state":"FL"},"type":"Feature","geometry":{"type":"Point","coordinates":[-82.331353,28.142093]}},{"properties":{"city":"Tampa","address1":"15820  Morris Bridge Rd","name":"Cypress Point Community Church","precinct":"363 - Early Voting","geo_score":0.547,"id":"a6gfhyemewml","geo_precision":"street","district 1":142,"state":"FL"},"type":"Feature","geometry":{"type":"Point","coordinates":[-82.349065,28.072065]}},{"properties":{"city":"Tampa","address1":"5340  Primrose Lake Cir","name":"St Andrew Presbyterian Church","precinct":"365 - Early Voting","geo_score":0.805,"id":"a6gfhyg4l2uu","geo_precision":"range","district 1":0,"state":"FL"},"type":"Feature","geometry":{"type":"Point","coordinates":[-82.380781,28.125459]}},{"properties":{"city":"Tampa","address1":"8401  New Tampa Blvd","name":"West Meadows Community Club","precinct":"367 - Early Voting","geo_score":0.805,"id":"a6gfhypbmgyc","geo_precision":"range","district 1":75,"state":"FL"},"type":"Feature","geometry":{"type":"Point","coordinates":[-82.370223,28.147051]}}],"is_temporal":false,"author":{"url":"","metadata":"","contact_name":"","contact_address":"","source":"","contact_phone":""},"source":"","pagination":{"sort":null,"start":0,"total":112,"limit":1000000},"state":"complete","tags":"","published":"2014-08-10T19:35:03-04:00","id":95839}