{"type":"FeatureCollection","data_type":"Dataset","url_type":null,"permissions":[{"permissions":{"download":true,"view":true},"group_id":"everyone"}],"classification":null,"title":"publiclibraries.com, Utah Public Libraries, Utah, 1.2008","count":120,"stream_id":959,"contributor":{"url":"http://geocommons.com/users/2","name":"data"},"data_attributes":null,"calculation_params":null,"icon_link":null,"link":"http://geocommons.com/overlays/959.json","extent":[-113.717,37.0548,-109.327,41.9752],"geometry_types":["point"],"unique_name":null,"name":"publiclibraries.com, Utah Public Libraries, Utah, 1.2008","feature_count":120,"description":"This dataset displays the locations of all the public libraries in the state of Utah. The data included is the name of the library, name of the library system, library's address, phone, and lat/lon coordinates. The data came from publiclibraries.com which is a updated directory of all the public libraries throughout the United States.\n","next_feature":null,"is_raster":false,"short_classification":"Y","stats":{"lon":{"max":-109.326902,"mean":-111.790416125,"variance":0.647818106286768,"stdev":0.804871484329497,"min":-113.716564,"median":-111.859556},"zip":{"max":884642,"mean":91034.8083333333,"variance":5337093126.35791,"stdev":73055.4113420622,"min":84003,"median":84340},"lat":{"max":41.975215,"mean":39.901181475,"variance":1.74567870001798,"stdev":1.32124134813363,"min":37.054784,"median":40.375332}},"features":[{"properties":{"city":"Alta","lon":-111.806149,"zip":84092,"librarysystem":"Salt Lake County Library System","phone":"801-742-2068","id":"a6682h1z5ybi","address":"Alta Community Center","lat":40.57778,"libraryname":"Alta Library","state":"UT"},"type":"Feature","geometry":{"type":"Point","coordinates":[-111.806149,40.57778]}},{"properties":{"city":"American Fork","lon":-111.796088,"zip":84003,"librarysystem":"American Fork City Library","phone":"801-763-3070","id":"a6682h1qfuac","address":"64 South 100 East","lat":40.375332,"libraryname":"American Fork City Library","state":"UT"},"type":"Feature","geometry":{"type":"Point","coordinates":[-111.796088,40.375332]}},{"properties":{"city":"Salt Lake City","lon":-111.830528,"zip":84108,"librarysystem":"Salt Lake City Public Library","phone":"801-594-8611","id":"a6682h143xi3","address":"1135 South 2100 East","lat":40.74381,"libraryname":"Anderson-Foothill Branch","state":"UT"},"type":"Feature","geometry":{"type":"Point","coordinates":[-111.830528,40.74381]}},{"properties":{"city":"Delta","lon":-112.579052,"zip":84624,"librarysystem":"Beaver County Bookmobile Library","phone":"435-864-2292","id":"a6682gvm5ku2","address":"90 N 200 W","lat":39.353889,"libraryname":"Beaver County Bookmobile Library","state":"UT"},"type":"Feature","geometry":{"type":"Point","coordinates":[-112.579052,39.353889]}},{"properties":{"city":"Beaver","lon":-112.642168,"zip":84713,"librarysystem":"Beaver Public Library","phone":"435-438-5274","id":"a6682h7lk9s8","address":"55 West Center Street","lat":38.274042,"libraryname":"Beaver Public Library","state":"UT"},"type":"Feature","geometry":{"type":"Point","coordinates":[-112.642168,38.274042]}},{"properties":{"city":"West Jordan","lon":-112.006816,"zip":84088,"librarysystem":"Salt Lake County Library System","phone":"801-944-7684","id":"a6682gz0w5dg","address":"4834 West 9000 South","lat":40.588117,"libraryname":"Bingham Creek Library","state":"UT"},"type":"Feature","geometry":{"type":"Point","coordinates":[-112.006816,40.588117]}},{"properties":{"city":"Blanding","lon":-109.478516,"zip":84511,"librarysystem":"San Juan County Library","phone":"435-678-2335","id":"a6682gw3qphh","address":"25 West 300 South","lat":37.620992,"libraryname":"Blanding Branch Library","state":"UT"},"type":"Feature","geometry":{"type":"Point","coordinates":[-109.478516,37.620992]}},{"properties":{"city":"Willard","lon":-112.038,"zip":84340,"librarysystem":"Box Elder County Bookmobile Library","phone":"435-723-2261","id":"a6682gzxn8c2","address":"80 W 50 S","lat":41.408317,"libraryname":"Box Elder County Bookmobile Library","state":"UT"},"type":"Feature","geometry":{"type":"Point","coordinates":[-112.038,41.408317]}},{"properties":{"city":"Brigham City","lon":-112.014618,"zip":84302,"librarysystem":"Brigham City Carnegie Library","phone":"435-723-5850","id":"a6682gyca9mc","address":"26 East Forest Street","lat":41.510809,"libraryname":"Brigham City Carnegie Library","state":"UT"},"type":"Feature","geometry":{"type":"Point","coordinates":[-112.014618,41.510809]}},{"properties":{"city":"Providence","lon":-111.817942,"zip":84332,"librarysystem":"Cahce County Library","phone":"435-752-7881","id":"a6682gyi7fvv","address":"15 North Main","lat":41.708412,"libraryname":"Cahce County Library","state":"UT"},"type":"Feature","geometry":{"type":"Point","coordinates":[-111.817942,41.708412]}},{"properties":{"city":"Salt Lake City","lon":-111.867968,"zip":84106,"librarysystem":"Salt Lake County Library System","phone":"801-944-7630","id":"a6682gu1vyvm","address":"810 East 3300 South","lat":40.69973,"libraryname":"Calvin S. Smith Library","state":"UT"},"type":"Feature","geometry":{"type":"Point","coordinates":[-111.867968,40.69973]}},{"properties":{"city":"Wellington","lon":-110.741879,"zip":84542,"librarysystem":"Carbon County Bookmobile Library","phone":"435-637-0638","id":"a6682h99m74k","address":"150 W Main","lat":39.54245,"libraryname":"Carbon County Bookmobile Library","state":"UT"},"type":"Feature","geometry":{"type":"Point","coordinates":[-110.741879,39.54245]}},{"properties":{"city":"Castle Dale","lon":-111.017642,"zip":84513,"librarysystem":"Emery County Library","phone":"435-381-2554","id":"a6682gua9u16","address":"115 North 100 East","lat":39.213481,"libraryname":"Castle Dale Branch Library","state":"UT"},"type":"Feature","geometry":{"type":"Point","coordinates":[-111.017642,39.213481]}},{"properties":{"city":"Cedar City","lon":-113.060184,"zip":84720,"librarysystem":"Cedar City Public Library","phone":"435-586-6661","id":"a6682h1ifuy5","address":"303 N 100 E","lat":37.681312,"libraryname":"Cedar City Public Library","state":"UT"},"type":"Feature","geometry":{"type":"Point","coordinates":[-113.060184,37.681312]}},{"properties":{"city":"Layton","lon":-111.961369,"zip":84041,"librarysystem":"Davis County Public Library","phone":"801-547-0729","id":"a6682gyml9g6","address":"155 N. Wasatch Dr.","lat":41.062051,"libraryname":"Central Branch Library","state":"UT"},"type":"Feature","geometry":{"type":"Point","coordinates":[-111.961369,41.062051]}},{"properties":{"city":"Salt Lake City","lon":-111.916634,"zip":84104,"librarysystem":"Salt Lake City Public Library","phone":"801-594-8623","id":"a6682gy2p5o9","address":"577 South 900 West","lat":40.756878,"libraryname":"Chapman Branch","state":"UT"},"type":"Feature","geometry":{"type":"Point","coordinates":[-111.916634,40.756878]}},{"properties":{"city":"Cleveland","lon":-110.852914,"zip":84518,"librarysystem":"Emery County Library","phone":"435-653-2204","id":"a6682gu99ep7","address":"45 West Main","lat":39.348825,"libraryname":"Cleveland Branch Library","state":"UT"},"type":"Feature","geometry":{"type":"Point","coordinates":[-110.852914,39.348825]}},{"properties":{"city":"Coalville","lon":-111.398633,"zip":84017,"librarysystem":"Summit County Library System","phone":"435-336-3070","id":"a6682h7cu0zm","address":"10 North Main","lat":40.91685,"libraryname":"Coalville Branch Library","state":"UT"},"type":"Feature","geometry":{"type":"Point","coordinates":[-111.398633,40.91685]}},{"properties":{"city":"South Salt Lake City","lon":-111.877022,"zip":84106,"librarysystem":"Salt Lake County Library System","phone":"801-944-7545","id":"a6682gyc5k0g","address":"2530 South 500 East","lat":40.715523,"libraryname":"Columbus Library","state":"UT"},"type":"Feature","geometry":{"type":"Point","coordinates":[-111.877022,40.715523]}},{"properties":{"city":"Salt Lake City","lon":-111.876221,"zip":84103,"librarysystem":"Salt Lake City Public Library","phone":"801-594-8651","id":"a6682gtulro9","address":"455 F Street (9th Avenue)","lat":40.77981,"libraryname":"Corinne and Jack Sweet Branch","state":"UT"},"type":"Feature","geometry":{"type":"Point","coordinates":[-111.876221,40.77981]}},{"properties":{"city":"Duchesne","lon":-110.401379,"zip":84021,"librarysystem":"Daggett County Bookmobile Library","phone":"435-738-2628","id":"a6682gt6g1wi","address":"130 S Center St Ste A","lat":40.16223,"libraryname":"Daggett County Bookmobile Library","state":"UT"},"type":"Feature","geometry":{"type":"Point","coordinates":[-110.401379,40.16223]}},{"properties":{"city":"Salt Lake City","lon":-111.935593,"zip":84116,"librarysystem":"Salt Lake City Public Library","phone":"801-594-8632","id":"a6682h9ds2ux","address":"1575 West 1000 North","lat":40.790943,"libraryname":"Day-Riverside Branch","state":"UT"},"type":"Feature","geometry":{"type":"Point","coordinates":[-111.935593,40.790943]}},{"properties":{"city":"Delta","lon":-112.579059,"zip":84624,"librarysystem":"Delta City Library","phone":"435-864-4945","id":"a6682h9ljpnh","address":"76 North 200 West","lat":39.353699,"libraryname":"Delta City Library","state":"UT"},"type":"Feature","geometry":{"type":"Point","coordinates":[-112.579059,39.353699]}},{"properties":{"city":"Draper","lon":-111.866099,"zip":84020,"librarysystem":"Salt Lake County Library System","phone":"801-944-7548","id":"a6682gupgi18","address":"12441 South 900 East #200","lat":40.524267,"libraryname":"Draper Library","state":"UT"},"type":"Feature","geometry":{"type":"Point","coordinates":[-111.866099,40.524267]}},{"properties":{"city":"Duchesne","lon":-110.401379,"zip":84021,"librarysystem":"Duchesne County Library","phone":"435-738-2628","id":"a6682h4a873h","address":"130 S Center St Ste A","lat":40.16223,"libraryname":"Duchesne Branch Library","state":"UT"},"type":"Feature","geometry":{"type":"Point","coordinates":[-110.401379,40.16223]}},{"properties":{"city":"Eagle Mountain","lon":-112.011432,"zip":84043,"librarysystem":"Eagle Mountain Public Library","phone":"801-789-3080","id":"a6682h699rlh","address":"1680 East Heritage Drive","lat":40.307172,"libraryname":"Eagle Mountain Public Library","state":"UT"},"type":"Feature","geometry":{"type":"Point","coordinates":[-112.011432,40.307172]}},{"properties":{"city":"Salt Lake City","lon":-111.825638,"zip":84109,"librarysystem":"Salt Lake County Library System","phone":"801-944-7622","id":"a6682h48248s","address":"2266 Evergreen Avenue","lat":40.696582,"libraryname":"East Millcreek Library","state":"UT"},"type":"Feature","geometry":{"type":"Point","coordinates":[-111.825638,40.696582]}},{"properties":{"city":"Elmo","lon":-110.821849,"zip":84521,"librarysystem":"Emery County Library","phone":"435-653-2558","id":"a6682gygmamy","address":"15 South 100 East","lat":39.389912,"libraryname":"Elmo Branch Library","state":"UT"},"type":"Feature","geometry":{"type":"Point","coordinates":[-110.821849,39.389912]}},{"properties":{"city":"Emery","lon":-111.248807,"zip":84522,"librarysystem":"Emery County Library","phone":"435-286-2474","id":"a6682h00mjk5","address":"100 North Center","lat":38.92475,"libraryname":"Emery Branch Library","state":"UT"},"type":"Feature","geometry":{"type":"Point","coordinates":[-111.248807,38.92475]}},{"properties":{"city":"Enterprise","lon":-113.716564,"zip":84725,"librarysystem":"Washington County Library","phone":"435-878-2574","id":"a6682gxauuqz","address":"393 S 200 E","lat":37.567077,"libraryname":"Enterprise Branch","state":"UT"},"type":"Feature","geometry":{"type":"Point","coordinates":[-113.716564,37.567077]}},{"properties":{"city":"Ephraim","lon":-111.587319,"zip":84627,"librarysystem":"Ephraim Public Library","phone":"435-283-4544","id":"a6682h5khnxh","address":"30 South Main Street","lat":39.359261,"libraryname":"Ephraim Public Library","state":"UT"},"type":"Feature","geometry":{"type":"Point","coordinates":[-111.587319,39.359261]}},{"properties":{"city":"Escalante","lon":-111.762141,"zip":84726,"librarysystem":"Garfield County Bookmobile Library","phone":"435-826-4220","id":"a6682gtr9jqo","address":"PO Box 173","lat":38.069213,"libraryname":"Escalante Branch","state":"UT"},"type":"Feature","geometry":{"type":"Point","coordinates":[-111.762141,38.069213]}},{"properties":{"city":"Ferron","lon":-111.136264,"zip":84523,"librarysystem":"Emery County Library","phone":"435-384-2637","id":"a6682h952lbk","address":"55 North 200 West","lat":39.090863,"libraryname":"Ferron Branch Library","state":"UT"},"type":"Feature","geometry":{"type":"Point","coordinates":[-111.136264,39.090863]}},{"properties":{"city":"Fillmore","lon":-112.673064,"zip":84631,"librarysystem":"Fillmore City Library","phone":"435-743-5314","id":"a6682h5fqab2","address":"25 South 100 West","lat":39.322947,"libraryname":"Fillmore City Library","state":"UT"},"type":"Feature","geometry":{"type":"Point","coordinates":[-112.673064,39.322947]}},{"properties":{"city":"Garland","lon":-112.1637,"zip":84312,"librarysystem":"Garland Public Library","phone":"435-257-3117","id":"a6682h99rhjf","address":"86 West Factory Street","lat":41.741141,"libraryname":"Garland Public Library","state":"UT"},"type":"Feature","geometry":{"type":"Point","coordinates":[-112.1637,41.741141]}},{"properties":{"city":"Moab","lon":-109.548684,"zip":84532,"librarysystem":"Grand County Public Library","phone":"435-259-1111","id":"a6682gynbp45","address":"25 South 100 East","lat":38.572814,"libraryname":"Grand County Public Library","state":"UT"},"type":"Feature","geometry":{"type":"Point","coordinates":[-109.548684,38.572814]}},{"properties":{"city":"Green River","lon":-110.161954,"zip":84525,"librarysystem":"Emery County Library","phone":"435-564-3349","id":"a6682gu9xuga","address":"85 South Long St.","lat":38.994078,"libraryname":"Green River Branch Library","state":"UT"},"type":"Feature","geometry":{"type":"Point","coordinates":[-110.161954,38.994078]}},{"properties":{"city":"Gunnison","lon":-111.826144,"zip":84634,"librarysystem":"Gunnison Civic Library","phone":"435-528-3104","id":"a6682gu0ka8z","address":"38 West Center","lat":39.155195,"libraryname":"Gunnison Civic Library","state":"UT"},"type":"Feature","geometry":{"type":"Point","coordinates":[-111.826144,39.155195]}},{"properties":{"city":"Panguitch","lon":-112.431669,"zip":84759,"librarysystem":"Garfield County Bookmobile Library","phone":"435-676-2431","id":"a6682h7arfsd","address":"25 S 200 E","lat":37.81968,"libraryname":"Headquarters","state":"UT"},"type":"Feature","geometry":{"type":"Point","coordinates":[-112.431669,37.81968]}},{"properties":{"city":"Farmington","lon":-111.885631,"zip":84025,"librarysystem":"Davis County Public Library","phone":"801-451-2322","id":"a6682h6d180b","address":"38 South 100 East","lat":40.979879,"libraryname":"Headquaters","state":"UT"},"type":"Feature","geometry":{"type":"Point","coordinates":[-111.885631,40.979879]}},{"properties":{"city":"Roosevelt","lon":-109.992877,"zip":84066,"librarysystem":"Duchesne County Library","phone":"435-722-4441","id":"a6682gxf4p5w","address":"70 W Lagoon (44-4)","lat":40.299636,"libraryname":"Headquaters","state":"UT"},"type":"Feature","geometry":{"type":"Point","coordinates":[-109.992877,40.299636]}},{"properties":{"city":"Helper","lon":-110.854374,"zip":84526,"librarysystem":"Helper City Library","phone":"435-472-5601","id":"a6682gub8ntx","address":"19 South Main","lat":39.687773,"libraryname":"Helper City Library","state":"UT"},"type":"Feature","geometry":{"type":"Point","coordinates":[-110.854374,39.687773]}},{"properties":{"city":"Herriman","lon":-112.033049,"zip":84065,"librarysystem":"Salt Lake County Library System","phone":"801-944-7680","id":"a6682h4npozr","address":"13011 South Pioneer St","lat":40.51416,"libraryname":"Herriman Library","state":"UT"},"type":"Feature","geometry":{"type":"Point","coordinates":[-112.033049,40.51416]}},{"properties":{"city":"Salt Lake City","lon":-111.829151,"zip":84117,"librarysystem":"Salt Lake County Library System","phone":"801-944-7627","id":"a6682h5mzde1","address":"2150 East Murray-Holladay Rd.","lat":40.666613,"libraryname":"Holladay Library","state":"UT"},"type":"Feature","geometry":{"type":"Point","coordinates":[-111.829151,40.666613]}},{"properties":{"city":"West Valley City","lon":-112.004316,"zip":84120,"librarysystem":"Salt Lake County Library System","phone":"801-944-7593","id":"a6682guhpk2g","address":"4740 West 4100 South","lat":40.68219,"libraryname":"Hunter Library","state":"UT"},"type":"Feature","geometry":{"type":"Point","coordinates":[-112.004316,40.68219]}},{"properties":{"city":"Huntington","lon":-110.964424,"zip":84528,"librarysystem":"Emery County Library","phone":"435-687-9590","id":"a6682h6e4c9s","address":"92 South Main","lat":39.324898,"libraryname":"Huntington Branch Library","state":"UT"},"type":"Feature","geometry":{"type":"Point","coordinates":[-110.964424,39.324898]}},{"properties":{"city":"Hurricane","lon":-113.293884,"zip":84737,"librarysystem":"Washington County Library","phone":"435-635-4621","id":"a6682h90pi0a","address":"36 S 300 W","lat":37.175974,"libraryname":"Hurricane Valley Branch","state":"UT"},"type":"Feature","geometry":{"type":"Point","coordinates":[-113.293884,37.175974]}},{"properties":{"city":"Hyrum","lon":-111.85732,"zip":84319,"librarysystem":"Hyrum City Library","phone":"435-245-6411","id":"a6682gyrpjbi","address":"83 West Main","lat":41.633966,"libraryname":"Hyrum City Library","state":"UT"},"type":"Feature","geometry":{"type":"Point","coordinates":[-111.85732,41.633966]}},{"properties":{"city":"Enoch","lon":-113.04415,"zip":84720,"librarysystem":"Iron County Bookmobile Library","phone":"435-590-0546","id":"a6682h0wybgx","address":"4763 N Santa Fe Trail","lat":37.761985,"libraryname":"Iron County Bookmobile Library","state":"UT"},"type":"Feature","geometry":{"type":"Point","coordinates":[-113.04415,37.761985]}},{"properties":{"city":"Bicknell","lon":-111.542874,"zip":84715,"librarysystem":"Juab County Bookmobile Library","phone":"435-425-3170","id":"a6682gv78ii2","address":"79 N 100 W","lat":38.342157,"libraryname":"Juab County Bookmobile Library","state":"UT"},"type":"Feature","geometry":{"type":"Point","coordinates":[-111.542874,38.342157]}},{"properties":{"city":"Kamas","lon":-111.28061,"zip":84036,"librarysystem":"Summit County Library System","phone":"435-783-4351, ext. 3080","id":"a6682h3ktsia","address":"110 N. Main St","lat":40.645076,"libraryname":"Kamas Branch Library","state":"UT"},"type":"Feature","geometry":{"type":"Point","coordinates":[-111.28061,40.645076]}},{"properties":{"city":"Kanab","lon":-112.528375,"zip":84741,"librarysystem":"Kanab City Library","phone":"435-644-2394","id":"a6682h09taba","address":"374 N. Main Street","lat":37.054784,"libraryname":"Kanab City Library","state":"UT"},"type":"Feature","geometry":{"type":"Point","coordinates":[-112.528375,37.054784]}},{"properties":{"city":"Panguitch","lon":-112.431669,"zip":84759,"librarysystem":"Kane County Bookmobile Library","phone":"435-676-2431","id":"a6682gzqqbwd","address":"25 S 200 E","lat":37.81968,"libraryname":"Kane County Bookmobile Library","state":"UT"},"type":"Feature","geometry":{"type":"Point","coordinates":[-112.431669,37.81968]}},{"properties":{"city":"Kaysville","lon":-111.938433,"zip":84037,"librarysystem":"Kaysville City Library","phone":"801-544-2826","id":"a6682gxijas7","address":"44 North Main Street","lat":41.035575,"libraryname":"Kaysville City Library","state":"UT"},"type":"Feature","geometry":{"type":"Point","coordinates":[-111.938433,41.035575]}},{"properties":{"city":"Kearns","lon":-111.99186,"zip":84118,"librarysystem":"Salt Lake County Library System","phone":"801-944-7612","id":"a6682gxo0tvg","address":"5350 South 4220 West","lat":40.653701,"libraryname":"Kearns Library","state":"UT"},"type":"Feature","geometry":{"type":"Point","coordinates":[-111.99186,40.653701]}},{"properties":{"city":"Ogden","lon":-111.964664,"zip":84401,"librarysystem":"Weber County Library","phone":"801-337-8466","id":"a6682h77fseu","address":"2464 Jefferson Avenue","lat":41.221432,"libraryname":"Law Library","state":"UT"},"type":"Feature","geometry":{"type":"Point","coordinates":[-111.964664,41.221432]}},{"properties":{"city":"Lehi","lon":-111.849043,"zip":84043,"librarysystem":"Lehi City Library","phone":"801-768-7150","id":"a6682guynbqp","address":"120 North Center Street","lat":40.389347,"libraryname":"Lehi City Library","state":"UT"},"type":"Feature","geometry":{"type":"Point","coordinates":[-111.849043,40.389347]}},{"properties":{"city":"Lewiston","lon":-111.85687,"zip":84320,"librarysystem":"Lewiston Public Library","phone":"435-258-5515","id":"a6682gzjvckc","address":"29 South Main","lat":41.975215,"libraryname":"Lewiston Public Library","state":"UT"},"type":"Feature","geometry":{"type":"Point","coordinates":[-111.85687,41.975215]}},{"properties":{"city":"Logan","lon":-111.835027,"zip":84321,"librarysystem":"Logan Library","phone":"435-716-9123","id":"a6682gviv10o","address":"255 North Main","lat":41.736262,"libraryname":"Logan Library","state":"UT"},"type":"Feature","geometry":{"type":"Point","coordinates":[-111.835027,41.736262]}},{"properties":{"city":"Magna","lon":-112.090419,"zip":84044,"librarysystem":"Salt Lake County Library System","phone":"801-944-7547","id":"a6682gu4ivxn","address":"8339 West 3500 South","lat":40.696313,"libraryname":"Magna Library","state":"UT"},"type":"Feature","geometry":{"type":"Point","coordinates":[-112.090419,40.696313]}},{"properties":{"city":"Salt Lake City","lon":-111.884964,"zip":84111,"librarysystem":"Salt Lake City Public Library","phone":"801-524-8200","id":"a6682h6pbpk4","address":"210 East 400 South","lat":40.760437,"libraryname":"Main Library","state":"UT"},"type":"Feature","geometry":{"type":"Point","coordinates":[-111.884964,40.760437]}},{"properties":{"city":"Park City","lon":-111.546947,"zip":84098,"librarysystem":"Summit County Library System","phone":"435-615-3900","id":"a6682h2pkxtq","address":"6505 N. Landmark Dr.","lat":40.726087,"libraryname":"Main Library","state":"UT"},"type":"Feature","geometry":{"type":"Point","coordinates":[-111.546947,40.726087]}},{"properties":{"city":"Manti","lon":-111.637145,"zip":884642,"librarysystem":"Manti Public Library","phone":"435-835-2201","id":"a6682h4oyrf1","address":"2 S Main Street","lat":39.265272,"libraryname":"Manti Public Library","state":"UT"},"type":"Feature","geometry":{"type":"Point","coordinates":[-111.637145,39.265272]}},{"properties":{"city":"Milford","lon":-113.008829,"zip":84751,"librarysystem":"Milford Public Library","phone":"435-387-5039","id":"a6682h3zph3z","address":"400 S 100 W","lat":38.400317,"libraryname":"Milford Public Library","state":"UT"},"type":"Feature","geometry":{"type":"Point","coordinates":[-113.008829,38.400317]}},{"properties":{"city":"Delta","lon":-112.579052,"zip":84624,"librarysystem":"Millard County Bookmobile Library","phone":"435-864-2292","id":"a6682h6gdky8","address":"90 N 200 W","lat":39.353889,"libraryname":"Millard County Bookmobile Library","state":"UT"},"type":"Feature","geometry":{"type":"Point","coordinates":[-112.579052,39.353889]}},{"properties":{"city":"Minersville","lon":-112.925588,"zip":84752,"librarysystem":"Minersville Public Library","phone":"435-386-2267","id":"a6682gxdr29b","address":"40 W Main St","lat":38.213233,"libraryname":"Minersville Public Library","state":"UT"},"type":"Feature","geometry":{"type":"Point","coordinates":[-112.925588,38.213233]}},{"properties":{"city":"Monroe","lon":-112.121544,"zip":84754,"librarysystem":"Monroe Public Library","phone":"435-527-4019","id":"a6682gtr7gdv","address":"55 N Main St","lat":38.632904,"libraryname":"Monroe Public Library","state":"UT"},"type":"Feature","geometry":{"type":"Point","coordinates":[-112.121544,38.632904]}},{"properties":{"city":"Monticello","lon":-109.342716,"zip":84535,"librarysystem":"San Juan County Library","phone":"435-587-2281","id":"a6682gxiwdw0","address":"80 N Main","lat":37.873649,"libraryname":"Monticello Branch Library","state":"UT"},"type":"Feature","geometry":{"type":"Point","coordinates":[-109.342716,37.873649]}},{"properties":{"city":"Morgan","lon":-111.679412,"zip":84050,"librarysystem":"Morgan County Library","phone":"801-845-4074","id":"a6682h2ng4fe","address":"50 N 100 W","lat":41.036413,"libraryname":"Morgan County Library","state":"UT"},"type":"Feature","geometry":{"type":"Point","coordinates":[-111.679412,41.036413]}},{"properties":{"city":"Mount Pleasant","lon":-111.454797,"zip":84647,"librarysystem":"Mount Pleasant Public Library","phone":"435-462-3240","id":"a6682gudjilu","address":"24 East Main Street","lat":39.54665,"libraryname":"Mount Pleasant Public Library","state":"UT"},"type":"Feature","geometry":{"type":"Point","coordinates":[-111.454797,39.54665]}},{"properties":{"city":"Murray","lon":-111.886044,"zip":84107,"librarysystem":"Murray Public Library","phone":"801-264-2580","id":"a6682gw8k93h","address":"166 East 5300 South","lat":40.656003,"libraryname":"Murray Public Library","state":"UT"},"type":"Feature","geometry":{"type":"Point","coordinates":[-111.886044,40.656003]}},{"properties":{"city":"Nephi","lon":-111.835598,"zip":84648,"librarysystem":"Nephi Public Library","phone":"435-623-0822","id":"a6682h1f9lis","address":"21 East 100 North Street","lat":39.710215,"libraryname":"Nephi Public Library","state":"UT"},"type":"Feature","geometry":{"type":"Point","coordinates":[-111.835598,39.710215]}},{"properties":{"city":"New Harmony","lon":-113.305511,"zip":84757,"librarysystem":"Washington County Library","phone":"435-867-0065","id":"a6682h24nie1","address":"133 E Center St","lat":37.478128,"libraryname":"New Harmony Branch","state":"UT"},"type":"Feature","geometry":{"type":"Point","coordinates":[-113.305511,37.478128]}},{"properties":{"city":"Newton","lon":-111.988549,"zip":84327,"librarysystem":"Newton Town Library","phone":"435-563-9283","id":"a6682h8fxw6t","address":"51 South Center St","lat":41.86024,"libraryname":"Newton Town Library","state":"UT"},"type":"Feature","geometry":{"type":"Point","coordinates":[-111.988549,41.86024]}},{"properties":{"city":"Clearfield","lon":-112.007014,"zip":84015,"librarysystem":"Davis County Public Library","phone":"801-825-6662","id":"a6682gy3eqip","address":"562 S 1000 E","lat":41.104849,"libraryname":"North Branch Library","state":"UT"},"type":"Feature","geometry":{"type":"Point","coordinates":[-112.007014,41.104849]}},{"properties":{"city":"North Logan","lon":-111.819773,"zip":84341,"librarysystem":"North Logan City Library","phone":"435-755-7169","id":"a6682gyk6dnw","address":"475 E 2500 N","lat":41.777863,"libraryname":"North Logan City Library","state":"UT"},"type":"Feature","geometry":{"type":"Point","coordinates":[-111.819773,41.777863]}},{"properties":{"city":"Syracuse","lon":-112.064424,"zip":84075,"librarysystem":"Davis County Public Library","phone":"801-825-7080","id":"a6682gv28b1a","address":"1875 South 2000 West","lat":41.086966,"libraryname":"Northwest Branch Library","state":"UT"},"type":"Feature","geometry":{"type":"Point","coordinates":[-112.064424,41.086966]}},{"properties":{"city":"Ogden","lon":-111.965778,"zip":84414,"librarysystem":"Weber County Library","phone":"801-782-8800","id":"a6682gxwn8tt","address":"475 East 2600 North","lat":41.305807,"libraryname":"Ogden Valley Branch Library","state":"UT"},"type":"Feature","geometry":{"type":"Point","coordinates":[-111.965778,41.305807]}},{"properties":{"city":"Huntsville","lon":-111.770351,"zip":84317,"librarysystem":"Weber County Library","phone":"801-745-2220","id":"a6682gvnpgm0","address":"131 South 7400 East","lat":41.261814,"libraryname":"Ogden Valley Branch Library","state":"UT"},"type":"Feature","geometry":{"type":"Point","coordinates":[-111.770351,41.261814]}},{"properties":{"city":"Orangeville","lon":-111.053004,"zip":84537,"librarysystem":"Emery County Library","phone":"435-748-2726","id":"a6682h4ako6f","address":"125 South Main","lat":39.225882,"libraryname":"Orangeville Branch Library","state":"UT"},"type":"Feature","geometry":{"type":"Point","coordinates":[-111.053004,39.225882]}},{"properties":{"city":"Orem","lon":-111.695298,"zip":84057,"librarysystem":"Orem Public Library","phone":"801-229-7050","id":"a6682h5m2a6z","address":"58 North State","lat":40.29821,"libraryname":"Orem Public Library","state":"UT"},"type":"Feature","geometry":{"type":"Point","coordinates":[-111.695298,40.29821]}},{"properties":{"city":"Panguitch","lon":-112.48855,"zip":84759,"librarysystem":"Panguitch City Library","phone":"435-676-2431","id":"a6682gymajao","address":"25 S 200 E - PO Box 75","lat":37.765981,"libraryname":"Panguitch City Library","state":"UT"},"type":"Feature","geometry":{"type":"Point","coordinates":[-112.48855,37.765981]}},{"properties":{"city":"Park City","lon":-111.502852,"zip":84060,"librarysystem":"Park City Library","phone":"435-615-5600","id":"a6682gtmso01","address":"1255 Park Avenue","lat":40.651609,"libraryname":"Park City Library","state":"UT"},"type":"Feature","geometry":{"type":"Point","coordinates":[-111.502852,40.651609]}},{"properties":{"city":"Salt Lake City","lon":-111.958084,"zip":84118,"librarysystem":"Salt Lake County Library System","phone":"801-944-7618","id":"a6682h8qursj","address":"4870 South 2700 West","lat":40.663502,"libraryname":"Park Library","state":"UT"},"type":"Feature","geometry":{"type":"Point","coordinates":[-111.958084,40.663502]}},{"properties":{"city":"Parowan","lon":-112.827753,"zip":84761,"librarysystem":"Parowan Public Library","phone":"435-477-3491","id":"a6682gyy8de6","address":"16 South Main Street","lat":37.841789,"libraryname":"Parowan Public Library","state":"UT"},"type":"Feature","geometry":{"type":"Point","coordinates":[-112.827753,37.841789]}},{"properties":{"city":"Payson","lon":-111.732481,"zip":84651,"librarysystem":"Payson City Library","phone":"801-465-5220","id":"a6682h4350p3","address":"466 South Main St","lat":40.037294,"libraryname":"Payson City Library","state":"UT"},"type":"Feature","geometry":{"type":"Point","coordinates":[-111.732481,40.037294]}},{"properties":{"city":"Panguitch","lon":-112.431669,"zip":84759,"librarysystem":"Piute County Bookmobile Library","phone":"435-676-2431","id":"a6682gym857z","address":"25 S 200 E","lat":37.81968,"libraryname":"Piute County Bookmobile Library","state":"UT"},"type":"Feature","geometry":{"type":"Point","coordinates":[-112.431669,37.81968]}},{"properties":{"city":"Pleasant Grove","lon":-111.740119,"zip":84062,"librarysystem":"Pleasant Grove Public Library","phone":"801-785-3950","id":"a6682gve8s3c","address":"30 East Center Street,","lat":40.363763,"libraryname":"Pleasant Grove Public Library","state":"UT"},"type":"Feature","geometry":{"type":"Point","coordinates":[-111.740119,40.363763]}},{"properties":{"city":"Price","lon":-110.808084,"zip":84501,"librarysystem":"Price City Library","phone":"435-636-3188","id":"a6682h6i359k","address":"159 East Main Street","lat":39.599725,"libraryname":"Price City Library","state":"UT"},"type":"Feature","geometry":{"type":"Point","coordinates":[-110.808084,39.599725]}},{"properties":{"city":"Provo","lon":-111.658488,"zip":84601,"librarysystem":"Provo City Library","phone":"801-852-6650","id":"a6682gxy8hy2","address":"550 North University Avenue","lat":40.241055,"libraryname":"Provo City Library","state":"UT"},"type":"Feature","geometry":{"type":"Point","coordinates":[-111.658488,40.241055]}},{"properties":{"city":"Randolph","lon":-111.184757,"zip":84064,"librarysystem":"Rich County Bookmobile Library","phone":"435-793-2122","id":"a6682h0gdhvp","address":"20 N Main","lat":41.666077,"libraryname":"Rich County Bookmobile Library","state":"UT"},"type":"Feature","geometry":{"type":"Point","coordinates":[-111.184757,41.666077]}},{"properties":{"city":"Richfield","lon":-112.083357,"zip":84701,"librarysystem":"Richfield Public Library","phone":"435-896-5169","id":"a6682h2avf6u","address":"83 East Center Street","lat":38.768217,"libraryname":"Richfield Public Library","state":"UT"},"type":"Feature","geometry":{"type":"Point","coordinates":[-112.083357,38.768217]}},{"properties":{"city":"Richmond","lon":-111.814435,"zip":84333,"librarysystem":"Richmond City Library","phone":"435-722-4441","id":"a6682h05r8ri","address":"6 West Main, PO Box 202","lat":41.926103,"libraryname":"Richmond City Library","state":"UT"},"type":"Feature","geometry":{"type":"Point","coordinates":[-111.814435,41.926103]}},{"properties":{"city":"Riverton","lon":-111.938891,"zip":84065,"librarysystem":"Salt Lake County Library System","phone":"801-944-7677","id":"a6682h2mmsms","address":"12860 South Redwood Road","lat":40.517553,"libraryname":"Riverton Library","state":"UT"},"type":"Feature","geometry":{"type":"Point","coordinates":[-111.938891,40.517553]}},{"properties":{"city":"Midvale","lon":-111.893136,"zip":84047,"librarysystem":"Salt Lake County Library System","phone":"801-944-7641","id":"a6682h1wol4j","address":"8041 S. Wood Street","lat":40.605259,"libraryname":"Ruth Vine Tyler Library","state":"UT"},"type":"Feature","geometry":{"type":"Point","coordinates":[-111.893136,40.605259]}},{"properties":{"city":"Salina","lon":-111.861478,"zip":84654,"librarysystem":"Salina Public Library","phone":"435-529-7753","id":"a6682h7sl6oh","address":"90 West Main Street","lat":38.957723,"libraryname":"Salina Public Library","state":"UT"},"type":"Feature","geometry":{"type":"Point","coordinates":[-111.861478,38.957723]}},{"properties":{"city":"Monticello","lon":-109.326902,"zip":84535,"librarysystem":"San Juan County Library","phone":"435-587-2335","id":"a6682gyf1toc","address":"835 E Highway 666","lat":37.872932,"libraryname":"San Juan County Bookmobile Library","state":"UT"},"type":"Feature","geometry":{"type":"Point","coordinates":[-109.326902,37.872932]}},{"properties":{"city":"Sandy","lon":-111.850831,"zip":84092,"librarysystem":"Salt Lake County Library System","phone":"801-944-7574","id":"a6682h1hbnzx","address":"10100 South Petunia Way","lat":40.567795,"libraryname":"Sandy Library","state":"UT"},"type":"Feature","geometry":{"type":"Point","coordinates":[-111.850831,40.567795]}},{"properties":{"city":"Fairview","lon":-111.439259,"zip":84629,"librarysystem":"Sanpete County Bookmobile Library","phone":"435-427-9305","id":"a6682h5vtgit","address":"","lat":39.630495,"libraryname":"Sanpete County Bookmobile Library","state":"UT"},"type":"Feature","geometry":{"type":"Point","coordinates":[-111.439259,39.630495]}},{"properties":{"city":"Santa Clara","lon":-113.6361,"zip":84770,"librarysystem":"Washington County Library","phone":"435-986-0432","id":"a6682h7xwqt3","address":"1099 N Lava Flow Dr","lat":37.125917,"libraryname":"Santa Clara Branch","state":"UT"},"type":"Feature","geometry":{"type":"Point","coordinates":[-113.6361,37.125917]}},{"properties":{"city":"Santaquin","lon":-111.785817,"zip":84655,"librarysystem":"Santaquin City Library","phone":"801-754-3030","id":"a6682h4grq7g","address":"20 West 100 South","lat":39.974132,"libraryname":"Santaquin City Library","state":"UT"},"type":"Feature","geometry":{"type":"Point","coordinates":[-111.785817,39.974132]}},{"properties":{"city":"Bicknell","lon":-111.542874,"zip":84715,"librarysystem":"Sevier County Bookmobile Library","phone":"435-425-3170","id":"a6682h8lrwrq","address":"79 N 100 W","lat":38.342157,"libraryname":"Sevier County Bookmobile Library","state":"UT"},"type":"Feature","geometry":{"type":"Point","coordinates":[-111.542874,38.342157]}},{"properties":{"city":"Smithfield","lon":-111.832835,"zip":84355,"librarysystem":"Smithfield Public Library","phone":"435-563-3555","id":"a6682h884aa8","address":"25 North Main Street","lat":41.837068,"libraryname":"Smithfield Public Library","state":"UT"},"type":"Feature","geometry":{"type":"Point","coordinates":[-111.832835,41.837068]}},{"properties":{"city":"Bountiful","lon":-111.880463,"zip":84010,"librarysystem":"Davis County Public Library","phone":"801-295-8732","id":"a6682h4dzlm9","address":"725 S Main St.","lat":40.881908,"libraryname":"South Branch Library","state":"UT"},"type":"Feature","geometry":{"type":"Point","coordinates":[-111.880463,40.881908]}},{"properties":{"city":"South Jordan","lon":-111.936006,"zip":84095,"librarysystem":"Salt Lake County Library System","phone":"801-944-7634","id":"a6682gw4ugxe","address":"10300 South Beckstead Lane","lat":40.564207,"libraryname":"South Jordan Library","state":"UT"},"type":"Feature","geometry":{"type":"Point","coordinates":[-111.936006,40.564207]}},{"properties":{"city":"Roy","lon":-112.02727,"zip":84067,"librarysystem":"Weber County Library","phone":"801-773-2556","id":"a6682gu1245t","address":"1950 West 4800 South","lat":41.176349,"libraryname":"Southwest Branch Library","state":"UT"},"type":"Feature","geometry":{"type":"Point","coordinates":[-112.02727,41.176349]}},{"properties":{"city":"Spanish Fork","lon":-111.654608,"zip":84660,"librarysystem":"Spanish Fork City Public Library","phone":"801-798-5010","id":"a6682h5d6wao","address":"49 South Main Street","lat":40.10916,"libraryname":"Spanish Fork City Public Library","state":"UT"},"type":"Feature","geometry":{"type":"Point","coordinates":[-111.654608,40.10916]}},{"properties":{"city":"Salt Lake City","lon":-111.859556,"zip":84106,"librarysystem":"Salt Lake City Public Library","phone":"801-594-8640","id":"a6682h6ho5j0","address":"2131 South 1100 East","lat":40.725326,"libraryname":"Sprague Branch","state":"UT"},"type":"Feature","geometry":{"type":"Point","coordinates":[-111.859556,40.725326]}},{"properties":{"city":"Springdale","lon":-112.999442,"zip":84767,"librarysystem":"Washington County Library","phone":"435-772-3676","id":"a6682gxigslx","address":"898 Zion Park Blvd","lat":37.188865,"libraryname":"Springdale Valley Branch","state":"UT"},"type":"Feature","geometry":{"type":"Point","coordinates":[-112.999442,37.188865]}},{"properties":{"city":"Springville","lon":-111.610775,"zip":84663,"librarysystem":"Springville Public Library","phone":"801-489-2720","id":"a6682h3a0xtr","address":"50 S Main Street","lat":40.165944,"libraryname":"Springville Public Library","state":"UT"},"type":"Feature","geometry":{"type":"Point","coordinates":[-111.610775,40.165944]}},{"properties":{"city":"Saint George","lon":-113.583468,"zip":84770,"librarysystem":"Washington County Library","phone":"435-634-5737","id":"a6682gte6wpm","address":"50 S Main","lat":37.107305,"libraryname":"St. George Branch - Main Library","state":"UT"},"type":"Feature","geometry":{"type":"Point","coordinates":[-113.583468,37.107305]}},{"properties":{"city":"Tooele","lon":-112.302238,"zip":84074,"librarysystem":"Tooele City Public Library","phone":"435-882-2182","id":"a6682h402h1c","address":"128 West Vine Street","lat":40.530719,"libraryname":"Tooele City Public Library","state":"UT"},"type":"Feature","geometry":{"type":"Point","coordinates":[-112.302238,40.530719]}},{"properties":{"city":"Tremonton","lon":-112.166569,"zip":84337,"librarysystem":"Tremonton City Library","phone":"435-257-2690","id":"a6682h1s6juc","address":"210 North Tremont Street","lat":41.723066,"libraryname":"Tremonton City Library","state":"UT"},"type":"Feature","geometry":{"type":"Point","coordinates":[-112.166569,41.723066]}},{"properties":{"city":"Vernal","lon":-109.525663,"zip":84078,"librarysystem":"Uintah County Library","phone":"435-789-0091","id":"a6682h0n40si","address":"155 East Main","lat":40.455885,"libraryname":"Uintah County Library","state":"UT"},"type":"Feature","geometry":{"type":"Point","coordinates":[-109.525663,40.455885]}},{"properties":{"city":"Heber City","lon":-111.403763,"zip":84032,"librarysystem":"Wasatch County Library","phone":"435-654-1511","id":"a6682gtv7tgb","address":"465 East 1200 South","lat":40.492898,"libraryname":"Wasatch County Library","state":"UT"},"type":"Feature","geometry":{"type":"Point","coordinates":[-111.403763,40.492898]}},{"properties":{"city":"Bicknell","lon":-111.542874,"zip":84715,"librarysystem":"Wayne County Bookmobile Library","phone":"435-425-3170","id":"a6682h1tnp1j","address":"79 North 100 West","lat":38.342157,"libraryname":"Wayne County Bookmobile Library","state":"UT"},"type":"Feature","geometry":{"type":"Point","coordinates":[-111.542874,38.342157]}},{"properties":{"city":"Ogden","lon":-111.964664,"zip":84401,"librarysystem":"Weber County Library","phone":"801-337-2617","id":"a6682gw9slfw","address":"2464 Jefferson Avenue","lat":41.221432,"libraryname":"Weber County Library Main Branch","state":"UT"},"type":"Feature","geometry":{"type":"Point","coordinates":[-111.964664,41.221432]}},{"properties":{"city":"West Jordan","lon":-111.944191,"zip":84084,"librarysystem":"Salt Lake County Library System","phone":"801-944-7646","id":"a6682h1rolvx","address":"1970 West 7800 South","lat":40.60966,"libraryname":"West Jordan Library","state":"UT"},"type":"Feature","geometry":{"type":"Point","coordinates":[-111.944191,40.60966]}},{"properties":{"city":"West Valley City","lon":-111.961242,"zip":84119,"librarysystem":"Salt Lake County Library System","phone":"801-944-7621","id":"a6682gwidl4q","address":"2880 West 3650 South","lat":40.693043,"libraryname":"West Valley Library","state":"UT"},"type":"Feature","geometry":{"type":"Point","coordinates":[-111.961242,40.693043]}},{"properties":{"city":"Salt Lake City","lon":-111.827952,"zip":84121,"librarysystem":"Salt Lake County Library System","phone":"801-944-7533","id":"a6682h2ds8wu","address":"2197 East Fort Union Boulevard","lat":40.624119,"libraryname":"Whitmore Library","state":"UT"},"type":"Feature","geometry":{"type":"Point","coordinates":[-111.827952,40.624119]}}],"is_temporal":false,"author":{"url":"http://www.publiclibraries.com/utah.htm","metadata":"","contact_name":"","contact_address":"","source":"publiclibrairies.com","contact_phone":""},"source":"http://www.publiclibraries.com/utah.htm","pagination":{"sort":null,"start":0,"total":120,"limit":1000000},"state":"complete","tags":"books,education,libraries,library,public,utah","published":"2008-05-09T12:00:00Z","id":959}