{"type":"FeatureCollection","data_type":"Dataset","url_type":null,"permissions":[{"permissions":{"download":true,"view":true},"group_id":"everyone"}],"classification":null,"title":"US CRCs with 1-3 Interactions 2010-2011March1","count":284,"stream_id":96786,"contributor":{"url":"http://geocommons.com/users/14142","name":"sdevries"},"data_attributes":null,"calculation_params":null,"icon_link":null,"link":"http://geocommons.com/overlays/96786.json","extent":[-123.193,25.6134,-69.2442,48.9479],"geometry_types":["point"],"unique_name":null,"name":"US CRCs with 1-3 Interactions 2010-2011March1","feature_count":284,"description":"","next_feature":null,"is_raster":false,"short_classification":"Y","stats":{"total":{"max":3,"mean":1.46830985915493,"variance":0.511359677499627,"stdev":0.715094173867769,"min":1,"median":1},"church number":{"max":9671,"mean":4355.30985915493,"variance":8073047.45135122,"stdev":2841.31086848152,"min":105,"median":4318},"# 2010 interactions":{"max":3,"mean":1.07042253521127,"variance":0.397849997511571,"stdev":0.63075351565534,"min":0,"median":1},"# 2011 interactions":{"max":3,"mean":0.397887323943662,"variance":0.473635096799881,"stdev":0.688211520391719,"min":0,"median":0}},"features":[{"properties":{"city":"Clovis","geo_score":0.708,"total":1,"church name":"Fresno Hmong Community","church number":105,"# 2010 interactions":1,"street":"9242 E Herndon Ave","id":"a64el7erwkjh","geo_precision":"street","# 2011 interactions":0,"zip postal":"93611"},"type":"Feature","geometry":{"type":"Point","coordinates":[-119.62096,36.83736]}},{"properties":{"city":"La Crescenta","geo_score":0.902,"total":1,"church name":"Joy Community","church number":112,"# 2010 interactions":1,"street":"2875 Community Ave","id":"a64el7rvwgu0","geo_precision":"range","# 2011 interactions":0,"zip postal":"91214"},"type":"Feature","geometry":{"type":"Point","coordinates":[-118.241569,34.2234]}},{"properties":{"city":"Burbank","geo_score":0.902,"total":1,"church name":"Los Angeles Global Mission","church number":113,"# 2010 interactions":1,"street":"2210 N Parish Pl","id":"a64el7iph8mh","geo_precision":"range","# 2011 interactions":0,"zip postal":"91504"},"type":"Feature","geometry":{"type":"Point","coordinates":[-118.331309,34.199286]}},{"properties":{"city":"Grand Rapids","geo_score":0.823,"total":1,"church name":"The Gathering","church number":121,"# 2010 interactions":1,"street":"250 Centennial Ave NW","id":"a64el7d05hlk","geo_precision":"range","# 2011 interactions":0,"zip postal":"49504"},"type":"Feature","geometry":{"type":"Point","coordinates":[-85.720209,42.968937]}},{"properties":{"city":"Santa Clarita","geo_score":0.76,"total":1,"church name":"Santa Clarita Valley Community","church number":136,"# 2010 interactions":1,"street":"18951 Sierra Estates Dr","id":"a64el7hh4ci8","geo_precision":"range","# 2011 interactions":0,"zip postal":"91321"},"type":"Feature","geometry":{"type":"Point","coordinates":[-118.466556,34.401203]}},{"properties":{"city":"Parker","geo_score":0.509,"total":1,"church name":"The Crucible","church number":142,"# 2010 interactions":1,"street":"15970 Abbeylara Lane","id":"a64el7khgpvy","geo_precision":"zip","# 2011 interactions":0,"zip postal":"80134-3070"},"type":"Feature","geometry":{"type":"Point","coordinates":[-104.734419,39.455267]}},{"properties":{"city":"Whittier","geo_score":0.763,"total":1,"church name":"Ephesus","church number":164,"# 2010 interactions":1,"street":"10005 S Cole Rd","id":"a64el7gbeodt","geo_precision":"range","# 2011 interactions":0,"zip postal":"90603"},"type":"Feature","geometry":{"type":"Point","coordinates":[-118.005388,33.945586]}},{"properties":{"city":"Irvine","geo_score":0.902,"total":1,"church name":"One Life Presby.","church number":165,"# 2010 interactions":1,"street":"7 Shenandoah","id":"a64el7egw0do","geo_precision":"range","# 2011 interactions":0,"zip postal":"92620"},"type":"Feature","geometry":{"type":"Point","coordinates":[-117.765253,33.715846]}},{"properties":{"city":"Henderson","geo_score":0.0,"total":1,"church name":"Christ Love Presby.","church number":166,"# 2010 interactions":1,"street":"85 Pettswood Dr","id":"a64el7f2fb12","geo_precision":"unmatched","# 2011 interactions":0,"zip postal":"89002-3389"},"type":"Feature","geometry":null},{"properties":{"city":"Canton","geo_score":0.49,"total":1,"church name":"Canton","church number":167,"# 2010 interactions":1,"street":"42690 Cherry Hill Rd","id":"a64el7g7vdso","geo_precision":"street","# 2011 interactions":0,"zip postal":"48197"},"type":"Feature","geometry":{"type":"Point","coordinates":[-83.579984,42.15953]}},{"properties":{"city":"Hayward","geo_score":0.902,"total":1,"church name":"East Bay Korean Presby.","church number":168,"# 2010 interactions":1,"street":"25927 Kay Ave","id":"a64el7eaie3k","geo_precision":"range","# 2011 interactions":0,"zip postal":"94545"},"type":"Feature","geometry":{"type":"Point","coordinates":[-122.097917,37.640184]}},{"properties":{"city":"Ann Arbor","geo_score":0.902,"total":1,"church name":"Ann Arbor Hope","church number":172,"# 2010 interactions":1,"street":"2500 S Main St","id":"a64el7r9ref2","geo_precision":"range","# 2011 interactions":0,"zip postal":"48103"},"type":"Feature","geometry":{"type":"Point","coordinates":[-83.749452,42.250839]}},{"properties":{"city":"Traverse City","geo_score":0.632,"total":1,"church name":"Watershed","church number":179,"# 2010 interactions":1,"street":"1200 W 11th St Bldg 50 Ste 230","id":"a64el7bq3pmc","geo_precision":"range","# 2011 interactions":0,"zip postal":"49684"},"type":"Feature","geometry":{"type":"Point","coordinates":[-85.641466,44.756044]}},{"properties":{"city":"Cypress","geo_score":0.624,"total":1,"church name":"Southern California Kyung Shin","church number":187,"# 2010 interactions":1,"street":"5201 Lincoln Ave #227","id":"a64el7m1zo13","geo_precision":"street","# 2011 interactions":0,"zip postal":"90630"},"type":"Feature","geometry":{"type":"Point","coordinates":[-118.06218,33.831675]}},{"properties":{"city":"Sacramento","geo_score":0.364,"total":1,"church name":"Bridge of Life","church number":191,"# 2010 interactions":1,"street":"PO Box 348201","id":"a64el7ig0own","geo_precision":"street","# 2011 interactions":0,"zip postal":"95834-8201"},"type":"Feature","geometry":{"type":"Point","coordinates":[-121.482191,38.535088]}},{"properties":{"city":"Seattle","geo_score":0.645,"total":1,"church name":"The House","church number":199,"# 2010 interactions":1,"street":"312 N 85th St Ste 101","id":"a64el7bno437","geo_precision":"range","# 2011 interactions":0,"zip postal":"98103"},"type":"Feature","geometry":{"type":"Point","coordinates":[-122.355189,47.690592]}},{"properties":{"city":"Philadelphia","geo_score":0.821,"total":1,"church name":"Eighth Street Community","church number":200,"# 2010 interactions":1,"street":"705 W Wingohocking St","id":"a64el7omj37n","geo_precision":"range","# 2011 interactions":0,"zip postal":"19140"},"type":"Feature","geometry":{"type":"Point","coordinates":[-75.138011,40.020121]}},{"properties":{"city":"Austin","geo_score":0.815,"total":1,"church name":"The Lord's Church","church number":202,"# 2010 interactions":0,"street":"13231 Tamayo Dr","id":"a64el7lba0jv","geo_precision":"range","# 2011 interactions":1,"zip postal":"78729"},"type":"Feature","geometry":{"type":"Point","coordinates":[-97.757759,30.447491]}},{"properties":{"city":"Columbia","geo_score":0.902,"total":1,"church name":"Live On The Rock","church number":206,"# 2010 interactions":1,"street":"225 Sweet Gum Rd","id":"a64el7g6447d","geo_precision":"range","# 2011 interactions":0,"zip postal":"29223"},"type":"Feature","geometry":{"type":"Point","coordinates":[-80.923911,34.11316]}},{"properties":{"city":"Lake Worth","geo_score":0.381,"total":1,"church name":"Iglesia Cristiana Reformada Nuevo Pacto","church number":207,"# 2010 interactions":1,"street":"PO Box 1082","id":"a64el7fya488","geo_precision":"street","# 2011 interactions":0,"zip postal":"33460"},"type":"Feature","geometry":{"type":"Point","coordinates":[-80.093488,26.632987]}},{"properties":{"city":"DeMotte","geo_score":0.565,"total":1,"church name":"Communidad Agua Viva","church number":213,"# 2010 interactions":1,"street":"10498 N 450 E","id":"a64el7rhhy3g","geo_precision":"street","# 2011 interactions":0,"zip postal":"46310"},"type":"Feature","geometry":{"type":"Point","coordinates":[-87.305,41.153525]}},{"properties":{"city":"Fontana","geo_score":0.429,"total":1,"church name":"Iglesia Cristiana El Sembrador","church number":242,"# 2010 interactions":1,"street":"PO Box 1690","id":"a64el7i5js5i","geo_precision":"street","# 2011 interactions":0,"zip postal":"92334"},"type":"Feature","geometry":{"type":"Point","coordinates":[-117.368605,34.437647]}},{"properties":{"city":"Philadelphia","geo_score":0.724,"total":1,"church name":"One Hope Community Church","church number":255,"# 2010 interactions":1,"street":"4404 N 8th St","id":"a64el7nbwmdp","geo_precision":"range","# 2011 interactions":0,"zip postal":"19140"},"type":"Feature","geometry":{"type":"Point","coordinates":[-75.139405,40.018819]}},{"properties":{"city":"Chandler","geo_score":0.87,"total":1,"church name":"Christ's Community","church number":710,"# 2010 interactions":0,"street":"1550 W Chandler Blvd","id":"a64el7gv0neq","geo_precision":"range","# 2011 interactions":1,"zip postal":"85224-6142"},"type":"Feature","geometry":{"type":"Point","coordinates":[-111.868504,33.306022]}},{"properties":{"city":"Phoenix","geo_score":0.84,"total":1,"church name":"Orangewood","church number":757,"# 2010 interactions":1,"street":"3710 W Orangewood","id":"a64el7e4ljf8","geo_precision":"range","# 2011 interactions":0,"zip postal":"85051-6466"},"type":"Feature","geometry":{"type":"Point","coordinates":[-112.138765,33.545789]}},{"properties":{"city":"Tucson","geo_score":0.408,"total":1,"church name":"The Village","church number":785,"# 2010 interactions":1,"street":"Attn: Rod Hugen","id":"a64el7g8h3ms","geo_precision":"street","# 2011 interactions":0,"zip postal":"85710"},"type":"Feature","geometry":{"type":"Point","coordinates":[-111.003889,32.284239]}},{"properties":{"city":"Palmyra","geo_score":0.415,"total":1,"church name":"East Palmyra","church number":804,"# 2010 interactions":1,"street":"2057 Port Gibson Rd","id":"a64el7lf6s26","geo_precision":"street","# 2011 interactions":0,"zip postal":"14522-9727"},"type":"Feature","geometry":{"type":"Point","coordinates":[-77.238312,42.973333]}},{"properties":{"city":"Goshen","geo_score":0.541,"total":1,"church name":"Goshen","church number":810,"# 2010 interactions":1,"street":"2440 State Route 17A","id":"a64el7iysptn","geo_precision":"street","# 2011 interactions":0,"zip postal":"10924"},"type":"Feature","geometry":{"type":"Point","coordinates":[-74.357137,41.340182]}},{"properties":{"city":"North Hampton","geo_score":0.87,"total":1,"church name":"New Covenant","church number":812,"# 2010 interactions":1,"street":"6 Hobbs Rd","id":"a64el7ruom8v","geo_precision":"range","# 2011 interactions":0,"zip postal":"3862"},"type":"Feature","geometry":{"type":"Point","coordinates":[-70.834039,42.979871]}},{"properties":{"city":"Cadillac","geo_score":0.314,"total":1,"church name":"Cadillac","church number":1228,"# 2010 interactions":1,"street":"PO Box 187","id":"a64el7g36u34","geo_precision":"street","# 2011 interactions":0,"zip postal":"49601-0187"},"type":"Feature","geometry":{"type":"Point","coordinates":[-85.39996,44.25098]}},{"properties":{"city":"Marquette","geo_score":0.819,"total":1,"church name":"Faith in Christ Fellowship","church number":1265,"# 2010 interactions":0,"street":"145 West Ridge St","id":"a64el7qlp0d4","geo_precision":"range","# 2011 interactions":1,"zip postal":"49855"},"type":"Feature","geometry":{"type":"Point","coordinates":[-87.393,46.545324]}},{"properties":{"city":"McBain","geo_score":0.814,"total":1,"church name":"Calvin","church number":1270,"# 2010 interactions":0,"street":"10950 S Burkett Rd","id":"a64el7mypgdp","geo_precision":"range","# 2011 interactions":1,"zip postal":"49657"},"type":"Feature","geometry":{"type":"Point","coordinates":[-85.1534,44.17973]}},{"properties":{"city":"Rudyard","geo_score":0.819,"total":1,"church name":"Rudyard","church number":1277,"# 2010 interactions":0,"street":"17970 S Tilson Rd","id":"a64el7nz47n0","geo_precision":"range","# 2011 interactions":1,"zip postal":"49780-9379"},"type":"Feature","geometry":{"type":"Point","coordinates":[-84.592489,46.245547]}},{"properties":{"city":"Chino","geo_score":0.821,"total":1,"church name":"CrossPoint","church number":1531,"# 2010 interactions":1,"street":"6950 Edison Ave","id":"a64el7qqhjiu","geo_precision":"range","# 2011 interactions":0,"zip postal":"91710"},"type":"Feature","geometry":{"type":"Point","coordinates":[-117.653667,33.997587]}},{"properties":{"city":"Las Vegas","geo_score":0.902,"total":1,"church name":"Grace Valley","church number":1541,"# 2010 interactions":1,"street":"1370 E Robindale Rd","id":"a64el7f2pebg","geo_precision":"range","# 2011 interactions":0,"zip postal":"89123"},"type":"Feature","geometry":{"type":"Point","coordinates":[-115.133823,36.049901]}},{"properties":{"city":"Westminster","geo_score":0.814,"total":1,"church name":"Korean CRC of Orange County","church number":1551,"# 2010 interactions":1,"street":"14381 Magnolia St","id":"a64el7g7dnkw","geo_precision":"range","# 2011 interactions":0,"zip postal":"92683"},"type":"Feature","geometry":{"type":"Point","coordinates":[-117.972352,33.75346]}},{"properties":{"city":"Riverside","geo_score":0.805,"total":1,"church name":"Hope Community","church number":1557,"# 2010 interactions":0,"street":"9085 Colorado Ave","id":"a64el7c58mhm","geo_precision":"range","# 2011 interactions":1,"zip postal":"92503"},"type":"Feature","geometry":{"type":"Point","coordinates":[-117.448978,33.937162]}},{"properties":{"city":"Redlands","geo_score":0.759,"total":1,"church name":"The River","church number":1559,"# 2010 interactions":0,"street":"459 E Highland Ave","id":"a64el7h4c5eh","geo_precision":"street","# 2011 interactions":1,"zip postal":"92373"},"type":"Feature","geometry":{"type":"Point","coordinates":[-117.166176,34.04437]}},{"properties":{"city":"Escalon","geo_score":0.841,"total":1,"church name":"Escalon","church number":1814,"# 2010 interactions":1,"street":"2203 California St","id":"a64el7k7oylc","geo_precision":"range","# 2011 interactions":0,"zip postal":"95320"},"type":"Feature","geometry":{"type":"Point","coordinates":[-120.986001,37.796519]}},{"properties":{"city":"Fairfield","geo_score":0.805,"total":1,"church name":"Fairfield","church number":1815,"# 2010 interactions":1,"street":"300 Marigold Dr","id":"a64el7o06jce","geo_precision":"range","# 2011 interactions":0,"zip postal":"94533"},"type":"Feature","geometry":{"type":"Point","coordinates":[-122.033988,38.284288]}},{"properties":{"city":"Folsom","geo_score":0.333,"total":1,"church name":"River Rock","church number":1816,"# 2010 interactions":1,"street":"PO Box 1625","id":"a64el7d6macj","geo_precision":"street","# 2011 interactions":0,"zip postal":"95763"},"type":"Feature","geometry":{"type":"Point","coordinates":[-121.076296,38.698646]}},{"properties":{"city":"Lincoln","geo_score":0.477,"total":1,"church name":"Granite Springs","church number":1850,"# 2010 interactions":1,"street":"1170 E Joiner Parkway","id":"a64el7dkpqeq","geo_precision":"street","# 2011 interactions":0,"zip postal":"95648-8615"},"type":"Feature","geometry":{"type":"Point","coordinates":[-121.242156,38.655746]}},{"properties":{"city":"Sacramento","geo_score":0.902,"total":1,"church name":"Living Stones","church number":1852,"# 2010 interactions":1,"street":"1390 Florin Rd","id":"a64el7ie5cui","geo_precision":"range","# 2011 interactions":0,"zip postal":"95822-4278"},"type":"Feature","geometry":{"type":"Point","coordinates":[-121.503803,38.495676]}},{"properties":{"city":"Walnut Creek","geo_score":0.902,"total":1,"church name":"Faith Christian Fellowship","church number":1863,"# 2010 interactions":0,"street":"860 Bancroft Rd","id":"a64el7cab5fh","geo_precision":"range","# 2011 interactions":1,"zip postal":"94598"},"type":"Feature","geometry":{"type":"Point","coordinates":[-122.045015,37.932049]}},{"properties":{"city":"Alameda","geo_score":0.902,"total":1,"church name":"N. California Korean Community","church number":1871,"# 2010 interactions":1,"street":"2914 Encinal Ave","id":"a64el7juc6bj","geo_precision":"range","# 2011 interactions":0,"zip postal":"94501"},"type":"Feature","geometry":{"type":"Point","coordinates":[-122.236414,37.757729]}},{"properties":{"city":"Elmhurst","geo_score":0.805,"total":1,"church name":"Elmhurst","church number":2407,"# 2010 interactions":1,"street":"155 W Brush Hill Rd","id":"a64el7fztsu3","geo_precision":"range","# 2011 interactions":0,"zip postal":"60126"},"type":"Feature","geometry":{"type":"Point","coordinates":[-87.94092,41.861475]}},{"properties":{"city":"Chicago","geo_score":0.902,"total":1,"church name":"Many Peoples Church","church number":2410,"# 2010 interactions":1,"street":"1507 W Morse Ave","id":"a64el7mzm2hg","geo_precision":"range","# 2011 interactions":0,"zip postal":"60626"},"type":"Feature","geometry":{"type":"Point","coordinates":[-87.667962,42.007872]}},{"properties":{"city":"Chicago","geo_score":0.752,"total":1,"church name":"Loop Christian Ministries","church number":2425,"# 2010 interactions":1,"street":"1550 S Dearborn #109","id":"a64el7kw2wfm","geo_precision":"range","# 2011 interactions":0,"zip postal":"60605"},"type":"Feature","geometry":{"type":"Point","coordinates":[-87.629365,41.880435]}},{"properties":{"city":"Wheeling","geo_score":0.902,"total":1,"church name":"Korean","church number":2446,"# 2010 interactions":0,"street":"850 Jenkins Ct","id":"a64el7e76o00","geo_precision":"range","# 2011 interactions":1,"zip postal":"60090"},"type":"Feature","geometry":{"type":"Point","coordinates":[-87.938805,42.137558]}},{"properties":{"city":"Morrison","geo_score":0.678,"total":1,"church name":"Morrison","church number":2449,"# 2010 interactions":0,"street":"300 West South Street","id":"a64el7cy7iqk","geo_precision":"range","# 2011 interactions":1,"zip postal":"61270"},"type":"Feature","geometry":{"type":"Point","coordinates":[-89.971581,41.805918]}},{"properties":{"city":"German Valley","geo_score":0.902,"total":1,"church name":"Grace Valley","church number":2477,"# 2010 interactions":1,"street":"8210 E Edwardsville Rd","id":"a64el7h0nn3k","geo_precision":"range","# 2011 interactions":0,"zip postal":"61039"},"type":"Feature","geometry":{"type":"Point","coordinates":[-89.451027,42.230013]}},{"properties":{"city":"Elmhurst","geo_score":0.805,"total":1,"church name":"Faith","church number":2486,"# 2010 interactions":1,"street":"1070 S Prospect Ave","id":"a64el7gahqa8","geo_precision":"range","# 2011 interactions":0,"zip postal":"60126"},"type":"Feature","geometry":{"type":"Point","coordinates":[-87.943861,41.865357]}},{"properties":{"city":"Champaign","geo_score":0.722,"total":1,"church name":"Hessel Park","church number":2703,"# 2010 interactions":1,"street":"700 W Kirby","id":"a64el7g68v4a","geo_precision":"range","# 2011 interactions":0,"zip postal":"61820"},"type":"Feature","geometry":{"type":"Point","coordinates":[-88.254464,40.098117]}},{"properties":{"city":"Chicago","geo_score":0.902,"total":1,"church name":"Pullman","church number":2711,"# 2010 interactions":1,"street":"424 E 103rd St","id":"a64el7i9lglg","geo_precision":"range","# 2011 interactions":0,"zip postal":"60628"},"type":"Feature","geometry":{"type":"Point","coordinates":[-87.612741,41.70733]}},{"properties":{"city":"Grangeville","geo_score":0.814,"total":1,"church name":"Grangeville","church number":2810,"# 2010 interactions":0,"street":"521 N Junction St","id":"a64el7fv8ppm","geo_precision":"range","# 2011 interactions":1,"zip postal":"83530"},"type":"Feature","geometry":{"type":"Point","coordinates":[-116.122572,45.92982]}},{"properties":{"city":"McMinnville","geo_score":0.814,"total":1,"church name":"Sunrise","church number":2820,"# 2010 interactions":1,"street":"823 N Ford St","id":"a64el7dnvqbx","geo_precision":"range","# 2011 interactions":0,"zip postal":"97128"},"type":"Feature","geometry":{"type":"Point","coordinates":[-123.193308,45.213753]}},{"properties":{"city":"Tualatin","geo_score":0.805,"total":1,"church name":"Christ Community","church number":2823,"# 2010 interactions":1,"street":"22100 SW Grahams Ferry Rd","id":"a64el7c0qpqh","geo_precision":"range","# 2011 interactions":0,"zip postal":"97062"},"type":"Feature","geometry":{"type":"Point","coordinates":[-122.777475,45.360085]}},{"properties":{"city":"Spokane","geo_score":0.902,"total":1,"church name":"Hope","church number":2839,"# 2010 interactions":1,"street":"806 W Knox  Ave","id":"a64el7qxuq1z","geo_precision":"range","# 2011 interactions":0,"zip postal":"99205"},"type":"Feature","geometry":{"type":"Point","coordinates":[-117.423691,47.676739]}},{"properties":{"city":"Sunnyside","geo_score":0.902,"total":1,"church name":"Sunnyside","church number":2842,"# 2010 interactions":0,"street":"555 Franklin Ct","id":"a64el7gpvuch","geo_precision":"range","# 2011 interactions":1,"zip postal":"98944"},"type":"Feature","geometry":{"type":"Point","coordinates":[-120.000038,46.323056]}},{"properties":{"city":"Kennewick","geo_score":0.824,"total":1,"church name":"Family of Faith","church number":2843,"# 2010 interactions":1,"street":"835 N Neel St","id":"a64el7hlugjx","geo_precision":"range","# 2011 interactions":0,"zip postal":"99336-2443"},"type":"Feature","geometry":{"type":"Point","coordinates":[-119.170569,46.219676]}},{"properties":{"city":"Bradenton","geo_score":0.789,"total":1,"church name":"Bradenton","church number":3204,"# 2010 interactions":1,"street":"4208 26th St W","id":"a64el7pl5wse","geo_precision":"range","# 2011 interactions":0,"zip postal":"34205"},"type":"Feature","geometry":{"type":"Point","coordinates":[-82.587611,27.46413]}},{"properties":{"city":"Miami","geo_score":0.902,"total":1,"church name":"South Kendall Community","church number":3216,"# 2010 interactions":1,"street":"16550 SW 147th Ave","id":"a64el7i15z7t","geo_precision":"range","# 2011 interactions":0,"zip postal":"33187"},"type":"Feature","geometry":{"type":"Point","coordinates":[-80.430142,25.613423]}},{"properties":{"city":"Port St. Lucie","geo_score":0.61,"total":1,"church name":"Sunlight Community","church number":3229,"# 2010 interactions":1,"street":"477 SW Cashmere Blvd","id":"a64el7ll4rlb","geo_precision":"street","# 2011 interactions":0,"zip postal":"34986"},"type":"Feature","geometry":{"type":"Point","coordinates":[-80.383069,27.29392]}},{"properties":{"city":"Miami","geo_score":0.752,"total":1,"church name":"Iglesia Cristiana Reformada Vida Nueva","church number":3243,"# 2010 interactions":1,"street":"5941 NW 176 St","id":"a64el7l1k83h","geo_precision":"range","# 2011 interactions":0,"zip postal":"33015"},"type":"Feature","geometry":{"type":"Point","coordinates":[-80.298574,25.932914]}},{"properties":{"city":"Grand Rapids","geo_score":0.789,"total":1,"church name":"Calvin","church number":3328,"# 2010 interactions":1,"street":"700 Ethel SE","id":"a64el7iyp7rd","geo_precision":"range","# 2011 interactions":0,"zip postal":"49506"},"type":"Feature","geometry":{"type":"Point","coordinates":[-85.632849,42.950078]}},{"properties":{"city":"Grand Rapids","geo_score":0.876,"total":1,"church name":"Fuller Avenue","church number":3348,"# 2010 interactions":1,"street":"1239 Fuller Ave SE","id":"a64el7ilj24r","geo_precision":"range","# 2011 interactions":0,"zip postal":"49506"},"type":"Feature","geometry":{"type":"Point","coordinates":[-85.639382,42.940485]}},{"properties":{"city":"Byron Center","geo_score":0.758,"total":1,"church name":"First Cutlerville","church number":3607,"# 2010 interactions":1,"street":"1425 68th St SW","id":"a64el7hxabon","geo_precision":"range","# 2011 interactions":0,"zip postal":"49315"},"type":"Feature","geometry":{"type":"Point","coordinates":[-85.695035,42.841125]}},{"properties":{"city":"Grand Rapids","geo_score":0.902,"total":1,"church name":"Alger Park","church number":3621,"# 2010 interactions":1,"street":"2655 Eastern Ave SE","id":"a64el7go5ot5","geo_precision":"range","# 2011 interactions":0,"zip postal":"49507"},"type":"Feature","geometry":{"type":"Point","coordinates":[-85.647249,42.915368]}},{"properties":{"city":"Grand Rapids","geo_score":0.84,"total":1,"church name":"City Hope Ministries","church number":3640,"# 2010 interactions":1,"street":"1975 Jefferson SE","id":"a64el7ebq4gv","geo_precision":"range","# 2011 interactions":0,"zip postal":"49507"},"type":"Feature","geometry":{"type":"Point","coordinates":[-85.663084,42.931106]}},{"properties":{"city":"Wyoming","geo_score":0.814,"total":1,"church name":"Immanuel","church number":3663,"# 2010 interactions":1,"street":"33 Elwell St SW","id":"a64el7pgku73","geo_precision":"range","# 2011 interactions":0,"zip postal":"49548"},"type":"Feature","geometry":{"type":"Point","coordinates":[-85.665233,42.878126]}},{"properties":{"city":"Grand Rapids","geo_score":0.902,"total":1,"church name":"LaGrave Avenue","church number":3677,"# 2010 interactions":1,"street":"107 LaGrave Ave SE","id":"a64el7i44fhu","geo_precision":"range","# 2011 interactions":0,"zip postal":"49503"},"type":"Feature","geometry":{"type":"Point","coordinates":[-85.665342,42.960723]}},{"properties":{"city":"Grand Rapids","geo_score":0.814,"total":1,"church name":"Roosevelt Park Community","church number":3680,"# 2010 interactions":1,"street":"811 Chicago Dr SW","id":"a64el7o2sei3","geo_precision":"range","# 2011 interactions":0,"zip postal":"49509"},"type":"Feature","geometry":{"type":"Point","coordinates":[-85.687773,42.935755]}},{"properties":{"city":"Belding","geo_score":0.805,"total":1,"church name":"Oakwood","church number":3902,"# 2010 interactions":1,"street":"8750 Storey Rd","id":"a64el7pa8hpo","geo_precision":"range","# 2011 interactions":0,"zip postal":"48809"},"type":"Feature","geometry":{"type":"Point","coordinates":[-85.262808,43.115211]}},{"properties":{"city":"Cedar Springs","geo_score":0.5,"total":1,"church name":"Pioneer","church number":3904,"# 2010 interactions":1,"street":"3110 17 Mile Rd NE","id":"a64el7d9rltr","geo_precision":"street","# 2011 interactions":0,"zip postal":"49319"},"type":"Feature","geometry":{"type":"Point","coordinates":[-85.810507,43.254332]}},{"properties":{"city":"Grand Rapids","geo_score":0.823,"total":1,"church name":"Westend","church number":3941,"# 2010 interactions":1,"street":"1015 Westend Ave NW","id":"a64el7ovti2c","geo_precision":"range","# 2011 interactions":0,"zip postal":"49504"},"type":"Feature","geometry":{"type":"Point","coordinates":[-85.719711,42.982]}},{"properties":{"city":"Grand Rapids","geo_score":0.902,"total":1,"church name":"Grace Korean","church number":3950,"# 2010 interactions":1,"street":"1970 Jefferson Ave SE","id":"a64el7hv0qvj","geo_precision":"range","# 2011 interactions":0,"zip postal":"49507"},"type":"Feature","geometry":{"type":"Point","coordinates":[-85.662947,42.927971]}},{"properties":{"city":"Grand Rapids","geo_score":0.769,"total":1,"church name":"Westview","church number":3960,"# 2010 interactions":1,"street":"2929 Leonard NW","id":"a64el7jwfo28","geo_precision":"range","# 2011 interactions":0,"zip postal":"49504"},"type":"Feature","geometry":{"type":"Point","coordinates":[-85.740225,42.986408]}},{"properties":{"city":"Byron Center","geo_score":0.831,"total":1,"church name":"Second","church number":4215,"# 2010 interactions":0,"street":"7588 Byron Center Ave SW","id":"a64el7jousfy","geo_precision":"range","# 2011 interactions":1,"zip postal":"49315"},"type":"Feature","geometry":{"type":"Point","coordinates":[-85.722989,42.82712]}},{"properties":{"city":"Byron Center","geo_score":0.758,"total":1,"church name":"Heritage","church number":4216,"# 2010 interactions":1,"street":"3089 84th St SW","id":"a64el7cd2xls","geo_precision":"range","# 2011 interactions":0,"zip postal":"49315"},"type":"Feature","geometry":{"type":"Point","coordinates":[-85.739881,42.812124]}},{"properties":{"city":"Dorr","geo_score":0.393,"total":1,"church name":"Dorr","church number":4221,"# 2010 interactions":1,"street":"PO Box 217","id":"a64el7ko3oaf","geo_precision":"street","# 2011 interactions":0,"zip postal":"49323"},"type":"Feature","geometry":{"type":"Point","coordinates":[-85.148988,43.59596]}},{"properties":{"city":"Grandville","geo_score":0.835,"total":1,"church name":"Fellowship","church number":4225,"# 2010 interactions":1,"street":"4375 Ivanrest SW","id":"a64el7domvpo","geo_precision":"range","# 2011 interactions":0,"zip postal":"49418"},"type":"Feature","geometry":{"type":"Point","coordinates":[-85.743316,42.885332]}},{"properties":{"city":"Grandville","geo_score":0.902,"total":1,"church name":"Hope","church number":4230,"# 2010 interactions":1,"street":"3110 Barrett Ave SW","id":"a64el7m327ze","geo_precision":"range","# 2011 interactions":0,"zip postal":"49418-1680"},"type":"Feature","geometry":{"type":"Point","coordinates":[-85.758111,42.908156]}},{"properties":{"city":"Grandville","geo_score":0.902,"total":1,"church name":"Ivanrest","church number":4233,"# 2010 interactions":1,"street":"3777 Ivanrest Ave SW","id":"a64el7edcylh","geo_precision":"range","# 2011 interactions":0,"zip postal":"49418"},"type":"Feature","geometry":{"type":"Point","coordinates":[-85.743715,42.895987]}},{"properties":{"city":"Wyoming","geo_score":0.814,"total":1,"church name":"Calvary","church number":4245,"# 2010 interactions":1,"street":"3500 Byron Center Ave SW","id":"a64el7h3i1sj","geo_precision":"range","# 2011 interactions":0,"zip postal":"49519"},"type":"Feature","geometry":{"type":"Point","coordinates":[-85.724564,42.901114]}},{"properties":{"city":"Anaheim","geo_score":0.902,"total":1,"church name":"Anaheim","church number":4303,"# 2010 interactions":1,"street":"530 N Dale Ave","id":"a64el7ljh5e0","geo_precision":"range","# 2011 interactions":0,"zip postal":"92801"},"type":"Feature","geometry":{"type":"Point","coordinates":[-117.984791,33.838263]}},{"properties":{"city":"Artesia","geo_score":0.817,"total":1,"church name":"Cerritos WooRi Church","church number":4310,"# 2010 interactions":1,"street":"18718 Grayland Ave","id":"a64el7it4w5h","geo_precision":"range","# 2011 interactions":0,"zip postal":"90701"},"type":"Feature","geometry":{"type":"Point","coordinates":[-118.075612,33.861137]}},{"properties":{"city":"Bellflower","geo_score":0.876,"total":1,"church name":"First","church number":4318,"# 2010 interactions":1,"street":"17603 S Ardmore Ave","id":"a64el7oxaddu","geo_precision":"range","# 2011 interactions":0,"zip postal":"90706"},"type":"Feature","geometry":{"type":"Point","coordinates":[-118.129038,33.872973]}},{"properties":{"city":"Long Beach","geo_score":0.721,"total":1,"church name":"New City","church number":4319,"# 2010 interactions":1,"street":"1228 E South St","id":"a64el7puk198","geo_precision":"range","# 2011 interactions":0,"zip postal":"90805"},"type":"Feature","geometry":{"type":"Point","coordinates":[-118.177047,33.860099]}},{"properties":{"city":"Bellflower","geo_score":0.902,"total":1,"church name":"God's Grace Chr. Church","church number":4325,"# 2010 interactions":1,"street":"17620 Ardmore Ave","id":"a64el7qhcasm","geo_precision":"range","# 2011 interactions":0,"zip postal":"90706"},"type":"Feature","geometry":{"type":"Point","coordinates":[-118.129038,33.872809]}},{"properties":{"city":"Cerritos","geo_score":0.476,"total":1,"church name":"Grace Christian Fellowship","church number":4326,"# 2010 interactions":1,"street":"PO Box 3956","id":"a64el7nzm77g","geo_precision":"street","# 2011 interactions":0,"zip postal":"90703"},"type":"Feature","geometry":{"type":"Point","coordinates":[-118.063501,33.876664]}},{"properties":{"city":"Los Angeles","geo_score":0.721,"total":1,"church name":"New Ground Harvest","church number":4349,"# 2010 interactions":1,"street":"3010 W 48th St","id":"a64el7k5av5e","geo_precision":"range","# 2011 interactions":0,"zip postal":"90043"},"type":"Feature","geometry":{"type":"Point","coordinates":[-118.325856,34.000025]}},{"properties":{"city":"Cerritos","geo_score":0.902,"total":1,"church name":"Lord's Love Mission","church number":4358,"# 2010 interactions":1,"street":"12131 Bertha St","id":"a64el7ijmw9v","geo_precision":"range","# 2011 interactions":0,"zip postal":"90703"},"type":"Feature","geometry":{"type":"Point","coordinates":[-118.074355,33.850513]}},{"properties":{"city":"Inglewood","geo_score":0.831,"total":1,"church name":"Grace Unlimited","church number":4361,"# 2010 interactions":1,"street":"9605 S Van Ness Ave","id":"a64el7n6uixu","geo_precision":"range","# 2011 interactions":0,"zip postal":"90305"},"type":"Feature","geometry":{"type":"Point","coordinates":[-118.317722,33.949052]}},{"properties":{"city":"Lake View Terrace","geo_score":0.811,"total":1,"church name":"All Nations Church","church number":4362,"# 2010 interactions":0,"street":"10000 Foothill Blvd","id":"a64el7kcr83v","geo_precision":"range","# 2011 interactions":1,"zip postal":"91342"},"type":"Feature","geometry":{"type":"Point","coordinates":[-118.346609,34.272859]}},{"properties":{"city":"Sun Valley","geo_score":0.823,"total":1,"church name":"Sol del Valle","church number":4365,"# 2010 interactions":1,"street":"10725 Penrose St","id":"a64el7e9j848","geo_precision":"range","# 2011 interactions":0,"zip postal":"91352"},"type":"Feature","geometry":{"type":"Point","coordinates":[-118.364229,34.23232]}},{"properties":{"city":"Westminster","geo_score":0.814,"total":1,"church name":"Little Saigon","church number":4370,"# 2010 interactions":1,"street":"10321 Bolsa Ave","id":"a64el7jzj02d","geo_precision":"range","# 2011 interactions":0,"zip postal":"92683"},"type":"Feature","geometry":{"type":"Point","coordinates":[-117.949112,33.744973]}},{"properties":{"city":"Hudsonville","geo_score":0.814,"total":1,"church name":"Bauer","church number":4403,"# 2010 interactions":0,"street":"4958 Bauer Rd","id":"a64el7it2yez","geo_precision":"range","# 2011 interactions":1,"zip postal":"49426"},"type":"Feature","geometry":{"type":"Point","coordinates":[-85.9056,42.921465]}},{"properties":{"city":"Hudsonville","geo_score":0.73,"total":1,"church name":"EverGreen Ministries","church number":4405,"# 2010 interactions":1,"street":"4512 48th Ave","id":"a64el7p7zqhj","geo_precision":"range","# 2011 interactions":0,"zip postal":"49426"},"type":"Feature","geometry":{"type":"Point","coordinates":[-85.90056,42.853337]}},{"properties":{"city":"Hudsonville","geo_score":0.73,"total":1,"church name":"Georgetown","church number":4410,"# 2010 interactions":1,"street":"6475  40th Ave","id":"a64el7bmb0j1","geo_precision":"range","# 2011 interactions":0,"zip postal":"49426"},"type":"Feature","geometry":{"type":"Point","coordinates":[-85.881701,42.887104]}},{"properties":{"city":"Hudsonville","geo_score":0.667,"total":1,"church name":"Messiah","church number":4418,"# 2010 interactions":1,"street":"2900 Springdale","id":"a64el7kjessh","geo_precision":"street","# 2011 interactions":0,"zip postal":"49426"},"type":"Feature","geometry":{"type":"Point","coordinates":[-85.852851,42.882241]}},{"properties":{"city":"Jenison","geo_score":0.902,"total":1,"church name":"Baldwin Street","church number":4420,"# 2010 interactions":1,"street":"2101 Baldwin St","id":"a64el7m4drxs","geo_precision":"range","# 2011 interactions":0,"zip postal":"49428"},"type":"Feature","geometry":{"type":"Point","coordinates":[-85.834263,42.907171]}},{"properties":{"city":"Jenison","geo_score":0.902,"total":1,"church name":"First","church number":4424,"# 2010 interactions":0,"street":"8360 Cottonwood Dr","id":"a64el7jpw1sk","geo_precision":"range","# 2011 interactions":1,"zip postal":"49428"},"type":"Feature","geometry":{"type":"Point","coordinates":[-85.808998,42.919718]}},{"properties":{"city":"Jenison","geo_score":0.902,"total":1,"church name":"Ridgewood","church number":4426,"# 2010 interactions":1,"street":"1571 Baldwin St","id":"a64el7monhld","geo_precision":"range","# 2011 interactions":0,"zip postal":"49428"},"type":"Feature","geometry":{"type":"Point","coordinates":[-85.821299,42.907152]}},{"properties":{"city":"Jersey City","geo_score":0.902,"total":1,"church name":"Jersey City Mission","church number":4520,"# 2010 interactions":1,"street":"575 Summit Ave","id":"a64el7mzs5bn","geo_precision":"range","# 2011 interactions":0,"zip postal":"7306"},"type":"Feature","geometry":{"type":"Point","coordinates":[-74.059395,40.734142]}},{"properties":{"city":"Jersey City","geo_score":0.902,"total":1,"church name":"New City Church","church number":4522,"# 2010 interactions":1,"street":"240 Fairmount Ave","id":"a64el7kbhryd","geo_precision":"range","# 2011 interactions":0,"zip postal":"7306"},"type":"Feature","geometry":{"type":"Point","coordinates":[-74.068837,40.722863]}},{"properties":{"city":"Jenkintown","geo_score":0.815,"total":1,"church name":"Sung Chi","church number":4536,"# 2010 interactions":1,"street":"101 Washington Lane #410","id":"a64el7dkcj7l","geo_precision":"range","# 2011 interactions":0,"zip postal":"19046"},"type":"Feature","geometry":{"type":"Point","coordinates":[-75.12696,40.09132]}},{"properties":{"city":"Paterson","geo_score":0.805,"total":1,"church name":"Northside Community","church number":4562,"# 2010 interactions":0,"street":"167 North 7th St","id":"a64el7orrg3g","geo_precision":"range","# 2011 interactions":1,"zip postal":"7522"},"type":"Feature","geometry":{"type":"Point","coordinates":[-74.17574,40.929562]}},{"properties":{"city":"Washington","geo_score":0.815,"total":1,"church name":"The Chr. Reformed Church of Washington, DC","church number":4592,"# 2010 interactions":1,"street":"5911 New Hampshire Ave NE","id":"a64el7h9sonh","geo_precision":"range","# 2011 interactions":0,"zip postal":"20011"},"type":"Feature","geometry":{"type":"Point","coordinates":[-77.005567,38.961549]}},{"properties":{"city":"Holland","geo_score":0.902,"total":1,"church name":"Harderwyk Ministries","church number":5121,"# 2010 interactions":1,"street":"1627 West Lakewood Blvd","id":"a64el7ir6ly6","geo_precision":"range","# 2011 interactions":0,"zip postal":"49424"},"type":"Feature","geometry":{"type":"Point","coordinates":[-86.17585,42.804106]}},{"properties":{"city":"South Bend","geo_score":0.595,"total":1,"church name":"South Bend","church number":5136,"# 2010 interactions":0,"street":"1855 N Hickory Rd","id":"a64el7cjz8v3","geo_precision":"street","# 2011 interactions":1,"zip postal":"46635"},"type":"Feature","geometry":{"type":"Point","coordinates":[-86.197159,41.70184]}},{"properties":{"city":"Holland","geo_score":0.729,"total":1,"church name":"Fourteenth Street","church number":5145,"# 2010 interactions":1,"street":"14 West 14th St","id":"a64el7j6oygn","geo_precision":"range","# 2011 interactions":0,"zip postal":"49423"},"type":"Feature","geometry":{"type":"Point","coordinates":[-86.107643,42.784852]}},{"properties":{"city":"Holland","geo_score":0.813,"total":1,"church name":"Lao","church number":5150,"# 2010 interactions":1,"street":"940 Royce Avenue","id":"a64el7c079b7","geo_precision":"range","# 2011 interactions":0,"zip postal":"49423"},"type":"Feature","geometry":{"type":"Point","coordinates":[-86.091063,42.763355]}},{"properties":{"city":"Holland","geo_score":0.813,"total":1,"church name":"Niekerk","church number":5186,"# 2010 interactions":1,"street":"545 Country Club Rd","id":"a64el7fkfam6","geo_precision":"range","# 2011 interactions":0,"zip postal":"49423"},"type":"Feature","geometry":{"type":"Point","coordinates":[-86.057693,42.777247]}},{"properties":{"city":"Saugatuck","geo_score":0.902,"total":1,"church name":"Saugatuck","church number":5195,"# 2010 interactions":1,"street":"6591 Old Allegan Rd","id":"a64el7o7ke7a","geo_precision":"range","# 2011 interactions":0,"zip postal":"49453"},"type":"Feature","geometry":{"type":"Point","coordinates":[-86.191897,42.654576]}},{"properties":{"city":"St. Joseph","geo_score":0.805,"total":1,"church name":"Christian Reformed Church of St. Joseph","church number":5199,"# 2010 interactions":0,"street":"3275 Washington Ave","id":"a64el7pjfrdb","geo_precision":"range","# 2011 interactions":1,"zip postal":"49085"},"type":"Feature","geometry":{"type":"Point","coordinates":[-86.485046,42.058257]}},{"properties":{"city":"Jersey City","geo_score":0.902,"total":1,"church name":"Filipino-American","church number":5423,"# 2010 interactions":1,"street":"575 Summit Ave","id":"a64el7p0l28v","geo_precision":"range","# 2011 interactions":0,"zip postal":"7306"},"type":"Feature","geometry":{"type":"Point","coordinates":[-74.059395,40.734142]}},{"properties":{"city":"Flushing","geo_score":0.805,"total":1,"church name":"East West Church of New York","church number":5427,"# 2010 interactions":1,"street":"35-09 169th St","id":"a64el7lfg9vr","geo_precision":"range","# 2011 interactions":0,"zip postal":"11358"},"type":"Feature","geometry":{"type":"Point","coordinates":[-73.795518,40.773821]}},{"properties":{"city":"North Haledon","geo_score":0.805,"total":1,"church name":"New Life Ministries","church number":5437,"# 2010 interactions":1,"street":"214 Dorothy Dr","id":"a64el7dgo8t6","geo_precision":"range","# 2011 interactions":0,"zip postal":"07508-2843"},"type":"Feature","geometry":{"type":"Point","coordinates":[-74.189616,40.96179]}},{"properties":{"city":"Wyckoff","geo_score":0.902,"total":1,"church name":"Faith Community","church number":5453,"# 2010 interactions":1,"street":"530 Sicomac Ave","id":"a64el7rfp0yd","geo_precision":"range","# 2011 interactions":0,"zip postal":"7481"},"type":"Feature","geometry":{"type":"Point","coordinates":[-74.189987,40.992281]}},{"properties":{"city":"Hammond","geo_score":0.902,"total":1,"church name":"Hammond","church number":5612,"# 2010 interactions":1,"street":"1910 167th St","id":"a64el7binz9m","geo_precision":"range","# 2011 interactions":0,"zip postal":"46324"},"type":"Feature","geometry":{"type":"Point","coordinates":[-87.483051,41.592091]}},{"properties":{"city":"Schererville","geo_score":0.643,"total":1,"church name":"Crossroads Community","church number":5651,"# 2010 interactions":1,"street":"1538 Janice Dr","id":"a64el7n2vn4h","geo_precision":"street","# 2011 interactions":0,"zip postal":"46375"},"type":"Feature","geometry":{"type":"Point","coordinates":[-87.476057,41.500493]}},{"properties":{"city":"Battle Creek","geo_score":0.858,"total":1,"church name":"River Walk Community","church number":5707,"# 2010 interactions":0,"street":"1021 Wagner Dr","id":"a64el7kz5atn","geo_precision":"range","# 2011 interactions":1,"zip postal":"49017"},"type":"Feature","geometry":{"type":"Point","coordinates":[-85.152648,42.335861]}},{"properties":{"city":"Kalamazoo","geo_score":0.902,"total":1,"church name":"Comstock","church number":5714,"# 2010 interactions":1,"street":"5300 Comstock Ave","id":"a64el7gv0anz","geo_precision":"range","# 2011 interactions":0,"zip postal":"49048"},"type":"Feature","geometry":{"type":"Point","coordinates":[-85.5259,42.283659]}},{"properties":{"city":"Goshen","geo_score":0.619,"total":1,"church name":"Greene Road","church number":5735,"# 2010 interactions":0,"street":"518 N Greene Rd","id":"a64el7hr9omh","geo_precision":"street","# 2011 interactions":1,"zip postal":"46526"},"type":"Feature","geometry":{"type":"Point","coordinates":[-85.867633,41.593363]}},{"properties":{"city":"Kalamazoo","geo_score":0.902,"total":1,"church name":"Third","church number":5744,"# 2010 interactions":0,"street":"2400 Winchell Ave","id":"a64el7mghfkq","geo_precision":"range","# 2011 interactions":1,"zip postal":"49008"},"type":"Feature","geometry":{"type":"Point","coordinates":[-85.618983,42.267039]}},{"properties":{"city":"Kalamazoo","geo_score":0.857,"total":1,"church name":"Westwood","church number":5787,"# 2010 interactions":1,"street":"620 Northampton","id":"a64el7qjxrl2","geo_precision":"range","# 2011 interactions":0,"zip postal":"49006-2716"},"type":"Feature","geometry":{"type":"Point","coordinates":[-85.640372,42.297793]}},{"properties":{"city":"Three Rivers","geo_score":0.823,"total":1,"church name":"Three Rivers","church number":5799,"# 2010 interactions":1,"street":"58445 Kerr Creek Rd","id":"a64el7pafjse","geo_precision":"range","# 2011 interactions":0,"zip postal":"49093"},"type":"Feature","geometry":{"type":"Point","coordinates":[-85.651583,41.947555]}},{"properties":{"city":"Cleveland","geo_score":0.902,"total":1,"church name":"West Park","church number":6022,"# 2010 interactions":1,"street":"15135 Triskett Rd","id":"a64el7jxx3em","geo_precision":"range","# 2011 interactions":0,"zip postal":"44111"},"type":"Feature","geometry":{"type":"Point","coordinates":[-81.8009,41.456757]}},{"properties":{"city":"Columbus","geo_score":0.744,"total":1,"church name":"Olentangy","church number":6035,"# 2010 interactions":1,"street":"3660 Olentangy River Rd","id":"a64el7dirxyq","geo_precision":"range","# 2011 interactions":0,"zip postal":"43214"},"type":"Feature","geometry":{"type":"Point","coordinates":[-83.031746,40.033944]}},{"properties":{"city":"Dearborn","geo_score":0.849,"total":1,"church name":"Dearborn Christian Fellowship","church number":6042,"# 2010 interactions":1,"street":"21360 Donaldson","id":"a64el7fqnx0z","geo_precision":"range","# 2011 interactions":0,"zip postal":"48124"},"type":"Feature","geometry":{"type":"Point","coordinates":[-83.245286,42.292318]}},{"properties":{"city":"Burton","geo_score":0.329,"total":1,"church name":"Good Shepherd","church number":6056,"# 2010 interactions":1,"street":"PO Box 90337","id":"a64el7k1mfyo","geo_precision":"street","# 2011 interactions":0,"zip postal":"48509-0337"},"type":"Feature","geometry":{"type":"Point","coordinates":[-83.651348,42.997327]}},{"properties":{"city":"Lansing","geo_score":0.902,"total":1,"church name":"Hmong Christian Ministry Church","church number":6084,"# 2010 interactions":1,"street":"3400 Wainwright Ave","id":"a64el7k0siov","geo_precision":"range","# 2011 interactions":0,"zip postal":"48911-2237"},"type":"Feature","geometry":{"type":"Point","coordinates":[-84.592604,42.697049]}},{"properties":{"city":"Baldwin","geo_score":0.819,"total":1,"church name":"Baldwin","church number":6304,"# 2010 interactions":1,"street":"893 Highway 63","id":"a64el7ce14ci","geo_precision":"range","# 2011 interactions":0,"zip postal":"54002"},"type":"Feature","geometry":{"type":"Point","coordinates":[-92.374974,44.991389]}},{"properties":{"city":"Clara City","geo_score":0.707,"total":1,"church name":"Bunde","church number":6320,"# 2010 interactions":1,"street":"5086 140th Ave SE","id":"a64el7dwhb6r","geo_precision":"street","# 2011 interactions":0,"zip postal":"56222"},"type":"Feature","geometry":{"type":"Point","coordinates":[-95.310014,44.947685]}},{"properties":{"city":"Brooklyn Park","geo_score":0.829,"total":1,"church name":"North Center Lao","church number":6341,"# 2010 interactions":1,"street":"5308 84th Ave N","id":"a64el7kv70km","geo_precision":"range","# 2011 interactions":0,"zip postal":"55443"},"type":"Feature","geometry":{"type":"Point","coordinates":[-93.349665,45.105681]}},{"properties":{"city":"Edina","geo_score":0.823,"total":1,"church name":"Calvary","church number":6353,"# 2010 interactions":1,"street":"5300 France Ave S","id":"a64el7j18e32","geo_precision":"range","# 2011 interactions":0,"zip postal":"55410-2020"},"type":"Feature","geometry":{"type":"Point","coordinates":[-93.32901,44.907112]}},{"properties":{"city":"Pease","geo_score":0.641,"total":1,"church name":"Pease","church number":6361,"# 2010 interactions":1,"street":"117 W Main St","id":"a64el7kole95","geo_precision":"range","# 2011 interactions":0,"zip postal":"56363"},"type":"Feature","geometry":{"type":"Point","coordinates":[-93.641613,45.699307]}},{"properties":{"city":"Hague","geo_score":0.743,"total":1,"church name":"Hull","church number":6644,"# 2010 interactions":1,"street":"1235 96th St SE","id":"a64el7l4qcve","geo_precision":"range","# 2011 interactions":0,"zip postal":"58542-9313"},"type":"Feature","geometry":{"type":"Point","coordinates":[-100.128351,46.029365]}},{"properties":{"city":"Shelby","geo_score":0.393,"total":1,"church name":"Newman","church number":6903,"# 2010 interactions":1,"street":"PO Box 267","id":"a64el7clhnuc","geo_precision":"street","# 2011 interactions":0,"zip postal":"49455"},"type":"Feature","geometry":{"type":"Point","coordinates":[-86.446267,43.441548]}},{"properties":{"city":"Fremont","geo_score":0.732,"total":1,"church name":"First","church number":6908,"# 2010 interactions":1,"street":"721 Hillcrest Dr","id":"a64el7dabuyn","geo_precision":"range","# 2011 interactions":0,"zip postal":"49412"},"type":"Feature","geometry":{"type":"Point","coordinates":[-85.93489,43.473855]}},{"properties":{"city":"Fremont","geo_score":0.805,"total":1,"church name":"Second","church number":6912,"# 2010 interactions":0,"street":"600 Apache Dr","id":"a64el7qirylu","geo_precision":"range","# 2011 interactions":1,"zip postal":"49412"},"type":"Feature","geometry":{"type":"Point","coordinates":[-85.933747,43.459922]}},{"properties":{"city":"Grand Haven","geo_score":0.829,"total":1,"church name":"First","church number":6924,"# 2010 interactions":1,"street":"516 South Ferry","id":"a64el7cvlapx","geo_precision":"range","# 2011 interactions":0,"zip postal":"49417"},"type":"Feature","geometry":{"type":"Point","coordinates":[-86.21569,43.056278]}},{"properties":{"city":"Muskegon","geo_score":0.805,"total":1,"church name":"Angel Community","church number":6925,"# 2010 interactions":1,"street":"446 Ada Ave","id":"a64el7i3cs5a","geo_precision":"range","# 2011 interactions":0,"zip postal":"49442"},"type":"Feature","geometry":{"type":"Point","coordinates":[-86.233225,43.233233]}},{"properties":{"city":"Grand Haven","geo_score":0.902,"total":1,"church name":"Second","church number":6928,"# 2010 interactions":1,"street":"2021 Sheldon Rd","id":"a64el7i87tug","geo_precision":"range","# 2011 interactions":0,"zip postal":"49417"},"type":"Feature","geometry":{"type":"Point","coordinates":[-86.227794,43.045208]}},{"properties":{"city":"Muskegon","geo_score":0.527,"total":1,"church name":"Bethany","church number":6936,"# 2010 interactions":0,"street":"1105 Terrace St","id":"a64el7bvv3pm","geo_precision":"street","# 2011 interactions":1,"zip postal":"49442"},"type":"Feature","geometry":{"type":"Point","coordinates":[-86.175377,43.241512]}},{"properties":{"city":"Ames","geo_score":0.721,"total":1,"church name":"Korean","church number":7205,"# 2010 interactions":1,"street":"1416 20th St","id":"a64el7qnwyvu","geo_precision":"range","# 2011 interactions":0,"zip postal":"50010"},"type":"Feature","geometry":{"type":"Point","coordinates":[-93.629372,42.041994]}},{"properties":{"city":"Ames","geo_score":0.902,"total":1,"church name":"Trinity","church number":7210,"# 2010 interactions":1,"street":"3626 Ontario St","id":"a64el7bwsvqv","geo_precision":"range","# 2011 interactions":0,"zip postal":"50014"},"type":"Feature","geometry":{"type":"Point","coordinates":[-93.667146,42.034502]}},{"properties":{"city":"Hull","geo_score":0.688,"total":1,"church name":"First","church number":7529,"# 2010 interactions":1,"street":"1121 5th St","id":"a64el7d312z3","geo_precision":"range","# 2011 interactions":0,"zip postal":"51239-0803"},"type":"Feature","geometry":{"type":"Point","coordinates":[-96.132042,43.192703]}},{"properties":{"city":"Las Vegas","geo_score":0.815,"total":1,"church name":"So Mang","church number":7637,"# 2010 interactions":1,"street":"3840 El Camino Rd","id":"a64el7jakmm1","geo_precision":"range","# 2011 interactions":0,"zip postal":"89103"},"type":"Feature","geometry":{"type":"Point","coordinates":[-115.229401,36.119238]}},{"properties":{"city":"Anaheim","geo_score":0.902,"total":1,"church name":"The Good Shepherd","church number":7661,"# 2010 interactions":1,"street":"530 N Dale Ave","id":"a64el7dol618","geo_precision":"range","# 2011 interactions":0,"zip postal":"92801"},"type":"Feature","geometry":{"type":"Point","coordinates":[-117.984791,33.838263]}},{"properties":{"city":"San Bernardino","geo_score":0.82,"total":1,"church name":"Spiritual Eye","church number":7662,"# 2010 interactions":1,"street":"1450 N Waterman Ave","id":"a64el7f76jbe","geo_precision":"range","# 2011 interactions":0,"zip postal":"92404"},"type":"Feature","geometry":{"type":"Point","coordinates":[-117.278796,34.125598]}},{"properties":{"city":"Anacortes","geo_score":0.429,"total":1,"church name":"Anacortes","church number":7802,"# 2010 interactions":1,"street":"PO Box 1708","id":"a64el7hwmmtd","geo_precision":"street","# 2011 interactions":0,"zip postal":"98221-6708"},"type":"Feature","geometry":{"type":"Point","coordinates":[-122.916939,48.709006]}},{"properties":{"city":"Bellingham","geo_score":0.417,"total":1,"church name":"Alger Community","church number":7809,"# 2010 interactions":1,"street":"1475 Silver Run Lane (Alger)","id":"a64el7ruots7","geo_precision":"street","# 2011 interactions":0,"zip postal":"98229"},"type":"Feature","geometry":{"type":"Point","coordinates":[-122.344742,48.624102]}},{"properties":{"city":"Silverdale","geo_score":0.814,"total":1,"church name":"Anchor of Hope","church number":7810,"# 2010 interactions":1,"street":"10625 Ridgetop Blvd NW","id":"a64el7f1wsfd","geo_precision":"range","# 2011 interactions":0,"zip postal":"98383-8564"},"type":"Feature","geometry":{"type":"Point","coordinates":[-122.670324,47.659724]}},{"properties":{"city":"Kent","geo_score":0.82,"total":1,"church name":"Kent First Korean","church number":7828,"# 2010 interactions":1,"street":"300 W Saar St","id":"a64el7imw9z4","geo_precision":"range","# 2011 interactions":0,"zip postal":"98032-5804"},"type":"Feature","geometry":{"type":"Point","coordinates":[-122.235637,47.378557]}},{"properties":{"city":"Lynden","geo_score":0.866,"total":1,"church name":"First","church number":7832,"# 2010 interactions":1,"street":"1010 W Front St","id":"a64el7i0j66o","geo_precision":"range","# 2011 interactions":0,"zip postal":"98264"},"type":"Feature","geometry":{"type":"Point","coordinates":[-122.435981,48.947889]}},{"properties":{"city":"Marysville","geo_score":0.75,"total":1,"church name":"Cascade","church number":7856,"# 2010 interactions":1,"street":"13908  51st Ave NE","id":"a64el7p6xf48","geo_precision":"range","# 2011 interactions":0,"zip postal":"98271-6621"},"type":"Feature","geometry":{"type":"Point","coordinates":[-122.162611,48.121722]}},{"properties":{"city":"Mount Vernon","geo_score":0.57,"total":1,"church name":"Faith Community Fellowship","church number":7860,"# 2010 interactions":1,"street":"1427 Monte Vista Dr","id":"a64el7iomnuy","geo_precision":"street","# 2011 interactions":0,"zip postal":"98273"},"type":"Feature","geometry":{"type":"Point","coordinates":[-122.27865,48.432601]}},{"properties":{"city":"Federal Way","geo_score":0.837,"total":1,"church name":"New Hope","church number":7876,"# 2010 interactions":1,"street":"32912 49th Ave SW","id":"a64el7ouxxjs","geo_precision":"range","# 2011 interactions":0,"zip postal":"98023"},"type":"Feature","geometry":{"type":"Point","coordinates":[-122.395209,47.30718]}},{"properties":{"city":"Maryland Heights","geo_score":0.902,"total":1,"church name":"Trinity","church number":8179,"# 2010 interactions":1,"street":"1703 McKelvey Rd","id":"a64el7hod8en","geo_precision":"range","# 2011 interactions":0,"zip postal":"63043-2816"},"type":"Feature","geometry":{"type":"Point","coordinates":[-90.456056,38.708263]}},{"properties":{"city":"Church Rock","geo_score":0.403,"total":1,"church name":"Church Rock","church number":8317,"# 2010 interactions":0,"street":"Box 400","id":"a64el7dkevum","geo_precision":"street","# 2011 interactions":1,"zip postal":"87311"},"type":"Feature","geometry":{"type":"Point","coordinates":[-108.543362,35.463642]}},{"properties":{"city":"Farmington","geo_score":0.834,"total":1,"church name":"Maranatha Fellowship","church number":8330,"# 2010 interactions":1,"street":"618 West Arrington St","id":"a64el7qjyy10","geo_precision":"range","# 2011 interactions":0,"zip postal":"87401"},"type":"Feature","geometry":{"type":"Point","coordinates":[-108.21229,36.730312]}},{"properties":{"city":"Shiprock","geo_score":0.339,"total":1,"church name":"Bethel","church number":8372,"# 2010 interactions":1,"street":"Box 10","id":"a64el7f9mku7","geo_precision":"street","# 2011 interactions":0,"zip postal":"87420"},"type":"Feature","geometry":{"type":"Point","coordinates":[-108.142917,36.775965]}},{"properties":{"city":"Aurora","geo_score":0.902,"total":1,"church name":"Khmer","church number":8401,"# 2010 interactions":1,"street":"3600 Helena St","id":"a64el7lemb9n","geo_precision":"range","# 2011 interactions":0,"zip postal":"80011"},"type":"Feature","geometry":{"type":"Point","coordinates":[-104.807561,39.766759]}},{"properties":{"city":"Aurora","geo_score":0.805,"total":1,"church name":"Eastern Hills Community","church number":8405,"# 2010 interactions":1,"street":"25511 E Smoky Hill Rd","id":"a64el7q6ajqc","geo_precision":"range","# 2011 interactions":0,"zip postal":"80016-1391"},"type":"Feature","geometry":{"type":"Point","coordinates":[-104.687949,39.58417]}},{"properties":{"city":"Denver","geo_score":0.902,"total":1,"church name":"Hillcrest","church number":8432,"# 2010 interactions":0,"street":"3000 S Race St","id":"a64el7qbb48s","geo_precision":"range","# 2011 interactions":1,"zip postal":"80210"},"type":"Feature","geometry":{"type":"Point","coordinates":[-104.964494,39.663094]}},{"properties":{"city":"Cawker City","geo_score":0.377,"total":1,"church name":"Dispatch","church number":8443,"# 2010 interactions":1,"street":"298 N 10 Rd","id":"a64el7bimhql","geo_precision":"street","# 2011 interactions":0,"zip postal":"67430"},"type":"Feature","geometry":{"type":"Point","coordinates":[-98.428992,39.507397]}},{"properties":{"city":"Houston","geo_score":0.902,"total":1,"church name":"Peace Community","church number":8447,"# 2010 interactions":1,"street":"5151 Addicks Satsuma Rd","id":"a64el7e02fut","geo_precision":"range","# 2011 interactions":0,"zip postal":"77084-5302"},"type":"Feature","geometry":{"type":"Point","coordinates":[-95.641371,29.852235]}},{"properties":{"city":"Spring","geo_score":0.902,"total":1,"church name":"New Life","church number":8453,"# 2010 interactions":1,"street":"2050 FM 2920","id":"a64el7hpeg60","geo_precision":"range","# 2011 interactions":0,"zip postal":"77388"},"type":"Feature","geometry":{"type":"Point","coordinates":[-95.448267,30.07034]}},{"properties":{"city":"Sioux Center","geo_score":0.814,"total":1,"church name":"Lebanon","church number":8745,"# 2010 interactions":1,"street":"2144  380th St","id":"a64el7nq2geu","geo_precision":"range","# 2011 interactions":0,"zip postal":"51250"},"type":"Feature","geometry":{"type":"Point","coordinates":[-96.364673,43.098698]}},{"properties":{"city":"Rapid City","geo_score":0.805,"total":1,"church name":"Hope","church number":8759,"# 2010 interactions":1,"street":"202 E Philadelphia St","id":"a64el7mtrlzt","geo_precision":"range","# 2011 interactions":0,"zip postal":"57701"},"type":"Feature","geometry":{"type":"Point","coordinates":[-103.209624,44.085772]}},{"properties":{"city":"Rock Valley","geo_score":0.751,"total":1,"church name":"Trinity","church number":8770,"# 2010 interactions":0,"street":"2020  8th St SE","id":"a64el7eijxbb","geo_precision":"range","# 2011 interactions":1,"zip postal":"51247"},"type":"Feature","geometry":{"type":"Point","coordinates":[-96.287808,43.198138]}},{"properties":{"city":"Sioux Falls","geo_score":0.902,"total":1,"church name":"Shalom","church number":8782,"# 2010 interactions":1,"street":"4100 S Southeastern Ave","id":"a64el7c2ihjb","geo_precision":"range","# 2011 interactions":0,"zip postal":"57103"},"type":"Feature","geometry":{"type":"Point","coordinates":[-96.689409,43.50659]}},{"properties":{"city":"Sioux Falls","geo_score":0.819,"total":1,"church name":"Heartland Community","church number":8784,"# 2010 interactions":1,"street":"3800 E 15th St","id":"a64el7rg7nz2","geo_precision":"range","# 2011 interactions":0,"zip postal":"57103"},"type":"Feature","geometry":{"type":"Point","coordinates":[-96.680292,43.540577]}},{"properties":{"city":"Lake Odessa","geo_score":0.314,"total":1,"church name":"Harvest Community","church number":8960,"# 2010 interactions":1,"street":"PO Box 457","id":"a64el7hl9i2l","geo_precision":"street","# 2011 interactions":0,"zip postal":"48849-0457"},"type":"Feature","geometry":{"type":"Point","coordinates":[-85.152362,42.761419]}},{"properties":{"city":"Lowell","geo_score":0.837,"total":1,"church name":"Calvary","church number":8965,"# 2010 interactions":1,"street":"1125 West Main St","id":"a64el7fekzxo","geo_precision":"range","# 2011 interactions":0,"zip postal":"49331"},"type":"Feature","geometry":{"type":"Point","coordinates":[-85.351884,42.931555]}},{"properties":{"city":"Appleton","geo_score":0.708,"total":1,"church name":"Covenant","church number":9309,"# 2010 interactions":1,"street":"1601 S Covenant Ln","id":"a64el7llnp50","geo_precision":"street","# 2011 interactions":0,"zip postal":"54915-4077"},"type":"Feature","geometry":{"type":"Point","coordinates":[-88.364015,44.252604]}},{"properties":{"city":"Fox Lake","geo_score":0.339,"total":1,"church name":"Living Hope Community","church number":9322,"# 2010 interactions":1,"street":"PO Box 111","id":"a64el7botu60","geo_precision":"street","# 2011 interactions":0,"zip postal":"53933"},"type":"Feature","geometry":{"type":"Point","coordinates":[-89.008986,43.545626]}},{"properties":{"city":"Horicon","geo_score":0.408,"total":1,"church name":"Marsh View Ministries","church number":9324,"# 2010 interactions":1,"street":"PO Box 86","id":"a64el7jj00vp","geo_precision":"street","# 2011 interactions":0,"zip postal":"53032-0086"},"type":"Feature","geometry":{"type":"Point","coordinates":[-88.178654,43.430725]}},{"properties":{"city":"Oostburg","geo_score":0.805,"total":1,"church name":"First","church number":9349,"# 2010 interactions":1,"street":"216 S 7th St","id":"a64el7d76fmi","geo_precision":"range","# 2011 interactions":0,"zip postal":"53070-0305"},"type":"Feature","geometry":{"type":"Point","coordinates":[-87.792448,43.621016]}},{"properties":{"city":"Sheboygan","geo_score":0.754,"total":1,"church name":"Hmong","church number":9378,"# 2010 interactions":1,"street":"1556 N 16th St","id":"a64el7dxlqy6","geo_precision":"range","# 2011 interactions":0,"zip postal":"53081"},"type":"Feature","geometry":{"type":"Point","coordinates":[-87.726294,43.761992]}},{"properties":{"city":"Wisconsin Rapids","geo_score":0.829,"total":1,"church name":"New Hope Community","church number":9384,"# 2010 interactions":1,"street":"710 20th Ave S","id":"a64el7kw2w1h","geo_precision":"range","# 2011 interactions":0,"zip postal":"54495"},"type":"Feature","geometry":{"type":"Point","coordinates":[-89.848299,44.389268]}},{"properties":{"city":"Conrad","geo_score":0.585,"total":1,"church name":"Conrad","church number":9530,"# 2010 interactions":0,"street":"122 N Virginia","id":"a64el7bv6g0k","geo_precision":"zip","# 2011 interactions":1,"zip postal":"59425"},"type":"Feature","geometry":{"type":"Point","coordinates":[-111.845931,48.182782]}},{"properties":{"city":"Helena","geo_score":0.497,"total":1,"church name":"Green Meadow","church number":9550,"# 2010 interactions":1,"street":"4790 Green Meadow Dr","id":"a64el7qo3mea","geo_precision":"street","# 2011 interactions":0,"zip postal":"59601"},"type":"Feature","geometry":{"type":"Point","coordinates":[-112.048236,46.610973]}},{"properties":{"city":"Salt Lake City","geo_score":0.818,"total":1,"church name":"Mountain Springs Community","church number":9577,"# 2010 interactions":1,"street":"7136 S 1700 E","id":"a64el7knfwet","geo_precision":"range","# 2011 interactions":0,"zip postal":"84121-3669"},"type":"Feature","geometry":{"type":"Point","coordinates":[-111.843817,40.621825]}},{"properties":{"city":"Lamont","geo_score":0.561,"total":1,"church name":"Lamont","church number":9635,"# 2010 interactions":1,"street":"O-4745 Leonard St","id":"a64el7ogxalz","geo_precision":"street","# 2011 interactions":0,"zip postal":"49430-0080"},"type":"Feature","geometry":{"type":"Point","coordinates":[-85.895501,43.005747]}},{"properties":{"city":"Zeeland","geo_score":0.859,"total":1,"church name":"Gateway Community","church number":9650,"# 2010 interactions":1,"street":"8265 Felch St","id":"a64el7dsm8ic","geo_precision":"range","# 2011 interactions":0,"zip postal":"49464"},"type":"Feature","geometry":{"type":"Point","coordinates":[-85.984461,42.819485]}},{"properties":{"city":"Zeeland","geo_score":0.859,"total":1,"church name":"North Street","church number":9661,"# 2010 interactions":1,"street":"20 E Main Ave","id":"a64el7gnrih6","geo_precision":"range","# 2011 interactions":0,"zip postal":"49464"},"type":"Feature","geometry":{"type":"Point","coordinates":[-86.018629,42.812332]}},{"properties":{"city":"Athens","geo_score":0.496,"total":2,"church name":"River of Life Chr. Fellowship","church number":123,"# 2010 interactions":1,"street":"85 Munn Flat Rd","id":"a64el7c2ehyr","geo_precision":"street","# 2011 interactions":1,"zip postal":"4912"},"type":"Feature","geometry":{"type":"Point","coordinates":[-69.244165,44.51279]}},{"properties":{"city":"Seattle","geo_score":0.721,"total":2,"church name":"Sanctuary","church number":125,"# 2010 interactions":2,"street":"312 N 85th St #101","id":"a64el7hv0p5l","geo_precision":"range","# 2011 interactions":0,"zip postal":"98103"},"type":"Feature","geometry":{"type":"Point","coordinates":[-122.357982,47.690608]}},{"properties":{"city":"Grand Haven","geo_score":0.727,"total":2,"church name":"On the House","church number":175,"# 2010 interactions":2,"street":"17 N 4th St Ste 106","id":"a64el7p5g7zj","geo_precision":"range","# 2011 interactions":0,"zip postal":"49417"},"type":"Feature","geometry":{"type":"Point","coordinates":[-86.227751,43.063161]}},{"properties":{"city":"Saugus","geo_score":0.82,"total":2,"church name":"AhRumDaWoon Korean Presby.","church number":186,"# 2010 interactions":2,"street":"27953 Harwood Dr","id":"a64el7cw0we5","geo_precision":"range","# 2011 interactions":0,"zip postal":"91350"},"type":"Feature","geometry":{"type":"Point","coordinates":[-118.529717,34.457909]}},{"properties":{"city":"San Jose","geo_score":0.708,"total":2,"church name":"San Jose Church of God's Love","church number":192,"# 2010 interactions":2,"street":"1096 Topaz Ave #2","id":"a64el7rw67pr","geo_precision":"street","# 2011 interactions":0,"zip postal":"95117"},"type":"Feature","geometry":{"type":"Point","coordinates":[-121.969827,37.307265]}},{"properties":{"city":"New York","geo_score":0.333,"total":2,"church name":"Open Door Fellowship of East Harlem","church number":209,"# 2010 interactions":1,"street":"PO Box 1175","id":"a64el7icutu0","geo_precision":"street","# 2011 interactions":1,"zip postal":"10029-1175"},"type":"Feature","geometry":{"type":"Point","coordinates":[-74.005498,40.720327]}},{"properties":{"city":"Torrance","geo_score":0.707,"total":2,"church name":"The Mercy Presby. Church","church number":222,"# 2010 interactions":2,"street":"16020 Van Ness Ave #23","id":"a64el7k0b0e3","geo_precision":"street","# 2011 interactions":0,"zip postal":"90504"},"type":"Feature","geometry":{"type":"Point","coordinates":[-118.317818,33.885523]}},{"properties":{"city":"Paw Paw","geo_score":0.817,"total":2,"church name":"RedArrow Ministries","church number":251,"# 2010 interactions":2,"street":"31133 E Red Arrow Hwy","id":"a64el7ma285y","geo_precision":"range","# 2011 interactions":0,"zip postal":"49079"},"type":"Feature","geometry":{"type":"Point","coordinates":[-85.853627,42.223651]}},{"properties":{"city":"Tracy","geo_score":0.537,"total":2,"church name":"Lord's Grace Church in Tracy","church number":265,"# 2010 interactions":1,"street":"3402 Mars Ct #111","id":"a64el7kwzkjz","geo_precision":"street","# 2011 interactions":1,"zip postal":"95377"},"type":"Feature","geometry":{"type":"Point","coordinates":[-121.113561,37.748188]}},{"properties":{"city":"Scottsdale","geo_score":0.815,"total":2,"church name":"Palm Lane","church number":772,"# 2010 interactions":1,"street":"7320 E Palm Lane","id":"a64el7r5ncoh","geo_precision":"range","# 2011 interactions":1,"zip postal":"85257"},"type":"Feature","geometry":{"type":"Point","coordinates":[-111.923342,33.469392]}},{"properties":{"city":"Binghamton","geo_score":0.736,"total":2,"church name":"Valley","church number":801,"# 2010 interactions":2,"street":"1452 River Rd","id":"a64el7rqfwbe","geo_precision":"range","# 2011 interactions":0,"zip postal":"13901"},"type":"Feature","geometry":{"type":"Point","coordinates":[-75.854752,42.197242]}},{"properties":{"city":"Penfield","geo_score":0.902,"total":2,"church name":"Rochester","church number":818,"# 2010 interactions":2,"street":"2750 Atlantic Ave","id":"a64el7bwh0a5","geo_precision":"range","# 2011 interactions":0,"zip postal":"14526"},"type":"Feature","geometry":{"type":"Point","coordinates":[-77.482086,43.153529]}},{"properties":{"city":"Lake Forest","geo_score":0.824,"total":2,"church name":"Urim","church number":1532,"# 2010 interactions":2,"street":"23662 Birtcher Dr","id":"a64el7cfevtz","geo_precision":"range","# 2011 interactions":0,"zip postal":"92630"},"type":"Feature","geometry":{"type":"Point","coordinates":[-117.716792,33.633584]}},{"properties":{"city":"Moreno Valley","geo_score":0.374,"total":2,"church name":"Oasis Community","church number":1539,"# 2010 interactions":2,"street":"23750 Alessandro Blvd #C","id":"a64el7itlk07","geo_precision":"street","# 2011 interactions":0,"zip postal":"92553"},"type":"Feature","geometry":{"type":"Point","coordinates":[-117.283516,33.91682]}},{"properties":{"city":"Ripon","geo_score":0.824,"total":2,"church name":"Immanuel","church number":1849,"# 2010 interactions":2,"street":"517 Orange Ave","id":"a64el7md3lkj","geo_precision":"range","# 2011 interactions":0,"zip postal":"95366"},"type":"Feature","geometry":{"type":"Point","coordinates":[-121.1297,37.73562]}},{"properties":{"city":"Visalia","geo_score":0.902,"total":2,"church name":"First","church number":1860,"# 2010 interactions":0,"street":"1030 S Linwood St","id":"a64el7h891pz","geo_precision":"range","# 2011 interactions":2,"zip postal":"93277"},"type":"Feature","geometry":{"type":"Point","coordinates":[-119.340686,36.321037]}},{"properties":{"city":"Sacramento","geo_score":0.704,"total":2,"church name":"The Gathering","church number":1866,"# 2010 interactions":2,"street":"30 Main Ave Suite #4","id":"a64el7goil2i","geo_precision":"range","# 2011 interactions":0,"zip postal":"95838"},"type":"Feature","geometry":{"type":"Point","coordinates":[-121.474248,38.655349]}},{"properties":{"city":"Salem","geo_score":0.819,"total":2,"church name":"Sunnyslope","church number":2834,"# 2010 interactions":2,"street":"197 Hrubetz Rd SE","id":"a64el7emyjel","geo_precision":"range","# 2011 interactions":0,"zip postal":"97302"},"type":"Feature","geometry":{"type":"Point","coordinates":[-123.057286,44.890312]}},{"properties":{"city":"Spokane","geo_score":0.902,"total":2,"church name":"New Hope","church number":2838,"# 2010 interactions":2,"street":"3110 W Francis Ave","id":"a64el7nqgcxn","geo_precision":"range","# 2011 interactions":0,"zip postal":"99205"},"type":"Feature","geometry":{"type":"Point","coordinates":[-117.457448,47.715402]}},{"properties":{"city":"Zillah","geo_score":0.393,"total":2,"church name":"Faith Community","church number":2854,"# 2010 interactions":1,"street":"PO Box 229","id":"a64el7f0os7z","geo_precision":"street","# 2011 interactions":1,"zip postal":"98953"},"type":"Feature","geometry":{"type":"Point","coordinates":[-120.924562,47.161853]}},{"properties":{"city":"Pinellas Park","geo_score":0.819,"total":2,"church name":"Pine Grove Community Church","church number":3226,"# 2010 interactions":2,"street":"9200 49th St N","id":"a64el7c1ahp1","geo_precision":"range","# 2011 interactions":0,"zip postal":"33782"},"type":"Feature","geometry":{"type":"Point","coordinates":[-82.700159,27.85593]}},{"properties":{"city":"Grand Rapids","geo_score":0.902,"total":2,"church name":"Eastern Avenue","church number":3332,"# 2010 interactions":2,"street":"514 Eastern Ave SE","id":"a64el7o4gmzl","geo_precision":"range","# 2011 interactions":0,"zip postal":"49503"},"type":"Feature","geometry":{"type":"Point","coordinates":[-85.64928,42.953337]}},{"properties":{"city":"Grand Rapids","geo_score":0.876,"total":2,"church name":"Plymouth Heights","church number":3372,"# 2010 interactions":2,"street":"1800 Plymouth Ave SE","id":"a64el7e67553","geo_precision":"range","# 2011 interactions":0,"zip postal":"49506"},"type":"Feature","geometry":{"type":"Point","coordinates":[-85.624183,42.930724]}},{"properties":{"city":"Grand Rapids","geo_score":0.902,"total":2,"church name":"Woodlawn","church number":3385,"# 2010 interactions":1,"street":"3190 Burton St SE","id":"a64el7kcvg9s","geo_precision":"range","# 2011 interactions":1,"zip postal":"49546"},"type":"Feature","geometry":{"type":"Point","coordinates":[-85.589116,42.926914]}},{"properties":{"city":"Grand Rapids","geo_score":0.902,"total":2,"church name":"Covenant","church number":3610,"# 2010 interactions":1,"street":"7171 Willard Ave SE","id":"a64el7mcvv08","geo_precision":"range","# 2011 interactions":1,"zip postal":"49548"},"type":"Feature","geometry":{"type":"Point","coordinates":[-85.648196,42.834481]}},{"properties":{"city":"Kentwood","geo_score":0.749,"total":2,"church name":"Kelloggsville","church number":3670,"# 2010 interactions":1,"street":"610  52nd St SE","id":"a64el7piqrwu","geo_precision":"range","# 2011 interactions":1,"zip postal":"49548"},"type":"Feature","geometry":{"type":"Point","coordinates":[-85.649616,42.869367]}},{"properties":{"city":"Grand Rapids","geo_score":0.84,"total":2,"church name":"Coit Community","church number":3905,"# 2010 interactions":1,"street":"600 Lafayette NE","id":"a64el7oy3bqg","geo_precision":"range","# 2011 interactions":1,"zip postal":"49503"},"type":"Feature","geometry":{"type":"Point","coordinates":[-85.661955,42.973672]}},{"properties":{"city":"Grand Rapids","geo_score":0.823,"total":2,"church name":"Gold Avenue","church number":3938,"# 2010 interactions":2,"street":"49 Gold Ave NW","id":"a64el7r9bcyf","geo_precision":"range","# 2011 interactions":0,"zip postal":"49504"},"type":"Feature","geometry":{"type":"Point","coordinates":[-85.685037,42.964607]}},{"properties":{"city":"Grand Rapids","geo_score":0.829,"total":2,"church name":"Mayfair","church number":3943,"# 2010 interactions":2,"street":"1736 Lyon NE","id":"a64el7me8uvd","geo_precision":"range","# 2011 interactions":0,"zip postal":"49503"},"type":"Feature","geometry":{"type":"Point","coordinates":[-85.626055,42.966646]}},{"properties":{"city":"Grand Rapids","geo_score":0.823,"total":2,"church name":"West Leonard","church number":3956,"# 2010 interactions":1,"street":"1053 Leonard St NW","id":"a64el7m564a2","geo_precision":"range","# 2011 interactions":1,"zip postal":"49504-4135"},"type":"Feature","geometry":{"type":"Point","coordinates":[-85.695826,42.98547]}},{"properties":{"city":"Grant","geo_score":0.824,"total":2,"church name":"Grant","church number":3964,"# 2010 interactions":0,"street":"13110 Poplar Ave","id":"a64el7jelkyj","geo_precision":"range","# 2011 interactions":2,"zip postal":"49327"},"type":"Feature","geometry":{"type":"Point","coordinates":[-85.721551,43.316969]}},{"properties":{"city":"Wyoming","geo_score":0.902,"total":2,"church name":"Lee Street","church number":4249,"# 2010 interactions":2,"street":"1261 Lee St SW","id":"a64el7ivm8wf","geo_precision":"range","# 2011 interactions":0,"zip postal":"49509"},"type":"Feature","geometry":{"type":"Point","coordinates":[-85.69853,42.93129]}},{"properties":{"city":"Wyoming","geo_score":0.863,"total":2,"church name":"Rogers Heights","church number":4253,"# 2010 interactions":2,"street":"1244 Cricklewood SW","id":"a64el7lwsgga","geo_precision":"range","# 2011 interactions":0,"zip postal":"49509"},"type":"Feature","geometry":{"type":"Point","coordinates":[-85.695976,42.909561]}},{"properties":{"city":"Wyoming","geo_score":0.814,"total":2,"church name":"Faith Community","church number":4262,"# 2010 interactions":0,"street":"5250 Byron Center Ave SW","id":"a64el7ndjfv2","geo_precision":"range","# 2011 interactions":2,"zip postal":"49519"},"type":"Feature","geometry":{"type":"Point","coordinates":[-85.723352,42.868924]}},{"properties":{"city":"Anaheim","geo_score":0.902,"total":2,"church name":"Latin American","church number":4304,"# 2010 interactions":1,"street":"530 N Dale Ave","id":"a64el7knvnaq","geo_precision":"range","# 2011 interactions":1,"zip postal":"92801"},"type":"Feature","geometry":{"type":"Point","coordinates":[-117.984791,33.838263]}},{"properties":{"city":"Sacramento","geo_score":0.829,"total":2,"church name":"All Nations CRC of Sacramento","church number":4350,"# 2010 interactions":1,"street":"8927 Trujillo Way","id":"a64el7fr3q3j","geo_precision":"range","# 2011 interactions":1,"zip postal":"95826"},"type":"Feature","geometry":{"type":"Point","coordinates":[-121.369669,38.555013]}},{"properties":{"city":"Hudsonville","geo_score":0.761,"total":2,"church name":"Hillcrest","church number":4412,"# 2010 interactions":0,"street":"3617 Hillcrest St","id":"a64el7jq4tcj","geo_precision":"range","# 2011 interactions":2,"zip postal":"49426"},"type":"Feature","geometry":{"type":"Point","coordinates":[-85.871861,42.874134]}},{"properties":{"city":"Hudsonville","geo_score":0.814,"total":2,"church name":"Jamestown","church number":4416,"# 2010 interactions":1,"street":"1653 Riley St","id":"a64el7nqu8x4","geo_precision":"range","# 2011 interactions":1,"zip postal":"49426"},"type":"Feature","geometry":{"type":"Point","coordinates":[-85.823698,42.826062]}},{"properties":{"city":"Jenison","geo_score":0.819,"total":2,"church name":"Twelfth Avenue","church number":4430,"# 2010 interactions":1,"street":"7581 12th Ave","id":"a64el7p813ey","geo_precision":"range","# 2011 interactions":1,"zip postal":"49428"},"type":"Feature","geometry":{"type":"Point","coordinates":[-85.811855,42.906855]}},{"properties":{"city":"Paterson","geo_score":0.902,"total":2,"church name":"The New Horizon","church number":4533,"# 2010 interactions":1,"street":"8 Barnes St","id":"a64el7nycfeo","geo_precision":"range","# 2011 interactions":1,"zip postal":"7501"},"type":"Feature","geometry":{"type":"Point","coordinates":[-74.185304,40.908677]}},{"properties":{"city":"Holland","geo_score":0.472,"total":2,"church name":"Cambodian Fellowship","church number":5112,"# 2010 interactions":1,"street":"1 Grave Place","id":"a64el7g3zt4a","geo_precision":"street","# 2011 interactions":1,"zip postal":"49423-3617"},"type":"Feature","geometry":{"type":"Point","coordinates":[-86.159562,42.777175]}},{"properties":{"city":"Holland","geo_score":0.607,"total":2,"church name":"Park","church number":5170,"# 2010 interactions":0,"street":"1496 W 32nd St","id":"a64el7j128ro","geo_precision":"range","# 2011 interactions":2,"zip postal":"49423"},"type":"Feature","geometry":{"type":"Point","coordinates":[-86.173497,42.768063]}},{"properties":{"city":"Holland","geo_score":0.813,"total":2,"church name":"Providence","church number":5178,"# 2010 interactions":2,"street":"821 Ottawa Ave","id":"a64el7dz2ttk","geo_precision":"range","# 2011 interactions":0,"zip postal":"49423"},"type":"Feature","geometry":{"type":"Point","coordinates":[-86.126652,42.766542]}},{"properties":{"city":"West Olive","geo_score":0.725,"total":2,"church name":"West Olive","church number":5197,"# 2010 interactions":2,"street":"8374 First Ave","id":"a64el7pv6pal","geo_precision":"range","# 2011 interactions":0,"zip postal":"49460"},"type":"Feature","geometry":{"type":"Point","coordinates":[-86.145933,42.921115]}},{"properties":{"city":"Sussex","geo_score":0.339,"total":2,"church name":"Sussex","church number":5468,"# 2010 interactions":1,"street":"PO Box 745","id":"a64el7poyj3j","geo_precision":"street","# 2011 interactions":1,"zip postal":"7461"},"type":"Feature","geometry":{"type":"Point","coordinates":[-74.147729,40.973301]}},{"properties":{"city":"Warrensville Heights","geo_score":0.82,"total":2,"church name":"East Side","church number":6018,"# 2010 interactions":2,"street":"23600 Emery Road","id":"a64el7p15ypu","geo_precision":"range","# 2011 interactions":0,"zip postal":"44128"},"type":"Feature","geometry":{"type":"Point","coordinates":[-81.510759,41.435109]}},{"properties":{"city":"Jackson","geo_score":0.826,"total":2,"church name":"Cascades Fellowship","church number":6074,"# 2010 interactions":2,"street":"2390 West High St","id":"a64el7rt6frp","geo_precision":"range","# 2011 interactions":0,"zip postal":"49203"},"type":"Feature","geometry":{"type":"Point","coordinates":[-84.440411,42.232866]}},{"properties":{"city":"East Lansing","geo_score":0.61,"total":2,"church name":"River Terrace","church number":6081,"# 2010 interactions":2,"street":"1509 River Terrace Dr","id":"a64el7gz8vop","geo_precision":"street","# 2011 interactions":0,"zip postal":"48823"},"type":"Feature","geometry":{"type":"Point","coordinates":[-84.489486,42.755801]}},{"properties":{"city":"Fremont","geo_score":0.805,"total":2,"church name":"Trinity","church number":6916,"# 2010 interactions":2,"street":"539 E Pine St","id":"a64el7qxkc48","geo_precision":"range","# 2011 interactions":0,"zip postal":"49412"},"type":"Feature","geometry":{"type":"Point","coordinates":[-85.933924,43.463485]}},{"properties":{"city":"Muskegon","geo_score":0.732,"total":2,"church name":"Calvin","church number":6961,"# 2010 interactions":0,"street":"973 W Norton","id":"a64el7nh9hek","geo_precision":"range","# 2011 interactions":2,"zip postal":"49441"},"type":"Feature","geometry":{"type":"Point","coordinates":[-86.267006,43.190807]}},{"properties":{"city":"Lincoln","geo_score":0.819,"total":2,"church name":"Northern Lighthouse","church number":7544,"# 2010 interactions":2,"street":"6141 N 14th St","id":"a64el7n17pgp","geo_precision":"range","# 2011 interactions":0,"zip postal":"68521"},"type":"Feature","geometry":{"type":"Point","coordinates":[-96.701077,40.87598]}},{"properties":{"city":"Anaheim","geo_score":0.812,"total":2,"church name":"Springing Fountain","church number":7613,"# 2010 interactions":2,"street":"700 N Valley St Ste A","id":"a64el7bmcrsc","geo_precision":"range","# 2011 interactions":0,"zip postal":"92801"},"type":"Feature","geometry":{"type":"Point","coordinates":[-117.956318,33.841119]}},{"properties":{"city":"Pella","geo_score":0.854,"total":2,"church name":"Faith","church number":8165,"# 2010 interactions":0,"street":"215 E University St","id":"a64el7pra7tw","geo_precision":"range","# 2011 interactions":2,"zip postal":"50219"},"type":"Feature","geometry":{"type":"Point","coordinates":[-92.902935,41.40022]}},{"properties":{"city":"Albuquerque","geo_score":0.902,"total":2,"church name":"Fellowship","church number":8310,"# 2010 interactions":1,"street":"4800 Indian School Rd NE","id":"a64el7j0jz4y","geo_precision":"range","# 2011 interactions":1,"zip postal":"87110"},"type":"Feature","geometry":{"type":"Point","coordinates":[-106.591182,35.101914]}},{"properties":{"city":"Window Rock","geo_score":0.857,"total":2,"church name":"Window Rock","church number":8393,"# 2010 interactions":2,"street":"Box 665","id":"a64el7fc2aw5","geo_precision":"zip","# 2011 interactions":0,"zip postal":"86515"},"type":"Feature","geometry":{"type":"Point","coordinates":[-109.07844,35.667596]}},{"properties":{"city":"Austin","geo_score":0.829,"total":2,"church name":"Sunrise Community","church number":8409,"# 2010 interactions":1,"street":"4430 Manchaca Rd","id":"a64el7l5croz","geo_precision":"range","# 2011 interactions":1,"zip postal":"78745"},"type":"Feature","geometry":{"type":"Point","coordinates":[-97.788756,30.229214]}},{"properties":{"city":"Alto","geo_score":0.819,"total":2,"church name":"Lakeside Community","church number":8906,"# 2010 interactions":1,"street":"6201 Whitneyville Ave SE","id":"a64el7n5bfq1","geo_precision":"range","# 2011 interactions":1,"zip postal":"49302"},"type":"Feature","geometry":{"type":"Point","coordinates":[-85.458552,42.850521]}},{"properties":{"city":"Allendale","geo_score":0.782,"total":2,"church name":"First","church number":9604,"# 2010 interactions":2,"street":"5734 Country View Dr","id":"a64el7jtzh8y","geo_precision":"range","# 2011 interactions":0,"zip postal":"49401"},"type":"Feature","geometry":{"type":"Point","coordinates":[-85.927629,42.971187]}},{"properties":{"city":"Zeeland","geo_score":0.859,"total":2,"church name":"Haven","church number":9671,"# 2010 interactions":2,"street":"541 Alice St","id":"a64el7c990zo","geo_precision":"range","# 2011 interactions":0,"zip postal":"49464"},"type":"Feature","geometry":{"type":"Point","coordinates":[-86.033826,42.807512]}},{"properties":{"city":"Toledo","geo_score":0.824,"total":3,"church name":"All Nations Community","church number":174,"# 2010 interactions":2,"street":"5260 Hill Ave","id":"a64el7ihddv4","geo_precision":"range","# 2011 interactions":1,"zip postal":"43615"},"type":"Feature","geometry":{"type":"Point","coordinates":[-83.66524,41.638672]}},{"properties":{"city":"Dallas","geo_score":0.902,"total":3,"church name":"Dallas Samil","church number":193,"# 2010 interactions":2,"street":"11132 Shady Trail","id":"a64el7co79w6","geo_precision":"range","# 2011 interactions":1,"zip postal":"75229"},"type":"Feature","geometry":{"type":"Point","coordinates":[-96.890429,32.885901]}},{"properties":{"city":"Delhi","geo_score":0.339,"total":3,"church name":"Church of the Cross/Iglesia de la Cruz","church number":243,"# 2010 interactions":3,"street":"PO Box 147","id":"a64el7gmuafm","geo_precision":"street","# 2011 interactions":0,"zip postal":"95315"},"type":"Feature","geometry":{"type":"Point","coordinates":[-120.496458,37.29136]}},{"properties":{"city":"Vancouver","geo_score":0.329,"total":3,"church name":"CrossWay Church","church number":247,"# 2010 interactions":0,"street":"PO Box 65805","id":"a64el7cqff9o","geo_precision":"street","# 2011 interactions":3,"zip postal":"98665"},"type":"Feature","geometry":{"type":"Point","coordinates":[-121.188285,45.65437]}},{"properties":{"city":"Marlboro","geo_score":0.344,"total":3,"church name":"Horebe Presby. Reformed Church","church number":248,"# 2010 interactions":2,"street":"Attn Weberton Figueiredo","id":"a64el7bs3jkg","geo_precision":"street","# 2011 interactions":1,"zip postal":"1752"},"type":"Feature","geometry":{"type":"Point","coordinates":[-71.355955,42.447596]}},{"properties":{"city":"Grand Rapids","geo_score":0.51,"total":3,"church name":"Celebration Fellowship","church number":257,"# 2010 interactions":3,"street":"Church of the Servant CRC","id":"a64el7lnw6gs","geo_precision":"street","# 2011 interactions":0,"zip postal":"49546"},"type":"Feature","geometry":{"type":"Point","coordinates":[-85.553202,42.940007]}},{"properties":{"city":"Torrance","geo_score":0.622,"total":3,"church name":"Missio Dei Chapel","church number":258,"# 2010 interactions":1,"street":"3650 Garnet St #2","id":"a64el7mqie7l","geo_precision":"street","# 2011 interactions":2,"zip postal":"90503"},"type":"Feature","geometry":{"type":"Point","coordinates":[-118.344652,33.843174]}},{"properties":{"city":"Port St. Lucie","geo_score":0.329,"total":3,"church name":"Word of the Cross","church number":268,"# 2010 interactions":1,"street":"PO Box 13074","id":"a64el7ckduny","geo_precision":"street","# 2011 interactions":2,"zip postal":"34979"},"type":"Feature","geometry":{"type":"Point","coordinates":[-80.329979,27.43967]}},{"properties":{"city":"Grand Rapids","geo_score":0.876,"total":3,"church name":"Step of Faith Church","church number":273,"# 2010 interactions":2,"street":"1000 Sherman St SE","id":"a64el7hqdeo1","geo_precision":"range","# 2011 interactions":1,"zip postal":"49506"},"type":"Feature","geometry":{"type":"Point","coordinates":[-85.644414,42.951933]}},{"properties":{"city":"Grand Rapids","geo_score":0.84,"total":3,"church name":"Encounter Church","church number":276,"# 2010 interactions":3,"street":"3600 Kalamazoo Ave SE","id":"a64el7ie66np","geo_precision":"range","# 2011 interactions":0,"zip postal":"49508"},"type":"Feature","geometry":{"type":"Point","coordinates":[-85.626825,42.899506]}},{"properties":{"city":"Fresno","geo_score":0.805,"total":3,"church name":"Fresno","church number":1817,"# 2010 interactions":2,"street":"1639 W Shields Ave","id":"a64el7dvqhnm","geo_precision":"range","# 2011 interactions":1,"zip postal":"93705-3348"},"type":"Feature","geometry":{"type":"Point","coordinates":[-119.830111,36.779277]}},{"properties":{"city":"San Jose","geo_score":0.821,"total":3,"church name":"San Jose","church number":1856,"# 2010 interactions":1,"street":"5150 Camden Ave","id":"a64el7ny57b4","geo_precision":"range","# 2011 interactions":2,"zip postal":"95124"},"type":"Feature","geometry":{"type":"Point","coordinates":[-121.907611,37.24519]}},{"properties":{"city":"Clackamas","geo_score":0.805,"total":3,"church name":"Zion","church number":2825,"# 2010 interactions":3,"street":"14060 SE 124th Ave","id":"a64el7hrc53l","geo_precision":"range","# 2011 interactions":0,"zip postal":"97015"},"type":"Feature","geometry":{"type":"Point","coordinates":[-122.535775,45.420698]}},{"properties":{"city":"Winter Garden","geo_score":0.364,"total":3,"church name":"Oasis Community","church number":3222,"# 2010 interactions":1,"street":"PO Box 784329","id":"a64el7lcwo1l","geo_precision":"street","# 2011 interactions":2,"zip postal":"34787"},"type":"Feature","geometry":{"type":"Point","coordinates":[-81.791066,28.862762]}},{"properties":{"city":"Grand Rapids","geo_score":0.902,"total":3,"church name":"First","church number":3344,"# 2010 interactions":3,"street":"650 Bates St SE","id":"a64el7okvvdw","geo_precision":"range","# 2011 interactions":0,"zip postal":"49503"},"type":"Feature","geometry":{"type":"Point","coordinates":[-85.653247,42.949325]}},{"properties":{"city":"Grand Rapids","geo_score":0.902,"total":3,"church name":"Madison Square","church number":3354,"# 2010 interactions":3,"street":"1434 Madison Ave SE","id":"a64el7hd9tfc","geo_precision":"range","# 2011 interactions":0,"zip postal":"49507"},"type":"Feature","geometry":{"type":"Point","coordinates":[-85.6587,42.937255]}},{"properties":{"city":"Grand Rapids","geo_score":0.844,"total":3,"church name":"Oakdale Park","church number":3368,"# 2010 interactions":1,"street":"961 Temple SE","id":"a64el7jd5ya1","geo_precision":"range","# 2011 interactions":2,"zip postal":"49507"},"type":"Feature","geometry":{"type":"Point","coordinates":[-85.645141,42.939111]}},{"properties":{"city":"Grand Rapids","geo_score":0.902,"total":3,"church name":"Seymour","church number":3376,"# 2010 interactions":3,"street":"840 Alger St SE","id":"a64el7o0ierh","geo_precision":"range","# 2011 interactions":0,"zip postal":"49507"},"type":"Feature","geometry":{"type":"Point","coordinates":[-85.645639,42.920041]}},{"properties":{"city":"Wyoming","geo_score":0.741,"total":3,"church name":"Ideal Park","church number":3656,"# 2010 interactions":2,"street":"320 56th St SW","id":"a64el7iqo2hx","geo_precision":"range","# 2011 interactions":1,"zip postal":"49548"},"type":"Feature","geometry":{"type":"Point","coordinates":[-85.671689,42.862269]}},{"properties":{"city":"Grand Rapids","geo_score":0.902,"total":3,"church name":"African Community Fellowship","church number":3933,"# 2010 interactions":1,"street":"1204 Eastern Ave SE","id":"a64el7ef518h","geo_precision":"range","# 2011 interactions":2,"zip postal":"49507"},"type":"Feature","geometry":{"type":"Point","coordinates":[-85.649167,42.941093]}},{"properties":{"city":"Artesia","geo_score":0.817,"total":3,"church name":"Trinity","church number":4312,"# 2010 interactions":1,"street":"18718 Grayland Ave","id":"a64el7fowwvu","geo_precision":"range","# 2011 interactions":2,"zip postal":"90701"},"type":"Feature","geometry":{"type":"Point","coordinates":[-118.075612,33.861137]}},{"properties":{"city":"Arcadia","geo_score":0.367,"total":3,"church name":"The Salt and Light Church","church number":4335,"# 2010 interactions":2,"street":"Attn Pastor Jonathan Kim","id":"a64el7ikjj8y","geo_precision":"street","# 2011 interactions":1,"zip postal":"91007"},"type":"Feature","geometry":{"type":"Point","coordinates":[-118.015431,34.114354]}},{"properties":{"city":"Jamestown","geo_score":0.393,"total":3,"church name":"Searchlight Ministries","church number":4417,"# 2010 interactions":3,"street":"PO Box 149","id":"a64el7fddfxx","geo_precision":"street","# 2011 interactions":0,"zip postal":"49427"},"type":"Feature","geometry":{"type":"Point","coordinates":[-86.446267,43.441548]}},{"properties":{"city":"Haledon","geo_score":0.729,"total":3,"church name":"Bridgeway Community","church number":4566,"# 2010 interactions":1,"street":"51 N 15th St","id":"a64el7onnpd3","geo_precision":"range","# 2011 interactions":2,"zip postal":"7508"},"type":"Feature","geometry":{"type":"Point","coordinates":[-74.180761,40.934441]}},{"properties":{"city":"Silver Spring","geo_score":0.805,"total":3,"church name":"Silver Spring","church number":4582,"# 2010 interactions":1,"street":"1501 Arcola Ave","id":"a64el7djjz5x","geo_precision":"range","# 2011 interactions":2,"zip postal":"20902"},"type":"Feature","geometry":{"type":"Point","coordinates":[-77.031127,39.04467]}},{"properties":{"city":"Holland","geo_score":0.813,"total":3,"church name":"Maranatha","church number":5158,"# 2010 interactions":1,"street":"918 Central Ave","id":"a64el7o4q99h","geo_precision":"range","# 2011 interactions":2,"zip postal":"49423"},"type":"Feature","geometry":{"type":"Point","coordinates":[-86.106908,42.763762]}},{"properties":{"city":"Gary","geo_score":0.816,"total":3,"church name":"Beacon Light","church number":5610,"# 2010 interactions":1,"street":"3770 Burr St","id":"a64el7rdvpzy","geo_precision":"range","# 2011 interactions":2,"zip postal":"46408-1231"},"type":"Feature","geometry":{"type":"Point","coordinates":[-87.403465,41.55069]}},{"properties":{"city":"Kalamazoo","geo_score":0.902,"total":3,"church name":"Northern Heights","church number":5773,"# 2010 interactions":1,"street":"1454 West E Ave","id":"a64el7kez96e","geo_precision":"range","# 2011 interactions":2,"zip postal":"49009"},"type":"Feature","geometry":{"type":"Point","coordinates":[-85.60356,42.361951]}},{"properties":{"city":"Ann Arbor","geo_score":0.746,"total":3,"church name":"Ann Arbor","church number":6007,"# 2010 interactions":0,"street":"1717 Broadway","id":"a64el7hs6oo5","geo_precision":"range","# 2011 interactions":3,"zip postal":"48105"},"type":"Feature","geometry":{"type":"Point","coordinates":[-83.723358,42.296841]}},{"properties":{"city":"Ireton","geo_score":0.575,"total":3,"church name":"Ireton","church number":7535,"# 2010 interactions":2,"street":"301 Maple St","id":"a64el7nfob38","geo_precision":"street","# 2011 interactions":1,"zip postal":"51027"},"type":"Feature","geometry":{"type":"Point","coordinates":[-96.293562,42.628958]}},{"properties":{"city":"Le Mars","geo_score":0.78,"total":3,"church name":"Calvin","church number":7542,"# 2010 interactions":2,"street":"326 7th St SE","id":"a64el7clu0vk","geo_precision":"range","# 2011 interactions":1,"zip postal":"51031"},"type":"Feature","geometry":{"type":"Point","coordinates":[-96.161774,42.784794]}},{"properties":{"city":"Monroe","geo_score":0.819,"total":3,"church name":"New Hope Fellowship","church number":7857,"# 2010 interactions":1,"street":"1012 W Main St","id":"a64el7nr4cgg","geo_precision":"range","# 2011 interactions":2,"zip postal":"98272"},"type":"Feature","geometry":{"type":"Point","coordinates":[-121.984271,47.8515]}},{"properties":{"city":"North Liberty","geo_score":0.61,"total":3,"church name":"Chinese Church of Iowa City","church number":8117,"# 2010 interactions":2,"street":"570 Madison Ave","id":"a64el7nj46jt","geo_precision":"street","# 2011 interactions":1,"zip postal":"52317-8401"},"type":"Feature","geometry":{"type":"Point","coordinates":[-91.827927,41.476195]}},{"properties":{"city":"Boulder","geo_score":0.902,"total":3,"church name":"Crestview","church number":8410,"# 2010 interactions":2,"street":"3545 Madison Ave","id":"a64el7ps2vji","geo_precision":"range","# 2011 interactions":1,"zip postal":"80303"},"type":"Feature","geometry":{"type":"Point","coordinates":[-105.247906,40.005927]}},{"properties":{"city":"Denver","geo_score":0.902,"total":3,"church name":"Third","church number":8424,"# 2010 interactions":0,"street":"2400 S Ash St","id":"a64el7cs3n4v","geo_precision":"range","# 2011 interactions":3,"zip postal":"80222"},"type":"Feature","geometry":{"type":"Point","coordinates":[-104.93851,39.673324]}},{"properties":{"city":"Fort Collins","geo_score":0.902,"total":3,"church name":"Immanuel","church number":8449,"# 2010 interactions":0,"street":"1900 S Taft Hill Rd","id":"a64el7lb0sfv","geo_precision":"range","# 2011 interactions":3,"zip postal":"80526"},"type":"Feature","geometry":{"type":"Point","coordinates":[-105.115121,40.562796]}},{"properties":{"city":"Randolph","geo_score":0.27,"total":3,"church name":"First","church number":9363,"# 2010 interactions":1,"street":"N8879 E Friesland Rd","id":"a64el7qbgx5r","geo_precision":"street","# 2011 interactions":2,"zip postal":"53956"},"type":"Feature","geometry":{"type":"Point","coordinates":[-89.026912,43.583493]}}],"is_temporal":false,"author":{"url":"","metadata":"","contact_name":"Shirley De Vries","contact_address":"","source":"CRCNA's CORE db plus Salesforce data","contact_phone":""},"source":"","pagination":{"sort":null,"start":0,"total":284,"limit":1000000},"state":"complete","tags":"","published":"2014-08-10T21:10:21-04:00","id":96786}