{"type":"FeatureCollection","data_type":"Dataset","url_type":null,"permissions":[{"permissions":{"download":true,"view":true},"group_id":"everyone"}],"classification":null,"title":"US CRCs with 0 Interactions 2010-2011March1","count":466,"stream_id":96785,"contributor":{"url":"http://geocommons.com/users/14142","name":"sdevries"},"data_attributes":null,"calculation_params":null,"icon_link":null,"link":"http://geocommons.com/overlays/96785.json","extent":[-158.024,18.3991,-66.178,61.2061],"geometry_types":["point"],"unique_name":null,"name":"US CRCs with 0 Interactions 2010-2011March1","feature_count":466,"description":"","next_feature":null,"is_raster":false,"short_classification":"Y","stats":{"total":{"max":0,"mean":0.0,"variance":0.0,"stdev":0.0,"min":0,"median":0},"church number":{"max":9669,"mean":4805.57510729614,"variance":9797145.1309059,"stdev":3130.03915804673,"min":103,"median":5149},"# 2010 interactions":{"max":0,"mean":0.0,"variance":0.0,"stdev":0.0,"min":0,"median":0},"# 2011 interactions":{"max":0,"mean":0.0,"variance":0.0,"stdev":0.0,"min":0,"median":0}},"features":[{"properties":{"city":"La Puente","geo_score":0.812,"total":0,"church name":"Hanaro Community","church number":103,"# 2010 interactions":0,"street":"18616 E Rorimer St","id":"a6459ldxpfoa","geo_precision":"range","# 2011 interactions":0,"zip postal":"91744-6062"},"type":"Feature","geometry":{"type":"Point","coordinates":[-117.897471,34.007143]}},{"properties":{"city":"Marquette Heights","geo_score":0.823,"total":0,"church name":"Family of Faith","church number":106,"# 2010 interactions":0,"street":"101 Grant Rd","id":"a6459lo4axxy","geo_precision":"range","# 2011 interactions":0,"zip postal":"61554"},"type":"Feature","geometry":{"type":"Point","coordinates":[-89.606203,40.619474]}},{"properties":{"city":"Dresher","geo_score":0.824,"total":0,"church name":"Penn. Elim Presbyterian","church number":114,"# 2010 interactions":0,"street":"1008 Twining Rd","id":"a6459ldrwfvg","geo_precision":"range","# 2011 interactions":0,"zip postal":"19025-1723"},"type":"Feature","geometry":{"type":"Point","coordinates":[-75.161403,40.134293]}},{"properties":{"city":"Los Angeles","geo_score":0.824,"total":0,"church name":"Olympic Presbyterian","church number":116,"# 2010 interactions":0,"street":"1700 W Olympic Blvd","id":"a6459lcftqu6","geo_precision":"range","# 2011 interactions":0,"zip postal":"90015"},"type":"Feature","geometry":{"type":"Point","coordinates":[-118.27538,34.049732]}},{"properties":{"city":"Moreno Valley","geo_score":0.471,"total":0,"church name":"Sovereign Grace Community","church number":119,"# 2010 interactions":0,"street":"Attn: Michael Sarkissian","id":"a6459lh3eblh","geo_precision":"street","# 2011 interactions":0,"zip postal":"92557"},"type":"Feature","geometry":{"type":"Point","coordinates":[-117.228828,33.978549]}},{"properties":{"city":"Fullerton","geo_score":0.712,"total":0,"church name":"Faith Community","church number":120,"# 2010 interactions":0,"street":"643 W Malvern Ave","id":"a6459lmbensr","geo_precision":"street","# 2011 interactions":0,"zip postal":"92832"},"type":"Feature","geometry":{"type":"Point","coordinates":[-117.9353,33.87488]}},{"properties":{"city":"Dover","geo_score":0.833,"total":0,"church name":"Indonesian Chr. Ref. Fellowship","church number":122,"# 2010 interactions":0,"street":"16 Addison Pl","id":"a6459lirc4hn","geo_precision":"range","# 2011 interactions":0,"zip postal":"3820"},"type":"Feature","geometry":{"type":"Point","coordinates":[-70.896611,43.203294]}},{"properties":{"city":"Diamond Bar","geo_score":0.482,"total":0,"church name":"New Joy","church number":132,"# 2010 interactions":0,"street":"Attn: Rev. Sung Chang Choi","id":"a6459lepkrtc","geo_precision":"street","# 2011 interactions":0,"zip postal":"91765"},"type":"Feature","geometry":{"type":"Point","coordinates":[-117.792187,33.999615]}},{"properties":{"city":"New Brunswick","geo_score":0.381,"total":0,"church name":"Grace Community Chapel","church number":133,"# 2010 interactions":0,"street":"PO Box 1415","id":"a6459li8ihgm","geo_precision":"street","# 2011 interactions":0,"zip postal":"8901"},"type":"Feature","geometry":{"type":"Point","coordinates":[-74.505175,40.421622]}},{"properties":{"city":"Oak Lawn","geo_score":0.707,"total":0,"church name":"Grace Community","church number":137,"# 2010 interactions":0,"street":"10415 S Kedvale Ave","id":"a6459l9tbycf","geo_precision":"street","# 2011 interactions":0,"zip postal":"60453"},"type":"Feature","geometry":{"type":"Point","coordinates":[-87.725415,41.724053]}},{"properties":{"city":"Ludington","geo_score":0.813,"total":0,"church name":"Lakeside Chapel","church number":138,"# 2010 interactions":0,"street":"301 N Washington Ave","id":"a6459li45c7z","geo_precision":"range","# 2011 interactions":0,"zip postal":"49431"},"type":"Feature","geometry":{"type":"Point","coordinates":[-86.439383,43.957729]}},{"properties":{"city":"Paoli","geo_score":0.902,"total":0,"church name":"African Christian Ministry","church number":145,"# 2010 interactions":0,"street":"15 Chetwynd Rd","id":"a6459lnjgkdf","geo_precision":"range","# 2011 interactions":0,"zip postal":"19301"},"type":"Feature","geometry":{"type":"Point","coordinates":[-75.488419,40.037683]}},{"properties":{"city":"Parsippany","geo_score":0.645,"total":0,"church name":"Grace Calvary","church number":147,"# 2010 interactions":0,"street":"97 Jillian Blvd","id":"a6459lnukjoc","geo_precision":"range","# 2011 interactions":0,"zip postal":"7054"},"type":"Feature","geometry":{"type":"Point","coordinates":[-74.255308,40.705513]}},{"properties":{"city":"Worthing","geo_score":0.805,"total":0,"church name":"Cornerstone Prison Church","church number":155,"# 2010 interactions":0,"street":"203 W 3rd St","id":"a6459lg4ckvu","geo_precision":"range","# 2011 interactions":0,"zip postal":"57077"},"type":"Feature","geometry":{"type":"Point","coordinates":[-96.767128,43.328297]}},{"properties":{"city":"Longwood","geo_score":0.854,"total":0,"church name":"New Heart Church","church number":156,"# 2010 interactions":0,"street":"151 W Church Ave","id":"a6459l9s36ws","geo_precision":"range","# 2011 interactions":0,"zip postal":"32750"},"type":"Feature","geometry":{"type":"Point","coordinates":[-81.347402,28.700858]}},{"properties":{"city":"Newport","geo_score":0.772,"total":0,"church name":"Pathway Community","church number":157,"# 2010 interactions":0,"street":"220 Elm St Ste Q","id":"a6459lep0oe7","geo_precision":"range","# 2011 interactions":0,"zip postal":"04953-3386"},"type":"Feature","geometry":{"type":"Point","coordinates":[-69.259498,44.825632]}},{"properties":{"city":"St. John","geo_score":0.592,"total":0,"church name":"Pathway","church number":158,"# 2010 interactions":0,"street":"11101 W 97th Ln","id":"a6459lap9tl6","geo_precision":"street","# 2011 interactions":0,"zip postal":"46373"},"type":"Feature","geometry":{"type":"Point","coordinates":[-87.47128,41.441076]}},{"properties":{"city":"Escondido","geo_score":0.381,"total":0,"church name":"Iglesia Camino al Cielo","church number":161,"# 2010 interactions":0,"street":"PO Box 1274","id":"a6459lhopurn","geo_precision":"street","# 2011 interactions":0,"zip postal":"92033-1274"},"type":"Feature","geometry":{"type":"Point","coordinates":[-117.106246,33.179604]}},{"properties":{"city":"Chula Vista","geo_score":0.902,"total":0,"church name":"International Church of Praise","church number":162,"# 2010 interactions":0,"street":"1931 Parker Mountain Rd","id":"a6459lhwut9p","geo_precision":"range","# 2011 interactions":0,"zip postal":"91913"},"type":"Feature","geometry":{"type":"Point","coordinates":[-116.97585,32.633552]}},{"properties":{"city":"Buena Park","geo_score":0.429,"total":0,"church name":"Good Tree","church number":163,"# 2010 interactions":0,"street":"8201 Orangethorpe Ave #D","id":"a6459lnqyggg","geo_precision":"street","# 2011 interactions":0,"zip postal":"90621"},"type":"Feature","geometry":{"type":"Point","coordinates":[-118.03386,33.858679]}},{"properties":{"city":"Bakersfield","geo_score":0.902,"total":0,"church name":"All Nations Church","church number":173,"# 2010 interactions":0,"street":"6700 Schirra Ct","id":"a6459lndh39w","geo_precision":"range","# 2011 interactions":0,"zip postal":"93313"},"type":"Feature","geometry":{"type":"Point","coordinates":[-119.076346,35.316599]}},{"properties":{"city":"Monterey Park","geo_score":0.902,"total":0,"church name":"Smyrna","church number":176,"# 2010 interactions":0,"street":"2301 Findlay Ave","id":"a6459lgx9xsf","geo_precision":"range","# 2011 interactions":0,"zip postal":"91754"},"type":"Feature","geometry":{"type":"Point","coordinates":[-118.137952,34.036633]}},{"properties":{"city":"New York","geo_score":0.49,"total":0,"church name":"City Grace","church number":180,"# 2010 interactions":0,"street":"355 South End Ave #5A1","id":"a6459lfgvi6b","geo_precision":"street","# 2011 interactions":0,"zip postal":"10280"},"type":"Feature","geometry":{"type":"Point","coordinates":[-74.017398,40.708456]}},{"properties":{"city":"Wauwatosa","geo_score":0.7,"total":0,"church name":"Connection Point Church","church number":181,"# 2010 interactions":0,"street":"2500 Mayfair Rd","id":"a6459lahh8rm","geo_precision":"range","# 2011 interactions":0,"zip postal":"53226"},"type":"Feature","geometry":{"type":"Point","coordinates":[-88.047728,43.063651]}},{"properties":{"city":"Orange City","geo_score":0.339,"total":0,"church name":"Living Water Community","church number":182,"# 2010 interactions":0,"street":"PO Box 197","id":"a6459lg1gg9q","geo_precision":"street","# 2011 interactions":0,"zip postal":"51041"},"type":"Feature","geometry":{"type":"Point","coordinates":[-95.564149,42.880372]}},{"properties":{"city":"Bellingham","geo_score":0.429,"total":0,"church name":"Mosaic Church","church number":184,"# 2010 interactions":0,"street":"PO Box 5505","id":"a6459lmtz26h","geo_precision":"street","# 2011 interactions":0,"zip postal":"98227"},"type":"Feature","geometry":{"type":"Point","coordinates":[-122.916939,48.709006]}},{"properties":{"city":"Silver Spring","geo_score":0.805,"total":0,"church name":"Grace Indonesian","church number":190,"# 2010 interactions":0,"street":"1501 Arcola Ave","id":"a6459lf9a9yd","geo_precision":"range","# 2011 interactions":0,"zip postal":"20902"},"type":"Feature","geometry":{"type":"Point","coordinates":[-77.031127,39.04467]}},{"properties":{"city":"Palmers Print","geo_score":0.496,"total":0,"church name":"Lighthouse","church number":194,"# 2010 interactions":0,"street":"2910 S Sundeck","id":"a6459lee73x3","geo_precision":"zip","# 2011 interactions":0,"zip postal":"75234"},"type":"Feature","geometry":{"type":"Point","coordinates":[-96.91056,32.900404]}},{"properties":{"city":"Monrovia","geo_score":0.811,"total":0,"church name":"Hanain","church number":195,"# 2010 interactions":0,"street":"1323 Magnolia Ave","id":"a6459lfcx4ii","geo_precision":"range","# 2011 interactions":0,"zip postal":"91016"},"type":"Feature","geometry":{"type":"Point","coordinates":[-118.005167,34.137685]}},{"properties":{"city":"Long Beach","geo_score":0.902,"total":0,"church name":"South Bay Early","church number":196,"# 2010 interactions":0,"street":"3650 Elm Ave","id":"a6459lilnniu","geo_precision":"range","# 2011 interactions":0,"zip postal":"90807"},"type":"Feature","geometry":{"type":"Point","coordinates":[-118.18794,33.8232]}},{"properties":{"city":"Fort Worth","geo_score":0.805,"total":0,"church name":"First Korean Presby.","church number":197,"# 2010 interactions":0,"street":"3632 Longvue Ave","id":"a6459low4y5d","geo_precision":"range","# 2011 interactions":0,"zip postal":"76116"},"type":"Feature","geometry":{"type":"Point","coordinates":[-97.495361,32.720135]}},{"properties":{"city":"Philadelphia","geo_score":0.726,"total":0,"church name":"By Grace Alone Frankford Fellowship","church number":201,"# 2010 interactions":0,"street":"Attn Gabriel Wang-Herrera","id":"a6459lm8cd3w","geo_precision":"zip","# 2011 interactions":0,"zip postal":"19124-5942"},"type":"Feature","geometry":{"type":"Point","coordinates":[-75.084896,40.028167]}},{"properties":{"city":"San Antonio","geo_score":0.824,"total":0,"church name":"All Nations Church","church number":203,"# 2010 interactions":0,"street":"1250 Holbrook Rd","id":"a6459lkd54as","geo_precision":"range","# 2011 interactions":0,"zip postal":"78218"},"type":"Feature","geometry":{"type":"Point","coordinates":[-98.419877,29.492042]}},{"properties":{"city":"Westminster","geo_score":0.814,"total":0,"church name":"Ekklesia","church number":211,"# 2010 interactions":0,"street":"10321 Bolsa Ave","id":"a6459ld2c5lf","geo_precision":"range","# 2011 interactions":0,"zip postal":"92683"},"type":"Feature","geometry":{"type":"Point","coordinates":[-117.949112,33.744973]}},{"properties":{"city":"Chicago","geo_score":0.333,"total":0,"church name":"Fresh Word Ministries","church number":212,"# 2010 interactions":0,"street":"Attn: Rev. Edward Rockett","id":"a6459lmpp927","geo_precision":"street","# 2011 interactions":0,"zip postal":"60637"},"type":"Feature","geometry":{"type":"Point","coordinates":[-87.648212,41.921824]}},{"properties":{"city":"El Paso","geo_score":0.902,"total":0,"church name":"River's Edge","church number":216,"# 2010 interactions":0,"street":"11601 Montwood Dr","id":"a6459le9z99q","geo_precision":"range","# 2011 interactions":0,"zip postal":"79936"},"type":"Feature","geometry":{"type":"Point","coordinates":[-106.290779,31.767346]}},{"properties":{"city":"Tukwila","geo_score":0.673,"total":0,"church name":"Word of Truth International Ministries","church number":217,"# 2010 interactions":0,"street":"10825 E Marginal Way","id":"a6459ljygjse","geo_precision":"range","# 2011 interactions":0,"zip postal":"98168"},"type":"Feature","geometry":{"type":"Point","coordinates":[-122.291203,47.507455]}},{"properties":{"city":"Seattle","geo_score":0.329,"total":0,"church name":"Cascade Neighborhood Church","church number":218,"# 2010 interactions":0,"street":"Attn: Tim Soerens","id":"a6459lh7xinm","geo_precision":"street","# 2011 interactions":0,"zip postal":"98103"},"type":"Feature","geometry":{"type":"Point","coordinates":[-122.539841,47.686792]}},{"properties":{"city":"Palos Hills","geo_score":0.902,"total":0,"church name":"Living Hope","church number":223,"# 2010 interactions":0,"street":"7912 W 100th St","id":"a6459lad01rm","geo_precision":"range","# 2011 interactions":0,"zip postal":"60465"},"type":"Feature","geometry":{"type":"Point","coordinates":[-87.81509,41.709482]}},{"properties":{"city":"Moreno Valley","geo_score":0.446,"total":0,"church name":"Grace","church number":224,"# 2010 interactions":0,"street":"Attn: Rudy Gonzalez","id":"a6459ln99exp","geo_precision":"street","# 2011 interactions":0,"zip postal":"92557"},"type":"Feature","geometry":{"type":"Point","coordinates":[-117.282773,33.893617]}},{"properties":{"city":"Las Vegas","geo_score":0.819,"total":0,"church name":"Areumdawoon Church of Las Vegas","church number":244,"# 2010 interactions":0,"street":"3945 E Patrick Ln Ste A","id":"a6459lawam84","geo_precision":"range","# 2011 interactions":0,"zip postal":"89120"},"type":"Feature","geometry":{"type":"Point","coordinates":[-115.085766,36.0784]}},{"properties":{"city":"Philadelphia","geo_score":0.805,"total":0,"church name":"Mount Airy Community Church","church number":245,"# 2010 interactions":0,"street":"420 W Durham St","id":"a6459lkijm1o","geo_precision":"range","# 2011 interactions":0,"zip postal":"19119"},"type":"Feature","geometry":{"type":"Point","coordinates":[-75.196527,40.052982]}},{"properties":{"city":"Woonsocket","geo_score":0.429,"total":0,"church name":"Sacred Journey","church number":249,"# 2010 interactions":0,"street":"Attn: Todd Murphy","id":"a6459lfg63qc","geo_precision":"street","# 2011 interactions":0,"zip postal":"2895"},"type":"Feature","geometry":{"type":"Point","coordinates":[-71.362061,41.892528]}},{"properties":{"city":"Sioux Center","geo_score":0.286,"total":0,"church name":"Amistad Cristiana","church number":250,"# 2010 interactions":0,"street":"PO Box 61","id":"a6459lbmqche","geo_precision":"street","# 2011 interactions":0,"zip postal":"51250"},"type":"Feature","geometry":{"type":"Point","coordinates":[-96.505721,43.47804]}},{"properties":{"city":"West Covina","geo_score":0.778,"total":0,"church name":"Good News Chapel","church number":253,"# 2010 interactions":0,"street":"2701 S Woodgate Dr","id":"a6459lmbgze4","geo_precision":"street","# 2011 interactions":0,"zip postal":"91792"},"type":"Feature","geometry":{"type":"Point","coordinates":[-117.899008,34.026869]}},{"properties":{"city":"Fullerton","geo_score":0.902,"total":0,"church name":"Glory Christian Church of S.C.","church number":259,"# 2010 interactions":0,"street":"3700 W Valencia Dr","id":"a6459lnb188j","geo_precision":"range","# 2011 interactions":0,"zip postal":"92833"},"type":"Feature","geometry":{"type":"Point","coordinates":[-117.97629,33.866389]}},{"properties":{"city":"Arcadia","geo_score":0.393,"total":0,"church name":"Hope International Chinese Church","church number":260,"# 2010 interactions":0,"street":"Hope International CRC","id":"a6459lb1525v","geo_precision":"street","# 2011 interactions":0,"zip postal":"91007"},"type":"Feature","geometry":{"type":"Point","coordinates":[-118.155986,34.117805]}},{"properties":{"city":"Fountain Valley","geo_score":0.46,"total":0,"church name":"Samoan Church","church number":261,"# 2010 interactions":0,"street":"Fountain of Life Fellowship CRC","id":"a6459las3b92","geo_precision":"street","# 2011 interactions":0,"zip postal":"92708"},"type":"Feature","geometry":{"type":"Point","coordinates":[-117.96872,33.69404]}},{"properties":{"city":"Montclair","geo_score":0.333,"total":0,"church name":"Immanuel Christian Community","church number":264,"# 2010 interactions":0,"street":"PO Box 2311","id":"a6459lfbrqyx","geo_precision":"street","# 2011 interactions":0,"zip postal":"91763"},"type":"Feature","geometry":{"type":"Point","coordinates":[-117.711188,33.975113]}},{"properties":{"city":"Evergreen Park","geo_score":0.805,"total":0,"church name":"Jacob's Well Church Community","church number":266,"# 2010 interactions":0,"street":"3450 W Maple Ave","id":"a6459l9zltsk","geo_precision":"range","# 2011 interactions":0,"zip postal":"60805"},"type":"Feature","geometry":{"type":"Point","coordinates":[-87.708369,41.715585]}},{"properties":{"city":"Duluth","geo_score":0.325,"total":0,"church name":"Our Community Church","church number":267,"# 2010 interactions":0,"street":"PO Box 957777","id":"a6459lnw8rw8","geo_precision":"street","# 2011 interactions":0,"zip postal":"30095"},"type":"Feature","geometry":{"type":"Point","coordinates":[-84.259845,33.757571]}},{"properties":{"city":"Bellingham","geo_score":0.87,"total":0,"church name":"The Jesus Gathering/Envision Ministries","church number":270,"# 2010 interactions":0,"street":"118 W Holly St","id":"a6459lb7zydt","geo_precision":"range","# 2011 interactions":0,"zip postal":"98225"},"type":"Feature","geometry":{"type":"Point","coordinates":[-122.479288,48.749875]}},{"properties":{"city":"Belgrade","geo_score":0.805,"total":0,"church name":"Imagine","church number":271,"# 2010 interactions":0,"street":"390 Rain Shadow Dr","id":"a6459lebqk6z","geo_precision":"range","# 2011 interactions":0,"zip postal":"59714"},"type":"Feature","geometry":{"type":"Point","coordinates":[-111.206871,45.785697]}},{"properties":{"city":"Kansas City","geo_score":0.902,"total":0,"church name":"New City Church","church number":272,"# 2010 interactions":0,"street":"8711 Wornall Rd","id":"a6459lfin9pf","geo_precision":"range","# 2011 interactions":0,"zip postal":"64114"},"type":"Feature","geometry":{"type":"Point","coordinates":[-94.595265,38.970273]}},{"properties":{"city":"Orlando","geo_score":0.381,"total":0,"church name":"Haitian","church number":274,"# 2010 interactions":0,"street":"Attn Obelto Cherubin","id":"a6459loys91f","geo_precision":"street","# 2011 interactions":0,"zip postal":"32835"},"type":"Feature","geometry":{"type":"Point","coordinates":[-81.459807,28.624969]}},{"properties":{"city":"Davis","geo_score":0.817,"total":0,"church name":"Christ Church of Davis","church number":275,"# 2010 interactions":0,"street":"1818 Cork Pl","id":"a6459londzp4","geo_precision":"range","# 2011 interactions":0,"zip postal":"95618"},"type":"Feature","geometry":{"type":"Point","coordinates":[-121.718093,38.562668]}},{"properties":{"city":"Seattle","geo_score":0.645,"total":0,"church name":"Roots Church","church number":279,"# 2010 interactions":0,"street":"312 N 85th St Ste 101","id":"a6459loqolrw","geo_precision":"range","# 2011 interactions":0,"zip postal":"98103"},"type":"Feature","geometry":{"type":"Point","coordinates":[-122.355189,47.690592]}},{"properties":{"city":"Seattle","geo_score":0.443,"total":0,"church name":"Harbor Church","church number":280,"# 2010 interactions":0,"street":"9204 11th Ave NW","id":"a6459lis32b0","geo_precision":"street","# 2011 interactions":0,"zip postal":"97117"},"type":"Feature","geometry":{"type":"Point","coordinates":[-123.103081,45.509702]}},{"properties":{"city":"Philadelphia","geo_score":0.821,"total":0,"church name":"Grace and Peace Community Fellowship","church number":281,"# 2010 interactions":0,"street":"545 W Luray St","id":"a6459l9jc9af","geo_precision":"range","# 2011 interactions":0,"zip postal":"19140"},"type":"Feature","geometry":{"type":"Point","coordinates":[-75.134252,40.021987]}},{"properties":{"city":"La Palma","geo_score":0.902,"total":0,"church name":"Ye-eun Presby. Church","church number":282,"# 2010 interactions":0,"street":"7641 Carbon Cir","id":"a6459l9t0c6z","geo_precision":"range","# 2011 interactions":0,"zip postal":"90623"},"type":"Feature","geometry":{"type":"Point","coordinates":[-118.048296,33.851298]}},{"properties":{"city":"La Crescenta","geo_score":0.902,"total":0,"church name":"God's Dream Center","church number":283,"# 2010 interactions":0,"street":"3624 Fairesta St","id":"a6459ld860hr","geo_precision":"range","# 2011 interactions":0,"zip postal":"91214"},"type":"Feature","geometry":{"type":"Point","coordinates":[-118.257846,34.237151]}},{"properties":{"city":"Fullerton","geo_score":0.902,"total":0,"church name":"Korean Community Church","church number":284,"# 2010 interactions":0,"street":"1367 N Gilbert St #174","id":"a6459lm2kc1f","geo_precision":"range","# 2011 interactions":0,"zip postal":"92833"},"type":"Feature","geometry":{"type":"Point","coordinates":[-117.968176,33.87218]}},{"properties":{"city":"Santa Maria","geo_score":0.61,"total":0,"church name":"New Vision Church Santa Maria","church number":285,"# 2010 interactions":0,"street":"3217 Orcutt Rd#202","id":"a6459ld8t3qf","geo_precision":"street","# 2011 interactions":0,"zip postal":"93455"},"type":"Feature","geometry":{"type":"Point","coordinates":[-120.436234,34.90911]}},{"properties":{"city":"Paramus","geo_score":0.902,"total":0,"church name":"Global Vision Church","church number":286,"# 2010 interactions":0,"street":"31 E Ridgewood Ave","id":"a6459lnry057","geo_precision":"range","# 2011 interactions":0,"zip postal":"7652"},"type":"Feature","geometry":{"type":"Point","coordinates":[-74.083469,40.969712]}},{"properties":{"city":"Millbrae","geo_score":0.857,"total":0,"church name":"Arumdaun Community Church","church number":287,"# 2010 interactions":0,"street":"161A Laurel Ave","id":"a6459lo6tfvi","geo_precision":"range","# 2011 interactions":0,"zip postal":"94030"},"type":"Feature","geometry":{"type":"Point","coordinates":[-122.396236,37.595529]}},{"properties":{"city":"Bellingham","geo_score":0.87,"total":0,"church name":"The Table","church number":288,"# 2010 interactions":0,"street":"2674 Donovan Ave","id":"a6459lhi6y5t","geo_precision":"range","# 2011 interactions":0,"zip postal":"98225"},"type":"Feature","geometry":{"type":"Point","coordinates":[-122.48258,48.717387]}},{"properties":{"city":"Bothell","geo_score":0.463,"total":0,"church name":"The Well Community Church","church number":289,"# 2010 interactions":0,"street":"14728 44th Dr SE","id":"a6459lcvaq34","geo_precision":"street","# 2011 interactions":0,"zip postal":"98012"},"type":"Feature","geometry":{"type":"Point","coordinates":[-122.152551,47.567204]}},{"properties":{"city":"Quincy","geo_score":0.824,"total":0,"church name":"Iglesia Cristiana Reformada de Quincy","church number":290,"# 2010 interactions":0,"street":"12467 Road Q NW","id":"a6459lpskmha","geo_precision":"range","# 2011 interactions":0,"zip postal":"98848"},"type":"Feature","geometry":{"type":"Point","coordinates":[-119.854893,47.267669]}},{"properties":{"city":"Toppenish","geo_score":0.902,"total":0,"church name":"Iglesia Cristiana Reformada Vida Abundante","church number":291,"# 2010 interactions":0,"street":"5781 State Rte 22","id":"a6459le3qwcp","geo_precision":"range","# 2011 interactions":0,"zip postal":"98948"},"type":"Feature","geometry":{"type":"Point","coordinates":[-120.280161,46.350034]}},{"properties":{"city":"Artesia","geo_score":0.817,"total":0,"church name":"Artesia City Church","church number":292,"# 2010 interactions":0,"street":"18411 Alburtis Ave","id":"a6459lmxltms","geo_precision":"range","# 2011 interactions":0,"zip postal":"90701"},"type":"Feature","geometry":{"type":"Point","coordinates":[-118.084357,33.86436]}},{"properties":{"city":"Bellflower","geo_score":0.588,"total":0,"church name":"Joy Community Church","church number":293,"# 2010 interactions":0,"street":"9032 Cedar St","id":"a6459laopnbr","geo_precision":"street","# 2011 interactions":0,"zip postal":"90630"},"type":"Feature","geometry":{"type":"Point","coordinates":[-118.03548,33.82031]}},{"properties":{"city":"Bellflower","geo_score":0.902,"total":0,"church name":"Bellflower House Church","church number":294,"# 2010 interactions":0,"street":"9109 Laurel St","id":"a6459ln03za2","geo_precision":"range","# 2011 interactions":0,"zip postal":"90706"},"type":"Feature","geometry":{"type":"Point","coordinates":[-118.140292,33.882929]}},{"properties":{"city":"San Diego","geo_score":0.902,"total":0,"church name":"Presby. Lord's Church of San Diego","church number":295,"# 2010 interactions":0,"street":"3219 Clairemont Mesa Blvd","id":"a6459lgza64l","geo_precision":"range","# 2011 interactions":0,"zip postal":"92117"},"type":"Feature","geometry":{"type":"Point","coordinates":[-117.2158,32.830922]}},{"properties":{"city":"Shafter","geo_score":0.862,"total":0,"church name":"New Hope Community","church number":296,"# 2010 interactions":0,"street":"455 E Euclid Ave","id":"a6459lmw6dj6","geo_precision":"range","# 2011 interactions":0,"zip postal":"93263"},"type":"Feature","geometry":{"type":"Point","coordinates":[-119.269999,35.497887]}},{"properties":{"city":"Norco","geo_score":0.902,"total":0,"church name":"Holy City Church","church number":297,"# 2010 interactions":0,"street":"2000 Norco Dr","id":"a6459lemapo8","geo_precision":"range","# 2011 interactions":0,"zip postal":"92860"},"type":"Feature","geometry":{"type":"Point","coordinates":[-117.561319,33.937342]}},{"properties":{"city":"Lynden","geo_score":0.581,"total":0,"church name":"Amor Viviente","church number":298,"# 2010 interactions":0,"street":"514 Liberty St","id":"a6459lbvl3kb","geo_precision":"street","# 2011 interactions":0,"zip postal":"97264"},"type":"Feature","geometry":{"type":"Point","coordinates":[-122.679808,45.570868]}},{"properties":{"city":"El Paso","geo_score":0.902,"total":0,"church name":"Sunshine Community","church number":720,"# 2010 interactions":0,"street":"11601 Montwood Dr","id":"a6459llb9iqi","geo_precision":"range","# 2011 interactions":0,"zip postal":"79936"},"type":"Feature","geometry":{"type":"Point","coordinates":[-106.290779,31.767346]}},{"properties":{"city":"Socorro","geo_score":0.451,"total":0,"church name":"Valley Ridge Community","church number":721,"# 2010 interactions":0,"street":"Attn Jose Rayas","id":"a6459lo3gnic","geo_precision":"street","# 2011 interactions":0,"zip postal":"79927"},"type":"Feature","geometry":{"type":"Point","coordinates":[-106.303785,31.704082]}},{"properties":{"city":"Flagstaff","geo_score":0.902,"total":0,"church name":"Hope Community","church number":725,"# 2010 interactions":0,"street":"3700 N Fanning Dr","id":"a6459lbrnx1u","geo_precision":"range","# 2011 interactions":0,"zip postal":"86004"},"type":"Feature","geometry":{"type":"Point","coordinates":[-111.595761,35.218433]}},{"properties":{"city":"Phoenix","geo_score":0.902,"total":0,"church name":"Phoenix","church number":750,"# 2010 interactions":0,"street":"2438 E Earll Dr","id":"a6459lpkqk92","geo_precision":"range","# 2011 interactions":0,"zip postal":"85016"},"type":"Feature","geometry":{"type":"Point","coordinates":[-112.029482,33.483959]}},{"properties":{"city":"Richfield Springs","geo_score":0.286,"total":0,"church name":"Trinity","church number":814,"# 2010 interactions":0,"street":"PO Box 868","id":"a6459lozxvr6","geo_precision":"street","# 2011 interactions":0,"zip postal":"13439-0868"},"type":"Feature","geometry":{"type":"Point","coordinates":[-75.000579,43.696424]}},{"properties":{"city":"South Windsor","geo_score":0.821,"total":0,"church name":"Avery Street","church number":822,"# 2010 interactions":0,"street":"399 Beelzebub Rd","id":"a6459laaq3b4","geo_precision":"range","# 2011 interactions":0,"zip postal":"6074"},"type":"Feature","geometry":{"type":"Point","coordinates":[-72.519251,41.832699]}},{"properties":{"city":"Baldwinsville","geo_score":0.82,"total":0,"church name":"Community","church number":826,"# 2010 interactions":0,"street":"7823 Hicks Road","id":"a6459lenl5zb","geo_precision":"range","# 2011 interactions":0,"zip postal":"13027-9465"},"type":"Feature","geometry":{"type":"Point","coordinates":[-76.277613,43.149298]}},{"properties":{"city":"Vergennes","geo_score":0.79,"total":0,"church name":"Champlain Valley","church number":828,"# 2010 interactions":0,"street":"73 A Church St","id":"a6459lfrcwy4","geo_precision":"range","# 2011 interactions":0,"zip postal":"5491"},"type":"Feature","geometry":{"type":"Point","coordinates":[-73.383011,44.066091]}},{"properties":{"city":"Franklin","geo_score":0.824,"total":0,"church name":"New England Chapel","church number":832,"# 2010 interactions":0,"street":"40 Kenwood Circle","id":"a6459lpp10a5","geo_precision":"range","# 2011 interactions":0,"zip postal":"2038"},"type":"Feature","geometry":{"type":"Point","coordinates":[-71.420757,42.072298]}},{"properties":{"city":"Webster","geo_score":0.867,"total":0,"church name":"Webster","church number":842,"# 2010 interactions":0,"street":"1344 State Rd","id":"a6459ldzb5ou","geo_precision":"range","# 2011 interactions":0,"zip postal":"14580"},"type":"Feature","geometry":{"type":"Point","coordinates":[-77.42111,43.201499]}},{"properties":{"city":"Whitinsville","geo_score":0.812,"total":0,"church name":"Fairlawn","church number":853,"# 2010 interactions":0,"street":"305 Goldthwaite Rd","id":"a6459lavk3v1","geo_precision":"range","# 2011 interactions":0,"zip postal":"01588-1319"},"type":"Feature","geometry":{"type":"Point","coordinates":[-71.681162,42.124013]}},{"properties":{"city":"Whitinsville","geo_score":0.812,"total":0,"church name":"Pleasant Street","church number":858,"# 2010 interactions":0,"street":"25 Cross St","id":"a6459lpaeszf","geo_precision":"range","# 2011 interactions":0,"zip postal":"1588"},"type":"Feature","geometry":{"type":"Point","coordinates":[-71.659355,42.111284]}},{"properties":{"city":"Falmouth","geo_score":0.805,"total":0,"church name":"Aetna","church number":1207,"# 2010 interactions":0,"street":"3459 S 8 Mile Rd","id":"a6459lhyx4dc","geo_precision":"range","# 2011 interactions":0,"zip postal":"49632-9787"},"type":"Feature","geometry":{"type":"Point","coordinates":[-85.054112,44.281453]}},{"properties":{"city":"Ellsworth","geo_score":0.619,"total":0,"church name":"Atwood","church number":1221,"# 2010 interactions":0,"street":"10037 North US 31","id":"a6459lkiewb5","geo_precision":"street","# 2011 interactions":0,"zip postal":"49729"},"type":"Feature","geometry":{"type":"Point","coordinates":[-85.345176,45.178781]}},{"properties":{"city":"Ellsworth","geo_score":0.827,"total":0,"church name":"Ellsworth","church number":1235,"# 2010 interactions":0,"street":"9323 Main St","id":"a6459liwpuuc","geo_precision":"range","# 2011 interactions":0,"zip postal":"49729"},"type":"Feature","geometry":{"type":"Point","coordinates":[-85.246102,45.166953]}},{"properties":{"city":"Falmouth","geo_score":0.805,"total":0,"church name":"Prosper","church number":1242,"# 2010 interactions":0,"street":"1975 E Prosper Rd","id":"a6459ll9mw0i","geo_precision":"range","# 2011 interactions":0,"zip postal":"49632"},"type":"Feature","geometry":{"type":"Point","coordinates":[-85.059518,44.243186]}},{"properties":{"city":"Gaylord","geo_score":0.709,"total":0,"church name":"Friendship","church number":1244,"# 2010 interactions":0,"street":"415 N Ohio St","id":"a6459lioyfyj","geo_precision":"range","# 2011 interactions":0,"zip postal":"49735"},"type":"Feature","geometry":{"type":"Point","coordinates":[-84.684027,45.032095]}},{"properties":{"city":"Marion","geo_score":0.478,"total":0,"church name":"Highland","church number":1249,"# 2010 interactions":0,"street":"9034 23 Mile Rd","id":"a6459ldbwc53","geo_precision":"street","# 2011 interactions":0,"zip postal":"49665"},"type":"Feature","geometry":{"type":"Point","coordinates":[-85.147494,44.108381]}},{"properties":{"city":"Kincheloe","geo_score":0.902,"total":0,"church name":"New Hope Community","church number":1250,"# 2010 interactions":0,"street":"66 Cedar Grove Dr","id":"a6459lntvto0","geo_precision":"range","# 2011 interactions":0,"zip postal":"49788"},"type":"Feature","geometry":{"type":"Point","coordinates":[-84.453218,46.266756]}},{"properties":{"city":"Lake City","geo_score":0.814,"total":0,"church name":"Lake City","church number":1252,"# 2010 interactions":0,"street":"1657 S Morey Rd","id":"a6459lcorhei","geo_precision":"range","# 2011 interactions":0,"zip postal":"49651-0659"},"type":"Feature","geometry":{"type":"Point","coordinates":[-85.214227,44.314856]}},{"properties":{"city":"McBain","geo_score":0.814,"total":0,"church name":"Lucas","church number":1256,"# 2010 interactions":0,"street":"10479 S Lucas Rd","id":"a6459ljrzwdv","geo_precision":"range","# 2011 interactions":0,"zip postal":"49657-9716"},"type":"Feature","geometry":{"type":"Point","coordinates":[-85.2845,44.187087]}},{"properties":{"city":"McBain","geo_score":0.424,"total":0,"church name":"Vogel Center","church number":1284,"# 2010 interactions":0,"street":"1829 E Stoney Corners","id":"a6459ln9qrv9","geo_precision":"street","# 2011 interactions":0,"zip postal":"49657"},"type":"Feature","geometry":{"type":"Point","coordinates":[-85.633817,44.73088]}},{"properties":{"city":"Los Angeles","geo_score":0.902,"total":0,"church name":"The Great Vision","church number":1510,"# 2010 interactions":0,"street":"4465 Melrose Ave","id":"a6459lace6td","geo_precision":"range","# 2011 interactions":0,"zip postal":"90029-2513"},"type":"Feature","geometry":{"type":"Point","coordinates":[-118.297074,34.083573]}},{"properties":{"city":"Orange","geo_score":0.902,"total":0,"church name":"Korean American of Orange County","church number":1534,"# 2010 interactions":0,"street":"2261 N Orange-Olive Rd","id":"a6459lbclwxh","geo_precision":"range","# 2011 interactions":0,"zip postal":"92865"},"type":"Feature","geometry":{"type":"Point","coordinates":[-117.849761,33.82628]}},{"properties":{"city":"Fullerton","geo_score":0.712,"total":0,"church name":"Orange Korean","church number":1535,"# 2010 interactions":0,"street":"643 W Malvern Ave","id":"a6459ljsim6e","geo_precision":"street","# 2011 interactions":0,"zip postal":"92832"},"type":"Feature","geometry":{"type":"Point","coordinates":[-117.9353,33.87488]}},{"properties":{"city":"San Diego","geo_score":0.902,"total":0,"church name":"Trinity Fellowship","church number":1549,"# 2010 interactions":0,"street":"4110 Palm Ave","id":"a6459lkg2xi7","geo_precision":"range","# 2011 interactions":0,"zip postal":"92154"},"type":"Feature","geometry":{"type":"Point","coordinates":[-117.045021,32.583688]}},{"properties":{"city":"Fontana","geo_score":0.5,"total":0,"church name":"Friendship Community","church number":1555,"# 2010 interactions":0,"street":"Box 784","id":"a6459lhffbjx","geo_precision":"street","# 2011 interactions":0,"zip postal":"92334-0784"},"type":"Feature","geometry":{"type":"Point","coordinates":[-117.368605,34.437647]}},{"properties":{"city":"Las Vegas","geo_score":0.902,"total":0,"church name":"Yung Kwang","church number":1558,"# 2010 interactions":0,"street":"2200 S Maryland Parkway","id":"a6459lklbqkz","geo_precision":"range","# 2011 interactions":0,"zip postal":"89104"},"type":"Feature","geometry":{"type":"Point","coordinates":[-115.137011,36.146383]}},{"properties":{"city":"San Diego","geo_score":0.902,"total":0,"church name":"San Diego","church number":1560,"# 2010 interactions":0,"street":"6745 Amherst St","id":"a6459lffsvxa","geo_precision":"range","# 2011 interactions":0,"zip postal":"92115"},"type":"Feature","geometry":{"type":"Point","coordinates":[-117.052777,32.767531]}},{"properties":{"city":"Clovis","geo_score":0.393,"total":0,"church name":"Hmong","church number":1564,"# 2010 interactions":0,"street":"Attn: Chris Moua","id":"a6459lg7vj1y","geo_precision":"street","# 2011 interactions":0,"zip postal":"93611-4548"},"type":"Feature","geometry":{"type":"Point","coordinates":[-120.849896,37.058074]}},{"properties":{"city":"San Marcos","geo_score":0.827,"total":0,"church name":"Crossroads","church number":1565,"# 2010 interactions":0,"street":"2406 N Twin Oaks Valley Rd","id":"a6459lml89f1","geo_precision":"range","# 2011 interactions":0,"zip postal":"92069-9600"},"type":"Feature","geometry":{"type":"Point","coordinates":[-117.154791,33.185382]}},{"properties":{"city":"San Diego","geo_score":0.902,"total":0,"church name":"Monte Sion","church number":1567,"# 2010 interactions":0,"street":"4110 Palm Ave","id":"a6459lhacjfw","geo_precision":"range","# 2011 interactions":0,"zip postal":"92154"},"type":"Feature","geometry":{"type":"Point","coordinates":[-117.045021,32.583688]}},{"properties":{"city":"Garden Grove","geo_score":0.805,"total":0,"church name":"Shema Presbyterian","church number":1571,"# 2010 interactions":0,"street":"12181 Diamond St","id":"a6459lfa8ik7","geo_precision":"range","# 2011 interactions":0,"zip postal":"92843"},"type":"Feature","geometry":{"type":"Point","coordinates":[-118.021222,33.786195]}},{"properties":{"city":"Riverside","geo_score":0.333,"total":0,"church name":"Laotian Vientiane","church number":1573,"# 2010 interactions":0,"street":"PO Box 4041","id":"a6459le76duk","geo_precision":"street","# 2011 interactions":0,"zip postal":"92514-4041"},"type":"Feature","geometry":{"type":"Point","coordinates":[-117.33329,33.667688]}},{"properties":{"city":"Tustin","geo_score":0.819,"total":0,"church name":"First Harvest Chapel","church number":1574,"# 2010 interactions":0,"street":"1201 Irvine Blvd Ste 6","id":"a6459lax82ie","geo_precision":"range","# 2011 interactions":0,"zip postal":"92780"},"type":"Feature","geometry":{"type":"Point","coordinates":[-117.808294,33.747434]}},{"properties":{"city":"Rancho Cucamonga","geo_score":0.469,"total":0,"church name":"Bethesda","church number":1578,"# 2010 interactions":0,"street":"Attn Rev. Albino Melendez","id":"a6459len32pw","geo_precision":"street","# 2011 interactions":0,"zip postal":"91739-8008"},"type":"Feature","geometry":{"type":"Point","coordinates":[-117.910192,33.993573]}},{"properties":{"city":"Alameda","geo_score":0.902,"total":0,"church name":"Alameda","church number":1807,"# 2010 interactions":0,"street":"2914 Encinal Ave","id":"a6459larwijs","geo_precision":"range","# 2011 interactions":0,"zip postal":"94501"},"type":"Feature","geometry":{"type":"Point","coordinates":[-122.236414,37.757729]}},{"properties":{"city":"Montague","geo_score":0.821,"total":0,"church name":"Big Springs","church number":1810,"# 2010 interactions":0,"street":"7220 County Highway A 12","id":"a6459lf3ofoa","geo_precision":"range","# 2011 interactions":0,"zip postal":"96064"},"type":"Feature","geometry":{"type":"Point","coordinates":[-122.40821,41.624137]}},{"properties":{"city":"Fresno","geo_score":0.816,"total":0,"church name":"Love Song Community Outreach","church number":1819,"# 2010 interactions":0,"street":"4185 E Nevada Ave","id":"a6459lf9twz1","geo_precision":"range","# 2011 interactions":0,"zip postal":"93702"},"type":"Feature","geometry":{"type":"Point","coordinates":[-119.754746,36.745904]}},{"properties":{"city":"Hanford","geo_score":0.829,"total":0,"church name":"First","church number":1821,"# 2010 interactions":0,"street":"2175 Leoni Dr","id":"a6459lnl4634","geo_precision":"range","# 2011 interactions":0,"zip postal":"93230"},"type":"Feature","geometry":{"type":"Point","coordinates":[-119.648314,36.351371]}},{"properties":{"city":"Hayward","geo_score":0.902,"total":0,"church name":"Christ's Community","church number":1824,"# 2010 interactions":0,"street":"25927 Kay Ave","id":"a6459ldxp0w8","geo_precision":"range","# 2011 interactions":0,"zip postal":"94545-2625"},"type":"Feature","geometry":{"type":"Point","coordinates":[-122.097917,37.640184]}},{"properties":{"city":"Merced","geo_score":0.805,"total":0,"church name":"Gateway Community","church number":1826,"# 2010 interactions":0,"street":"353 E Donna Dr","id":"a6459ljsnflv","geo_precision":"range","# 2011 interactions":0,"zip postal":"95340-4415"},"type":"Feature","geometry":{"type":"Point","coordinates":[-120.465943,37.32977]}},{"properties":{"city":"Modesto","geo_score":0.902,"total":0,"church name":"Modesto","church number":1828,"# 2010 interactions":0,"street":"2620 College Ave","id":"a6459lclj1e1","geo_precision":"range","# 2011 interactions":0,"zip postal":"95350"},"type":"Feature","geometry":{"type":"Point","coordinates":[-121.007727,37.678564]}},{"properties":{"city":"Napa","geo_score":0.778,"total":0,"church name":"Valley Community","church number":1829,"# 2010 interactions":0,"street":"4149 Linda Vista Ave","id":"a6459liftvhr","geo_precision":"range","# 2011 interactions":0,"zip postal":"94558-2583"},"type":"Feature","geometry":{"type":"Point","coordinates":[-122.32681,38.329314]}},{"properties":{"city":"Oakdale","geo_score":0.339,"total":0,"church name":"Community","church number":1832,"# 2010 interactions":0,"street":"PO Box 217","id":"a6459lkuawkf","geo_precision":"street","# 2011 interactions":0,"zip postal":"95361"},"type":"Feature","geometry":{"type":"Point","coordinates":[-120.496458,37.29136]}},{"properties":{"city":"Palo Alto","geo_score":0.902,"total":0,"church name":"Palo Alto","church number":1835,"# 2010 interactions":0,"street":"687 Arastradero Rd","id":"a6459lom218y","geo_precision":"range","# 2011 interactions":0,"zip postal":"94306"},"type":"Feature","geometry":{"type":"Point","coordinates":[-122.12942,37.40159]}},{"properties":{"city":"Ripon","geo_score":0.339,"total":0,"church name":"Almond Valley","church number":1838,"# 2010 interactions":0,"street":"PO Box 395","id":"a6459lkjqfpz","geo_precision":"street","# 2011 interactions":0,"zip postal":"95366"},"type":"Feature","geometry":{"type":"Point","coordinates":[-120.496458,37.29136]}},{"properties":{"city":"Ripon","geo_score":0.824,"total":0,"church name":"First","church number":1842,"# 2010 interactions":0,"street":"305 Boesch Dr","id":"a6459lkelqg2","geo_precision":"range","# 2011 interactions":0,"zip postal":"95366"},"type":"Feature","geometry":{"type":"Point","coordinates":[-121.125836,37.749231]}},{"properties":{"city":"Rancho Cordova","geo_score":0.332,"total":0,"church name":"Sacramento Pilgrim","church number":1851,"# 2010 interactions":0,"street":"Attn Rev. Samuel Ahn","id":"a6459lg5n0ns","geo_precision":"street","# 2011 interactions":0,"zip postal":"95670"},"type":"Feature","geometry":{"type":"Point","coordinates":[-121.292984,38.604327]}},{"properties":{"city":"San Francisco","geo_score":0.819,"total":0,"church name":"Golden Gate","church number":1854,"# 2010 interactions":0,"street":"378 18th Ave","id":"a6459ljs1u42","geo_precision":"range","# 2011 interactions":0,"zip postal":"94121"},"type":"Feature","geometry":{"type":"Point","coordinates":[-122.47729,37.780832]}},{"properties":{"city":"Tracy","geo_score":0.439,"total":0,"church name":"Heartland","church number":1862,"# 2010 interactions":0,"street":"3402 Mars Ct Ste 111","id":"a6459lnrkosg","geo_precision":"street","# 2011 interactions":0,"zip postal":"95377"},"type":"Feature","geometry":{"type":"Point","coordinates":[-121.460135,37.746429]}},{"properties":{"city":"San Jose","geo_score":0.821,"total":0,"church name":"Friendship Agape","church number":1865,"# 2010 interactions":0,"street":"5150 Camden Ave","id":"a6459liztf2n","geo_precision":"range","# 2011 interactions":0,"zip postal":"95124"},"type":"Feature","geometry":{"type":"Point","coordinates":[-121.907611,37.24519]}},{"properties":{"city":"Berwyn","geo_score":0.788,"total":0,"church name":"Ebenezer","church number":2414,"# 2010 interactions":0,"street":"1300 S Harvey Ave","id":"a6459le7june","geo_precision":"range","# 2011 interactions":0,"zip postal":"60402"},"type":"Feature","geometry":{"type":"Point","coordinates":[-87.780219,41.863548]}},{"properties":{"city":"Chicago","geo_score":0.902,"total":0,"church name":"Grace &amp; Peace Community","church number":2421,"# 2010 interactions":0,"street":"2100 N Kildare Ave","id":"a6459ldb6eri","geo_precision":"range","# 2011 interactions":0,"zip postal":"60639"},"type":"Feature","geometry":{"type":"Point","coordinates":[-87.73395,41.918904]}},{"properties":{"city":"Chicago","geo_score":0.902,"total":0,"church name":"Lawndale","church number":2424,"# 2010 interactions":0,"street":"1241 S Pulaski Rd","id":"a6459lje0dve","geo_precision":"range","# 2011 interactions":0,"zip postal":"60623"},"type":"Feature","geometry":{"type":"Point","coordinates":[-87.725147,41.865434]}},{"properties":{"city":"Lombard","geo_score":0.815,"total":0,"church name":"Lombard","church number":2426,"# 2010 interactions":0,"street":"2020 South Meyers Rd","id":"a6459llovv5g","geo_precision":"range","# 2011 interactions":0,"zip postal":"60148"},"type":"Feature","geometry":{"type":"Point","coordinates":[-87.991992,41.845988]}},{"properties":{"city":"Crystal Lake","geo_score":0.681,"total":0,"church name":"Fox Valley","church number":2439,"# 2010 interactions":0,"street":"9414 Route 176","id":"a6459llz75wm","geo_precision":"range","# 2011 interactions":0,"zip postal":"60014"},"type":"Feature","geometry":{"type":"Point","coordinates":[-88.399174,42.248191]}},{"properties":{"city":"Fulton","geo_score":0.739,"total":0,"church name":"First","church number":2442,"# 2010 interactions":0,"street":"801 15th Ave","id":"a6459lluqncf","geo_precision":"range","# 2011 interactions":0,"zip postal":"61252"},"type":"Feature","geometry":{"type":"Point","coordinates":[-90.161208,41.862885]}},{"properties":{"city":"Fulton","geo_score":0.725,"total":0,"church name":"Bethel","church number":2444,"# 2010 interactions":0,"street":"1208 3rd Ave","id":"a6459lgv9dzd","geo_precision":"range","# 2011 interactions":0,"zip postal":"61252"},"type":"Feature","geometry":{"type":"Point","coordinates":[-90.15421,41.872896]}},{"properties":{"city":"Plainfield","geo_score":0.0,"total":0,"church name":"Christ Community","church number":2460,"# 2010 interactions":0,"street":"12410 Van Dyke Rd","id":"a6459livfli9","geo_precision":"unmatched","# 2011 interactions":0,"zip postal":"60585"},"type":"Feature","geometry":null},{"properties":{"city":"Western Springs","geo_score":0.902,"total":0,"church name":"Western Springs","church number":2484,"# 2010 interactions":0,"street":"5140 Wolf Rd","id":"a6459ln3l7d0","geo_precision":"range","# 2011 interactions":0,"zip postal":"60558"},"type":"Feature","geometry":{"type":"Point","coordinates":[-87.898089,41.796445]}},{"properties":{"city":"Wheaton","geo_score":0.829,"total":0,"church name":"Wheaton","church number":2491,"# 2010 interactions":0,"street":"711 E Harrison","id":"a6459lp3ub3n","geo_precision":"range","# 2011 interactions":0,"zip postal":"60187"},"type":"Feature","geometry":{"type":"Point","coordinates":[-88.095518,41.873621]}},{"properties":{"city":"Winfield","geo_score":0.468,"total":0,"church name":"Vietnamese New Hope","church number":2496,"# 2010 interactions":0,"street":"0 N 167 Page St","id":"a6459larcm3t","geo_precision":"street","# 2011 interactions":0,"zip postal":"60190"},"type":"Feature","geometry":{"type":"Point","coordinates":[-88.139654,41.872372]}},{"properties":{"city":"Chicago","geo_score":0.902,"total":0,"church name":"Back to God All Nations Church","church number":2701,"# 2010 interactions":0,"street":"7326 S Racine Ave","id":"a6459le3qrzm","geo_precision":"range","# 2011 interactions":0,"zip postal":"60636"},"type":"Feature","geometry":{"type":"Point","coordinates":[-87.653995,41.760631]}},{"properties":{"city":"Burbank","geo_score":0.878,"total":0,"church name":"Immanuel","church number":2702,"# 2010 interactions":0,"street":"8302 S Normandy Ave","id":"a6459lpmykaf","geo_precision":"range","# 2011 interactions":0,"zip postal":"60459-2350"},"type":"Feature","geometry":{"type":"Point","coordinates":[-87.787257,41.740981]}},{"properties":{"city":"Chicago","geo_score":0.902,"total":0,"church name":"Hyde Park","church number":2705,"# 2010 interactions":0,"street":"5144 S Cornell Ave","id":"a6459l9mabbl","geo_precision":"range","# 2011 interactions":0,"zip postal":"60615"},"type":"Feature","geometry":{"type":"Point","coordinates":[-87.586377,41.801796]}},{"properties":{"city":"Chicago","geo_score":0.902,"total":0,"church name":"Roseland","church number":2706,"# 2010 interactions":0,"street":"10858 South Michigan Ave","id":"a6459lfcks7y","geo_precision":"range","# 2011 interactions":0,"zip postal":"60628"},"type":"Feature","geometry":{"type":"Point","coordinates":[-87.620841,41.697003]}},{"properties":{"city":"Tinley Park","geo_score":0.768,"total":0,"church name":"Faith","church number":2708,"# 2010 interactions":0,"street":"8383 W 171st St","id":"a6459llxw00a","geo_precision":"range","# 2011 interactions":0,"zip postal":"60477"},"type":"Feature","geometry":{"type":"Point","coordinates":[-87.822297,41.579989]}},{"properties":{"city":"Orland Park","geo_score":0.798,"total":0,"church name":"Orland Park","church number":2709,"# 2010 interactions":0,"street":"7500 W Sycamore Dr","id":"a6459ldc6fzb","geo_precision":"range","# 2011 interactions":0,"zip postal":"60462"},"type":"Feature","geometry":{"type":"Point","coordinates":[-87.801595,41.614597]}},{"properties":{"city":"Lockport","geo_score":0.781,"total":0,"church name":"Community Life","church number":2725,"# 2010 interactions":0,"street":"315 E 11th St","id":"a6459lekcn2b","geo_precision":"range","# 2011 interactions":0,"zip postal":"60441"},"type":"Feature","geometry":{"type":"Point","coordinates":[-88.055338,41.586458]}},{"properties":{"city":"Orland Park","geo_score":0.429,"total":0,"church name":"Suburban Life Community","church number":2726,"# 2010 interactions":0,"street":"Attn Cindy Schutt","id":"a6459ldi2gga","geo_precision":"street","# 2011 interactions":0,"zip postal":"60462-5027"},"type":"Feature","geometry":{"type":"Point","coordinates":[-88.237329,41.241661]}},{"properties":{"city":"Frankfort","geo_score":0.819,"total":0,"church name":"Bridge Community","church number":2735,"# 2010 interactions":0,"street":"7837 W Lincoln Hwy","id":"a6459locexza","geo_precision":"range","# 2011 interactions":0,"zip postal":"60423"},"type":"Feature","geometry":{"type":"Point","coordinates":[-87.805592,41.506483]}},{"properties":{"city":"Oak Forest","geo_score":0.866,"total":0,"church name":"Hope","church number":2749,"# 2010 interactions":0,"street":"5825 W 151st St","id":"a6459lcwz0yp","geo_precision":"range","# 2011 interactions":0,"zip postal":"60452"},"type":"Feature","geometry":{"type":"Point","coordinates":[-87.761281,41.617482]}},{"properties":{"city":"Oak Lawn","geo_score":0.902,"total":0,"church name":"Calvin","church number":2757,"# 2010 interactions":0,"street":"10056 S Central Ave","id":"a6459lm68a7p","geo_precision":"range","# 2011 interactions":0,"zip postal":"60453"},"type":"Feature","geometry":{"type":"Point","coordinates":[-87.759951,41.709646]}},{"properties":{"city":"Palos Heights","geo_score":0.902,"total":0,"church name":"Palos Heights","church number":2758,"# 2010 interactions":0,"street":"7059 W 127th St","id":"a6459llpxwyr","geo_precision":"range","# 2011 interactions":0,"zip postal":"60463"},"type":"Feature","geometry":{"type":"Point","coordinates":[-87.793829,41.660752]}},{"properties":{"city":"Corvallis","geo_score":0.429,"total":0,"church name":"Knollbrook","church number":2807,"# 2010 interactions":0,"street":"PO Box 2210","id":"a6459lj81u6a","geo_precision":"street","# 2011 interactions":0,"zip postal":"97339-2210"},"type":"Feature","geometry":{"type":"Point","coordinates":[-123.388026,45.098615]}},{"properties":{"city":"Portland","geo_score":0.829,"total":0,"church name":"Parklane","church number":2822,"# 2010 interactions":0,"street":"16001 SE Main St","id":"a6459lg1c0je","geo_precision":"range","# 2011 interactions":0,"zip postal":"97233-3204"},"type":"Feature","geometry":{"type":"Point","coordinates":[-122.498481,45.513759]}},{"properties":{"city":"Beaverton","geo_score":0.902,"total":0,"church name":"Oak Hills","church number":2826,"# 2010 interactions":0,"street":"2800 NW 153rd Ave","id":"a6459ll0i3yk","geo_precision":"range","# 2011 interactions":0,"zip postal":"97006"},"type":"Feature","geometry":{"type":"Point","coordinates":[-122.835193,45.539982]}},{"properties":{"city":"Quincy","geo_score":0.421,"total":0,"church name":"Quincy","church number":2830,"# 2010 interactions":0,"street":"PO Box 475","id":"a6459l9wexkg","geo_precision":"street","# 2011 interactions":0,"zip postal":"98848"},"type":"Feature","geometry":{"type":"Point","coordinates":[-119.842818,47.078369]}},{"properties":{"city":"Sunnyside","geo_score":0.75,"total":0,"church name":"Iglesia Evangelica","church number":2847,"# 2010 interactions":0,"street":"Sunnyside CRC","id":"a6459lf3ztw9","geo_precision":"street","# 2011 interactions":0,"zip postal":"98944"},"type":"Feature","geometry":{"type":"Point","coordinates":[-120.018173,46.321014]}},{"properties":{"city":"Yakima","geo_score":0.902,"total":0,"church name":"Summitview","church number":2850,"# 2010 interactions":0,"street":"6711 Summitview Ave","id":"a6459lbc6d8l","geo_precision":"range","# 2011 interactions":0,"zip postal":"98908-1345"},"type":"Feature","geometry":{"type":"Point","coordinates":[-120.598376,46.600149]}},{"properties":{"city":"Atlanta","geo_score":0.805,"total":0,"church name":"New Hope Church of Dunwoody","church number":3201,"# 2010 interactions":0,"street":"5477 Roberts Drive","id":"a6459lis7ucy","geo_precision":"range","# 2011 interactions":0,"zip postal":"30338"},"type":"Feature","geometry":{"type":"Point","coordinates":[-84.336957,33.960218]}},{"properties":{"city":"Indian Harbour Beach","geo_score":0.765,"total":0,"church name":"Grace","church number":3206,"# 2010 interactions":0,"street":"1202 Banana River Drive","id":"a6459ldr6kea","geo_precision":"range","# 2011 interactions":0,"zip postal":"32937"},"type":"Feature","geometry":{"type":"Point","coordinates":[-80.595313,28.152408]}},{"properties":{"city":"Fort Lauderdale","geo_score":0.768,"total":0,"church name":"New Hope Community","church number":3208,"# 2010 interactions":0,"street":"6400 NW 31st Ave","id":"a6459lgigza5","geo_precision":"range","# 2011 interactions":0,"zip postal":"33309"},"type":"Feature","geometry":{"type":"Point","coordinates":[-80.188003,26.203841]}},{"properties":{"city":"Jacksonville","geo_score":0.829,"total":0,"church name":"Baymeadows Community","church number":3210,"# 2010 interactions":0,"street":"4900 Baymeadows Rd","id":"a6459lf9ttqx","geo_precision":"range","# 2011 interactions":0,"zip postal":"32217"},"type":"Feature","geometry":{"type":"Point","coordinates":[-81.606071,30.219488]}},{"properties":{"city":"Lake Worth","geo_score":0.812,"total":0,"church name":"Lake Worth","church number":3212,"# 2010 interactions":0,"street":"1325 North A St","id":"a6459lfhmidx","geo_precision":"range","# 2011 interactions":0,"zip postal":"33460"},"type":"Feature","geometry":{"type":"Point","coordinates":[-80.064504,26.632265]}},{"properties":{"city":"St. Petersburg","geo_score":0.785,"total":0,"church name":"Korean Ref. Presb. Church of Tampa","church number":3215,"# 2010 interactions":0,"street":"8300 7th St N","id":"a6459leenjll","geo_precision":"range","# 2011 interactions":0,"zip postal":"33702-3573"},"type":"Feature","geometry":{"type":"Point","coordinates":[-82.642397,27.84752]}},{"properties":{"city":"Miami","geo_score":0.902,"total":0,"church name":"Iglesia El Buen Samaritano","church number":3218,"# 2010 interactions":0,"street":"4585 West Flagler Street","id":"a6459lb7pelb","geo_precision":"range","# 2011 interactions":0,"zip postal":"33134"},"type":"Feature","geometry":{"type":"Point","coordinates":[-80.270106,25.771504]}},{"properties":{"city":"Miami","geo_score":0.325,"total":0,"church name":"Iglesia Buenas Nuevas (Good News)","church number":3219,"# 2010 interactions":0,"street":"PO Box 940621","id":"a6459l9npryc","geo_precision":"street","# 2011 interactions":0,"zip postal":"33194"},"type":"Feature","geometry":{"type":"Point","coordinates":[-80.299722,25.626154]}},{"properties":{"city":"Palmetto","geo_score":0.732,"total":0,"church name":"St. Petersburg Laotian","church number":3227,"# 2010 interactions":0,"street":"7923 18th Ave E","id":"a6459lgu857c","geo_precision":"range","# 2011 interactions":0,"zip postal":"34221-8800"},"type":"Feature","geometry":{"type":"Point","coordinates":[-82.546134,27.585733]}},{"properties":{"city":"Atlanta","geo_score":0.902,"total":0,"church name":"Good News Community","church number":3231,"# 2010 interactions":0,"street":"710 Loridans Dr NE","id":"a6459lh2rf6w","geo_precision":"range","# 2011 interactions":0,"zip postal":"30342-3512"},"type":"Feature","geometry":{"type":"Point","coordinates":[-84.363703,33.872572]}},{"properties":{"city":"Miami","geo_score":0.747,"total":0,"church name":"Iglesia Cristiana Piedras Vivas","church number":3240,"# 2010 interactions":0,"street":"9261 SW 52 Terrace","id":"a6459le1hhqa","geo_precision":"range","# 2011 interactions":0,"zip postal":"33165"},"type":"Feature","geometry":{"type":"Point","coordinates":[-80.344452,25.719507]}},{"properties":{"city":"Bayamon","geo_score":0.286,"total":0,"church name":"Principe de Paz","church number":3245,"# 2010 interactions":0,"street":"Urb. La Milagrosa, M-1 Calle 8","id":"a6459la2082i","geo_precision":"street","# 2011 interactions":0,"zip postal":"959"},"type":"Feature","geometry":{"type":"Point","coordinates":[-66.178046,18.399127]}},{"properties":{"city":"Grand Rapids","geo_score":0.902,"total":0,"church name":"Church of the Servant","church number":3315,"# 2010 interactions":0,"street":"3835 Burton St SE","id":"a6459lo8nhb2","geo_precision":"range","# 2011 interactions":0,"zip postal":"49546-5816"},"type":"Feature","geometry":{"type":"Point","coordinates":[-85.573788,42.926975]}},{"properties":{"city":"Grand Rapids","geo_score":0.902,"total":0,"church name":"Boston Square","church number":3320,"# 2010 interactions":0,"street":"1803 Kalamazoo Ave SE","id":"a6459lkfcyg9","geo_precision":"range","# 2011 interactions":0,"zip postal":"49507"},"type":"Feature","geometry":{"type":"Point","coordinates":[-85.636375,42.930738]}},{"properties":{"city":"Grand Rapids","geo_score":0.902,"total":0,"church name":"Grace","church number":3352,"# 2010 interactions":0,"street":"100 Buckley St SE","id":"a6459lotj4ln","geo_precision":"range","# 2011 interactions":0,"zip postal":"49503"},"type":"Feature","geometry":{"type":"Point","coordinates":[-85.665809,42.953097]}},{"properties":{"city":"Grand Rapids","geo_score":0.902,"total":0,"church name":"Neland Avenue","church number":3364,"# 2010 interactions":0,"street":"940 Neland Ave SE","id":"a6459lo06r9l","geo_precision":"range","# 2011 interactions":0,"zip postal":"49507-1397"},"type":"Feature","geometry":{"type":"Point","coordinates":[-85.643094,42.94546]}},{"properties":{"city":"Grand Rapids","geo_score":0.876,"total":0,"church name":"Shawnee Park","church number":3380,"# 2010 interactions":0,"street":"2255 Tecumseh Dr SE","id":"a6459lecyjfg","geo_precision":"range","# 2011 interactions":0,"zip postal":"49506-5298"},"type":"Feature","geometry":{"type":"Point","coordinates":[-85.620053,42.922093]}},{"properties":{"city":"Kentwood","geo_score":0.669,"total":0,"church name":"Vietnamese Ref. Chr. Church","church number":3600,"# 2010 interactions":0,"street":"1881 52nd St","id":"a6459lci2acl","geo_precision":"range","# 2011 interactions":0,"zip postal":"49508"},"type":"Feature","geometry":{"type":"Point","coordinates":[-85.619139,42.869172]}},{"properties":{"city":"Grand Rapids","geo_score":0.84,"total":0,"church name":"Providence","church number":3611,"# 2010 interactions":0,"street":"7730 Eastern Ave SE","id":"a6459lhpu29k","geo_precision":"range","# 2011 interactions":0,"zip postal":"49508"},"type":"Feature","geometry":{"type":"Point","coordinates":[-85.644444,42.82384]}},{"properties":{"city":"Grand Rapids","geo_score":0.829,"total":0,"church name":"Cutlerville East","church number":3614,"# 2010 interactions":0,"street":"501 68th St SE","id":"a6459locosx4","geo_precision":"range","# 2011 interactions":0,"zip postal":"49548"},"type":"Feature","geometry":{"type":"Point","coordinates":[-85.651275,42.840734]}},{"properties":{"city":"Grand Rapids","geo_score":0.767,"total":0,"church name":"Hillside Community","church number":3616,"# 2010 interactions":0,"street":"1440 68th St SE","id":"a6459lih5qfk","geo_precision":"range","# 2011 interactions":0,"zip postal":"49508"},"type":"Feature","geometry":{"type":"Point","coordinates":[-85.629436,42.840945]}},{"properties":{"city":"Grand Rapids","geo_score":0.84,"total":0,"church name":"Discovery","church number":3633,"# 2010 interactions":0,"street":"7245 Eastern Ave SE","id":"a6459lfkck4z","geo_precision":"range","# 2011 interactions":0,"zip postal":"49508"},"type":"Feature","geometry":{"type":"Point","coordinates":[-85.644473,42.83255]}},{"properties":{"city":"Moline","geo_score":0.722,"total":0,"church name":"Moline","church number":3684,"# 2010 interactions":0,"street":"4341 Chappell","id":"a6459l9h4h0n","geo_precision":"range","# 2011 interactions":0,"zip postal":"49335-0158"},"type":"Feature","geometry":{"type":"Point","coordinates":[-85.667239,42.735722]}},{"properties":{"city":"Wayland","geo_score":0.902,"total":0,"church name":"Wayland","church number":3691,"# 2010 interactions":0,"street":"303 E Elm St","id":"a6459ljopnre","geo_precision":"range","# 2011 interactions":0,"zip postal":"49348-1107"},"type":"Feature","geometry":{"type":"Point","coordinates":[-85.640188,42.677586]}},{"properties":{"city":"Wyoming","geo_score":0.716,"total":0,"church name":"Community","church number":3695,"# 2010 interactions":0,"street":"150 Burt SE","id":"a6459laa9m2b","geo_precision":"range","# 2011 interactions":0,"zip postal":"49548"},"type":"Feature","geometry":{"type":"Point","coordinates":[-85.662683,42.890796]}},{"properties":{"city":"Grand Rapids","geo_score":0.902,"total":0,"church name":"East Leonard","church number":3936,"# 2010 interactions":0,"street":"1027 Leonard St NE","id":"a6459lg3v0xo","geo_precision":"range","# 2011 interactions":0,"zip postal":"49503-1299"},"type":"Feature","geometry":{"type":"Point","coordinates":[-85.643886,42.984449]}},{"properties":{"city":"Grand Rapids","geo_score":0.902,"total":0,"church name":"Riverside","church number":3944,"# 2010 interactions":0,"street":"602 Comstock Blvd NE","id":"a6459lhb81ei","geo_precision":"range","# 2011 interactions":0,"zip postal":"49505"},"type":"Feature","geometry":{"type":"Point","coordinates":[-85.654914,43.006142]}},{"properties":{"city":"Grand Rapids","geo_score":0.902,"total":0,"church name":"Sunshine Community","church number":3946,"# 2010 interactions":0,"street":"3300 East Beltline Ave NE","id":"a6459lk98g1w","geo_precision":"range","# 2011 interactions":0,"zip postal":"49525"},"type":"Feature","geometry":{"type":"Point","coordinates":[-85.590148,43.022626]}},{"properties":{"city":"Howard City","geo_score":0.371,"total":0,"church name":"Pine Grove","church number":3966,"# 2010 interactions":0,"street":"8775 E 88th St(corner Beech &amp; M-82)","id":"a6459lod96ox","geo_precision":"street","# 2011 interactions":0,"zip postal":"49329"},"type":"Feature","geometry":{"type":"Point","coordinates":[-85.622289,43.395865]}},{"properties":{"city":"Rockford","geo_score":0.76,"total":0,"church name":"Blythefield","church number":3972,"# 2010 interactions":0,"street":"6350 Kuttshill NE","id":"a6459lc4rqff","geo_precision":"range","# 2011 interactions":0,"zip postal":"49341"},"type":"Feature","geometry":{"type":"Point","coordinates":[-85.580074,43.0779]}},{"properties":{"city":"Sparta","geo_score":0.493,"total":0,"church name":"Trinity","church number":3974,"# 2010 interactions":0,"street":"1944 12 Mile NW","id":"a6459l9in09d","geo_precision":"street","# 2011 interactions":0,"zip postal":"49345-9757"},"type":"Feature","geometry":{"type":"Point","coordinates":[-85.672739,43.029452]}},{"properties":{"city":"Byron Center","geo_score":0.831,"total":0,"church name":"Friendship","church number":4217,"# 2010 interactions":0,"street":"190 100th St SE","id":"a6459lp4epnb","geo_precision":"range","# 2011 interactions":0,"zip postal":"49315"},"type":"Feature","geometry":{"type":"Point","coordinates":[-85.659867,42.782705]}},{"properties":{"city":"Grandville","geo_score":0.727,"total":0,"church name":"Hanley","church number":4228,"# 2010 interactions":0,"street":"0 372 Jackson St","id":"a6459lbungf2","geo_precision":"street","# 2011 interactions":0,"zip postal":"49418"},"type":"Feature","geometry":{"type":"Point","coordinates":[-85.782106,42.856296]}},{"properties":{"city":"Grandville","geo_score":0.769,"total":0,"church name":"South Grandville","church number":4236,"# 2010 interactions":0,"street":"4130 Wilson","id":"a6459lanjr27","geo_precision":"range","# 2011 interactions":0,"zip postal":"49418"},"type":"Feature","geometry":{"type":"Point","coordinates":[-85.762458,42.889574]}},{"properties":{"city":"Wyoming","geo_score":0.829,"total":0,"church name":"Emanuel Hispanic","church number":4254,"# 2010 interactions":0,"street":"1265  36th Street SW","id":"a6459lar249a","geo_precision":"range","# 2011 interactions":0,"zip postal":"49509"},"type":"Feature","geometry":{"type":"Point","coordinates":[-85.69684,42.898852]}},{"properties":{"city":"Artesia","geo_score":0.793,"total":0,"church name":"First","church number":4309,"# 2010 interactions":0,"street":"18411 S Alburtis Ave","id":"a6459lbv7rzz","geo_precision":"range","# 2011 interactions":0,"zip postal":"90701"},"type":"Feature","geometry":{"type":"Point","coordinates":[-118.084357,33.86436]}},{"properties":{"city":"Cerritos","geo_score":0.902,"total":0,"church name":"Heaven Bound Ministry","church number":4314,"# 2010 interactions":0,"street":"12475 E Fallcreek Ln","id":"a6459le61ca6","geo_precision":"range","# 2011 interactions":0,"zip postal":"90703"},"type":"Feature","geometry":{"type":"Point","coordinates":[-118.066283,33.882171]}},{"properties":{"city":"Bellflower","geo_score":0.403,"total":0,"church name":"Bethany","church number":4315,"# 2010 interactions":0,"street":"S 17054 Bixby","id":"a6459ld9wy33","geo_precision":"street","# 2011 interactions":0,"zip postal":"90707-0625"},"type":"Feature","geometry":{"type":"Point","coordinates":[-118.16755,33.826695]}},{"properties":{"city":"Camarillo","geo_score":0.381,"total":0,"church name":"Iglesia Cristiana Ref. De Camarillo","church number":4323,"# 2010 interactions":0,"street":"PO Box 1195","id":"a6459loybvrz","geo_precision":"street","# 2011 interactions":0,"zip postal":"93011-1195"},"type":"Feature","geometry":{"type":"Point","coordinates":[-119.203382,34.271497]}},{"properties":{"city":"Fountain Valley","geo_score":0.805,"total":0,"church name":"Fountain of Life Fellowship","church number":4337,"# 2010 interactions":0,"street":"9120 Heil Ave","id":"a6459li71njs","geo_precision":"range","# 2011 interactions":0,"zip postal":"92708"},"type":"Feature","geometry":{"type":"Point","coordinates":[-117.96942,33.72313]}},{"properties":{"city":"Ewa Beach","geo_score":0.212,"total":0,"church name":"Anuenue","church number":4338,"# 2010 interactions":0,"street":"PO Box 2270","id":"a6459lfosg4w","geo_precision":"street","# 2011 interactions":0,"zip postal":"96706-0270"},"type":"Feature","geometry":{"type":"Point","coordinates":[-158.02418,21.368216]}},{"properties":{"city":"Long Beach","geo_score":0.902,"total":0,"church name":"Long Beach","church number":4339,"# 2010 interactions":0,"street":"5559 E Wardlow Rd","id":"a6459lcsrq1m","geo_precision":"range","# 2011 interactions":0,"zip postal":"90808"},"type":"Feature","geometry":{"type":"Point","coordinates":[-118.123867,33.818806]}},{"properties":{"city":"Monterey Park","geo_score":0.902,"total":0,"church name":"Chinese","church number":4340,"# 2010 interactions":0,"street":"332 N New Ave","id":"a6459lbbl8ru","geo_precision":"range","# 2011 interactions":0,"zip postal":"91755"},"type":"Feature","geometry":{"type":"Point","coordinates":[-118.108123,34.065393]}},{"properties":{"city":"Arcadia","geo_score":0.902,"total":0,"church name":"Hope International Indonesian","church number":4351,"# 2010 interactions":0,"street":"1741 S Baldwin Ave","id":"a6459lm13bpp","geo_precision":"range","# 2011 interactions":0,"zip postal":"91007"},"type":"Feature","geometry":{"type":"Point","coordinates":[-118.054666,34.11972]}},{"properties":{"city":"Venice","geo_score":0.902,"total":0,"church name":"The Talking Stick","church number":4355,"# 2010 interactions":0,"street":"723 Coeur D'Alene Ave","id":"a6459ljn4f8t","geo_precision":"range","# 2011 interactions":0,"zip postal":"90291-4924"},"type":"Feature","geometry":{"type":"Point","coordinates":[-118.454183,33.989205]}},{"properties":{"city":"Burbank","geo_score":0.902,"total":0,"church name":"Bethany Korean","church number":4359,"# 2010 interactions":0,"street":"2401 N Brighton St","id":"a6459lnam7ns","geo_precision":"range","# 2011 interactions":0,"zip postal":"91504"},"type":"Feature","geometry":{"type":"Point","coordinates":[-118.336743,34.199163]}},{"properties":{"city":"Los Angeles","geo_score":0.902,"total":0,"church name":"TtoKamsa Mission Church","church number":4360,"# 2010 interactions":0,"street":"1440 N Spring St","id":"a6459lm0cfjy","geo_precision":"range","# 2011 interactions":0,"zip postal":"90012"},"type":"Feature","geometry":{"type":"Point","coordinates":[-118.232178,34.067135]}},{"properties":{"city":"Sun Valley","geo_score":0.823,"total":0,"church name":"Bethel","church number":4363,"# 2010 interactions":0,"street":"10725 Penrose St","id":"a6459lp12ymm","geo_precision":"range","# 2011 interactions":0,"zip postal":"91352"},"type":"Feature","geometry":{"type":"Point","coordinates":[-118.364229,34.23232]}},{"properties":{"city":"Covina","geo_score":0.824,"total":0,"church name":"The Bridge","church number":4366,"# 2010 interactions":0,"street":"1067 E Badillo St","id":"a6459le3ydsi","geo_precision":"range","# 2011 interactions":0,"zip postal":"91724"},"type":"Feature","geometry":{"type":"Point","coordinates":[-117.868835,34.086116]}},{"properties":{"city":"Hudsonville","geo_score":0.73,"total":0,"church name":"First","church number":4406,"# 2010 interactions":0,"street":"5486 32nd Ave","id":"a6459lhw8pwk","geo_precision":"range","# 2011 interactions":0,"zip postal":"49426"},"type":"Feature","geometry":{"type":"Point","coordinates":[-85.861303,42.868737]}},{"properties":{"city":"Hudsonville","geo_score":0.814,"total":0,"church name":"Forest Grove","church number":4408,"# 2010 interactions":0,"street":"2862 Quincy St","id":"a6459ldeq41i","geo_precision":"range","# 2011 interactions":0,"zip postal":"49426"},"type":"Feature","geometry":{"type":"Point","coordinates":[-85.85586,42.840293]}},{"properties":{"city":"Hudsonville","geo_score":0.814,"total":0,"church name":"Immanuel","church number":4414,"# 2010 interactions":0,"street":"3520 Kiel St","id":"a6459lep9ul8","geo_precision":"range","# 2011 interactions":0,"zip postal":"49426"},"type":"Feature","geometry":{"type":"Point","coordinates":[-85.868497,42.869982]}},{"properties":{"city":"Hudsonville","geo_score":0.73,"total":0,"church name":"Zutphen","church number":4419,"# 2010 interactions":0,"street":"3223  40th Ave","id":"a6459lo0s94c","geo_precision":"range","# 2011 interactions":0,"zip postal":"49426"},"type":"Feature","geometry":{"type":"Point","coordinates":[-85.881703,42.825721]}},{"properties":{"city":"Jenison","geo_score":0.902,"total":0,"church name":"Cottonwood Church","church number":4422,"# 2010 interactions":0,"street":"1101 Cypress Dr","id":"a6459li5ktv9","geo_precision":"range","# 2011 interactions":0,"zip postal":"49428"},"type":"Feature","geometry":{"type":"Point","coordinates":[-85.80913,42.914905]}},{"properties":{"city":"Jenison","geo_score":0.756,"total":0,"church name":"Fairway","church number":4423,"# 2010 interactions":0,"street":"1165  44th St","id":"a6459lbxvzxa","geo_precision":"range","# 2011 interactions":0,"zip postal":"49428"},"type":"Feature","geometry":{"type":"Point","coordinates":[-85.814399,42.883766]}},{"properties":{"city":"Jenison","geo_score":0.819,"total":0,"church name":"Friendship Chapel","church number":4425,"# 2010 interactions":0,"street":"7754  28th Ave","id":"a6459lip8f7i","geo_precision":"range","# 2011 interactions":0,"zip postal":"49428"},"type":"Feature","geometry":{"type":"Point","coordinates":[-85.852415,42.909864]}},{"properties":{"city":"Grandville","geo_score":0.657,"total":0,"church name":"Trinity","church number":4428,"# 2010 interactions":0,"street":"O-60 Port Sheldon","id":"a6459lh53gwh","geo_precision":"street","# 2011 interactions":0,"zip postal":"49418"},"type":"Feature","geometry":{"type":"Point","coordinates":[-85.783639,42.902992]}},{"properties":{"city":"Clifton","geo_score":0.823,"total":0,"church name":"Richfield","church number":4508,"# 2010 interactions":0,"street":"259 Pershing Road","id":"a6459lc7z4qu","geo_precision":"range","# 2011 interactions":0,"zip postal":"7013"},"type":"Feature","geometry":{"type":"Point","coordinates":[-74.17115,40.860094]}},{"properties":{"city":"Philadelphia","geo_score":0.813,"total":0,"church name":"Germantown Hope Community","church number":4525,"# 2010 interactions":0,"street":"5029 Wayne Ave","id":"a6459ljtgsxo","geo_precision":"range","# 2011 interactions":0,"zip postal":"19144"},"type":"Feature","geometry":{"type":"Point","coordinates":[-75.167982,40.025611]}},{"properties":{"city":"Norfolk","geo_score":0.805,"total":0,"church name":"Ocean View","church number":4546,"# 2010 interactions":0,"street":"1241 Hillside Ave","id":"a6459lj1ssx5","geo_precision":"range","# 2011 interactions":0,"zip postal":"23503"},"type":"Feature","geometry":{"type":"Point","coordinates":[-76.237529,36.943969]}},{"properties":{"city":"Burke","geo_score":0.707,"total":0,"church name":"Grace","church number":4547,"# 2010 interactions":0,"street":"9800 Burke Lake Rd","id":"a6459ll7r5wg","geo_precision":"street","# 2011 interactions":0,"zip postal":"22015"},"type":"Feature","geometry":{"type":"Point","coordinates":[-77.281073,38.783101]}},{"properties":{"city":"Prospect Park","geo_score":0.805,"total":0,"church name":"The Good Shepherd (El Buen Pastor)","church number":4563,"# 2010 interactions":0,"street":"266 N 7th St","id":"a6459ldah51s","geo_precision":"range","# 2011 interactions":0,"zip postal":"7508"},"type":"Feature","geometry":{"type":"Point","coordinates":[-74.172449,40.932184]}},{"properties":{"city":"North Haledon","geo_score":0.805,"total":0,"church name":"Covenant","church number":4565,"# 2010 interactions":0,"street":"400 N Haledon Ave","id":"a6459lje82bo","geo_precision":"range","# 2011 interactions":0,"zip postal":"7508"},"type":"Feature","geometry":{"type":"Point","coordinates":[-74.168966,40.965729]}},{"properties":{"city":"Broomall","geo_score":0.821,"total":0,"church name":"Trinity","church number":4569,"# 2010 interactions":0,"street":"144 Lawrence Rd","id":"a6459logy8qm","geo_precision":"range","# 2011 interactions":0,"zip postal":"19008"},"type":"Feature","geometry":{"type":"Point","coordinates":[-75.340666,39.973875]}},{"properties":{"city":"Prospect Park","geo_score":0.819,"total":0,"church name":"Unity","church number":4575,"# 2010 interactions":0,"street":"339 N 11th St","id":"a6459ldzv1rv","geo_precision":"range","# 2011 interactions":0,"zip postal":"7508"},"type":"Feature","geometry":{"type":"Point","coordinates":[-74.173065,40.936138]}},{"properties":{"city":"Pantego","geo_score":0.631,"total":0,"church name":"Terra Ceia","church number":4589,"# 2010 interactions":0,"street":"3298 Terra Ceia Rd","id":"a6459lo8xp33","geo_precision":"street","# 2011 interactions":0,"zip postal":"27860"},"type":"Feature","geometry":{"type":"Point","coordinates":[-76.782442,35.599374]}},{"properties":{"city":"Fennville","geo_score":0.823,"total":0,"church name":"Bravo Community","church number":5107,"# 2010 interactions":0,"street":"5587 113th Ave","id":"a6459llxxngj","geo_precision":"range","# 2011 interactions":0,"zip postal":"49408"},"type":"Feature","geometry":{"type":"Point","coordinates":[-86.088056,42.513783]}},{"properties":{"city":"Holland","geo_score":0.531,"total":0,"church name":"East Saugatuck","church number":5109,"# 2010 interactions":0,"street":"A-3815 56th St","id":"a6459lbno0wl","geo_precision":"street","# 2011 interactions":0,"zip postal":"49423"},"type":"Feature","geometry":{"type":"Point","coordinates":[-86.094821,42.711005]}},{"properties":{"city":"Holland","geo_score":0.618,"total":0,"church name":"Graafschap","church number":5113,"# 2010 interactions":0,"street":"5973 Church St","id":"a6459lnuof6d","geo_precision":"street","# 2011 interactions":0,"zip postal":"49423"},"type":"Feature","geometry":{"type":"Point","coordinates":[-86.136603,42.752337]}},{"properties":{"city":"Holland","geo_score":0.902,"total":0,"church name":"Mision Rey de Reyes","church number":5116,"# 2010 interactions":0,"street":"1627 W Lakewood Blvd","id":"a6459lbqoxvl","geo_precision":"range","# 2011 interactions":0,"zip postal":"49424"},"type":"Feature","geometry":{"type":"Point","coordinates":[-86.17585,42.804106]}},{"properties":{"city":"Hamilton","geo_score":0.722,"total":0,"church name":"Hamilton","church number":5117,"# 2010 interactions":0,"street":"3596 47th St","id":"a6459leh38qd","geo_precision":"range","# 2011 interactions":0,"zip postal":"49419"},"type":"Feature","geometry":{"type":"Point","coordinates":[-86.005683,42.681698]}},{"properties":{"city":"Holland","geo_score":0.729,"total":0,"church name":"Bethany","church number":5125,"# 2010 interactions":0,"street":"11 E 32nd St","id":"a6459ljrrpdt","geo_precision":"range","# 2011 interactions":0,"zip postal":"49423"},"type":"Feature","geometry":{"type":"Point","coordinates":[-86.106625,42.76854]}},{"properties":{"city":"Holland","geo_score":0.902,"total":0,"church name":"Calvary","church number":5129,"# 2010 interactions":0,"street":"400 Beeline Rd","id":"a6459ljp5go7","geo_precision":"range","# 2011 interactions":0,"zip postal":"49424"},"type":"Feature","geometry":{"type":"Point","coordinates":[-86.102814,42.809131]}},{"properties":{"city":"Holland","geo_score":0.813,"total":0,"church name":"Central Avenue","church number":5137,"# 2010 interactions":0,"street":"259 Central Ave","id":"a6459lkf7dkz","geo_precision":"range","# 2011 interactions":0,"zip postal":"49423"},"type":"Feature","geometry":{"type":"Point","coordinates":[-86.10719,42.787738]}},{"properties":{"city":"Holland","geo_score":0.729,"total":0,"church name":"Faith","church number":5141,"# 2010 interactions":0,"street":"85 W 26th St","id":"a6459lcsrtam","geo_precision":"range","# 2011 interactions":0,"zip postal":"49423"},"type":"Feature","geometry":{"type":"Point","coordinates":[-86.110757,42.773958]}},{"properties":{"city":"Holland","geo_score":0.813,"total":0,"church name":"Maple Avenue Ministries","church number":5147,"# 2010 interactions":0,"street":"427 Maple Ave","id":"a6459lg8e0pi","geo_precision":"range","# 2011 interactions":0,"zip postal":"49423"},"type":"Feature","geometry":{"type":"Point","coordinates":[-86.114753,42.781336]}},{"properties":{"city":"Holland","geo_score":0.715,"total":0,"church name":"Holland Heights","church number":5149,"# 2010 interactions":0,"street":"836 E 8th St","id":"a6459lflvcsc","geo_precision":"range","# 2011 interactions":0,"zip postal":"49423"},"type":"Feature","geometry":{"type":"Point","coordinates":[-86.071612,42.790464]}},{"properties":{"city":"Holland","geo_score":0.729,"total":0,"church name":"Montello Park","church number":5162,"# 2010 interactions":0,"street":"609 W 20th St","id":"a6459lbz9ilj","geo_precision":"range","# 2011 interactions":0,"zip postal":"49423"},"type":"Feature","geometry":{"type":"Point","coordinates":[-86.134423,42.77924]}},{"properties":{"city":"Holland","geo_score":0.729,"total":0,"church name":"Pillar","church number":5166,"# 2010 interactions":0,"street":"57 E 10th St","id":"a6459lj8jdhn","geo_precision":"range","# 2011 interactions":0,"zip postal":"49423"},"type":"Feature","geometry":{"type":"Point","coordinates":[-86.105275,42.788508]}},{"properties":{"city":"Holland","geo_score":0.902,"total":0,"church name":"VictoryPoint Ministries","church number":5192,"# 2010 interactions":0,"street":"11530 Ransom St","id":"a6459lau9v6z","geo_precision":"range","# 2011 interactions":0,"zip postal":"49424-6569"},"type":"Feature","geometry":{"type":"Point","coordinates":[-86.063504,42.84865]}},{"properties":{"city":"Holland","geo_score":0.902,"total":0,"church name":"South Olive","church number":5198,"# 2010 interactions":0,"street":"6425  120th Ave","id":"a6459lh339i7","geo_precision":"range","# 2011 interactions":0,"zip postal":"49424"},"type":"Feature","geometry":{"type":"Point","coordinates":[-86.080296,42.885666]}},{"properties":{"city":"East Islip","geo_score":0.824,"total":0,"church name":"Christ Community","church number":5407,"# 2010 interactions":0,"street":"391 East Main St","id":"a6459ljj5jl1","geo_precision":"range","# 2011 interactions":0,"zip postal":"11730"},"type":"Feature","geometry":{"type":"Point","coordinates":[-73.172629,40.735216]}},{"properties":{"city":"Jamaica","geo_score":0.517,"total":0,"church name":"Queens","church number":5422,"# 2010 interactions":0,"street":"143-55  84th Dr","id":"a6459lfevcp6","geo_precision":"street","# 2011 interactions":0,"zip postal":"11435"},"type":"Feature","geometry":{"type":"Point","coordinates":[-73.817798,40.709342]}},{"properties":{"city":"Midland Park","geo_score":0.823,"total":0,"church name":"Midland Park","church number":5424,"# 2010 interactions":0,"street":"183 Godwin Ave","id":"a6459lasf0dh","geo_precision":"range","# 2011 interactions":0,"zip postal":"7432"},"type":"Feature","geometry":{"type":"Point","coordinates":[-74.140045,40.987786]}},{"properties":{"city":"Northvale","geo_score":0.371,"total":0,"church name":"Tree of Life Korean","church number":5425,"# 2010 interactions":0,"street":"Attn: Kook Sung Kim","id":"a6459lk0yan4","geo_precision":"street","# 2011 interactions":0,"zip postal":"07647-1825"},"type":"Feature","geometry":{"type":"Point","coordinates":[-73.988813,40.95587]}},{"properties":{"city":"Staten Island","geo_score":0.821,"total":0,"church name":"New Life Community","church number":5433,"# 2010 interactions":0,"street":"27 Oceanic Ave","id":"a6459lpcyinw","geo_precision":"range","# 2011 interactions":0,"zip postal":"10312"},"type":"Feature","geometry":{"type":"Point","coordinates":[-74.153349,40.534334]}},{"properties":{"city":"Clifton","geo_score":0.805,"total":0,"church name":"Love Korean","church number":5462,"# 2010 interactions":0,"street":"410 Grove St","id":"a6459lhnh5co","geo_precision":"range","# 2011 interactions":0,"zip postal":"7173"},"type":"Feature","geometry":{"type":"Point","coordinates":[-74.210997,40.743076]}},{"properties":{"city":"Wyckoff","geo_score":0.902,"total":0,"church name":"Cedar Hill","church number":5481,"# 2010 interactions":0,"street":"422 Cedar Hill Ave","id":"a6459ln0fj61","geo_precision":"range","# 2011 interactions":0,"zip postal":"7481"},"type":"Feature","geometry":{"type":"Point","coordinates":[-74.162483,40.990917]}},{"properties":{"city":"Crown Point","geo_score":0.815,"total":0,"church name":"First","church number":5604,"# 2010 interactions":0,"street":"909 E Greenwood Ave","id":"a6459lg3zj1b","geo_precision":"range","# 2011 interactions":0,"zip postal":"46307"},"type":"Feature","geometry":{"type":"Point","coordinates":[-87.352199,41.405705]}},{"properties":{"city":"DeMotte","geo_score":0.819,"total":0,"church name":"First","church number":5608,"# 2010 interactions":0,"street":"1633 S Halleck St","id":"a6459lozft4c","geo_precision":"range","# 2011 interactions":0,"zip postal":"46310"},"type":"Feature","geometry":{"type":"Point","coordinates":[-87.198545,41.187348]}},{"properties":{"city":"DeMotte","geo_score":0.819,"total":0,"church name":"Bethel","church number":5609,"# 2010 interactions":0,"street":"521 S Halleck St","id":"a6459lfxxtgj","geo_precision":"range","# 2011 interactions":0,"zip postal":"46310"},"type":"Feature","geometry":{"type":"Point","coordinates":[-87.198695,41.196991]}},{"properties":{"city":"Highland","geo_score":0.902,"total":0,"church name":"First","church number":5616,"# 2010 interactions":0,"street":"8910 Grace St","id":"a6459lenjnvu","geo_precision":"range","# 2011 interactions":0,"zip postal":"46322"},"type":"Feature","geometry":{"type":"Point","coordinates":[-87.447087,41.551689]}},{"properties":{"city":"Highland","geo_score":0.902,"total":0,"church name":"New Life","church number":5620,"# 2010 interactions":0,"street":"3010 Ridge Rd","id":"a6459lco5723","geo_precision":"range","# 2011 interactions":0,"zip postal":"46322"},"type":"Feature","geometry":{"type":"Point","coordinates":[-87.456779,41.554246]}},{"properties":{"city":"Indianapolis","geo_score":0.82,"total":0,"church name":"Hope Community","church number":5624,"# 2010 interactions":0,"street":"7440 Hague Rd","id":"a6459lf0drl7","geo_precision":"range","# 2011 interactions":0,"zip postal":"46256"},"type":"Feature","geometry":{"type":"Point","coordinates":[-86.033033,39.889319]}},{"properties":{"city":"Monee","geo_score":0.902,"total":0,"church name":"Family of Faith","church number":5625,"# 2010 interactions":0,"street":"6645 W Steger Rd","id":"a6459lgxhg2o","geo_precision":"range","# 2011 interactions":0,"zip postal":"60449"},"type":"Feature","geometry":{"type":"Point","coordinates":[-87.770969,41.469781]}},{"properties":{"city":"Lafayette","geo_score":0.805,"total":0,"church name":"Lafayette","church number":5628,"# 2010 interactions":0,"street":"1200 Tippecanoe St","id":"a6459lmceenh","geo_precision":"range","# 2011 interactions":0,"zip postal":"47904"},"type":"Feature","geometry":{"type":"Point","coordinates":[-86.884187,40.426724]}},{"properties":{"city":"Lafayette","geo_score":0.902,"total":0,"church name":"Sunrise","church number":5630,"# 2010 interactions":0,"street":"909 E 500 S","id":"a6459lmfyk0i","geo_precision":"range","# 2011 interactions":0,"zip postal":"47909"},"type":"Feature","geometry":{"type":"Point","coordinates":[-86.887441,40.34327]}},{"properties":{"city":"Lansing","geo_score":0.819,"total":0,"church name":"New Hope Church","church number":5632,"# 2010 interactions":0,"street":"3642 Lake St","id":"a6459lid64ri","geo_precision":"range","# 2011 interactions":0,"zip postal":"60438"},"type":"Feature","geometry":{"type":"Point","coordinates":[-87.528033,41.565324]}},{"properties":{"city":"Lansing","geo_score":0.486,"total":0,"church name":"Bethel","church number":5636,"# 2010 interactions":0,"street":"3500 Glenwood Lansing Rd","id":"a6459los8jt0","geo_precision":"street","# 2011 interactions":0,"zip postal":"60438"},"type":"Feature","geometry":{"type":"Point","coordinates":[-87.556353,41.567751]}},{"properties":{"city":"Munster","geo_score":0.819,"total":0,"church name":"First","church number":5648,"# 2010 interactions":0,"street":"214 Ridge Rd","id":"a6459lpeej9w","geo_precision":"range","# 2011 interactions":0,"zip postal":"46321"},"type":"Feature","geometry":{"type":"Point","coordinates":[-87.521107,41.562923]}},{"properties":{"city":"South Holland","geo_score":0.817,"total":0,"church name":"First","church number":5652,"# 2010 interactions":0,"street":"16248 S Park Ave","id":"a6459lj6pfus","geo_precision":"range","# 2011 interactions":0,"zip postal":"60473"},"type":"Feature","geometry":{"type":"Point","coordinates":[-87.607331,41.599949]}},{"properties":{"city":"South Holland","geo_score":0.817,"total":0,"church name":"Cottage Grove","church number":5660,"# 2010 interactions":0,"street":"16556 Cottage Grove Ave","id":"a6459lbkvylc","geo_precision":"range","# 2011 interactions":0,"zip postal":"60473"},"type":"Feature","geometry":{"type":"Point","coordinates":[-87.597642,41.594292]}},{"properties":{"city":"South Holland","geo_score":0.817,"total":0,"church name":"Peace","church number":5664,"# 2010 interactions":0,"street":"833 E 168th St","id":"a6459lebjlql","geo_precision":"range","# 2011 interactions":0,"zip postal":"60473"},"type":"Feature","geometry":{"type":"Point","coordinates":[-87.596786,41.590351]}},{"properties":{"city":"Sauk Village","geo_score":0.831,"total":0,"church name":"Emmanuel","church number":5666,"# 2010 interactions":0,"street":"22515 Torrence Ave","id":"a6459lb9gcep","geo_precision":"range","# 2011 interactions":0,"zip postal":"60411"},"type":"Feature","geometry":{"type":"Point","coordinates":[-87.557943,41.479814]}},{"properties":{"city":"Roselawn","geo_score":0.61,"total":0,"church name":"Community","church number":5670,"# 2010 interactions":0,"street":"10498 N 450 E","id":"a6459liqadnc","geo_precision":"street","# 2011 interactions":0,"zip postal":"46372"},"type":"Feature","geometry":{"type":"Point","coordinates":[-86.612618,41.672509]}},{"properties":{"city":"Martin","geo_score":0.902,"total":0,"church name":"East Martin","church number":5728,"# 2010 interactions":0,"street":"510 118th Ave","id":"a6459lptb4lu","geo_precision":"range","# 2011 interactions":0,"zip postal":"49070"},"type":"Feature","geometry":{"type":"Point","coordinates":[-85.593008,42.552393]}},{"properties":{"city":"Fort Wayne","geo_score":0.814,"total":0,"church name":"Community","church number":5732,"# 2010 interactions":0,"street":"3434 Lahmeyer Rd","id":"a6459ljywur1","geo_precision":"range","# 2011 interactions":0,"zip postal":"46815"},"type":"Feature","geometry":{"type":"Point","coordinates":[-85.046339,41.11014]}},{"properties":{"city":"Kalamazoo","geo_score":0.816,"total":0,"church name":"Second","church number":5743,"# 2010 interactions":0,"street":"3015 Nichols Rd","id":"a6459lgs4kbv","geo_precision":"range","# 2011 interactions":0,"zip postal":"49004"},"type":"Feature","geometry":{"type":"Point","coordinates":[-85.628827,42.321167]}},{"properties":{"city":"Kalamazoo","geo_score":0.902,"total":0,"church name":"Grace","church number":5758,"# 2010 interactions":0,"street":"1724 Whites Rd","id":"a6459lelbqo7","geo_precision":"range","# 2011 interactions":0,"zip postal":"49008"},"type":"Feature","geometry":{"type":"Point","coordinates":[-85.607516,42.260483]}},{"properties":{"city":"Kalamazoo","geo_score":0.819,"total":0,"church name":"Heritage","church number":5760,"# 2010 interactions":0,"street":"2857 S 11th St","id":"a6459lp3gj2l","geo_precision":"range","# 2011 interactions":0,"zip postal":"49009"},"type":"Feature","geometry":{"type":"Point","coordinates":[-85.658047,42.263334]}},{"properties":{"city":"Vicksburg","geo_score":0.732,"total":0,"church name":"Korean","church number":5764,"# 2010 interactions":0,"street":"12809 S 18th St","id":"a6459lael6m1","geo_precision":"range","# 2011 interactions":0,"zip postal":"49097"},"type":"Feature","geometry":{"type":"Point","coordinates":[-85.588698,42.131101]}},{"properties":{"city":"Kalamazoo","geo_score":0.813,"total":0,"church name":"Milwood","church number":5770,"# 2010 interactions":0,"street":"3306 Lovers Lane","id":"a6459ll1c6g9","geo_precision":"range","# 2011 interactions":0,"zip postal":"49001"},"type":"Feature","geometry":{"type":"Point","coordinates":[-85.567142,42.258623]}},{"properties":{"city":"Portage","geo_score":0.902,"total":0,"church name":"Prairie Edge","church number":5777,"# 2010 interactions":0,"street":"9316 Oakland Dr","id":"a6459ldercyr","geo_precision":"range","# 2011 interactions":0,"zip postal":"49024"},"type":"Feature","geometry":{"type":"Point","coordinates":[-85.613761,42.181364]}},{"properties":{"city":"Kalamazoo","geo_score":0.902,"total":0,"church name":"Southern Heights","church number":5782,"# 2010 interactions":0,"street":"4141 E Hillandale Dr","id":"a6459lacwe62","geo_precision":"range","# 2011 interactions":0,"zip postal":"49008"},"type":"Feature","geometry":{"type":"Point","coordinates":[-85.599756,42.248858]}},{"properties":{"city":"Kalamazoo","geo_score":0.816,"total":0,"church name":"Parchment","church number":5790,"# 2010 interactions":0,"street":"1615 East G Ave","id":"a6459lcpo8qd","geo_precision":"range","# 2011 interactions":0,"zip postal":"49004"},"type":"Feature","geometry":{"type":"Point","coordinates":[-85.560394,42.332737]}},{"properties":{"city":"Plainwell","geo_score":0.743,"total":0,"church name":"Calvary","church number":5792,"# 2010 interactions":0,"street":"315 12th St","id":"a6459llvi09d","geo_precision":"range","# 2011 interactions":0,"zip postal":"49080"},"type":"Feature","geometry":{"type":"Point","coordinates":[-85.661719,42.444333]}},{"properties":{"city":"Akron","geo_score":0.902,"total":0,"church name":"Akron","church number":6002,"# 2010 interactions":0,"street":"50 Marshall Ave","id":"a6459lo7ots5","geo_precision":"range","# 2011 interactions":0,"zip postal":"44303-1410"},"type":"Feature","geometry":{"type":"Point","coordinates":[-81.53844,41.095852]}},{"properties":{"city":"Ann Arbor","geo_score":0.381,"total":0,"church name":"Cornerstone","church number":6010,"# 2010 interactions":0,"street":"PO Box 4310","id":"a6459la1dj14","geo_precision":"street","# 2011 interactions":0,"zip postal":"48106"},"type":"Feature","geometry":{"type":"Point","coordinates":[-83.646503,42.45464]}},{"properties":{"city":"Charlotte","geo_score":0.805,"total":0,"church name":"Charlotte","church number":6011,"# 2010 interactions":0,"street":"421 State St","id":"a6459lgb4cim","geo_precision":"range","# 2011 interactions":0,"zip postal":"48813"},"type":"Feature","geometry":{"type":"Point","coordinates":[-84.851658,42.555985]}},{"properties":{"city":"Imlay City","geo_score":0.902,"total":0,"church name":"Imlay City","church number":6063,"# 2010 interactions":0,"street":"395 N Cedar St","id":"a6459lcfx828","geo_precision":"range","# 2011 interactions":0,"zip postal":"48444"},"type":"Feature","geometry":{"type":"Point","coordinates":[-83.071418,43.029253]}},{"properties":{"city":"Rochester Hills","geo_score":0.794,"total":0,"church name":"Han-Bit Korean","church number":6089,"# 2010 interactions":0,"street":"1849 Livernois","id":"a6459lmg8gd1","geo_precision":"range","# 2011 interactions":0,"zip postal":"48307"},"type":"Feature","geometry":{"type":"Point","coordinates":[-83.152865,42.65398]}},{"properties":{"city":"Troy","geo_score":0.768,"total":0,"church name":"North Hills","church number":6090,"# 2010 interactions":0,"street":"3150 N Adams Rd","id":"a6459lh7jail","geo_precision":"range","# 2011 interactions":0,"zip postal":"48084"},"type":"Feature","geometry":{"type":"Point","coordinates":[-83.206589,42.563479]}},{"properties":{"city":"Saginaw","geo_score":0.805,"total":0,"church name":"Community","church number":6092,"# 2010 interactions":0,"street":"6045 Mackinaw Rd","id":"a6459lfsrht2","geo_precision":"range","# 2011 interactions":0,"zip postal":"48604-9751"},"type":"Feature","geometry":{"type":"Point","coordinates":[-83.993214,43.494755]}},{"properties":{"city":"Willard","geo_score":0.819,"total":0,"church name":"Willard","church number":6096,"# 2010 interactions":0,"street":"4163 Broadway Rd","id":"a6459lfnhwlu","geo_precision":"range","# 2011 interactions":0,"zip postal":"44890"},"type":"Feature","geometry":{"type":"Point","coordinates":[-82.730076,41.028835]}},{"properties":{"city":"Brooten","geo_score":0.531,"total":0,"church name":"Brooten","church number":6316,"# 2010 interactions":0,"street":"Box 219","id":"a6459lfu4meg","geo_precision":"street","# 2011 interactions":0,"zip postal":"56316"},"type":"Feature","geometry":{"type":"Point","coordinates":[-94.648349,45.932902]}},{"properties":{"city":"Savage","geo_score":0.823,"total":0,"church name":"Bridgewood","church number":6325,"# 2010 interactions":0,"street":"6201 W 135th St","id":"a6459lgcaejk","geo_precision":"range","# 2011 interactions":0,"zip postal":"55378"},"type":"Feature","geometry":{"type":"Point","coordinates":[-93.357541,44.757496]}},{"properties":{"city":"Crookston","geo_score":0.857,"total":0,"church name":"First","church number":6328,"# 2010 interactions":0,"street":"433 Jackson Ave","id":"a6459lfr83is","geo_precision":"range","# 2011 interactions":0,"zip postal":"56716"},"type":"Feature","geometry":{"type":"Point","coordinates":[-96.597293,47.766862]}},{"properties":{"city":"East Grand Forks","geo_score":0.749,"total":0,"church name":"Redeeming Love Community","church number":6330,"# 2010 interactions":0,"street":"714 6th St SE","id":"a6459ljskzq5","geo_precision":"range","# 2011 interactions":0,"zip postal":"56721"},"type":"Feature","geometry":{"type":"Point","coordinates":[-97.010547,47.912829]}},{"properties":{"city":"Hancock","geo_score":0.785,"total":0,"church name":"Hancock","church number":6340,"# 2010 interactions":0,"street":"954 Fifth St","id":"a6459ld8lyec","geo_precision":"range","# 2011 interactions":0,"zip postal":"56244"},"type":"Feature","geometry":{"type":"Point","coordinates":[-95.792308,45.50196]}},{"properties":{"city":"New Brighton","geo_score":0.805,"total":0,"church name":"New Life Lao","church number":6347,"# 2010 interactions":0,"street":"1600 Silver Lake Rd NW","id":"a6459lbeufs1","geo_precision":"range","# 2011 interactions":0,"zip postal":"55112-1787"},"type":"Feature","geometry":{"type":"Point","coordinates":[-93.21882,45.075374]}},{"properties":{"city":"New Brighton","geo_score":0.805,"total":0,"church name":"Faith","church number":6355,"# 2010 interactions":0,"street":"1600 Silver Lake Rd NW","id":"a6459lfautd4","geo_precision":"range","# 2011 interactions":0,"zip postal":"55112-1787"},"type":"Feature","geometry":{"type":"Point","coordinates":[-93.21882,45.075374]}},{"properties":{"city":"Ogilvie","geo_score":0.902,"total":0,"church name":"New Hope","church number":6357,"# 2010 interactions":0,"street":"205 S Hill Ave","id":"a6459lcr01g3","geo_precision":"range","# 2011 interactions":0,"zip postal":"56358"},"type":"Feature","geometry":{"type":"Point","coordinates":[-93.425755,45.827618]}},{"properties":{"city":"Prinsburg","geo_score":0.785,"total":0,"church name":"First","church number":6369,"# 2010 interactions":0,"street":"106 6th St","id":"a6459lcenmly","geo_precision":"range","# 2011 interactions":0,"zip postal":"56281-0237"},"type":"Feature","geometry":{"type":"Point","coordinates":[-95.186937,44.934997]}},{"properties":{"city":"Prinsburg","geo_score":0.286,"total":0,"church name":"Unity","church number":6370,"# 2010 interactions":0,"street":"PO Box 266","id":"a6459ljapp86","geo_precision":"street","# 2011 interactions":0,"zip postal":"56281-0266"},"type":"Feature","geometry":{"type":"Point","coordinates":[-95.523127,44.78411]}},{"properties":{"city":"Raymond","geo_score":0.571,"total":0,"church name":"Raymond","church number":6373,"# 2010 interactions":0,"street":"202 3rd Ave S","id":"a6459ll2r7m6","geo_precision":"range","# 2011 interactions":0,"zip postal":"56282"},"type":"Feature","geometry":{"type":"Point","coordinates":[-95.239922,45.014578]}},{"properties":{"city":"Renville","geo_score":0.693,"total":0,"church name":"Emden","church number":6377,"# 2010 interactions":0,"street":"518 NW 5th Street","id":"a6459lk441qh","geo_precision":"range","# 2011 interactions":0,"zip postal":"56284"},"type":"Feature","geometry":{"type":"Point","coordinates":[-95.218289,44.794809]}},{"properties":{"city":"Inver Grove Heights","geo_score":0.819,"total":0,"church name":"Grace","church number":6381,"# 2010 interactions":0,"street":"3540 75th St East","id":"a6459lbjsi6y","geo_precision":"range","# 2011 interactions":0,"zip postal":"55076"},"type":"Feature","geometry":{"type":"Point","coordinates":[-93.033969,44.840787]}},{"properties":{"city":"Willmar","geo_score":0.693,"total":0,"church name":"Willmar","church number":6385,"# 2010 interactions":0,"street":"1708 SW 8th St","id":"a6459lh9u8hw","geo_precision":"range","# 2011 interactions":0,"zip postal":"56201"},"type":"Feature","geometry":{"type":"Point","coordinates":[-95.05151,45.105485]}},{"properties":{"city":"Bigelow","geo_score":0.469,"total":0,"church name":"Asian-American","church number":6608,"# 2010 interactions":0,"street":"PO Box 91","id":"a6459lh23yzf","geo_precision":"street","# 2011 interactions":0,"zip postal":"56117-0091"},"type":"Feature","geometry":{"type":"Point","coordinates":[-95.52242,43.86248]}},{"properties":{"city":"Chandler","geo_score":0.712,"total":0,"church name":"Chandler","church number":6614,"# 2010 interactions":0,"street":"80 Carlton Ave","id":"a6459lgt5g5l","geo_precision":"street","# 2011 interactions":0,"zip postal":"56122-1026"},"type":"Feature","geometry":{"type":"Point","coordinates":[-95.94291,43.929842]}},{"properties":{"city":"Colton","geo_score":0.707,"total":0,"church name":"Faith Community","church number":6615,"# 2010 interactions":0,"street":"202 S Dakota","id":"a6459lczjktd","geo_precision":"range","# 2011 interactions":0,"zip postal":"57018-0126"},"type":"Feature","geometry":{"type":"Point","coordinates":[-97.656963,42.946743]}},{"properties":{"city":"Edgerton","geo_score":0.286,"total":0,"church name":"First","church number":6621,"# 2010 interactions":0,"street":"PO Box 95","id":"a6459la8wi5a","geo_precision":"street","# 2011 interactions":0,"zip postal":"56128-0095"},"type":"Feature","geometry":{"type":"Point","coordinates":[-94.711407,43.764029]}},{"properties":{"city":"Edgerton","geo_score":0.469,"total":0,"church name":"Bethel","church number":6628,"# 2010 interactions":0,"street":"PO Box 79","id":"a6459lg7id9m","geo_precision":"street","# 2011 interactions":0,"zip postal":"56128"},"type":"Feature","geometry":{"type":"Point","coordinates":[-96.224829,44.063007]}},{"properties":{"city":"Holland","geo_score":0.339,"total":0,"church name":"Holland","church number":6642,"# 2010 interactions":0,"street":"PO Box 188","id":"a6459lnyejc4","geo_precision":"street","# 2011 interactions":0,"zip postal":"56139"},"type":"Feature","geometry":{"type":"Point","coordinates":[-95.170645,43.675215]}},{"properties":{"city":"Lodgepole","geo_score":0.663,"total":0,"church name":"Holland Center","church number":6643,"# 2010 interactions":0,"street":"11010 SD Hwy 75","id":"a6459la6hj2w","geo_precision":"range","# 2011 interactions":0,"zip postal":"57640-6517"},"type":"Feature","geometry":{"type":"Point","coordinates":[-102.661146,45.796644]}},{"properties":{"city":"Leota","geo_score":0.357,"total":0,"church name":"Ebenezer","church number":6649,"# 2010 interactions":0,"street":"Box 277","id":"a6459lov1xv7","geo_precision":"street","# 2011 interactions":0,"zip postal":"56153"},"type":"Feature","geometry":{"type":"Point","coordinates":[-95.170645,43.675215]}},{"properties":{"city":"Luverne","geo_score":0.829,"total":0,"church name":"Luverne","church number":6656,"# 2010 interactions":0,"street":"605 North Estey","id":"a6459lb6cqdu","geo_precision":"range","# 2011 interactions":0,"zip postal":"56156"},"type":"Feature","geometry":{"type":"Point","coordinates":[-96.210969,43.659137]}},{"properties":{"city":"Pipestone","geo_score":0.732,"total":0,"church name":"Pipestone","church number":6670,"# 2010 interactions":0,"street":"800 2nd Ave SE","id":"a6459lfrursj","geo_precision":"range","# 2011 interactions":0,"zip postal":"56164"},"type":"Feature","geometry":{"type":"Point","coordinates":[-96.314703,43.992166]}},{"properties":{"city":"Worthington","geo_score":0.732,"total":0,"church name":"Lao","church number":6683,"# 2010 interactions":0,"street":"1100 First Ave SW","id":"a6459lfzjfe8","geo_precision":"range","# 2011 interactions":0,"zip postal":"56187"},"type":"Feature","geometry":{"type":"Point","coordinates":[-95.608761,43.609361]}},{"properties":{"city":"Worthington","geo_score":0.732,"total":0,"church name":"Worthington","church number":6685,"# 2010 interactions":0,"street":"1100 First Ave SW","id":"a6459lnx7v4c","geo_precision":"range","# 2011 interactions":0,"zip postal":"56187"},"type":"Feature","geometry":{"type":"Point","coordinates":[-95.608761,43.609361]}},{"properties":{"city":"Big Rapids","geo_score":0.814,"total":0,"church name":"Fellowship","church number":6902,"# 2010 interactions":0,"street":"407 Perry Ave","id":"a6459laus5ce","geo_precision":"range","# 2011 interactions":0,"zip postal":"49307"},"type":"Feature","geometry":{"type":"Point","coordinates":[-85.491013,43.687766]}},{"properties":{"city":"Spring Lake","geo_score":0.902,"total":0,"church name":"Ferrysburg Community","church number":6904,"# 2010 interactions":0,"street":"17785 Mohawk Dr","id":"a6459lpczapw","geo_precision":"range","# 2011 interactions":0,"zip postal":"49456"},"type":"Feature","geometry":{"type":"Point","coordinates":[-86.228364,43.091667]}},{"properties":{"city":"Grand Haven","geo_score":0.902,"total":0,"church name":"Covenant Life Church","church number":6922,"# 2010 interactions":0,"street":"101 Columbus Ave","id":"a6459lbdi6wi","geo_precision":"range","# 2011 interactions":0,"zip postal":"49417"},"type":"Feature","geometry":{"type":"Point","coordinates":[-86.232145,43.065326]}},{"properties":{"city":"Muskegon","geo_score":0.805,"total":0,"church name":"Allen Avenue","church number":6932,"# 2010 interactions":0,"street":"695 Allen Ave","id":"a6459le8eajk","geo_precision":"range","# 2011 interactions":0,"zip postal":"49442"},"type":"Feature","geometry":{"type":"Point","coordinates":[-86.227728,43.235084]}},{"properties":{"city":"Muskegon","geo_score":0.805,"total":0,"church name":"First","church number":6949,"# 2010 interactions":0,"street":"1450 Catherine Ave","id":"a6459ljn9ipn","geo_precision":"range","# 2011 interactions":0,"zip postal":"49442-4121"},"type":"Feature","geometry":{"type":"Point","coordinates":[-86.210472,43.231441]}},{"properties":{"city":"Muskegon","geo_score":0.82,"total":0,"church name":"Celebration Community","church number":6950,"# 2010 interactions":0,"street":"1260 W Sherman Blvd","id":"a6459ld3usgc","geo_precision":"range","# 2011 interactions":0,"zip postal":"49441-3537"},"type":"Feature","geometry":{"type":"Point","coordinates":[-86.273583,43.205486]}},{"properties":{"city":"Muskegon","geo_score":0.805,"total":0,"church name":"Grace","church number":6953,"# 2010 interactions":0,"street":"2500 E Laketon Ave","id":"a6459laadhd2","geo_precision":"range","# 2011 interactions":0,"zip postal":"49442"},"type":"Feature","geometry":{"type":"Point","coordinates":[-86.182715,43.219685]}},{"properties":{"city":"White Cloud","geo_score":0.824,"total":0,"church name":"Woodville Community","church number":6966,"# 2010 interactions":0,"street":"6206 N Pine Ave","id":"a6459lmwv8qc","geo_precision":"range","# 2011 interactions":0,"zip postal":"49349"},"type":"Feature","geometry":{"type":"Point","coordinates":[-85.681176,43.683484]}},{"properties":{"city":"New Era","geo_score":0.708,"total":0,"church name":"New Era","church number":6969,"# 2010 interactions":0,"street":"1820 Ray Ave","id":"a6459lorgqzz","geo_precision":"street","# 2011 interactions":0,"zip postal":"49446-9621"},"type":"Feature","geometry":{"type":"Point","coordinates":[-86.346553,43.55939]}},{"properties":{"city":"Fremont","geo_score":0.715,"total":0,"church name":"Reeman","church number":6973,"# 2010 interactions":0,"street":"6121 S Fitzgerald","id":"a6459lga6tnf","geo_precision":"range","# 2011 interactions":0,"zip postal":"49412"},"type":"Feature","geometry":{"type":"Point","coordinates":[-86.009091,43.443539]}},{"properties":{"city":"Austinville","geo_score":0.347,"total":0,"church name":"Austinville","church number":7212,"# 2010 interactions":0,"street":"PO Box 60","id":"a6459lou38mi","geo_precision":"street","# 2011 interactions":0,"zip postal":"50608-0060"},"type":"Feature","geometry":{"type":"Point","coordinates":[-92.475291,42.201935]}},{"properties":{"city":"Britt","geo_score":0.819,"total":0,"church name":"Britt","church number":7216,"# 2010 interactions":0,"street":"569 Main Ave N","id":"a6459lpg7gfu","geo_precision":"range","# 2011 interactions":0,"zip postal":"50423"},"type":"Feature","geometry":{"type":"Point","coordinates":[-93.802019,43.101765]}},{"properties":{"city":"Holland","geo_score":0.339,"total":0,"church name":"New Hope Fellowship","church number":7220,"# 2010 interactions":0,"street":"PO Box 127","id":"a6459lcujzbi","geo_precision":"street","# 2011 interactions":0,"zip postal":"50642"},"type":"Feature","geometry":{"type":"Point","coordinates":[-91.641825,42.598493]}},{"properties":{"city":"Hollandale","geo_score":0.725,"total":0,"church name":"Hollandale","church number":7224,"# 2010 interactions":0,"street":"200 Hague S","id":"a6459lg1x2oe","geo_precision":"range","# 2011 interactions":0,"zip postal":"56045"},"type":"Feature","geometry":{"type":"Point","coordinates":[-93.201816,43.759046]}},{"properties":{"city":"Kanawha","geo_score":0.721,"total":0,"church name":"Kanawha","church number":7233,"# 2010 interactions":0,"street":"129 E 3rd St","id":"a6459loohhlv","geo_precision":"range","# 2011 interactions":0,"zip postal":"50447"},"type":"Feature","geometry":{"type":"Point","coordinates":[-93.792736,42.936305]}},{"properties":{"city":"Kanawha","geo_score":0.819,"total":0,"church name":"Wright","church number":7237,"# 2010 interactions":0,"street":"1726 130th St","id":"a6459ldl59f4","geo_precision":"range","# 2011 interactions":0,"zip postal":"50447"},"type":"Feature","geometry":{"type":"Point","coordinates":[-93.82727,42.863201]}},{"properties":{"city":"Grundy Center","geo_score":0.805,"total":0,"church name":"Lincoln Center","church number":7241,"# 2010 interactions":0,"street":"18891 Q Ave","id":"a6459lhiip0n","geo_precision":"street","# 2011 interactions":0,"zip postal":"50638"},"type":"Feature","geometry":{"type":"Point","coordinates":[-92.710175,42.430948]}},{"properties":{"city":"Mason City","geo_score":0.732,"total":0,"church name":"Rolling Acres","church number":7243,"# 2010 interactions":0,"street":"340 20th St SW","id":"a6459lfp1jl6","geo_precision":"range","# 2011 interactions":0,"zip postal":"50401"},"type":"Feature","geometry":{"type":"Point","coordinates":[-93.208865,43.132833]}},{"properties":{"city":"Wellsburg","geo_score":0.902,"total":0,"church name":"First","church number":7253,"# 2010 interactions":0,"street":"12420 185th St","id":"a6459lo0o2hp","geo_precision":"range","# 2011 interactions":0,"zip postal":"50680"},"type":"Feature","geometry":{"type":"Point","coordinates":[-92.977885,42.434026]}},{"properties":{"city":"Woden","geo_score":0.902,"total":0,"church name":"Woden","church number":7261,"# 2010 interactions":0,"street":"205 290th St","id":"a6459lbun3py","geo_precision":"range","# 2011 interactions":0,"zip postal":"50484"},"type":"Feature","geometry":{"type":"Point","coordinates":[-93.949876,43.183614]}},{"properties":{"city":"Hospers","geo_score":0.672,"total":0,"church name":"First","church number":7528,"# 2010 interactions":0,"street":"110 4th Ave North","id":"a6459lbawvc3","geo_precision":"range","# 2011 interactions":0,"zip postal":"51238"},"type":"Feature","geometry":{"type":"Point","coordinates":[-95.903637,43.071299]}},{"properties":{"city":"Hull","geo_score":0.286,"total":0,"church name":"Hope","church number":7530,"# 2010 interactions":0,"street":"PO Box 580","id":"a6459lg2ui4l","geo_precision":"street","# 2011 interactions":0,"zip postal":"51239"},"type":"Feature","geometry":{"type":"Point","coordinates":[-96.505721,43.47804]}},{"properties":{"city":"Olathe","geo_score":0.902,"total":0,"church name":"Pathway Community","church number":7545,"# 2010 interactions":0,"street":"15111 W 157th Terrace","id":"a6459ljneo9b","geo_precision":"range","# 2011 interactions":0,"zip postal":"66062"},"type":"Feature","geometry":{"type":"Point","coordinates":[-94.761283,38.843095]}},{"properties":{"city":"Melvin","geo_score":0.857,"total":0,"church name":"Ocheyedan","church number":7549,"# 2010 interactions":0,"street":"Attn Alvin Runia","id":"a6459las7u2a","geo_precision":"zip","# 2011 interactions":0,"zip postal":"51350"},"type":"Feature","geometry":{"type":"Point","coordinates":[-95.614641,43.315953]}},{"properties":{"city":"Omaha","geo_score":0.902,"total":0,"church name":"Prairie Lane","church number":7550,"# 2010 interactions":0,"street":"3111 South 119th St","id":"a6459lmi57t4","geo_precision":"range","# 2011 interactions":0,"zip postal":"68144-4513"},"type":"Feature","geometry":{"type":"Point","coordinates":[-96.099513,41.230014]}},{"properties":{"city":"Orange City","geo_score":0.815,"total":0,"church name":"First","church number":7556,"# 2010 interactions":0,"street":"408 Arizona Ave SW","id":"a6459lkqugx5","geo_precision":"range","# 2011 interactions":0,"zip postal":"51041"},"type":"Feature","geometry":{"type":"Point","coordinates":[-96.059747,43.002594]}},{"properties":{"city":"Orange City","geo_score":0.731,"total":0,"church name":"Calvary","church number":7557,"# 2010 interactions":0,"street":"709 Fifth St SE","id":"a6459lolrv97","geo_precision":"range","# 2011 interactions":0,"zip postal":"51041-1804"},"type":"Feature","geometry":{"type":"Point","coordinates":[-96.04992,43.001646]}},{"properties":{"city":"Orange City","geo_score":0.815,"total":0,"church name":"Immanuel","church number":7559,"# 2010 interactions":0,"street":"1405 Albany Ave NE","id":"a6459lbsx764","geo_precision":"range","# 2011 interactions":0,"zip postal":"51041-2062"},"type":"Feature","geometry":{"type":"Point","coordinates":[-96.056767,43.019337]}},{"properties":{"city":"Sanborn","geo_score":0.823,"total":0,"church name":"Sanborn","church number":7563,"# 2010 interactions":0,"street":"208 N Western St","id":"a6459lmsqd5d","geo_precision":"range","# 2011 interactions":0,"zip postal":"51248-0299"},"type":"Feature","geometry":{"type":"Point","coordinates":[-95.66369,43.181561]}},{"properties":{"city":"Sheldon","geo_score":0.688,"total":0,"church name":"First","church number":7570,"# 2010 interactions":0,"street":"901 9th St","id":"a6459ldvj2ko","geo_precision":"range","# 2011 interactions":0,"zip postal":"51201"},"type":"Feature","geometry":{"type":"Point","coordinates":[-95.846595,43.178996]}},{"properties":{"city":"Sheldon","geo_score":0.805,"total":0,"church name":"Immanuel","church number":7572,"# 2010 interactions":0,"street":"601 Union Ave","id":"a6459llldpa9","geo_precision":"range","# 2011 interactions":0,"zip postal":"51201"},"type":"Feature","geometry":{"type":"Point","coordinates":[-95.836112,43.182369]}},{"properties":{"city":"Sibley","geo_score":0.815,"total":0,"church name":"Sibley","church number":7577,"# 2010 interactions":0,"street":"115 Maple Dr","id":"a6459lb759sq","geo_precision":"range","# 2011 interactions":0,"zip postal":"51249"},"type":"Feature","geometry":{"type":"Point","coordinates":[-95.748354,43.408436]}},{"properties":{"city":"Sioux City","geo_score":0.777,"total":0,"church name":"Lao Unity","church number":7582,"# 2010 interactions":0,"street":"601 Court St","id":"a6459lgmtf6z","geo_precision":"range","# 2011 interactions":0,"zip postal":"51101"},"type":"Feature","geometry":{"type":"Point","coordinates":[-96.396436,42.496387]}},{"properties":{"city":"Oxnard","geo_score":0.902,"total":0,"church name":"Oxnard Korean","church number":7610,"# 2010 interactions":0,"street":"1076 East Stroube St","id":"a6459ljdyyti","geo_precision":"range","# 2011 interactions":0,"zip postal":"93036"},"type":"Feature","geometry":{"type":"Point","coordinates":[-119.160275,34.230801]}},{"properties":{"city":"La Mirada","geo_score":0.878,"total":0,"church name":"Orange Han Min","church number":7625,"# 2010 interactions":0,"street":"14712 Aranza Dr","id":"a6459leaork5","geo_precision":"range","# 2011 interactions":0,"zip postal":"90638"},"type":"Feature","geometry":{"type":"Point","coordinates":[-118.00031,33.89881]}},{"properties":{"city":"Santa Maria","geo_score":0.815,"total":0,"church name":"Faith Korean Ch. of Santa Maria","church number":7627,"# 2010 interactions":0,"street":"2548 S Broadway","id":"a6459lklf40b","geo_precision":"range","# 2011 interactions":0,"zip postal":"93454"},"type":"Feature","geometry":{"type":"Point","coordinates":[-120.435837,34.913942]}},{"properties":{"city":"Fullerton","geo_score":0.708,"total":0,"church name":"Garden Grove Korean Presby.","church number":7636,"# 2010 interactions":0,"street":"4135 W Valencia Dr #213","id":"a6459lp5mrch","geo_precision":"street","# 2011 interactions":0,"zip postal":"92833"},"type":"Feature","geometry":{"type":"Point","coordinates":[-117.94192,33.866589]}},{"properties":{"city":"Los Angeles","geo_score":0.902,"total":0,"church name":"Gracious Ark","church number":7639,"# 2010 interactions":0,"street":"2129 Venice Blvd","id":"a6459l9gktg1","geo_precision":"range","# 2011 interactions":0,"zip postal":"90006-5224"},"type":"Feature","geometry":{"type":"Point","coordinates":[-118.303468,34.043588]}},{"properties":{"city":"Northridge","geo_score":0.84,"total":0,"church name":"Church of One Heart","church number":7643,"# 2010 interactions":0,"street":"10324 Etiwanda Ave","id":"a6459lfv0zyc","geo_precision":"range","# 2011 interactions":0,"zip postal":"91326"},"type":"Feature","geometry":{"type":"Point","coordinates":[-118.531725,34.262708]}},{"properties":{"city":"Mission Hills","geo_score":0.902,"total":0,"church name":"Korean Peace of Los Angeles","church number":7651,"# 2010 interactions":0,"street":"14683 Fox St","id":"a6459lj36pp6","geo_precision":"range","# 2011 interactions":0,"zip postal":"91345"},"type":"Feature","geometry":{"type":"Point","coordinates":[-118.452634,34.266831]}},{"properties":{"city":"Northridge","geo_score":0.902,"total":0,"church name":"Dong San of Love","church number":7658,"# 2010 interactions":0,"street":"9440 Balboa Blvd","id":"a6459ll0w2m2","geo_precision":"range","# 2011 interactions":0,"zip postal":"91325"},"type":"Feature","geometry":{"type":"Point","coordinates":[-118.502476,34.242243]}},{"properties":{"city":"Santa Clara","geo_score":0.815,"total":0,"church name":"San Jose New Hope","church number":7672,"# 2010 interactions":0,"street":"2900 Patrick Henry Dr","id":"a6459lmxpi6t","geo_precision":"range","# 2011 interactions":0,"zip postal":"95054"},"type":"Feature","geometry":{"type":"Point","coordinates":[-121.97797,37.39599]}},{"properties":{"city":"Anchorage","geo_score":0.902,"total":0,"church name":"Alaska Korean","church number":7803,"# 2010 interactions":0,"street":"709 W International Airport Rd","id":"a6459lc9g1i0","geo_precision":"range","# 2011 interactions":0,"zip postal":"99518-1123"},"type":"Feature","geometry":{"type":"Point","coordinates":[-149.893969,61.173635]}},{"properties":{"city":"Anchorage","geo_score":0.748,"total":0,"church name":"Trinity","church number":7804,"# 2010 interactions":0,"street":"3000 East 16th Ave","id":"a6459la3q3x4","geo_precision":"range","# 2011 interactions":0,"zip postal":"99508"},"type":"Feature","geometry":{"type":"Point","coordinates":[-149.825164,61.206109]}},{"properties":{"city":"Bellevue","geo_score":0.816,"total":0,"church name":"Bellevue","church number":7806,"# 2010 interactions":0,"street":"1221  148th Ave NE","id":"a6459loab2z8","geo_precision":"range","# 2011 interactions":0,"zip postal":"98007-4043"},"type":"Feature","geometry":{"type":"Point","coordinates":[-122.1431,47.622155]}},{"properties":{"city":"Lynden","geo_score":0.902,"total":0,"church name":"Mountain View","church number":7807,"# 2010 interactions":0,"street":"6678 Old Guide Rd","id":"a6459lgydexn","geo_precision":"range","# 2011 interactions":0,"zip postal":"98264"},"type":"Feature","geometry":{"type":"Point","coordinates":[-122.496914,48.883419]}},{"properties":{"city":"Bellingham","geo_score":0.87,"total":0,"church name":"Hope in Christ","church number":7808,"# 2010 interactions":0,"street":"710 East Sunset Drive","id":"a6459le6r6wf","geo_precision":"range","# 2011 interactions":0,"zip postal":"98225"},"type":"Feature","geometry":{"type":"Point","coordinates":[-122.470439,48.769621]}},{"properties":{"city":"Everett","geo_score":0.902,"total":0,"church name":"First","church number":7820,"# 2010 interactions":0,"street":"1429 McDougall Ave","id":"a6459lnfczd3","geo_precision":"range","# 2011 interactions":0,"zip postal":"98201"},"type":"Feature","geometry":{"type":"Point","coordinates":[-122.199642,47.998628]}},{"properties":{"city":"Everson","geo_score":0.446,"total":0,"church name":"Faith Christian Fellowship","church number":7824,"# 2010 interactions":0,"street":"PO Box 429","id":"a6459lh05iag","geo_precision":"street","# 2011 interactions":0,"zip postal":"98247"},"type":"Feature","geometry":{"type":"Point","coordinates":[-122.916939,48.709006]}},{"properties":{"city":"Lynden","geo_score":0.902,"total":0,"church name":"Second","church number":7836,"# 2010 interactions":0,"street":"710 Front St","id":"a6459lhqp6sb","geo_precision":"range","# 2011 interactions":0,"zip postal":"98264"},"type":"Feature","geometry":{"type":"Point","coordinates":[-122.455647,48.941958]}},{"properties":{"city":"Lynden","geo_score":0.902,"total":0,"church name":"Sonlight Community","church number":7838,"# 2010 interactions":0,"street":"8800 Bender Rd","id":"a6459lofxkxp","geo_precision":"range","# 2011 interactions":0,"zip postal":"98264"},"type":"Feature","geometry":{"type":"Point","coordinates":[-122.441214,48.959533]}},{"properties":{"city":"Lynden","geo_score":0.902,"total":0,"church name":"Third","church number":7840,"# 2010 interactions":0,"street":"514 Liberty St","id":"a6459lgxc8lo","geo_precision":"range","# 2011 interactions":0,"zip postal":"98264"},"type":"Feature","geometry":{"type":"Point","coordinates":[-122.454501,48.944584]}},{"properties":{"city":"Mill Creek","geo_score":0.735,"total":0,"church name":"Mill Creek Community","church number":7858,"# 2010 interactions":0,"street":"16415 North Rd","id":"a6459ln2pe7o","geo_precision":"range","# 2011 interactions":0,"zip postal":"98012"},"type":"Feature","geometry":{"type":"Point","coordinates":[-122.235809,47.84931]}},{"properties":{"city":"Mount Vernon","geo_score":0.814,"total":0,"church name":"First","church number":7861,"# 2010 interactions":0,"street":"701 W Blackburn Rd","id":"a6459lbse52e","geo_precision":"range","# 2011 interactions":0,"zip postal":"98273"},"type":"Feature","geometry":{"type":"Point","coordinates":[-122.342491,48.406555]}},{"properties":{"city":"Oak Harbor","geo_score":0.813,"total":0,"church name":"Oak Harbor","church number":7865,"# 2010 interactions":0,"street":"1411 Wieldraayer Rd","id":"a6459lklr3ia","geo_precision":"range","# 2011 interactions":0,"zip postal":"98277"},"type":"Feature","geometry":{"type":"Point","coordinates":[-122.691348,48.296985]}},{"properties":{"city":"Mount Vernon","geo_score":0.814,"total":0,"church name":"Iglesia Vida Nueva","church number":7866,"# 2010 interactions":0,"street":"701 W Blackburn Road","id":"a6459lhwimqj","geo_precision":"range","# 2011 interactions":0,"zip postal":"98273"},"type":"Feature","geometry":{"type":"Point","coordinates":[-122.342491,48.406555]}},{"properties":{"city":"Olympia","geo_score":0.766,"total":0,"church name":"Olympia","church number":7867,"# 2010 interactions":0,"street":"2121 Log Cabin Rd","id":"a6459lks5jmh","geo_precision":"range","# 2011 interactions":0,"zip postal":"98501"},"type":"Feature","geometry":{"type":"Point","coordinates":[-122.872723,47.014776]}},{"properties":{"city":"Seattle","geo_score":0.721,"total":0,"church name":"Emmaus Road","church number":7872,"# 2010 interactions":0,"street":"312 N 85th St #101","id":"a6459lftil5m","geo_precision":"range","# 2011 interactions":0,"zip postal":"98103"},"type":"Feature","geometry":{"type":"Point","coordinates":[-122.357982,47.690608]}},{"properties":{"city":"Shoreline","geo_score":0.762,"total":0,"church name":"First","church number":7873,"# 2010 interactions":0,"street":"14555  25th Ave NE","id":"a6459lblsodr","geo_precision":"range","# 2011 interactions":0,"zip postal":"98155"},"type":"Feature","geometry":{"type":"Point","coordinates":[-122.30195,47.734536]}},{"properties":{"city":"Sumas","geo_score":0.446,"total":0,"church name":"Sumas","church number":7885,"# 2010 interactions":0,"street":"PO Box 217","id":"a6459lf2267m","geo_precision":"street","# 2011 interactions":0,"zip postal":"98295"},"type":"Feature","geometry":{"type":"Point","coordinates":[-122.916939,48.709006]}},{"properties":{"city":"Tacoma","geo_score":0.819,"total":0,"church name":"Tacoma Chr. Ref. Community Church","church number":7891,"# 2010 interactions":0,"street":"2419 E 72nd St","id":"a6459lc2sjh6","geo_precision":"range","# 2011 interactions":0,"zip postal":"98404"},"type":"Feature","geometry":{"type":"Point","coordinates":[-122.397265,47.191745]}},{"properties":{"city":"Tacoma","geo_score":0.835,"total":0,"church name":"Tacoma","church number":7892,"# 2010 interactions":0,"street":"8046 S Ainsworth","id":"a6459lbh5xkw","geo_precision":"range","# 2011 interactions":0,"zip postal":"98408-1913"},"type":"Feature","geometry":{"type":"Point","coordinates":[-122.455234,47.184234]}},{"properties":{"city":"Fife","geo_score":0.728,"total":0,"church name":"Hebron","church number":7895,"# 2010 interactions":0,"street":"6112 20th St E","id":"a6459lftmkuc","geo_precision":"range","# 2011 interactions":0,"zip postal":"98424"},"type":"Feature","geometry":{"type":"Point","coordinates":[-122.346892,47.238974]}},{"properties":{"city":"Anchorage","geo_score":0.824,"total":0,"church name":"Crosspoint Community","church number":7896,"# 2010 interactions":0,"street":"1920 W Dimond Blvd Ste K","id":"a6459li8hl2z","geo_precision":"range","# 2011 interactions":0,"zip postal":"99515-1471"},"type":"Feature","geometry":{"type":"Point","coordinates":[-149.91438,61.138469]}},{"properties":{"city":"Cedar","geo_score":0.347,"total":0,"church name":"Cedar","church number":8107,"# 2010 interactions":0,"street":"Box 36","id":"a6459ljfe9ay","geo_precision":"street","# 2011 interactions":0,"zip postal":"52543"},"type":"Feature","geometry":{"type":"Point","coordinates":[-92.94627,40.864172]}},{"properties":{"city":"Cedar Rapids","geo_score":0.902,"total":0,"church name":"Peace","church number":8109,"# 2010 interactions":0,"street":"6600 C Ave NE","id":"a6459lpld6a0","geo_precision":"range","# 2011 interactions":0,"zip postal":"52402"},"type":"Feature","geometry":{"type":"Point","coordinates":[-91.63867,42.043858]}},{"properties":{"city":"West Des Moines","geo_score":0.683,"total":0,"church name":"Crossroads Fellowship","church number":8114,"# 2010 interactions":0,"street":"1200 60th St","id":"a6459lk3e24k","geo_precision":"range","# 2011 interactions":0,"zip postal":"50266"},"type":"Feature","geometry":{"type":"Point","coordinates":[-93.790582,41.587985]}},{"properties":{"city":"Leighton","geo_score":0.446,"total":0,"church name":"Leighton","church number":8121,"# 2010 interactions":0,"street":"PO Box 148","id":"a6459lc9x5n8","geo_precision":"street","# 2011 interactions":0,"zip postal":"50143-0148"},"type":"Feature","geometry":{"type":"Point","coordinates":[-94.452456,41.753128]}},{"properties":{"city":"Newton","geo_score":0.741,"total":0,"church name":"Newton","church number":8128,"# 2010 interactions":0,"street":"511 S 5th Ave E","id":"a6459lkuc3t6","geo_precision":"range","# 2011 interactions":0,"zip postal":"50208"},"type":"Feature","geometry":{"type":"Point","coordinates":[-93.047391,41.695586]}},{"properties":{"city":"Oskaloosa","geo_score":0.721,"total":0,"church name":"First","church number":8135,"# 2010 interactions":0,"street":"815 N 11th St","id":"a6459ledkh3g","geo_precision":"range","# 2011 interactions":0,"zip postal":"52577"},"type":"Feature","geometry":{"type":"Point","coordinates":[-92.631814,41.301949]}},{"properties":{"city":"Oskaloosa","geo_score":0.721,"total":0,"church name":"Bethel","church number":8142,"# 2010 interactions":0,"street":"2157  230th","id":"a6459lc9mn5e","geo_precision":"range","# 2011 interactions":0,"zip postal":"52577"},"type":"Feature","geometry":{"type":"Point","coordinates":[-92.648748,41.321505]}},{"properties":{"city":"Oskaloosa","geo_score":0.805,"total":0,"church name":"Good News Chapel","church number":8143,"# 2010 interactions":0,"street":"603 South H St","id":"a6459lds5ze8","geo_precision":"range","# 2011 interactions":0,"zip postal":"52577"},"type":"Feature","geometry":{"type":"Point","coordinates":[-92.654469,41.290825]}},{"properties":{"city":"Pella","geo_score":0.854,"total":0,"church name":"First","church number":8149,"# 2010 interactions":0,"street":"914 Liberty St","id":"a6459lhz1eef","geo_precision":"range","# 2011 interactions":0,"zip postal":"50219"},"type":"Feature","geometry":{"type":"Point","coordinates":[-92.920294,41.40538]}},{"properties":{"city":"Pella","geo_score":0.529,"total":0,"church name":"Grace Fellowship","church number":8150,"# 2010 interactions":0,"street":"2497 Highway 163E","id":"a6459lpkvfjk","geo_precision":"street","# 2011 interactions":0,"zip postal":"50219"},"type":"Feature","geometry":{"type":"Point","coordinates":[-92.955449,41.417502]}},{"properties":{"city":"Pella","geo_score":0.756,"total":0,"church name":"Second","church number":8156,"# 2010 interactions":0,"street":"609 E First St","id":"a6459lpyob7y","geo_precision":"range","# 2011 interactions":0,"zip postal":"50219"},"type":"Feature","geometry":{"type":"Point","coordinates":[-92.914728,41.404175]}},{"properties":{"city":"Pella","geo_score":0.854,"total":0,"church name":"Calvary","church number":8163,"# 2010 interactions":0,"street":"408 Maple St","id":"a6459lot956m","geo_precision":"range","# 2011 interactions":0,"zip postal":"50219"},"type":"Feature","geometry":{"type":"Point","coordinates":[-92.911829,41.417359]}},{"properties":{"city":"Pella","geo_score":0.675,"total":0,"church name":"Peoria","church number":8170,"# 2010 interactions":0,"street":"120 Peoria West St","id":"a6459ln8x8l3","geo_precision":"range","# 2011 interactions":0,"zip postal":"50219"},"type":"Feature","geometry":{"type":"Point","coordinates":[-93.060638,42.246157]}},{"properties":{"city":"Prairie City","geo_score":0.725,"total":0,"church name":"Prairie City","church number":8177,"# 2010 interactions":0,"street":"608 E 6th St","id":"a6459lewrhsw","geo_precision":"range","# 2011 interactions":0,"zip postal":"50228"},"type":"Feature","geometry":{"type":"Point","coordinates":[-93.23038,41.600377]}},{"properties":{"city":"Stephenville","geo_score":0.431,"total":0,"church name":"Stephenville","church number":8180,"# 2010 interactions":0,"street":"1120 CR 351","id":"a6459ldrgx2x","geo_precision":"street","# 2011 interactions":0,"zip postal":"76401"},"type":"Feature","geometry":{"type":"Point","coordinates":[-98.194162,32.220092]}},{"properties":{"city":"Sully","geo_score":0.446,"total":0,"church name":"Sully","church number":8184,"# 2010 interactions":0,"street":"PO Box 205","id":"a6459l9rgrfi","geo_precision":"street","# 2011 interactions":0,"zip postal":"50251-0205"},"type":"Feature","geometry":{"type":"Point","coordinates":[-94.375776,41.474866]}},{"properties":{"city":"Tracy","geo_score":0.902,"total":0,"church name":"Tracy","church number":8191,"# 2010 interactions":0,"street":"2451 Picard Drive","id":"a6459lh7dvjx","geo_precision":"range","# 2011 interactions":0,"zip postal":"50256"},"type":"Feature","geometry":{"type":"Point","coordinates":[-92.882996,41.273862]}},{"properties":{"city":"Crownpoint","geo_score":0.729,"total":0,"church name":"Crownpoint","church number":8320,"# 2010 interactions":0,"street":"PO Box 208","id":"a6459lfgoe4b","geo_precision":"zip","# 2011 interactions":0,"zip postal":"87313"},"type":"Feature","geometry":{"type":"Point","coordinates":[-108.270628,36.088623]}},{"properties":{"city":"Fort Wingate","geo_score":0.74,"total":0,"church name":"Fort Wingate","church number":8335,"# 2010 interactions":0,"street":"Box 388","id":"a6459lnx4nuv","geo_precision":"zip","# 2011 interactions":0,"zip postal":"87316-0388"},"type":"Feature","geometry":{"type":"Point","coordinates":[-108.518967,35.504467]}},{"properties":{"city":"Gallup","geo_score":0.857,"total":0,"church name":"Bethany","church number":8340,"# 2010 interactions":0,"street":"PO Box 1291","id":"a6459lpvagq9","geo_precision":"zip","# 2011 interactions":0,"zip postal":"87305"},"type":"Feature","geometry":{"type":"Point","coordinates":[-108.770522,35.449852]}},{"properties":{"city":"Sheep Springs","geo_score":0.857,"total":0,"church name":"Naschitti","church number":8350,"# 2010 interactions":0,"street":"PO Box 1309","id":"a6459llynafx","geo_precision":"zip","# 2011 interactions":0,"zip postal":"87364-1309"},"type":"Feature","geometry":{"type":"Point","coordinates":[-108.233548,36.500162]}},{"properties":{"city":"Red Valley","geo_score":0.857,"total":0,"church name":"Red Valley","church number":8360,"# 2010 interactions":0,"street":"PO Box 2004","id":"a6459lpcdb1r","geo_precision":"zip","# 2011 interactions":0,"zip postal":"86544"},"type":"Feature","geometry":{"type":"Point","coordinates":[-109.52295,35.237487]}},{"properties":{"city":"Rehoboth","geo_score":0.857,"total":0,"church name":"Rehoboth","church number":8363,"# 2010 interactions":0,"street":"PO Box 165","id":"a6459ll1efs6","geo_precision":"zip","# 2011 interactions":0,"zip postal":"87322"},"type":"Feature","geometry":{"type":"Point","coordinates":[-108.176693,35.480924]}},{"properties":{"city":"Sanostee","geo_score":0.286,"total":0,"church name":"Sanostee","church number":8368,"# 2010 interactions":0,"street":"PO Box 279","id":"a6459lbjrqxj","geo_precision":"street","# 2011 interactions":0,"zip postal":"87461"},"type":"Feature","geometry":{"type":"Point","coordinates":[-108.142917,36.775965]}},{"properties":{"city":"Teecnospos","geo_score":0.743,"total":0,"church name":"Four Corners","church number":8376,"# 2010 interactions":0,"street":"PO Box 1030","id":"a6459la2ni76","geo_precision":"zip","# 2011 interactions":0,"zip postal":"86514"},"type":"Feature","geometry":{"type":"Point","coordinates":[-109.368999,36.996389]}},{"properties":{"city":"Newcomb","geo_score":0.333,"total":0,"church name":"Toadlena","church number":8380,"# 2010 interactions":0,"street":"PO Box 7529","id":"a6459lmx265k","geo_precision":"street","# 2011 interactions":0,"zip postal":"87455"},"type":"Feature","geometry":{"type":"Point","coordinates":[-108.142917,36.775965]}},{"properties":{"city":"Tohatchi","geo_score":0.762,"total":0,"church name":"First Navajo","church number":8384,"# 2010 interactions":0,"street":"PO Box 119","id":"a6459l9m51rw","geo_precision":"zip","# 2011 interactions":0,"zip postal":"87325"},"type":"Feature","geometry":{"type":"Point","coordinates":[-108.80259,36.237507]}},{"properties":{"city":"Gallup","geo_score":0.857,"total":0,"church name":"Bethlehem","church number":8387,"# 2010 interactions":0,"street":"PO Box 929","id":"a6459le8ysj7","geo_precision":"zip","# 2011 interactions":0,"zip postal":"87305-0929"},"type":"Feature","geometry":{"type":"Point","coordinates":[-108.770522,35.449852]}},{"properties":{"city":"Zuni","geo_score":0.771,"total":0,"church name":"Zuni","church number":8398,"# 2010 interactions":0,"street":"Box 445","id":"a6459locstpi","geo_precision":"zip","# 2011 interactions":0,"zip postal":"87327"},"type":"Feature","geometry":{"type":"Point","coordinates":[-108.850639,35.072532]}},{"properties":{"city":"Alamosa","geo_score":0.805,"total":0,"church name":"Alamosa","church number":8404,"# 2010 interactions":0,"street":"1861 County Road 10 S","id":"a6459lku4bbk","geo_precision":"range","# 2011 interactions":0,"zip postal":"81101"},"type":"Feature","geometry":{"type":"Point","coordinates":[-106.0054,37.429794]}},{"properties":{"city":"Albuquerque","geo_score":0.823,"total":0,"church name":"Chelwood","church number":8408,"# 2010 interactions":0,"street":"2200 Chelwood Park Blvd NE","id":"a6459liq43wr","geo_precision":"range","# 2011 interactions":0,"zip postal":"87112"},"type":"Feature","geometry":{"type":"Point","coordinates":[-106.506506,35.107147]}},{"properties":{"city":"Colorado Springs","geo_score":0.824,"total":0,"church name":"Cragmor","church number":8412,"# 2010 interactions":0,"street":"1225 Acacia Dr","id":"a6459lcscq9j","geo_precision":"range","# 2011 interactions":0,"zip postal":"80907"},"type":"Feature","geometry":{"type":"Point","coordinates":[-104.802375,38.88937]}},{"properties":{"city":"Albuquerque","geo_score":0.823,"total":0,"church name":"Korean Presbyterian Galilee","church number":8413,"# 2010 interactions":0,"street":"2200 Chelwood Park Blvd NE","id":"a6459lmirorj","geo_precision":"range","# 2011 interactions":0,"zip postal":"87112"},"type":"Feature","geometry":{"type":"Point","coordinates":[-106.506506,35.107147]}},{"properties":{"city":"Denver","geo_score":0.902,"total":0,"church name":"Jewel","church number":8420,"# 2010 interactions":0,"street":"1895 S Ogden St","id":"a6459ljbkd21","geo_precision":"range","# 2011 interactions":0,"zip postal":"80210"},"type":"Feature","geometry":{"type":"Point","coordinates":[-104.97577,39.682233]}},{"properties":{"city":"Denver","geo_score":0.902,"total":0,"church name":"Christian Indian Center","church number":8426,"# 2010 interactions":0,"street":"501 S Pearl St","id":"a6459lkmnain","geo_precision":"range","# 2011 interactions":0,"zip postal":"80209"},"type":"Feature","geometry":{"type":"Point","coordinates":[-104.980448,39.707496]}},{"properties":{"city":"Grand Junction","geo_score":0.715,"total":0,"church name":"New Life","church number":8427,"# 2010 interactions":0,"street":"1350 N 7th St","id":"a6459lgatedr","geo_precision":"range","# 2011 interactions":0,"zip postal":"81501-3003"},"type":"Feature","geometry":{"type":"Point","coordinates":[-108.561029,39.079749]}},{"properties":{"city":"Westminster","geo_score":0.818,"total":0,"church name":"Family in Christ Community","church number":8428,"# 2010 interactions":0,"street":"11355 N Sheridan Blvd","id":"a6459llc0b72","geo_precision":"range","# 2011 interactions":0,"zip postal":"80020"},"type":"Feature","geometry":{"type":"Point","coordinates":[-105.052988,39.902317]}},{"properties":{"city":"Longmont","geo_score":0.844,"total":0,"church name":"The Journey","church number":8430,"# 2010 interactions":0,"street":"1285 S Fordham","id":"a6459lhotblk","geo_precision":"range","# 2011 interactions":0,"zip postal":"80503"},"type":"Feature","geometry":{"type":"Point","coordinates":[-105.140313,40.143524]}},{"properties":{"city":"Highlands Ranch","geo_score":0.902,"total":0,"church name":"Horizon Community","church number":8433,"# 2010 interactions":0,"street":"2121 Dad Clark Dr","id":"a6459lmfztur","geo_precision":"range","# 2011 interactions":0,"zip postal":"80126"},"type":"Feature","geometry":{"type":"Point","coordinates":[-104.96189,39.56032]}},{"properties":{"city":"Houston","geo_score":0.612,"total":0,"church name":"Hope","church number":8450,"# 2010 interactions":0,"street":"770 Pineloch Dr","id":"a6459lfmi2bz","geo_precision":"street","# 2011 interactions":0,"zip postal":"77062-2548"},"type":"Feature","geometry":{"type":"Point","coordinates":[-95.148806,29.570584]}},{"properties":{"city":"Prairie View","geo_score":0.805,"total":0,"church name":"Luctor","church number":8455,"# 2010 interactions":0,"street":"946 W 1100 Rd","id":"a6459lpkmuv6","geo_precision":"range","# 2011 interactions":0,"zip postal":"67664"},"type":"Feature","geometry":{"type":"Point","coordinates":[-99.534594,39.704751]}},{"properties":{"city":"Corsica","geo_score":0.321,"total":0,"church name":"Corsica","church number":8708,"# 2010 interactions":0,"street":"PO Box 3","id":"a6459lhdha4a","geo_precision":"street","# 2011 interactions":0,"zip postal":"57328"},"type":"Feature","geometry":{"type":"Point","coordinates":[-98.406782,43.425751]}},{"properties":{"city":"Harrison","geo_score":0.785,"total":0,"church name":"Harrison","church number":8716,"# 2010 interactions":0,"street":"390 5th St","id":"a6459lfhjgg1","geo_precision":"range","# 2011 interactions":0,"zip postal":"57344-2337"},"type":"Feature","geometry":{"type":"Point","coordinates":[-98.524659,43.430866]}},{"properties":{"city":"Sioux Center","geo_score":0.814,"total":0,"church name":"Bridge of Hope Ministries","church number":8721,"# 2010 interactions":0,"street":"956 N Main Ave","id":"a6459lf32eki","geo_precision":"range","# 2011 interactions":0,"zip postal":"51250"},"type":"Feature","geometry":{"type":"Point","coordinates":[-96.175727,43.08664]}},{"properties":{"city":"Inwood","geo_score":0.844,"total":0,"church name":"Inwood","church number":8740,"# 2010 interactions":0,"street":"305 E Madison","id":"a6459lklnd7t","geo_precision":"range","# 2011 interactions":0,"zip postal":"51240-0010"},"type":"Feature","geometry":{"type":"Point","coordinates":[-96.42925,43.305183]}},{"properties":{"city":"Parker","geo_score":0.902,"total":0,"church name":"Bethel","church number":8747,"# 2010 interactions":0,"street":"27831 447th Ave","id":"a6459llr45la","geo_precision":"range","# 2011 interactions":0,"zip postal":"57053"},"type":"Feature","geometry":{"type":"Point","coordinates":[-97.260601,43.353238]}},{"properties":{"city":"Menno","geo_score":0.78,"total":0,"church name":"Peace","church number":8748,"# 2010 interactions":0,"street":"306 N High St","id":"a6459lnz1qsq","geo_precision":"range","# 2011 interactions":0,"zip postal":"57045-2158"},"type":"Feature","geometry":{"type":"Point","coordinates":[-97.576825,43.243525]}},{"properties":{"city":"New Holland","geo_score":0.457,"total":0,"church name":"New Holland","church number":8749,"# 2010 interactions":0,"street":"Box 3","id":"a6459lm8qt2w","geo_precision":"street","# 2011 interactions":0,"zip postal":"57364"},"type":"Feature","geometry":{"type":"Point","coordinates":[-98.099095,44.646502]}},{"properties":{"city":"Platte","geo_score":0.286,"total":0,"church name":"Platte","church number":8753,"# 2010 interactions":0,"street":"PO Box 386","id":"a6459ldysz71","geo_precision":"street","# 2011 interactions":0,"zip postal":"57369"},"type":"Feature","geometry":{"type":"Point","coordinates":[-98.205913,44.36325]}},{"properties":{"city":"Rock Rapids","geo_score":0.756,"total":0,"church name":"Rock Rapids","church number":8761,"# 2010 interactions":0,"street":"303 S Bradley","id":"a6459lng8l07","geo_precision":"range","# 2011 interactions":0,"zip postal":"51246"},"type":"Feature","geometry":{"type":"Point","coordinates":[-96.176902,43.429674]}},{"properties":{"city":"Rock Valley","geo_score":0.737,"total":0,"church name":"First","church number":8765,"# 2010 interactions":0,"street":"1401 16th St","id":"a6459lfmqkdv","geo_precision":"range","# 2011 interactions":0,"zip postal":"51247"},"type":"Feature","geometry":{"type":"Point","coordinates":[-96.298289,43.206236]}},{"properties":{"city":"Rock Valley","geo_score":0.751,"total":0,"church name":"Calvin","church number":8769,"# 2010 interactions":0,"street":"1804 17th Ave","id":"a6459le5n8i2","geo_precision":"range","# 2011 interactions":0,"zip postal":"51247-0078"},"type":"Feature","geometry":{"type":"Point","coordinates":[-96.293554,43.208223]}},{"properties":{"city":"Sioux Center","geo_score":0.73,"total":0,"church name":"First","church number":8773,"# 2010 interactions":0,"street":"321  2nd St SE","id":"a6459lnfvp0k","geo_precision":"range","# 2011 interactions":0,"zip postal":"51250"},"type":"Feature","geometry":{"type":"Point","coordinates":[-96.170641,43.075948]}},{"properties":{"city":"Sioux Center","geo_score":0.814,"total":0,"church name":"Bethel","church number":8777,"# 2010 interactions":0,"street":"341 S Main Ave","id":"a6459lgnlz0y","geo_precision":"range","# 2011 interactions":0,"zip postal":"51250"},"type":"Feature","geometry":{"type":"Point","coordinates":[-96.175454,43.07483]}},{"properties":{"city":"Sioux Center","geo_score":0.73,"total":0,"church name":"Covenant","church number":8779,"# 2010 interactions":0,"street":"106 2nd St NE","id":"a6459lofdr8w","geo_precision":"range","# 2011 interactions":0,"zip postal":"51250"},"type":"Feature","geometry":{"type":"Point","coordinates":[-96.173985,43.078649]}},{"properties":{"city":"Sioux Center","geo_score":0.286,"total":0,"church name":"Faith","church number":8780,"# 2010 interactions":0,"street":"PO Box 128","id":"a6459lebvhyc","geo_precision":"street","# 2011 interactions":0,"zip postal":"51250"},"type":"Feature","geometry":{"type":"Point","coordinates":[-96.505721,43.47804]}},{"properties":{"city":"Sioux Falls","geo_score":0.819,"total":0,"church name":"First","church number":8781,"# 2010 interactions":0,"street":"2901 E 26th St","id":"a6459lkgpats","geo_precision":"range","# 2011 interactions":0,"zip postal":"57103"},"type":"Feature","geometry":{"type":"Point","coordinates":[-96.690602,43.529292]}},{"properties":{"city":"Ada","geo_score":0.819,"total":0,"church name":"Ada","church number":8902,"# 2010 interactions":0,"street":"7152 Bradfield St SE","id":"a6459lkf6ly8","geo_precision":"range","# 2011 interactions":0,"zip postal":"49301"},"type":"Feature","geometry":{"type":"Point","coordinates":[-85.492529,42.954452]}},{"properties":{"city":"Kentwood","geo_score":0.823,"total":0,"church name":"East Paris","church number":8933,"# 2010 interactions":0,"street":"3065 East Paris Ave SE","id":"a6459legsxuq","geo_precision":"range","# 2011 interactions":0,"zip postal":"49512"},"type":"Feature","geometry":{"type":"Point","coordinates":[-85.568375,42.907486]}},{"properties":{"city":"Ada","geo_score":0.819,"total":0,"church name":"Keystone Community","church number":8935,"# 2010 interactions":0,"street":"655 Spaulding Ave SE","id":"a6459lf69j0p","geo_precision":"range","# 2011 interactions":0,"zip postal":"49301"},"type":"Feature","geometry":{"type":"Point","coordinates":[-85.540265,42.954014]}},{"properties":{"city":"Grand Rapids","geo_score":0.782,"total":0,"church name":"Millbrook","church number":8939,"# 2010 interactions":0,"street":"3661 Poinsettia SE","id":"a6459lm51o33","geo_precision":"range","# 2011 interactions":0,"zip postal":"49508"},"type":"Feature","geometry":{"type":"Point","coordinates":[-85.635271,42.897472]}},{"properties":{"city":"Kentwood","geo_score":0.816,"total":0,"church name":"Princeton","church number":8945,"# 2010 interactions":0,"street":"5330 Kalamazoo Ave SE","id":"a6459lh8uznl","geo_precision":"range","# 2011 interactions":0,"zip postal":"49508"},"type":"Feature","geometry":{"type":"Point","coordinates":[-85.62525,42.867007]}},{"properties":{"city":"Middleville","geo_score":0.831,"total":0,"church name":"Middleville","church number":8970,"# 2010 interactions":0,"street":"708 W Main St","id":"a6459lo2llo7","geo_precision":"range","# 2011 interactions":0,"zip postal":"49333-0127"},"type":"Feature","geometry":{"type":"Point","coordinates":[-85.475575,42.711026]}},{"properties":{"city":"Waupun","geo_score":0.299,"total":0,"church name":"Alto","church number":9307,"# 2010 interactions":0,"street":"N 3631 County EE","id":"a6459li9o2i7","geo_precision":"street","# 2011 interactions":0,"zip postal":"53963-9411"},"type":"Feature","geometry":{"type":"Point","coordinates":[-88.795306,43.673212]}},{"properties":{"city":"Beaver Dam","geo_score":0.868,"total":0,"church name":"Faith Community","church number":9312,"# 2010 interactions":0,"street":"401 Stone St","id":"a6459liqwtyp","geo_precision":"range","# 2011 interactions":0,"zip postal":"53916"},"type":"Feature","geometry":{"type":"Point","coordinates":[-88.830103,43.446197]}},{"properties":{"city":"Delavan","geo_score":0.817,"total":0,"church name":"Delavan","church number":9321,"# 2010 interactions":0,"street":"850 Oak St","id":"a6459lky7o7e","geo_precision":"range","# 2011 interactions":0,"zip postal":"53115"},"type":"Feature","geometry":{"type":"Point","coordinates":[-88.635374,42.636638]}},{"properties":{"city":"Madison","geo_score":0.464,"total":0,"church name":"Geneva Campus Church","church number":9323,"# 2010 interactions":0,"street":"1127 University Ave, Rm 217","id":"a6459lmtklk1","geo_precision":"street","# 2011 interactions":0,"zip postal":"53715"},"type":"Feature","geometry":{"type":"Point","coordinates":[-89.399057,43.073243]}},{"properties":{"city":"Kenosha","geo_score":0.819,"total":0,"church name":"Kenosha","church number":9328,"# 2010 interactions":0,"street":"7506 25th Ave","id":"a6459lbb61tt","geo_precision":"range","# 2011 interactions":0,"zip postal":"53143"},"type":"Feature","geometry":{"type":"Point","coordinates":[-87.838758,42.565856]}},{"properties":{"city":"Madison","geo_score":0.902,"total":0,"church name":"Crossroads","church number":9335,"# 2010 interactions":0,"street":"3815 S Dutch Mill Rd","id":"a6459lczwwkl","geo_precision":"range","# 2011 interactions":0,"zip postal":"53718"},"type":"Feature","geometry":{"type":"Point","coordinates":[-89.301811,43.04159]}},{"properties":{"city":"Brookfield","geo_score":0.835,"total":0,"church name":"Brookfield","church number":9342,"# 2010 interactions":0,"street":"14135 W Burleigh Rd","id":"a6459lb23ovl","geo_precision":"range","# 2011 interactions":0,"zip postal":"53005"},"type":"Feature","geometry":{"type":"Point","coordinates":[-88.09049,43.075088]}},{"properties":{"city":"Racine","geo_score":0.902,"total":0,"church name":"Racine","church number":9356,"# 2010 interactions":0,"street":"900 Illinois St","id":"a6459lb4q7th","geo_precision":"range","# 2011 interactions":0,"zip postal":"53405"},"type":"Feature","geometry":{"type":"Point","coordinates":[-87.833595,42.722541]}},{"properties":{"city":"Randolph","geo_score":0.865,"total":0,"church name":"Second","church number":9364,"# 2010 interactions":0,"street":"418 Tamarack St","id":"a6459lbj5tfd","geo_precision":"range","# 2011 interactions":0,"zip postal":"53956-0146"},"type":"Feature","geometry":{"type":"Point","coordinates":[-89.002763,43.541602]}},{"properties":{"city":"Sheboygan","geo_score":0.813,"total":0,"church name":"First","church number":9370,"# 2010 interactions":0,"street":"428 Geele Ave","id":"a6459lohbph8","geo_precision":"range","# 2011 interactions":0,"zip postal":"53083"},"type":"Feature","geometry":{"type":"Point","coordinates":[-87.706563,43.768338]}},{"properties":{"city":"Sheboygan","geo_score":0.837,"total":0,"church name":"Calvin","church number":9377,"# 2010 interactions":0,"street":"2313 Saemann Ave","id":"a6459ljelxwa","geo_precision":"range","# 2011 interactions":0,"zip postal":"53081"},"type":"Feature","geometry":{"type":"Point","coordinates":[-87.736544,43.76446]}},{"properties":{"city":"Waupun","geo_score":0.821,"total":0,"church name":"First","church number":9391,"# 2010 interactions":0,"street":"20 Bly St","id":"a6459l9jrprm","geo_precision":"range","# 2011 interactions":0,"zip postal":"53963"},"type":"Feature","geometry":{"type":"Point","coordinates":[-88.739959,43.632934]}},{"properties":{"city":"Waupun","geo_score":0.696,"total":0,"church name":"Bethel","church number":9396,"# 2010 interactions":0,"street":"410 S West St","id":"a6459lj5f8ef","geo_precision":"range","# 2011 interactions":0,"zip postal":"53963-1652"},"type":"Feature","geometry":{"type":"Point","coordinates":[-88.751428,43.628624]}},{"properties":{"city":"Bozeman","geo_score":0.819,"total":0,"church name":"Bozeman","church number":9520,"# 2010 interactions":0,"street":"324 N 5th Ave","id":"a6459lejy7kd","geo_precision":"range","# 2011 interactions":0,"zip postal":"59715"},"type":"Feature","geometry":{"type":"Point","coordinates":[-111.043853,45.682253]}},{"properties":{"city":"Bozeman","geo_score":0.902,"total":0,"church name":"Gallatin Gateway Community","church number":9521,"# 2010 interactions":0,"street":"77000 Gallatin Rd","id":"a6459lju8bso","geo_precision":"range","# 2011 interactions":0,"zip postal":"59718"},"type":"Feature","geometry":{"type":"Point","coordinates":[-111.196186,45.601887]}},{"properties":{"city":"Manhattan","geo_score":0.827,"total":0,"church name":"Bethel","church number":9560,"# 2010 interactions":0,"street":"7693 Churchill Rd","id":"a6459lj29ojk","geo_precision":"range","# 2011 interactions":0,"zip postal":"59741-8566"},"type":"Feature","geometry":{"type":"Point","coordinates":[-111.309733,45.751685]}},{"properties":{"city":"Manhattan","geo_score":0.827,"total":0,"church name":"Manhattan","church number":9561,"# 2010 interactions":0,"street":"7950 Churchill Rd","id":"a6459lo9ygxw","geo_precision":"range","# 2011 interactions":0,"zip postal":"59741-8407"},"type":"Feature","geometry":{"type":"Point","coordinates":[-111.300585,45.748551]}},{"properties":{"city":"West Valley","geo_score":0.0,"total":0,"church name":"Cambodian","church number":9575,"# 2010 interactions":0,"street":"4073 S 4650 W","id":"a6459lmhkzi6","geo_precision":"unmatched","# 2011 interactions":0,"zip postal":"84210"},"type":"Feature","geometry":null},{"properties":{"city":"Salt Lake City","geo_score":0.902,"total":0,"church name":"First","church number":9576,"# 2010 interactions":0,"street":"805 E 900 S","id":"a6459lahxlpr","geo_precision":"range","# 2011 interactions":0,"zip postal":"84105"},"type":"Feature","geometry":{"type":"Point","coordinates":[-111.868102,40.749791]}},{"properties":{"city":"Salt Lake City","geo_score":0.902,"total":0,"church name":"Indian Christian Center","church number":9578,"# 2010 interactions":0,"street":"859 South 800 East","id":"a6459lbmzdh8","geo_precision":"range","# 2011 interactions":0,"zip postal":"84102"},"type":"Feature","geometry":{"type":"Point","coordinates":[-111.868193,40.750644]}},{"properties":{"city":"Allendale","geo_score":0.827,"total":0,"church name":"Second","church number":9608,"# 2010 interactions":0,"street":"6950 Lake Michigan Dr","id":"a6459ldaoaut","geo_precision":"range","# 2011 interactions":0,"zip postal":"49401-0026"},"type":"Feature","geometry":{"type":"Point","coordinates":[-85.957469,42.972095]}},{"properties":{"city":"Hudsonville","geo_score":0.73,"total":0,"church name":"Beaverdam","church number":9612,"# 2010 interactions":0,"street":"5166 64th Ave","id":"a6459lf3okct","geo_precision":"range","# 2011 interactions":0,"zip postal":"49426"},"type":"Feature","geometry":{"type":"Point","coordinates":[-85.940226,42.86303]}},{"properties":{"city":"Zeeland","geo_score":0.775,"total":0,"church name":"Borculo","church number":9616,"# 2010 interactions":0,"street":"6464  96th Ave","id":"a6459lh3mhl7","geo_precision":"range","# 2011 interactions":0,"zip postal":"49464"},"type":"Feature","geometry":{"type":"Point","coordinates":[-86.021278,42.8865]}},{"properties":{"city":"Coopersville","geo_score":0.846,"total":0,"church name":"Coopersville","church number":9618,"# 2010 interactions":0,"street":"200 Henry St","id":"a6459laejy97","geo_precision":"range","# 2011 interactions":0,"zip postal":"49404"},"type":"Feature","geometry":{"type":"Point","coordinates":[-85.931605,43.073322]}},{"properties":{"city":"Zeeland","geo_score":0.859,"total":0,"church name":"Drenthe","church number":9620,"# 2010 interactions":0,"street":"6344 Adams St","id":"a6459ljgzljk","geo_precision":"range","# 2011 interactions":0,"zip postal":"49464"},"type":"Feature","geometry":{"type":"Point","coordinates":[-85.936845,42.782822]}},{"properties":{"city":"Hudsonville","geo_score":0.814,"total":0,"church name":"North Blendon","church number":9641,"# 2010 interactions":0,"street":"7284 Taylor St","id":"a6459lde229t","geo_precision":"range","# 2011 interactions":0,"zip postal":"49426"},"type":"Feature","geometry":{"type":"Point","coordinates":[-85.963928,42.92876]}},{"properties":{"city":"Hamilton","geo_score":0.722,"total":0,"church name":"Oakland","church number":9645,"# 2010 interactions":0,"street":"4452 38th St","id":"a6459lf38gxb","geo_precision":"range","# 2011 interactions":0,"zip postal":"49419"},"type":"Feature","geometry":{"type":"Point","coordinates":[-85.919944,42.742242]}},{"properties":{"city":"Holland","geo_score":0.418,"total":0,"church name":"Overisel","church number":9649,"# 2010 interactions":0,"street":"A 4738  142nd Ave","id":"a6459lfzgqkw","geo_precision":"street","# 2011 interactions":0,"zip postal":"49423"},"type":"Feature","geometry":{"type":"Point","coordinates":[-85.919384,42.723971]}},{"properties":{"city":"Allendale","geo_score":0.721,"total":0,"church name":"Rusk","church number":9653,"# 2010 interactions":0,"street":"10354 92nd Ave","id":"a6459lmtnx0f","geo_precision":"range","# 2011 interactions":0,"zip postal":"49401"},"type":"Feature","geometry":{"type":"Point","coordinates":[-86.012757,42.956535]}},{"properties":{"city":"Zeeland","geo_score":0.859,"total":0,"church name":"First","church number":9657,"# 2010 interactions":0,"street":"15 S Church St","id":"a6459lpw1lie","geo_precision":"range","# 2011 interactions":0,"zip postal":"49464"},"type":"Feature","geometry":{"type":"Point","coordinates":[-86.014018,42.811987]}},{"properties":{"city":"Zeeland","geo_score":0.859,"total":0,"church name":"Third","church number":9665,"# 2010 interactions":0,"street":"10 W Central Ave","id":"a6459lasjqx6","geo_precision":"range","# 2011 interactions":0,"zip postal":"49464"},"type":"Feature","geometry":{"type":"Point","coordinates":[-86.019132,42.810473]}},{"properties":{"city":"Zeeland","geo_score":0.859,"total":0,"church name":"Bethel","church number":9669,"# 2010 interactions":0,"street":"515 E Main Ave","id":"a6459lo6und1","geo_precision":"range","# 2011 interactions":0,"zip postal":"49464"},"type":"Feature","geometry":{"type":"Point","coordinates":[-86.007406,42.812367]}}],"is_temporal":false,"author":{"url":"","metadata":"","contact_name":"Shirley De Vries","contact_address":"","source":"CRCNA's CORE DB combined with Salesforce ","contact_phone":""},"source":"","pagination":{"sort":null,"start":0,"total":466,"limit":1000000},"state":"complete","tags":"","published":"2014-08-10T21:09:57-04:00","id":96785}