{"type":"FeatureCollection","data_type":"Dataset","url_type":null,"permissions":[{"permissions":{"download":true,"view":true},"group_id":"everyone"}],"classification":null,"title":"Community Clinics","count":23,"stream_id":9878,"contributor":{"url":"http://geocommons.com/users/4822","name":"dsilver"},"data_attributes":null,"calculation_params":null,"icon_link":null,"link":"http://geocommons.com/overlays/9878.json","extent":[-104.488,37.1728,-102.247,40.6815],"geometry_types":["point"],"unique_name":null,"name":"Community Clinics","feature_count":23,"description":"","next_feature":null,"is_raster":false,"short_classification":"Y","stats":{"latitude":{"max":40.68148,"mean":38.9125003913043,"variance":1.2098871459057,"stdev":1.09994870148826,"min":37.172834,"median":38.81941},"zipcode":{"max":81082,"mean":80907.4347826087,"variance":22045.7114624506,"stdev":148.47798308992,"min":80701,"median":80828},"id":{"max":153,"mean":88.6521739130435,"variance":2045.2371541502,"stdev":45.2242982715066,"min":5,"median":88},"longitude":{"max":-102.246792,"mean":-103.297504173913,"variance":0.382643130299877,"stdev":0.618581547008862,"min":-104.488295,"median":-103.22163},"telehealth":{"max":1,"mean":1.0,"variance":0.0,"stdev":0.0,"min":1,"median":1}},"features":[{"properties":{"name":"Fleming Family Health Center","city":"Fleming","latitude":40.68148,"zipcode":80728,"county":"Logan","trauma level":"","id":"a62rwy7wyvo4","longitude":-102.839944,"address":"104 W Larimer St","group":"Community Clinics","state":"CO","telehealth":""},"type":"Feature","geometry":{"type":"Point","coordinates":[-102.839944,40.68148]}},{"properties":{"name":"Salud Family Health Center - Sterling","city":"Sterling","latitude":40.612546,"zipcode":80751,"county":"Logan","trauma level":"","id":"a62rwycp3176","longitude":-103.22163,"address":"1410 S Seventh Ave","group":"Community Clinics","state":"CO","telehealth":1},"type":"Feature","geometry":{"type":"Point","coordinates":[-103.22163,40.612546]}},{"properties":{"name":"Sterling Correctional Facility","city":"Sterling","latitude":40.610447,"zipcode":80751,"county":"Logan","trauma level":"","id":"a62rwyh4enaf","longitude":-103.147102,"address":"12101 Highway 61","group":"Community Clinics","state":"CO","telehealth":""},"type":"Feature","geometry":{"type":"Point","coordinates":[-103.147102,40.610447]}},{"properties":{"name":"High Plains Correctional Facility","city":"Brush","latitude":40.271818,"zipcode":80723,"county":"Morgan","trauma level":"","id":"a62rwyjfmlsq","longitude":-103.630079,"address":"901 Industrial Park Road","group":"Community Clinics","state":"CO","telehealth":""},"type":"Feature","geometry":{"type":"Point","coordinates":[-103.630079,40.271818]}},{"properties":{"name":"Salud Family Health Center - Fort Morgan","city":"Fort Morgan","latitude":40.248627,"zipcode":80701,"county":"Morgan","trauma level":"","id":"a62rwyc2brtf","longitude":-103.788316,"address":"909 E Railroad Ave","group":"Community Clinics","state":"CO","telehealth":""},"type":"Feature","geometry":{"type":"Point","coordinates":[-103.788316,40.248627]}},{"properties":{"name":"Akron Clinic","city":"Akron","latitude":40.158876,"zipcode":80720,"county":"Washington","trauma level":"","id":"a62rwygwayrx","longitude":-103.212563,"address":"82 Main St","group":"Community Clinics","state":"CO","telehealth":1},"type":"Feature","geometry":{"type":"Point","coordinates":[-103.212563,40.158876]}},{"properties":{"name":"Kit Carson Correctional Center","city":"Burlington","latitude":39.30137,"zipcode":80807,"county":"Kit Carson","trauma level":"","id":"a62rwygk10zw","longitude":-102.246792,"address":"49777 County Rd V","group":"Community Clinics","state":"CO","telehealth":""},"type":"Feature","geometry":{"type":"Point","coordinates":[-102.246792,39.30137]}},{"properties":{"name":"Plains Medical Center - Flagler","city":"Flagler","latitude":39.291403,"zipcode":80815,"county":"Kit Carson","trauma level":"","id":"a62rwyhvj42y","longitude":-103.064161,"address":"305 Pawnee Ave","group":"Community Clinics","state":"CO","telehealth":1},"type":"Feature","geometry":{"type":"Point","coordinates":[-103.064161,39.291403]}},{"properties":{"name":"Plains Medical Center - Limon Clinic","city":"Limon","latitude":39.260718,"zipcode":80828,"county":"Lincoln","trauma level":"","id":"a62rwym22pju","longitude":-103.686858,"address":"820 First St","group":"Community Clinics","state":"CO","telehealth":1},"type":"Feature","geometry":{"type":"Point","coordinates":[-103.686858,39.260718]}},{"properties":{"name":"Limon Correctional Facility","city":"Limon","latitude":39.210921,"zipcode":80826,"county":"Lincoln","trauma level":"","id":"a62rwyh1kelw","longitude":-103.695635,"address":"49030 Highway 71","group":"Community Clinics","state":"CO","telehealth":""},"type":"Feature","geometry":{"type":"Point","coordinates":[-103.695635,39.210921]}},{"properties":{"name":"Arkansas Valley Correctional Facility","city":"Crowley","latitude":38.18921,"zipcode":81034,"county":"Crowley","trauma level":"","id":"a62rwy8ik3d9","longitude":-103.857329,"address":"5501 County Ln","group":"Community Clinics","state":"CO","telehealth":""},"type":"Feature","geometry":{"type":"Point","coordinates":[-103.857329,38.18921]}},{"properties":{"name":"Crowley County Correctional Facility","city":"Olney","latitude":38.162094,"zipcode":81062,"county":"Crowley","trauma level":"","id":"a62rwyitq3dp","longitude":-103.958358,"address":"6564 Highway 96","group":"Community Clinics","state":"CO","telehealth":""},"type":"Feature","geometry":{"type":"Point","coordinates":[-103.958358,38.162094]}},{"properties":{"name":"Fort Lyon Correctional Facility","city":"Fort Lyon","latitude":38.084966,"zipcode":81038,"county":"Bent","trauma level":"","id":"a62rwyaqxjnl","longitude":-103.142833,"address":"30999 County Road 15","group":"Community Clinics","state":"CO","telehealth":""},"type":"Feature","geometry":{"type":"Point","coordinates":[-103.142833,38.084966]}},{"properties":{"name":"Las Animas Clinic","city":"Las Animas","latitude":38.070918,"zipcode":81054,"county":"Bent","trauma level":"","id":"a62rwyg5y443","longitude":-103.22808,"address":"245 Vine Ave","group":"Community Clinics","state":"CO","telehealth":""},"type":"Feature","geometry":{"type":"Point","coordinates":[-103.22808,38.070918]}},{"properties":{"name":"High Plains Community Health Center","city":"Lamar","latitude":38.068391,"zipcode":81052,"county":"Prowers","trauma level":"","id":"a62rwyib1deq","longitude":-102.611865,"address":"201 Kendall Dr","group":"Community Clinics","state":"CO","telehealth":1},"type":"Feature","geometry":{"type":"Point","coordinates":[-102.611865,38.068391]}},{"properties":{"name":"Bent County Correctional Facility","city":"Las Animas","latitude":38.066149,"zipcode":81054,"county":"Bent","trauma level":"","id":"a62rwyaw9dm2","longitude":-103.204836,"address":"11560 County Road FF 75","group":"Community Clinics","state":"CO","telehealth":""},"type":"Feature","geometry":{"type":"Point","coordinates":[-103.204836,38.066149]}},{"properties":{"name":"Rocky Ford Clinic","city":"Rocky Ford","latitude":38.045277,"zipcode":81067,"county":"Otero","trauma level":"","id":"a62rwykkxioc","longitude":-103.719952,"address":"903 S Twelfth St","group":"Community Clinics","state":"CO","telehealth":1},"type":"Feature","geometry":{"type":"Point","coordinates":[-103.719952,38.045277]}},{"properties":{"name":"La Junta Clinic","city":"La Junta","latitude":37.977562,"zipcode":81050,"county":"Otero","trauma level":"","id":"a62rwym4omar","longitude":-103.548871,"address":"1100 Carson Ave","group":"Community Clinics","state":"CO","telehealth":1},"type":"Feature","geometry":{"type":"Point","coordinates":[-103.548871,37.977562]}},{"properties":{"name":"Trinidad Correctional Facility","city":"Model","latitude":37.293157,"zipcode":81059,"county":"Las Animas","trauma level":"","id":"a62rwykika7r","longitude":-104.309315,"address":"21000 Highway 350","group":"Community Clinics","state":"CO","telehealth":""},"type":"Feature","geometry":{"type":"Point","coordinates":[-104.309315,37.293157]}},{"properties":{"name":"Las Animas-Huerfano Counties District Health Departments","city":"Trinidad","latitude":37.172834,"zipcode":81082,"county":"Las Animas","trauma level":"","id":"a62rwybkig2p","longitude":-104.488295,"address":"412 Benedicta Ave","group":"Community Clinics","state":"CO","telehealth":""},"type":"Feature","geometry":{"type":"Point","coordinates":[-104.488295,37.172834]}},{"properties":{"name":"Cheyenne County Public Health Office","city":"Cheyenne Wells","latitude":38.81941,"zipcode":80810,"county":"Cheyenne","trauma level":"","id":"a62rwyhz17sq","longitude":-102.348614,"address":"615 N Fifth W","group":"Community Clinics","state":"CO","telehealth":""},"type":"Feature","geometry":{"type":"Point","coordinates":[-102.348614,38.81941]}},{"properties":{"name":"Kit Carson County Health &amp; Human Services","city":"Burlington","latitude":39.301665,"zipcode":80807,"county":"Kit Carson","trauma level":"","id":"a62rwyaq2bc7","longitude":-102.272004,"address":"252 South Fourteenth St","group":"Community Clinics","state":"CO","telehealth":""},"type":"Feature","geometry":{"type":"Point","coordinates":[-102.272004,39.301665]}},{"properties":{"name":"Lamar High School Based Health Center","city":"Lamar","latitude":38.08767,"zipcode":81052,"county":"Prowers","trauma level":"","id":"a62rwy6rvlgx","longitude":-102.619164,"address":"1900 S Eleventh St","group":"Community Clinics","state":"CO","telehealth":""},"type":"Feature","geometry":{"type":"Point","coordinates":[-102.619164,38.08767]}}],"is_temporal":false,"author":{"url":"","metadata":"","contact_name":"","contact_address":"","source":"","contact_phone":""},"source":"","pagination":{"sort":null,"start":0,"total":23,"limit":1000000},"state":"complete","tags":"","published":"2014-08-11T11:23:44-04:00","id":9878}