{"type":"FeatureCollection","data_type":"Dataset","url_type":null,"permissions":[{"permissions":{"download":true,"view":true},"group_id":"everyone"}],"classification":null,"title":"Residential Care Services - Developmentally Disabled","count":20,"stream_id":9887,"contributor":{"url":"http://geocommons.com/users/4822","name":"dsilver"},"data_attributes":null,"calculation_params":null,"icon_link":null,"link":"http://geocommons.com/overlays/9887.json","extent":[-104.527,37.1604,-102.273,40.9892],"geometry_types":["point"],"unique_name":null,"name":"Residential Care Services - Developmentally Disabled","feature_count":20,"description":"","next_feature":null,"is_raster":false,"short_classification":"Y","stats":{"latitude":{"max":40.989186,"mean":38.67203325,"variance":1.54666316507199,"stdev":1.24364913262222,"min":37.160401,"median":38.084724},"zipcode":{"max":81082,"mean":80953.4,"variance":23990.8842105263,"stdev":154.889909970037,"min":80701,"median":81052},"id":{"max":150,"mean":88.6,"variance":2116.88421052632,"stdev":46.0096099801587,"min":4,"median":110},"longitude":{"max":-102.272901,"mean":-103.2988781,"variance":0.546694872832307,"stdev":0.739388174663557,"min":-104.526908,"median":-103.233065}},"features":[{"properties":{"name":"Almar Residential Facility","city":"Julesberg","latitude":40.989186,"zipcode":80737,"county":"Sedgwick","trauma level":"","id":"a6ndtemjk9o7","longitude":-102.27592,"address":"823 W Ninth St","group":"Residential Care Facilities - Developmentally Disabled","state":"CO","telehealth":""},"type":"Feature","geometry":{"type":"Point","coordinates":[-102.27592,40.989186]}},{"properties":{"name":"Adams Circle","city":"Sterling","latitude":40.641018,"zipcode":80751,"county":"Logan","trauma level":"","id":"a6ndte8kak03","longitude":-103.203565,"address":"1413 Adams Cir","group":"Residential Care Facilities - Developmentally Disabled","state":"CO","telehealth":""},"type":"Feature","geometry":{"type":"Point","coordinates":[-103.203565,40.641018]}},{"properties":{"name":"Fifth Avenue","city":"Sterling","latitude":40.625072,"zipcode":80751,"county":"Logan","trauma level":"","id":"a6ndtefrgs6n","longitude":-103.218638,"address":"120 S Fifth Ave","group":"Residential Care Facilities - Developmentally Disabled","state":"CO","telehealth":""},"type":"Feature","geometry":{"type":"Point","coordinates":[-103.218638,40.625072]}},{"properties":{"name":"Vickie Street Residential Facility","city":"Fort Morgan","latitude":40.256791,"zipcode":80701,"county":"Morgan","trauma level":"","id":"a6ndtefo08pv","longitude":-103.783544,"address":"808 Vickie St","group":"Residential Care Facilities - Developmentally Disabled","state":"CO","telehealth":""},"type":"Feature","geometry":{"type":"Point","coordinates":[-103.783544,40.256791]}},{"properties":{"name":"Gayle Street Residential Facility","city":"Fort Morgan","latitude":40.242559,"zipcode":80701,"county":"Morgan","trauma level":"","id":"a6ndtek56xhp","longitude":-103.785447,"address":"425 Gayle St","group":"Residential Care Facilities - Developmentally Disabled","state":"CO","telehealth":""},"type":"Feature","geometry":{"type":"Point","coordinates":[-103.785447,40.242559]}},{"properties":{"name":"Martin House","city":"Burlington","latitude":39.305974,"zipcode":80807,"county":"Kit Carson","trauma level":"","id":"a6ndteil89vo","longitude":-102.272901,"address":"1776 Martin Ave","group":"Residential Care Facilities - Developmentally Disabled","state":"CO","telehealth":""},"type":"Feature","geometry":{"type":"Point","coordinates":[-102.272901,39.305974]}},{"properties":{"name":"Marion House","city":"Burlington","latitude":39.302556,"zipcode":80807,"county":"Kit Carson","trauma level":"","id":"a6ndtel3rorw","longitude":-102.287903,"address":"212 Marion St","group":"Residential Care Facilities - Developmentally Disabled","state":"CO","telehealth":""},"type":"Feature","geometry":{"type":"Point","coordinates":[-102.287903,39.302556]}},{"properties":{"name":"First Street Facility","city":"Lamar","latitude":38.09448,"zipcode":81052,"county":"Prowers","trauma level":"","id":"a6ndte8ztwwo","longitude":-102.614528,"address":"501 First St","group":"Residential Care Facilities - Developmentally Disabled","state":"CO","telehealth":""},"type":"Feature","geometry":{"type":"Point","coordinates":[-102.614528,38.09448]}},{"properties":{"name":"Oak Street Facility","city":"Lamar","latitude":38.085746,"zipcode":81052,"county":"Prowers","trauma level":"","id":"a6ndtebjmv3r","longitude":-102.628588,"address":"806 W Oak St","group":"Residential Care Facilities - Developmentally Disabled","state":"CO","telehealth":""},"type":"Feature","geometry":{"type":"Point","coordinates":[-102.628588,38.085746]}},{"properties":{"name":"Twelfth Street","city":"Lamar","latitude":38.084724,"zipcode":81052,"county":"Prowers","trauma level":"","id":"a6ndteac09do","longitude":-102.629384,"address":"500 S Twelfth St","group":"Residential Care Facilities - Developmentally Disabled","state":"CO","telehealth":""},"type":"Feature","geometry":{"type":"Point","coordinates":[-102.629384,38.084724]}},{"properties":{"name":"Cottonwood Group Home","city":"Las Animas","latitude":38.060718,"zipcode":81054,"county":"Bent","trauma level":"","id":"a6ndtefhkya3","longitude":-103.233065,"address":"1028 Cottonwood","group":"Residential Care Facilities - Developmentally Disabled","state":"CO","telehealth":""},"type":"Feature","geometry":{"type":"Point","coordinates":[-103.233065,38.060718]}},{"properties":{"name":"Memorial","city":"Lamar","latitude":38.05865,"zipcode":81052,"county":"Prowers","trauma level":"","id":"a6ndtelkmjow","longitude":-102.608932,"address":"3106 Memorial Dr","group":"Residential Care Facilities - Developmentally Disabled","state":"CO","telehealth":""},"type":"Feature","geometry":{"type":"Point","coordinates":[-102.608932,38.05865]}},{"properties":{"name":"Riverside Group Home","city":"Las Animas","latitude":38.055237,"zipcode":81054,"county":"Bent","trauma level":"","id":"a6ndtei5ydhx","longitude":-103.233434,"address":"30015 County Road 10","group":"Residential Care Facilities - Developmentally Disabled","state":"CO","telehealth":""},"type":"Feature","geometry":{"type":"Point","coordinates":[-103.233434,38.055237]}},{"properties":{"name":"South Second Street Group Home","city":"Rocky Ford","latitude":38.049346,"zipcode":81067,"county":"Otero","trauma level":"","id":"a6ndte85si1z","longitude":-103.729387,"address":"700 S Second St","group":"Residential Care Facilities - Developmentally Disabled","state":"CO","telehealth":""},"type":"Feature","geometry":{"type":"Point","coordinates":[-103.729387,38.049346]}},{"properties":{"name":"South Sixth Street Group Home","city":"Rocky Ford","latitude":38.04727,"zipcode":81067,"county":"Otero","trauma level":"","id":"a6ndtedmz7qo","longitude":-103.727043,"address":"818 S Sixth St","group":"Residential Care Facilities - Developmentally Disabled","state":"CO","telehealth":""},"type":"Feature","geometry":{"type":"Point","coordinates":[-103.727043,38.04727]}},{"properties":{"name":"Arrowhead Lane","city":"Rocky Ford","latitude":38.041255,"zipcode":81067,"county":"Otero","trauma level":"","id":"a6ndtec0yzby","longitude":-103.689543,"address":"21139 US Highway 50","group":"Residential Care Facilities - Developmentally Disabled","state":"CO","telehealth":""},"type":"Feature","geometry":{"type":"Point","coordinates":[-103.689543,38.041255]}},{"properties":{"name":"Lincoln Street Group Home","city":"La Junta","latitude":37.981707,"zipcode":81050,"county":"Otero","trauma level":"","id":"a6ndtega7lmh","longitude":-103.549571,"address":"701 Lincoln Ave","group":"Residential Care Facilities - Developmentally Disabled","state":"CO","telehealth":""},"type":"Feature","geometry":{"type":"Point","coordinates":[-103.549571,37.981707]}},{"properties":{"name":"Casa Alegre I","city":"Trinidad","latitude":37.18834,"zipcode":81082,"county":"Las Animas","trauma level":"","id":"a6ndtem17lpo","longitude":-104.47495,"address":"717 Adams","group":"Residential Care Facilities - Developmentally Disabled","state":"CO","telehealth":""},"type":"Feature","geometry":{"type":"Point","coordinates":[-104.47495,37.18834]}},{"properties":{"name":"Vista Del Rae","city":"Trinidad","latitude":37.169635,"zipcode":81082,"county":"Las Animas","trauma level":"","id":"a6ndtedm6yy6","longitude":-104.526908,"address":"1402 Atchison","group":"Residential Care Facilities - Developmentally Disabled","state":"CO","telehealth":""},"type":"Feature","geometry":{"type":"Point","coordinates":[-104.526908,37.169635]}},{"properties":{"name":"Casa Alegre II","city":"Trinidad","latitude":37.160401,"zipcode":81082,"county":"Las Animas","trauma level":"","id":"a6ndtedelj5y","longitude":-104.504311,"address":"305 Madison","group":"Residential Care Facilities - Developmentally Disabled","state":"CO","telehealth":""},"type":"Feature","geometry":{"type":"Point","coordinates":[-104.504311,37.160401]}}],"is_temporal":false,"author":{"url":"","metadata":"","contact_name":"","contact_address":"","source":"","contact_phone":""},"source":"","pagination":{"sort":null,"start":0,"total":20,"limit":1000000},"state":"complete","tags":"","published":"2014-08-11T11:23:46-04:00","id":9887}