{"type":"FeatureCollection","data_type":"Dataset","url_type":null,"permissions":[{"permissions":{"download":true,"view":true},"group_id":"everyone"}],"classification":null,"title":"Rural Health Clinics","count":17,"stream_id":9888,"contributor":{"url":"http://geocommons.com/users/4822","name":"dsilver"},"data_attributes":null,"calculation_params":null,"icon_link":null,"link":"http://geocommons.com/overlays/9888.json","extent":[-104.074,37.404,-102.269,40.9935],"geometry_types":["point"],"unique_name":null,"name":"Rural Health Clinics","feature_count":17,"description":"","next_feature":null,"is_raster":false,"short_classification":"Y","stats":{"latitude":{"max":40.993542,"mean":39.2661409411765,"variance":1.23310055459168,"stdev":1.11045060880333,"min":37.403957,"median":39.30105},"zipcode":{"max":81092,"mean":80867.1176470588,"variance":24500.2352941176,"stdev":156.525510042669,"min":80654,"median":80810},"id":{"max":137,"mean":67.7647058823529,"variance":1258.69117647059,"stdev":35.4780379456163,"min":1,"median":72},"longitude":{"max":-102.268638,"mean":-102.958429294118,"variance":0.330986788235345,"stdev":0.575314512449795,"min":-104.074355,"median":-102.784249},"telehealth":{"max":1,"mean":1.0,"variance":0.0,"stdev":0.0,"min":1,"median":1}},"features":[{"properties":{"name":"Valley Medical Clinic","city":"Julesberg","latitude":40.993542,"zipcode":80737,"county":"Sedgwick","trauma level":"","id":"a65k1fd47rt1","longitude":-102.268638,"address":"116 E Ninth St","group":"Rural Health Clinics","state":"CO","telehealth":""},"type":"Feature","geometry":{"type":"Point","coordinates":[-102.268638,40.993542]}},{"properties":{"name":"Family Care Clinic","city":"Sterling","latitude":40.613549,"zipcode":80751,"county":"Logan","trauma level":"","id":"a65k1f2klh91","longitude":-103.220082,"address":"615 Fairhurst St","group":"Rural Health Clinics","state":"CO","telehealth":1},"type":"Feature","geometry":{"type":"Point","coordinates":[-103.220082,40.613549]}},{"properties":{"name":"Family Practice of Holyoke","city":"Holyoke","latitude":40.578567,"zipcode":80734,"county":"Phillips","trauma level":"","id":"a65k1f9dk3de","longitude":-102.290498,"address":"1001 East Johnson St","group":"Rural Health Clinics","state":"CO","telehealth":1},"type":"Feature","geometry":{"type":"Point","coordinates":[-102.290498,40.578567]}},{"properties":{"name":"Brush Family Clinic","city":"Brush","latitude":40.254653,"zipcode":80723,"county":"Morgan","trauma level":"","id":"a65k1ff9csrq","longitude":-103.642026,"address":"2400 W Edison St","group":"Rural Health Clinics","state":"CO","telehealth":1},"type":"Feature","geometry":{"type":"Point","coordinates":[-103.642026,40.254653]}},{"properties":{"name":"Colorado Plains Clinic - Wiggins","city":"Wiggins","latitude":40.230626,"zipcode":80654,"county":"Morgan","trauma level":"","id":"a65k1f41qa2i","longitude":-104.074355,"address":"226 Main St","group":"Rural Health Clinics","state":"CO","telehealth":""},"type":"Feature","geometry":{"type":"Point","coordinates":[-104.074355,40.230626]}},{"properties":{"name":"Washington County Clinic","city":"Akron","latitude":40.162909,"zipcode":80720,"county":"Washington","trauma level":"","id":"a65k1f095i8t","longitude":-103.214084,"address":"482 Adams Ave","group":"Rural Health Clinics","state":"CO","telehealth":1},"type":"Feature","geometry":{"type":"Point","coordinates":[-103.214084,40.162909]}},{"properties":{"name":"Yuma Clinic","city":"Yuma","latitude":40.118329,"zipcode":80759,"county":"Yuma","trauma level":"","id":"a65k1fcv52oa","longitude":-102.736293,"address":"1000 W Eighth Ave","group":"Rural Health Clinics","state":"CO","telehealth":1},"type":"Feature","geometry":{"type":"Point","coordinates":[-102.736293,40.118329]}},{"properties":{"name":"Parke Health Clinic","city":"Burlington","latitude":39.30198,"zipcode":80807,"county":"Kit Carson","trauma level":"","id":"a65k1f1e7pu3","longitude":-102.270527,"address":"182 16th St","group":"Rural Health Clinics","state":"CO","telehealth":1},"type":"Feature","geometry":{"type":"Point","coordinates":[-102.270527,39.30198]}},{"properties":{"name":"Stratton Medical Clinic","city":"Stratton","latitude":39.30105,"zipcode":80836,"county":"Las Animas","trauma level":"","id":"a65k1ffaygxz","longitude":-102.607781,"address":"500 Nebraska Ave","group":"Rural Health Clinics","state":"CO","telehealth":1},"type":"Feature","geometry":{"type":"Point","coordinates":[-102.607781,39.30105]}},{"properties":{"name":"Prarie View Rural Health Clinic","city":"Cheyenne Wells","latitude":38.825104,"zipcode":80810,"county":"Cheyenne","trauma level":"","id":"a65k1f8wxnz8","longitude":-102.355045,"address":"560 N 6 W St","group":"Rural Health Clinics","state":"CO","telehealth":1},"type":"Feature","geometry":{"type":"Point","coordinates":[-102.355045,38.825104]}},{"properties":{"name":"Kit Carson Clinic","city":"Kit Carson","latitude":38.763496,"zipcode":80825,"county":"Cheyenne","trauma level":"","id":"a65k1faz1axm","longitude":-102.794263,"address":"102 E Second Ave","group":"Rural Health Clinics","state":"CO","telehealth":1},"type":"Feature","geometry":{"type":"Point","coordinates":[-102.794263,38.763496]}},{"properties":{"name":"Eads Medical Clinic","city":"Eads","latitude":38.480695,"zipcode":81036,"county":"Kiowa","trauma level":"","id":"a65k1f6frdlx","longitude":-102.784249,"address":"1211 Luther St","group":"Rural Health Clinics","state":"CO","telehealth":1},"type":"Feature","geometry":{"type":"Point","coordinates":[-102.784249,38.480695]}},{"properties":{"name":"Centennial Family Health Center","city":"Ordway","latitude":38.217899,"zipcode":81063,"county":"Crowley","trauma level":"","id":"a65k1f5gcfxs","longitude":-103.756523,"address":"319 Main St","group":"Rural Health Clinics","state":"CO","telehealth":""},"type":"Feature","geometry":{"type":"Point","coordinates":[-103.756523,38.217899]}},{"properties":{"name":"Wiley Medical Clinic","city":"Wiley","latitude":38.153693,"zipcode":81092,"county":"Prowers","trauma level":"","id":"a65k1f2dsk9m","longitude":-102.719623,"address":"302 Main St","group":"Rural Health Clinics","state":"CO","telehealth":1},"type":"Feature","geometry":{"type":"Point","coordinates":[-102.719623,38.153693]}},{"properties":{"name":"Bent County Family Medical","city":"Las Animas","latitude":38.071369,"zipcode":81054,"county":"Bent","trauma level":"","id":"a65k1f70ra4p","longitude":-103.226734,"address":"215 Maple Ave","group":"Rural Health Clinics","state":"CO","telehealth":1},"type":"Feature","geometry":{"type":"Point","coordinates":[-103.226734,38.071369]}},{"properties":{"name":"Rocky Ford Family Health Center","city":"Rocky Ford","latitude":38.052978,"zipcode":81067,"county":"Otero","trauma level":"","id":"a65k1f1oh5oq","longitude":-103.717731,"address":"1014 Elm Ave","group":"Rural Health Clinics","state":"CO","telehealth":""},"type":"Feature","geometry":{"type":"Point","coordinates":[-103.717731,38.052978]}},{"properties":{"name":"Southeast Colorado Physicians Clinic","city":"Springfield","latitude":37.403957,"zipcode":81073,"county":"Baca","trauma level":"","id":"a65k1ezryzjv","longitude":-102.614846,"address":"210 E Tenth Ave","group":"Rural Health Clinics","state":"CO","telehealth":""},"type":"Feature","geometry":{"type":"Point","coordinates":[-102.614846,37.403957]}}],"is_temporal":false,"author":{"url":"","metadata":"","contact_name":"","contact_address":"","source":"","contact_phone":""},"source":"","pagination":{"sort":null,"start":0,"total":17,"limit":1000000},"state":"complete","tags":"","published":"2014-08-11T11:23:46-04:00","id":9888}