{"type":"FeatureCollection","data_type":"Dataset","url_type":null,"permissions":[{"permissions":{"download":true,"view":true},"group_id":"everyone"}],"classification":null,"title":"Penn Modeling Growth Strategy","count":100,"stream_id":99649,"contributor":{"url":"http://geocommons.com/users/8382","name":"miki.litmanovitz"},"data_attributes":null,"calculation_params":null,"icon_link":null,"link":"http://geocommons.com/overlays/99649.json","extent":[-170.688,-14.275,-68.3384,47.6062],"geometry_types":["point"],"unique_name":null,"name":"Penn Modeling Growth Strategy","feature_count":100,"description":"","next_feature":null,"is_raster":false,"short_classification":"Y","stats":{"year":{"max":5,"mean":4.12,"variance":1.19757575757576,"stdev":1.0943380453844,"min":1,"median":5}},"features":[{"properties":{"city":"Cambridge","geo_score":0.714,"year":2,"id":"a7c6f5sota88","geo_precision":"city","state":"MA"},"type":"Feature","geometry":{"type":"Point","coordinates":[-85.616627,38.221737]}},{"properties":{"city":"Princeton","geo_score":0.714,"year":2,"id":"a7c6f5lw66cx","geo_precision":"city","state":"NJ"},"type":"Feature","geometry":{"type":"Point","coordinates":[-92.624604,33.981768]}},{"properties":{"city":"New Haven","geo_score":0.714,"year":4,"id":"a7c6f5hp68el","geo_precision":"city","state":"CT"},"type":"Feature","geometry":{"type":"Point","coordinates":[-72.928158,41.308153]}},{"properties":{"city":"New York","geo_score":0.714,"year":4,"id":"a7c6f5hwjazt","geo_precision":"city","state":"NY"},"type":"Feature","geometry":{"type":"Point","coordinates":[-74.005973,40.714269]}},{"properties":{"city":"Stanford","geo_score":0.714,"year":2,"id":"a7c6f5seesqz","geo_precision":"city","state":"CA"},"type":"Feature","geometry":{"type":"Point","coordinates":[-90.663723,36.097291]}},{"properties":{"city":"Philadelphia","geo_score":0.714,"year":1,"id":"a7c6f5pb3krw","geo_precision":"city","state":"PA"},"type":"Feature","geometry":{"type":"Point","coordinates":[-75.163789,39.952335]}},{"properties":{"city":"Pasadena","geo_score":0.714,"year":4,"id":"a7c6f5ohkemj","geo_precision":"city","state":"CA"},"type":"Feature","geometry":{"type":"Point","coordinates":[-118.144516,34.147785]}},{"properties":{"city":"Cambridge","geo_score":0.714,"year":4,"id":"a7c6f5gstlhq","geo_precision":"city","state":"MA"},"type":"Feature","geometry":{"type":"Point","coordinates":[-85.616627,38.221737]}},{"properties":{"city":"Hanover","geo_score":0.714,"year":4,"id":"a7c6f5jvfci6","geo_precision":"city","state":"NH"},"type":"Feature","geometry":{"type":"Point","coordinates":[-86.202472,33.004843]}},{"properties":{"city":"Durham","geo_score":0.714,"year":4,"id":"a7c6f5qg95pq","geo_precision":"city","state":"NC"},"type":"Feature","geometry":{"type":"Point","coordinates":[-78.898619,35.994033]}},{"properties":{"city":"Chicago","geo_score":0.714,"year":3,"id":"a7c6f5lh79ng","geo_precision":"city","state":"IL"},"type":"Feature","geometry":{"type":"Point","coordinates":[-87.650052,41.850033]}},{"properties":{"city":"Evanston","geo_score":0.714,"year":3,"id":"a7c6f5tcjn58","geo_precision":"city","state":"IL"},"type":"Feature","geometry":{"type":"Point","coordinates":[-104.938588,40.106928]}},{"properties":{"city":"Baltimore","geo_score":0.714,"year":4,"id":"a7c6f5ox10t2","geo_precision":"city","state":"MD"},"type":"Feature","geometry":{"type":"Point","coordinates":[-76.612189,39.290385]}},{"properties":{"city":"St. Louis","geo_score":0.592,"year":2,"id":"a7c6f5vaiu71","geo_precision":"city","state":"MO"},"type":"Feature","geometry":{"type":"Point","coordinates":[-91.846798,33.455113]}},{"properties":{"city":"Providence","geo_score":0.714,"year":2,"id":"a7c6f5tym65z","geo_precision":"city","state":"RI"},"type":"Feature","geometry":{"type":"Point","coordinates":[-71.412834,41.823989]}},{"properties":{"city":"Ithaca","geo_score":0.714,"year":3,"id":"a7c6f5jfd6yz","geo_precision":"city","state":"NY"},"type":"Feature","geometry":{"type":"Point","coordinates":[-84.553286,39.937273]}},{"properties":{"city":"Houston","geo_score":0.714,"year":3,"id":"a7c6f5kcr1rk","geo_precision":"city","state":"TX"},"type":"Feature","geometry":{"type":"Point","coordinates":[-82.902629,30.256893]}},{"properties":{"city":"Nashville","geo_score":0.714,"year":3,"id":"a7c6f5oqinnd","geo_precision":"city","state":"TN"},"type":"Feature","geometry":{"type":"Point","coordinates":[-86.784443,36.16589]}},{"properties":{"city":"Notre Dame","geo_score":0.635,"year":4,"id":"a7c6f5stg5ft","geo_precision":"city","state":"IN"},"type":"Feature","geometry":{"type":"Point","coordinates":[-107.125598,37.230838]}},{"properties":{"city":"Atlanta","geo_score":0.714,"year":3,"id":"a7c6f5kdyraf","geo_precision":"city","state":"GA"},"type":"Feature","geometry":{"type":"Point","coordinates":[-84.387982,33.748995]}},{"properties":{"city":"Washington","geo_score":0.714,"year":3,"id":"a7c6f5nf9xcp","geo_precision":"city","state":"DC"},"type":"Feature","geometry":{"type":"Point","coordinates":[-77.036366,38.895112]}},{"properties":{"city":"Berkeley","geo_score":0.696,"year":1,"id":"a7c6f5tyzyil","geo_precision":"city","state":"CA"},"type":"Feature","geometry":{"type":"Point","coordinates":[-86.429154,34.639812]}},{"properties":{"city":"Pittsburgh","geo_score":0.714,"year":4,"id":"a7c6f5oum7g0","geo_precision":"city","state":"PA"},"type":"Feature","geometry":{"type":"Point","coordinates":[-79.995886,40.440625]}},{"properties":{"city":"Los Angeles","geo_score":0.714,"year":4,"id":"a7c6f5injek7","geo_precision":"city","state":"CA"},"type":"Feature","geometry":{"type":"Point","coordinates":[-118.243685,34.052234]}},{"properties":{"city":"Los Angeles","geo_score":0.714,"year":3,"id":"a7c6f5ptazc8","geo_precision":"city","state":"CA"},"type":"Feature","geometry":{"type":"Point","coordinates":[-118.243685,34.052234]}},{"properties":{"city":"Charlottesville","geo_score":0.657,"year":4,"id":"a7c6f5ta2i4u","geo_precision":"city","state":"VA"},"type":"Feature","geometry":{"type":"Point","coordinates":[-79.237822,42.304503]}},{"properties":{"city":"Winston-Salem","geo_score":0.714,"year":4,"id":"a7c6f5x44sld","geo_precision":"city","state":"NC"},"type":"Feature","geometry":{"type":"Point","coordinates":[-80.244216,36.09986]}},{"properties":{"city":"Medford","geo_score":0.714,"year":1,"id":"a7c6f5u9tt3q","geo_precision":"city","state":"MA"},"type":"Feature","geometry":{"type":"Point","coordinates":[-85.320803,40.1206]}},{"properties":{"city":"Ann Arbor","geo_score":0.625,"year":2,"id":"a7c6f5skx9si","geo_precision":"city","state":"MI"},"type":"Feature","geometry":{"type":"Point","coordinates":[-170.687778,-14.275]}},{"properties":{"city":"Chapel Hill","geo_score":0.614,"year":2,"id":"a7c6f5nuxgeg","geo_precision":"city","state":"NC"},"type":"Feature","geometry":{"type":"Point","coordinates":[-80.278106,25.857596]}},{"properties":{"city":"Williamsburg","geo_score":0.714,"year":4,"id":"a7c6f5owrlnk","geo_precision":"city","state":"VA"},"type":"Feature","geometry":{"type":"Point","coordinates":[-105.151933,38.381944]}},{"properties":{"city":"Chestnut Hill","geo_score":0.595,"year":3,"id":"a7c6f5hb8an9","geo_precision":"city","state":"MA"},"type":"Feature","geometry":{"type":"Point","coordinates":[-80.278106,25.857596]}},{"properties":{"city":"New York","geo_score":0.714,"year":4,"id":"a7c6f5keyohs","geo_precision":"city","state":"NY"},"type":"Feature","geometry":{"type":"Point","coordinates":[-74.005973,40.714269]}},{"properties":{"city":"Waltham","geo_score":0.714,"year":3,"id":"a7c6f5sj3anb","geo_precision":"city","state":"MA"},"type":"Feature","geometry":{"type":"Point","coordinates":[-68.338354,44.70924]}},{"properties":{"city":"Atlanta","geo_score":0.714,"year":4,"id":"a7c6f5k74ld4","geo_precision":"city","state":"GA"},"type":"Feature","geometry":{"type":"Point","coordinates":[-84.387982,33.748995]}},{"properties":{"city":"La Jolla","geo_score":0.612,"year":4,"id":"a7c6f5uovf6v","geo_precision":"city","state":"CA"},"type":"Feature","geometry":{"type":"Point","coordinates":[-90.907616,34.877595]}},{"properties":{"city":"Bethlehem","geo_score":0.714,"year":4,"id":"a7c6f5rr7lj2","geo_precision":"city","state":"PA"},"type":"Feature","geometry":{"type":"Point","coordinates":[-86.343579,32.053481]}},{"properties":{"city":"Rochester","geo_score":0.714,"year":3,"id":"a7c6f5o074y3","geo_precision":"city","state":"NY"},"type":"Feature","geometry":{"type":"Point","coordinates":[-77.615557,43.154785]}},{"properties":{"city":"Davis","geo_score":0.714,"year":4,"id":"a7c6f5vici60","geo_precision":"city","state":"CA"},"type":"Feature","geometry":{"type":"Point","coordinates":[-86.826139,41.714763]}},{"properties":{"city":"Santa Barbara","geo_score":0.607,"year":4,"id":"a7c6f5jmc0jo","geo_precision":"city","state":"CA"},"type":"Feature","geometry":{"type":"Point","coordinates":[-111.85254,40.569992]}},{"properties":{"city":"Irvine","geo_score":0.714,"year":4,"id":"a7c6f5wavxpp","geo_precision":"city","state":"CA"},"type":"Feature","geometry":{"type":"Point","coordinates":[-82.25121,29.405527]}},{"properties":{"city":"Seattle","geo_score":0.714,"year":4,"id":"a7c6f5s7uqrb","geo_precision":"city","state":"WA"},"type":"Feature","geometry":{"type":"Point","coordinates":[-122.332071,47.60621]}},{"properties":{"city":"Cleveland","geo_score":0.714,"year":4,"id":"a7c6f5p6s5vb","geo_precision":"city","state":"OH"},"type":"Feature","geometry":{"type":"Point","coordinates":[-81.695409,41.499495]}},{"properties":{"city":"Troy","geo_score":0.714,"year":4,"id":"a7c6f5ptlufg","geo_precision":"city","state":"NY"},"type":"Feature","geometry":{"type":"Point","coordinates":[-83.14993,42.605589]}},{"properties":{"city":"Austin","geo_score":0.714,"year":4,"id":"a7c6f5mn0hva","geo_precision":"city","state":"TX"},"type":"Feature","geometry":{"type":"Point","coordinates":[-97.743061,30.267153]}},{"properties":{"city":"Madison","geo_score":0.714,"year":3,"id":"a7c6f5gulsqu","geo_precision":"city","state":"WI"},"type":"Feature","geometry":{"type":"Point","coordinates":[-89.40123,43.073052]}},{"properties":{"city":"University Park","geo_score":0.582,"year":3,"id":"a7c6f5hhbb5a","geo_precision":"city","state":"PA"},"type":"Feature","geometry":{"type":"Point","coordinates":[-92.280706,34.286764]}},{"properties":{"city":"Champaign","geo_score":0.714,"year":3,"id":"a7c6f5riox28","geo_precision":"city","state":"IL"},"type":"Feature","geometry":{"type":"Point","coordinates":[-88.243383,40.116421]}},{"properties":{"city":"Coral Gables","geo_score":0.636,"year":3,"id":"a7c6f5wkxzlo","geo_precision":"city","state":"FL"},"type":"Feature","geometry":{"type":"Point","coordinates":[-93.634637,35.213422]}},{"properties":{"city":"New York","geo_score":0.714,"year":4,"id":"a7c6f5iyvkxn","geo_precision":"city","state":"NY"},"type":"Feature","geometry":{"type":"Point","coordinates":[-74.005973,40.714269]}},{"properties":{"city":"Washington","geo_score":0.714,"year":5,"id":"a7c6f5ozoian","geo_precision":"city","state":"DC"},"type":"Feature","geometry":{"type":"Point","coordinates":[-77.036366,38.895112]}},{"properties":{"city":"New Orleans","geo_score":0.714,"year":5,"id":"a7c6f5m7tnye","geo_precision":"city","state":"LA"},"type":"Feature","geometry":{"type":"Point","coordinates":[-89.930956,30.068812]}},{"properties":{"city":"Gainesville","geo_score":0.714,"year":5,"id":"a7c6f5siig6t","geo_precision":"city","state":"FL"},"type":"Feature","geometry":{"type":"Point","coordinates":[-90.510662,36.164788]}},{"properties":{"city":"Malibu","geo_score":0.714,"year":5,"id":"a7c6f5hqdf1a","geo_precision":"city","state":"CA"},"type":"Feature","geometry":{"type":"Point","coordinates":[-76.095212,36.846815]}},{"properties":{"city":"Syracuse","geo_score":0.714,"year":5,"id":"a7c6f5jkxllc","geo_precision":"city","state":"NY"},"type":"Feature","geometry":{"type":"Point","coordinates":[-76.147424,43.048122]}},{"properties":{"city":"Columbus","geo_score":0.714,"year":5,"id":"a7c6f5vxrlmm","geo_precision":"city","state":"OH"},"type":"Feature","geometry":{"type":"Point","coordinates":[-84.987709,32.460976]}},{"properties":{"city":"West Lafayette","geo_score":0.67,"year":5,"id":"a7c6f5saneoc","geo_precision":"city","state":"IN"},"type":"Feature","geometry":{"type":"Point","coordinates":[-84.216286,30.427979]}},{"properties":{"city":"Athens","geo_score":0.714,"year":5,"id":"a7c6f5lwhcmu","geo_precision":"city","state":"GA"},"type":"Feature","geometry":{"type":"Point","coordinates":[-93.976862,34.314552]}},{"properties":{"city":"College Park","geo_score":0.623,"year":5,"id":"a7c6f5i8sy2c","geo_precision":"city","state":"MD"},"type":"Feature","geometry":{"type":"Point","coordinates":[-91.87124,33.070958]}},{"properties":{"city":"Boston","geo_score":0.714,"year":5,"id":"a7c6f5kajbwn","geo_precision":"city","state":"MA"},"type":"Feature","geometry":{"type":"Point","coordinates":[-71.059773,42.358431]}},{"properties":{"city":"New York","geo_score":0.714,"year":5,"id":"a7c6f5kyke46","geo_precision":"city","state":"NY"},"type":"Feature","geometry":{"type":"Point","coordinates":[-74.005973,40.714269]}},{"properties":{"city":"Dallas","geo_score":0.619,"year":5,"id":"a7c6f5o06s3s","geo_precision":"city","state":"TX"},"type":"Feature","geometry":{"type":"Point","coordinates":[-95.992775,36.153982]}},{"properties":{"city":"College Station","geo_score":0.612,"year":5,"id":"a7c6f5pzryil","geo_precision":"city","state":"TX"},"type":"Feature","geometry":{"type":"Point","coordinates":[-91.87124,33.070958]}},{"properties":{"city":"Clemson","geo_score":0.714,"year":5,"id":"a7c6f5v22lke","geo_precision":"city","state":"SC"},"type":"Feature","geometry":{"type":"Point","coordinates":[-82.802154,34.75974]}},{"properties":{"city":"Piscataway","geo_score":0.714,"year":5,"id":"a7c6f5i99vdf","geo_precision":"city","state":"NJ"},"type":"Feature","geometry":{"type":"Point","coordinates":[-76.972197,38.700672]}},{"properties":{"city":"Minneapolis","geo_score":0.714,"year":5,"id":"a7c6f5vadimp","geo_precision":"city","state":"MN"},"type":"Feature","geometry":{"type":"Point","coordinates":[-93.263836,44.979965]}},{"properties":{"city":"Pittsburgh","geo_score":0.714,"year":5,"id":"a7c6f5qvq1s4","geo_precision":"city","state":"PA"},"type":"Feature","geometry":{"type":"Point","coordinates":[-79.995886,40.440625]}},{"properties":{"city":"Worcester","geo_score":0.714,"year":5,"id":"a7c6f5sugwyu","geo_precision":"city","state":"MA"},"type":"Feature","geometry":{"type":"Point","coordinates":[-71.802293,42.262593]}},{"properties":{"city":"Storrs","geo_score":0.633,"year":5,"id":"a7c6f5jv9v8p","geo_precision":"city","state":"CT"},"type":"Feature","geometry":{"type":"Point","coordinates":[-95.085802,37.340336]}},{"properties":{"city":"Blacksburg","geo_score":0.655,"year":5,"id":"a7c6f5k97wva","geo_precision":"city","state":"VA"},"type":"Feature","geometry":{"type":"Point","coordinates":[-93.712692,34.461212]}},{"properties":{"city":"Boston","geo_score":0.714,"year":5,"id":"a7c6f5nkdr9n","geo_precision":"city","state":"MA"},"type":"Feature","geometry":{"type":"Point","coordinates":[-71.059773,42.358431]}},{"properties":{"city":"Golden","geo_score":0.619,"year":5,"id":"a7c6f5t2zhkf","geo_precision":"city","state":"CO"},"type":"Feature","geometry":{"type":"Point","coordinates":[-87.087485,31.890428]}},{"properties":{"city":"Santa Cruz","geo_score":0.619,"year":5,"id":"a7c6f5mh3ey8","geo_precision":"city","state":"CA"},"type":"Feature","geometry":{"type":"Point","coordinates":[-111.85254,40.569992]}},{"properties":{"city":"Iowa City","geo_score":0.643,"year":5,"id":"a7c6f5rsukvb","geo_precision":"city","state":"IA"},"type":"Feature","geometry":{"type":"Point","coordinates":[-94.077152,34.734825]}},{"properties":{"city":"Bloomington","geo_score":0.667,"year":5,"id":"a7c6f5k9potr","geo_precision":"city","state":"IN"},"type":"Feature","geometry":{"type":"Point","coordinates":[-77.011365,38.916778]}},{"properties":{"city":"Newark","geo_score":0.714,"year":5,"id":"a7c6f5h3vzg4","geo_precision":"city","state":"DE"},"type":"Feature","geometry":{"type":"Point","coordinates":[-75.749657,39.683723]}},{"properties":{"city":"Provo","geo_score":0.714,"year":5,"id":"a7c6f5orewxe","geo_precision":"city","state":"UT"},"type":"Feature","geometry":{"type":"Point","coordinates":[-94.107696,34.037614]}},{"properties":{"city":"Milwaukee","geo_score":0.714,"year":5,"id":"a7c6f5orghc1","geo_precision":"city","state":"WI"},"type":"Feature","geometry":{"type":"Point","coordinates":[-87.906474,43.038903]}},{"properties":{"city":"Oxford","geo_score":0.714,"year":5,"id":"a7c6f5ijjji8","geo_precision":"city","state":"OH"},"type":"Feature","geometry":{"type":"Point","coordinates":[-107.714228,37.168892]}},{"properties":{"city":"East Lansing","geo_score":0.662,"year":5,"id":"a7c6f5kmuya8","geo_precision":"city","state":"MI"},"type":"Feature","geometry":{"type":"Point","coordinates":[-84.555535,42.732535]}},{"properties":{"city":"Syracuse","geo_score":0.714,"year":5,"id":"a7c6f5hjhwwm","geo_precision":"city","state":"NY"},"type":"Feature","geometry":{"type":"Point","coordinates":[-76.147424,43.048122]}},{"properties":{"city":"Tuscaloosa","geo_score":0.714,"year":5,"id":"a7c6f5tsjaba","geo_precision":"city","state":"AL"},"type":"Feature","geometry":{"type":"Point","coordinates":[-87.569174,33.209841]}},{"properties":{"city":"Washington","geo_score":0.714,"year":5,"id":"a7c6f5me1eyi","geo_precision":"city","state":"DC"},"type":"Feature","geometry":{"type":"Point","coordinates":[-77.036366,38.895112]}},{"properties":{"city":"Waco","geo_score":0.714,"year":5,"id":"a7c6f5k4zvqk","geo_precision":"city","state":"TX"},"type":"Feature","geometry":{"type":"Point","coordinates":[-97.14667,31.549333]}},{"properties":{"city":"Auburn University","geo_score":0.625,"year":5,"id":"a7c6f5weck0f","geo_precision":"city","state":"AL"},"type":"Feature","geometry":{"type":"Point","coordinates":[-122.228453,47.307323]}},{"properties":{"city":"Binghamton","geo_score":0.714,"year":5,"id":"a7c6f5moc3jg","geo_precision":"city","state":"NY"},"type":"Feature","geometry":{"type":"Point","coordinates":[-75.917974,42.098687]}},{"properties":{"city":"Boulder","geo_score":0.714,"year":5,"id":"a7c6f5ikup65","geo_precision":"city","state":"CO"},"type":"Feature","geometry":{"type":"Point","coordinates":[-89.225627,38.696715]}},{"properties":{"city":"Worcester","geo_score":0.714,"year":5,"id":"a7c6f5qf15kd","geo_precision":"city","state":"MA"},"type":"Feature","geometry":{"type":"Point","coordinates":[-71.802293,42.262593]}},{"properties":{"city":"Philadelphia","geo_score":0.714,"year":5,"id":"a7c6f5o2l5rr","geo_precision":"city","state":"PA"},"type":"Feature","geometry":{"type":"Point","coordinates":[-75.163789,39.952335]}},{"properties":{"city":"St. Louis","geo_score":0.592,"year":5,"id":"a7c6f5r4i0k9","geo_precision":"city","state":"MO"},"type":"Feature","geometry":{"type":"Point","coordinates":[-91.846798,33.455113]}},{"properties":{"city":"Hoboken","geo_score":0.714,"year":5,"id":"a7c6f5ruycc7","geo_precision":"city","state":"NJ"},"type":"Feature","geometry":{"type":"Point","coordinates":[-85.148821,31.911827]}},{"properties":{"city":"Denver","geo_score":0.714,"year":5,"id":"a7c6f5jj2ihm","geo_precision":"city","state":"CO"},"type":"Feature","geometry":{"type":"Point","coordinates":[-104.984703,39.739154]}},{"properties":{"city":"Tulsa","geo_score":0.714,"year":5,"id":"a7c6f5quqa60","geo_precision":"city","state":"OK"},"type":"Feature","geometry":{"type":"Point","coordinates":[-95.992775,36.153982]}},{"properties":{"city":"Ames","geo_score":0.714,"year":5,"id":"a7c6f5k330tl","geo_precision":"city","state":"IA"},"type":"Feature","geometry":{"type":"Point","coordinates":[-90.054555,38.146718]}},{"properties":{"city":"Riverside","geo_score":0.714,"year":5,"id":"a7c6f5ksfsd2","geo_precision":"city","state":"CA"},"type":"Feature","geometry":{"type":"Point","coordinates":[-117.396156,33.953349]}},{"properties":{"city":"Columbia","geo_score":0.714,"year":5,"id":"a7c6f5v3xakf","geo_precision":"city","state":"MO"},"type":"Feature","geometry":{"type":"Point","coordinates":[-92.334072,38.951705]}},{"properties":{"city":"Burlington","geo_score":0.714,"year":5,"id":"a7c6f5ktx2sb","geo_precision":"city","state":"VT"},"type":"Feature","geometry":{"type":"Point","coordinates":[-85.938849,32.580411]}},{"properties":{"city":"San Diego","geo_score":0.714,"year":5,"id":"a7c6f5ivybgp","geo_precision":"city","state":"CA"},"type":"Feature","geometry":{"type":"Point","coordinates":[-117.157255,32.715329]}},{"properties":{"city":"Stony Brook","geo_score":0.586,"year":5,"id":"a7c6f5r3tqvt","geo_precision":"city","state":"NY"},"type":"Feature","geometry":{"type":"Point","coordinates":[-94.070197,34.237054]}},{"properties":{"city":"Fort Worth","geo_score":0.603,"year":5,"id":"a7c6f5jo6h5e","geo_precision":"city","state":"TX"},"type":"Feature","geometry":{"type":"Point","coordinates":[-91.954583,34.458984]}}],"is_temporal":false,"author":{"url":"","metadata":"","contact_name":"","contact_address":"","source":"","contact_phone":""},"source":"","pagination":{"sort":null,"start":0,"total":100,"limit":1000000},"state":"complete","tags":"","published":"2014-08-10T23:58:40-04:00","id":99649}