{"type":"FeatureCollection","data_type":"Dataset","url_type":null,"permissions":[{"permissions":{"download":true,"view":true},"group_id":"everyone"}],"classification":null,"title":"Penn year 5","count":50,"stream_id":99657,"contributor":{"url":"http://geocommons.com/users/8382","name":"miki.litmanovitz"},"data_attributes":null,"calculation_params":null,"icon_link":null,"link":"http://geocommons.com/overlays/99657.json","extent":[-122.228,30.0688,-71.0598,47.3073],"geometry_types":["point"],"unique_name":null,"name":"Penn year 5","feature_count":50,"description":"","next_feature":null,"is_raster":false,"short_classification":"Y","stats":{"year":{"max":5,"mean":5.0,"variance":0.0,"stdev":0.0,"min":5,"median":5}},"features":[{"properties":{"city":"Washington","geo_score":0.714,"year":5,"id":"a64jle5o14zc","geo_precision":"city","state":"DC"},"type":"Feature","geometry":{"type":"Point","coordinates":[-77.036366,38.895112]}},{"properties":{"city":"New Orleans","geo_score":0.714,"year":5,"id":"a64jle65qmkn","geo_precision":"city","state":"LA"},"type":"Feature","geometry":{"type":"Point","coordinates":[-89.930956,30.068812]}},{"properties":{"city":"Gainesville","geo_score":0.714,"year":5,"id":"a64jle3919r2","geo_precision":"city","state":"FL"},"type":"Feature","geometry":{"type":"Point","coordinates":[-90.510662,36.164788]}},{"properties":{"city":"Malibu","geo_score":0.714,"year":5,"id":"a64jlee0z447","geo_precision":"city","state":"CA"},"type":"Feature","geometry":{"type":"Point","coordinates":[-76.095212,36.846815]}},{"properties":{"city":"Syracuse","geo_score":0.714,"year":5,"id":"a64jldzf3h2d","geo_precision":"city","state":"NY"},"type":"Feature","geometry":{"type":"Point","coordinates":[-76.147424,43.048122]}},{"properties":{"city":"Columbus","geo_score":0.714,"year":5,"id":"a64jle8kbdvn","geo_precision":"city","state":"OH"},"type":"Feature","geometry":{"type":"Point","coordinates":[-84.987709,32.460976]}},{"properties":{"city":"West Lafayette","geo_score":0.67,"year":5,"id":"a64jle9man4i","geo_precision":"city","state":"IN"},"type":"Feature","geometry":{"type":"Point","coordinates":[-84.216286,30.427979]}},{"properties":{"city":"Athens","geo_score":0.714,"year":5,"id":"a64jleazagpk","geo_precision":"city","state":"GA"},"type":"Feature","geometry":{"type":"Point","coordinates":[-93.976862,34.314552]}},{"properties":{"city":"College Park","geo_score":0.623,"year":5,"id":"a64jle3llxpl","geo_precision":"city","state":"MD"},"type":"Feature","geometry":{"type":"Point","coordinates":[-91.87124,33.070958]}},{"properties":{"city":"Boston","geo_score":0.714,"year":5,"id":"a64jle5bwwv3","geo_precision":"city","state":"MA"},"type":"Feature","geometry":{"type":"Point","coordinates":[-71.059773,42.358431]}},{"properties":{"city":"New York","geo_score":0.714,"year":5,"id":"a64jldydfv0g","geo_precision":"city","state":"NY"},"type":"Feature","geometry":{"type":"Point","coordinates":[-74.005973,40.714269]}},{"properties":{"city":"Dallas","geo_score":0.619,"year":5,"id":"a64jled4cb5z","geo_precision":"city","state":"TX"},"type":"Feature","geometry":{"type":"Point","coordinates":[-95.992775,36.153982]}},{"properties":{"city":"College Station","geo_score":0.612,"year":5,"id":"a64jledch6uk","geo_precision":"city","state":"TX"},"type":"Feature","geometry":{"type":"Point","coordinates":[-91.87124,33.070958]}},{"properties":{"city":"Clemson","geo_score":0.714,"year":5,"id":"a64jleb2mrjo","geo_precision":"city","state":"SC"},"type":"Feature","geometry":{"type":"Point","coordinates":[-82.802154,34.75974]}},{"properties":{"city":"Piscataway","geo_score":0.714,"year":5,"id":"a64jle2urvcg","geo_precision":"city","state":"NJ"},"type":"Feature","geometry":{"type":"Point","coordinates":[-76.972197,38.700672]}},{"properties":{"city":"Minneapolis","geo_score":0.714,"year":5,"id":"a64jldzl5moi","geo_precision":"city","state":"MN"},"type":"Feature","geometry":{"type":"Point","coordinates":[-93.263836,44.979965]}},{"properties":{"city":"Pittsburgh","geo_score":0.714,"year":5,"id":"a64jldyllw9n","geo_precision":"city","state":"PA"},"type":"Feature","geometry":{"type":"Point","coordinates":[-79.995886,40.440625]}},{"properties":{"city":"Worcester","geo_score":0.714,"year":5,"id":"a64jle76mfnx","geo_precision":"city","state":"MA"},"type":"Feature","geometry":{"type":"Point","coordinates":[-71.802293,42.262593]}},{"properties":{"city":"Storrs","geo_score":0.633,"year":5,"id":"a64jle1kq8pk","geo_precision":"city","state":"CT"},"type":"Feature","geometry":{"type":"Point","coordinates":[-95.085802,37.340336]}},{"properties":{"city":"Blacksburg","geo_score":0.655,"year":5,"id":"a64jledsln4w","geo_precision":"city","state":"VA"},"type":"Feature","geometry":{"type":"Point","coordinates":[-93.712692,34.461212]}},{"properties":{"city":"Boston","geo_score":0.714,"year":5,"id":"a64jlebfj30e","geo_precision":"city","state":"MA"},"type":"Feature","geometry":{"type":"Point","coordinates":[-71.059773,42.358431]}},{"properties":{"city":"Golden","geo_score":0.619,"year":5,"id":"a64jle44e680","geo_precision":"city","state":"CO"},"type":"Feature","geometry":{"type":"Point","coordinates":[-87.087485,31.890428]}},{"properties":{"city":"Santa Cruz","geo_score":0.619,"year":5,"id":"a64jle5pjos7","geo_precision":"city","state":"CA"},"type":"Feature","geometry":{"type":"Point","coordinates":[-111.85254,40.569992]}},{"properties":{"city":"Iowa City","geo_score":0.643,"year":5,"id":"a64jle164ad2","geo_precision":"city","state":"IA"},"type":"Feature","geometry":{"type":"Point","coordinates":[-94.077152,34.734825]}},{"properties":{"city":"Bloomington","geo_score":0.667,"year":5,"id":"a64jle9jdnbh","geo_precision":"city","state":"IN"},"type":"Feature","geometry":{"type":"Point","coordinates":[-77.011365,38.916778]}},{"properties":{"city":"Newark","geo_score":0.714,"year":5,"id":"a64jle8ueur6","geo_precision":"city","state":"DE"},"type":"Feature","geometry":{"type":"Point","coordinates":[-75.749657,39.683723]}},{"properties":{"city":"Provo","geo_score":0.714,"year":5,"id":"a64jle0k8rgy","geo_precision":"city","state":"UT"},"type":"Feature","geometry":{"type":"Point","coordinates":[-94.107696,34.037614]}},{"properties":{"city":"Milwaukee","geo_score":0.714,"year":5,"id":"a64jlebr4rws","geo_precision":"city","state":"WI"},"type":"Feature","geometry":{"type":"Point","coordinates":[-87.906474,43.038903]}},{"properties":{"city":"Oxford","geo_score":0.714,"year":5,"id":"a64jle836cjh","geo_precision":"city","state":"OH"},"type":"Feature","geometry":{"type":"Point","coordinates":[-107.714228,37.168892]}},{"properties":{"city":"East Lansing","geo_score":0.662,"year":5,"id":"a64jle994a1b","geo_precision":"city","state":"MI"},"type":"Feature","geometry":{"type":"Point","coordinates":[-84.555535,42.732535]}},{"properties":{"city":"Syracuse","geo_score":0.714,"year":5,"id":"a64jleell5om","geo_precision":"city","state":"NY"},"type":"Feature","geometry":{"type":"Point","coordinates":[-76.147424,43.048122]}},{"properties":{"city":"Tuscaloosa","geo_score":0.714,"year":5,"id":"a64jldyw9v8k","geo_precision":"city","state":"AL"},"type":"Feature","geometry":{"type":"Point","coordinates":[-87.569174,33.209841]}},{"properties":{"city":"Washington","geo_score":0.714,"year":5,"id":"a64jle3437xo","geo_precision":"city","state":"DC"},"type":"Feature","geometry":{"type":"Point","coordinates":[-77.036366,38.895112]}},{"properties":{"city":"Waco","geo_score":0.714,"year":5,"id":"a64jlebx4g02","geo_precision":"city","state":"TX"},"type":"Feature","geometry":{"type":"Point","coordinates":[-97.14667,31.549333]}},{"properties":{"city":"Auburn University","geo_score":0.625,"year":5,"id":"a64jle2ma3ok","geo_precision":"city","state":"AL"},"type":"Feature","geometry":{"type":"Point","coordinates":[-122.228453,47.307323]}},{"properties":{"city":"Binghamton","geo_score":0.714,"year":5,"id":"a64jleecbxfv","geo_precision":"city","state":"NY"},"type":"Feature","geometry":{"type":"Point","coordinates":[-75.917974,42.098687]}},{"properties":{"city":"Boulder","geo_score":0.714,"year":5,"id":"a64jlecweiwd","geo_precision":"city","state":"CO"},"type":"Feature","geometry":{"type":"Point","coordinates":[-89.225627,38.696715]}},{"properties":{"city":"Worcester","geo_score":0.714,"year":5,"id":"a64jled9g70w","geo_precision":"city","state":"MA"},"type":"Feature","geometry":{"type":"Point","coordinates":[-71.802293,42.262593]}},{"properties":{"city":"Philadelphia","geo_score":0.714,"year":5,"id":"a64jldzdpqgb","geo_precision":"city","state":"PA"},"type":"Feature","geometry":{"type":"Point","coordinates":[-75.163789,39.952335]}},{"properties":{"city":"St. Louis","geo_score":0.592,"year":5,"id":"a64jle5lgs64","geo_precision":"city","state":"MO"},"type":"Feature","geometry":{"type":"Point","coordinates":[-91.846798,33.455113]}},{"properties":{"city":"Hoboken","geo_score":0.714,"year":5,"id":"a64jlecqawcv","geo_precision":"city","state":"NJ"},"type":"Feature","geometry":{"type":"Point","coordinates":[-85.148821,31.911827]}},{"properties":{"city":"Denver","geo_score":0.714,"year":5,"id":"a64jle7uhcw5","geo_precision":"city","state":"CO"},"type":"Feature","geometry":{"type":"Point","coordinates":[-104.984703,39.739154]}},{"properties":{"city":"Tulsa","geo_score":0.714,"year":5,"id":"a64jle0gbycd","geo_precision":"city","state":"OK"},"type":"Feature","geometry":{"type":"Point","coordinates":[-95.992775,36.153982]}},{"properties":{"city":"Ames","geo_score":0.714,"year":5,"id":"a64jle51r88r","geo_precision":"city","state":"IA"},"type":"Feature","geometry":{"type":"Point","coordinates":[-90.054555,38.146718]}},{"properties":{"city":"Riverside","geo_score":0.714,"year":5,"id":"a64jle6f4ms0","geo_precision":"city","state":"CA"},"type":"Feature","geometry":{"type":"Point","coordinates":[-117.396156,33.953349]}},{"properties":{"city":"Columbia","geo_score":0.714,"year":5,"id":"a64jlecd68c1","geo_precision":"city","state":"MO"},"type":"Feature","geometry":{"type":"Point","coordinates":[-92.334072,38.951705]}},{"properties":{"city":"Burlington","geo_score":0.714,"year":5,"id":"a64jle7f1e24","geo_precision":"city","state":"VT"},"type":"Feature","geometry":{"type":"Point","coordinates":[-85.938849,32.580411]}},{"properties":{"city":"San Diego","geo_score":0.714,"year":5,"id":"a64jldyg73ae","geo_precision":"city","state":"CA"},"type":"Feature","geometry":{"type":"Point","coordinates":[-117.157255,32.715329]}},{"properties":{"city":"Stony Brook","geo_score":0.586,"year":5,"id":"a64jled190dp","geo_precision":"city","state":"NY"},"type":"Feature","geometry":{"type":"Point","coordinates":[-94.070197,34.237054]}},{"properties":{"city":"Fort Worth","geo_score":0.603,"year":5,"id":"a64jle4v50mu","geo_precision":"city","state":"TX"},"type":"Feature","geometry":{"type":"Point","coordinates":[-91.954583,34.458984]}}],"is_temporal":false,"author":{"url":"","metadata":"","contact_name":"","contact_address":"","source":"","contact_phone":""},"source":"","pagination":{"sort":null,"start":0,"total":50,"limit":1000000},"state":"complete","tags":"","published":"2014-08-10T23:58:51-04:00","id":99657}